{"status":true,"message":"","result":[{"server_id":9,"name":"Uncletopia | Atlanta | 1 | All Maps","name_short":"atl-1","host":"atl-1.us.uncletopia.com","port":27015,"enabled":true,"region":"us-east","cc":"us","latitude":33.753746,"longitude":-84.38633,"reserved":0,"last_update":"0001-01-01T00:00:00Z","name_a2s":"Uncletopia | Atlanta | 1 | All Maps","protocol":17,"map":"pl_frontier_final","folder":"tf","game":"Team Fortress","app_id":440,"player_count":24,"max_players":24,"Bots":0,"server_type":"Dedicated","server_os":"Linux","password":true,"vac":true,"version":"7757534","steam_id":85568392924469982,"keywords":["nocrits","nodmgspread","payload","uncletopia"],"game_id":440,"stv_port":27016,"stv_name":"Uncletopia | Atlanta | 1 | All Maps | STV","players":[{"user_id":414,"name":"Womp","steam_id":76561198245103000,"connected_time":1714000000000,"state":"active","ping":71},{"user_id":334,"name":"ATL1 | Avo","steam_id":76561197993340494,"connected_time":7349000000000,"state":"active","ping":64},{"user_id":372,"name":"Just PYE","steam_id":76561199439622967,"connected_time":5228000000000,"state":"active","ping":71},{"user_id":315,"name":"Dr.Zarann","steam_id":76561198163952958,"connected_time":9010000000000,"state":"active","ping":60},{"user_id":307,"name":"--_Cook_--","steam_id":76561198080855748,"connected_time":9129000000000,"state":"active","ping":49},{"user_id":379,"name":"V!CT!M","steam_id":76561198962721502,"connected_time":4798000000000,"state":"active","ping":89},{"user_id":421,"name":"mayhem","steam_id":76561199246637881,"connected_time":418000000000,"state":"active","ping":59},{"user_id":411,"name":"Mega","steam_id":76561198015987010,"connected_time":1822000000000,"state":"active","ping":85},{"user_id":422,"name":"Mister","steam_id":76561198097164652,"connected_time":418000000000,"state":"active","ping":71},{"user_id":309,"name":"fortnite.jimmy.2014","steam_id":76561199177672325,"connected_time":9129000000000,"state":"active","ping":44},{"user_id":302,"name":"[txc] garf","steam_id":76561198083078030,"connected_time":9245000000000,"state":"active","ping":48},{"user_id":348,"name":"Quiggles","steam_id":76561199177247655,"connected_time":5843000000000,"state":"active","ping":60},{"user_id":270,"name":"ATL1 | Vee (very cool)","steam_id":76561198330432889,"connected_time":10953000000000,"state":"active","ping":62},{"user_id":418,"name":"box","steam_id":76561198985635309,"connected_time":1416000000000,"state":"active","ping":91},{"user_id":410,"name":"snoops","steam_id":76561197986760351,"connected_time":1864000000000,"state":"active","ping":78},{"user_id":397,"name":"therixn","steam_id":76561198119214722,"connected_time":2350000000000,"state":"active","ping":65},{"user_id":310,"name":"Bali","steam_id":76561198038693845,"connected_time":9129000000000,"state":"active","ping":85},{"user_id":394,"name":"chexo4","steam_id":76561198150532531,"connected_time":2661000000000,"state":"active","ping":52},{"user_id":413,"name":"Javelin","steam_id":76561198068782818,"connected_time":1737000000000,"state":"active","ping":68},{"user_id":343,"name":"ATL1 | p4ka","steam_id":76561198315291317,"connected_time":6547000000000,"state":"active","ping":81},{"user_id":412,"name":"Mage","steam_id":76561198285026879,"connected_time":1794000000000,"state":"active","ping":79},{"user_id":340,"name":"Bean76","steam_id":76561198352985531,"connected_time":6799000000000,"state":"active","ping":56},{"user_id":389,"name":"The Pope","steam_id":76561198313560302,"connected_time":3223000000000,"state":"active","ping":43},{"user_id":419,"name":"Lovedaddy","steam_id":76561198006569710,"connected_time":916000000000,"state":"active","ping":89}]},{"server_id":104,"name":"Uncletopia | Atlanta | 2 | All Maps","name_short":"atl-2","host":"atl-1.us.uncletopia.com","port":27025,"enabled":true,"region":"us-east","cc":"us","latitude":33.753746,"longitude":-84.38633,"reserved":0,"last_update":"0001-01-01T00:00:00Z","name_a2s":"Uncletopia | Atlanta | 2 | All Maps","protocol":17,"map":"pl_upward","folder":"tf","game":"Team Fortress","app_id":440,"player_count":23,"max_players":24,"Bots":0,"server_type":"Dedicated","server_os":"Linux","password":true,"vac":true,"version":"7757534","steam_id":85568392924469983,"keywords":["nocrits","nodmgspread","payload","uncletopia"],"game_id":440,"stv_port":27026,"stv_name":"Uncletopia | Atlanta | 2 | All Maps | STV","players":[{"user_id":174,"name":"uniwu - BUFF THE SPEED","steam_id":76561198864421290,"connected_time":4883000000000,"state":"active","ping":46},{"user_id":259,"name":"Skinny Pete","steam_id":76561198801608576,"connected_time":453000000000,"state":"active","ping":73},{"user_id":193,"name":"James","steam_id":76561198081313916,"connected_time":3939000000000,"state":"active","ping":54},{"user_id":247,"name":"The Feds","steam_id":76561199134834554,"connected_time":1042000000000,"state":"active","ping":98},{"user_id":253,"name":"GltichBrah_T","steam_id":76561199467036505,"connected_time":899000000000,"state":"active","ping":59},{"user_id":245,"name":"Crystallixed","steam_id":76561198072263515,"connected_time":1128000000000,"state":"active","ping":76},{"user_id":217,"name":"Shrug","steam_id":76561199188651825,"connected_time":2954000000000,"state":"active","ping":112},{"user_id":213,"name":"Rin \"Hindwing\" Redtail","steam_id":76561199074865638,"connected_time":3156000000000,"state":"active","ping":60},{"user_id":249,"name":"derdds","steam_id":76561198034339940,"connected_time":986000000000,"state":"active","ping":60},{"user_id":260,"name":"Draco6257","steam_id":76561199147322448,"connected_time":451000000000,"state":"active","ping":52},{"user_id":221,"name":"CiderL0rd","steam_id":76561198020316366,"connected_time":2881000000000,"state":"active","ping":83},{"user_id":251,"name":"Volks","steam_id":76561198018552479,"connected_time":943000000000,"state":"active","ping":86},{"user_id":261,"name":"Arby's","steam_id":76561199017690367,"connected_time":407000000000,"state":"active","ping":131},{"user_id":224,"name":"Hawkuro","steam_id":76561198252194838,"connected_time":2851000000000,"state":"active","ping":152},{"user_id":255,"name":"will8rd","steam_id":76561199447572049,"connected_time":837000000000,"state":"active","ping":76},{"user_id":263,"name":"SWISH","steam_id":76561198397009880,"connected_time":131000000000,"state":"active","ping":53},{"user_id":118,"name":"Bard The MoistureMenace","steam_id":76561198380520042,"connected_time":10525000000000,"state":"active","ping":83},{"user_id":243,"name":"[DEEP]able","steam_id":76561198292552182,"connected_time":1461000000000,"state":"active","ping":62},{"user_id":185,"name":"The Dead Weight","steam_id":76561198056694098,"connected_time":4691000000000,"state":"active","ping":46},{"user_id":257,"name":"e","steam_id":76561198131245396,"connected_time":716000000000,"state":"active","ping":69},{"user_id":228,"name":"MidSobbes08","steam_id":76561199013101925,"connected_time":2808000000000,"state":"active","ping":104},{"user_id":229,"name":"BBeard007","steam_id":76561198318038961,"connected_time":2802000000000,"state":"active","ping":109},{"user_id":262,"name":"Nyko","steam_id":76561198143197549,"connected_time":394000000000,"state":"active","ping":79}]},{"server_id":400,"name":"Uncletopia | Atlanta | 3 | Community","name_short":"atl-3","host":"atl-1.us.uncletopia.com","port":27035,"enabled":true,"region":"us-east","cc":"us","latitude":33.753746,"longitude":-84.38633,"reserved":0,"last_update":"0001-01-01T00:00:00Z","name_a2s":"Uncletopia | Atlanta | 3 | Community","protocol":17,"map":"workshop/koth_trenchfoot_b1a.ugc731436616","folder":"tf","game":"Team Fortress","app_id":440,"player_count":24,"max_players":24,"Bots":0,"server_type":"Dedicated","server_os":"Linux","password":true,"vac":true,"version":"7757534","steam_id":85568392924515187,"keywords":["cp","nocrits","nodmgspread","uncletopia"],"game_id":440,"stv_port":27036,"stv_name":"Uncletopia | Atlanta | 3 | Community | STV","players":[{"user_id":191,"name":"Shoe‚Ñ¢","steam_id":76561199114397881,"connected_time":540000000000,"state":"active","ping":43},{"user_id":139,"name":"Oopsie Daisy ‚ùã","steam_id":76561198042144492,"connected_time":4495000000000,"state":"active","ping":58},{"user_id":204,"name":"k0ka","steam_id":76561198247969962,"connected_time":11000000000,"state":"spawning","ping":119},{"user_id":183,"name":"Santamen","steam_id":76561198119478199,"connected_time":1380000000000,"state":"active","ping":42},{"user_id":163,"name":"joemoe84g","steam_id":76561199141651280,"connected_time":2031000000000,"state":"active","ping":67},{"user_id":61,"name":"nori_420","steam_id":76561199117134203,"connected_time":8088000000000,"state":"active","ping":129},{"user_id":199,"name":"Hey","steam_id":76561198447517893,"connected_time":322000000000,"state":"active","ping":60},{"user_id":166,"name":"Pestilence","steam_id":76561199240438215,"connected_time":1889000000000,"state":"active","ping":98},{"user_id":62,"name":"Comfy Monkey","steam_id":76561197998434936,"connected_time":7982000000000,"state":"active","ping":46},{"user_id":167,"name":"Dong","steam_id":76561199030207481,"connected_time":1827000000000,"state":"active","ping":53},{"user_id":187,"name":"Shitstain","steam_id":76561199388529538,"connected_time":847000000000,"state":"active","ping":86},{"user_id":202,"name":"Possum Federation","steam_id":76561198170704122,"connected_time":235000000000,"state":"active","ping":78},{"user_id":169,"name":"Scab Collector","steam_id":76561198346425545,"connected_time":1767000000000,"state":"active","ping":64},{"user_id":197,"name":"tinkercrab11","steam_id":76561198881792140,"connected_time":395000000000,"state":"active","ping":74},{"user_id":177,"name":"The unsung hero","steam_id":76561199198863237,"connected_time":1622000000000,"state":"active","ping":77},{"user_id":189,"name":"Beansniffer94","steam_id":76561198815600865,"connected_time":757000000000,"state":"active","ping":100},{"user_id":198,"name":"lexapro delirium","steam_id":76561198343005244,"connected_time":379000000000,"state":"active","ping":113},{"user_id":152,"name":"I fuck 2 depeche mode","steam_id":76561198329087915,"connected_time":3186000000000,"state":"active","ping":99},{"user_id":181,"name":"Delicious Coom Sauce","steam_id":76561198126063045,"connected_time":1542000000000,"state":"active","ping":60},{"user_id":103,"name":"BrendenMad","steam_id":76561198031250581,"connected_time":6687000000000,"state":"active","ping":73},{"user_id":200,"name":"1KyZ0","steam_id":76561198353492370,"connected_time":302000000000,"state":"active","ping":47},{"user_id":179,"name":"redalpha333","steam_id":76561198393500845,"connected_time":1603000000000,"state":"active","ping":76},{"user_id":201,"name":"TeamWorkOPVolvoleaseNerf","steam_id":76561198135906446,"connected_time":296000000000,"state":"active","ping":118},{"user_id":203,"name":"Jose.2007","steam_id":76561199110079270,"connected_time":179000000000,"state":"active","ping":67}]},{"server_id":401,"name":"Uncletopia | Atlanta | 4 | No Payload","name_short":"atl-4","host":"atl-1.us.uncletopia.com","port":27045,"enabled":true,"region":"us-east","cc":"us","latitude":33.753746,"longitude":-84.38633,"reserved":0,"last_update":"0001-01-01T00:00:00Z","name_a2s":"","protocol":0,"map":"","folder":"","game":"","app_id":0,"player_count":0,"max_players":0,"Bots":0,"server_type":"","server_os":"","password":false,"vac":false,"version":"","steam_id":0,"keywords":null,"game_id":0,"stv_port":0,"stv_name":"","players":null},{"server_id":2,"name":"Uncletopia | Chicago | 1 | All Maps","name_short":"chi-1","host":"chi-1.us.uncletopia.com","port":27015,"enabled":true,"region":"us-central","cc":"us","latitude":41.881832,"longitude":-87.62318,"reserved":0,"last_update":"0001-01-01T00:00:00Z","name_a2s":"Uncletopia | Chicago | 1 | All Maps","protocol":17,"map":"pl_frontier_final","folder":"tf","game":"Team Fortress","app_id":440,"player_count":24,"max_players":24,"Bots":0,"server_type":"Dedicated","server_os":"Linux","password":true,"vac":true,"version":"7757534","steam_id":85568392924469984,"keywords":["nocrits","nodmgspread","payload","uncletopia"],"game_id":440,"stv_port":27016,"stv_name":"Uncletopia | Chicago | 1 | All Maps | STV","players":[{"user_id":532,"name":"Floodzie","steam_id":76561198068113077,"connected_time":2839000000000,"state":"active","ping":119},{"user_id":548,"name":"gorilla","steam_id":76561199103766971,"connected_time":632000000000,"state":"active","ping":97},{"user_id":553,"name":"bary","steam_id":76561197988317087,"connected_time":119000000000,"state":"active","ping":65},{"user_id":420,"name":"subdromeda","steam_id":76561198884351860,"connected_time":12350000000000,"state":"active","ping":61},{"user_id":541,"name":"capybapy","steam_id":76561198798828328,"connected_time":1391000000000,"state":"active","ping":50},{"user_id":456,"name":"Death By Killing","steam_id":76561198857643139,"connected_time":9771000000000,"state":"active","ping":74},{"user_id":544,"name":"Smoky","steam_id":76561198041551259,"connected_time":1192000000000,"state":"active","ping":70},{"user_id":534,"name":"SuperFresh","steam_id":76561198200723198,"connected_time":2501000000000,"state":"active","ping":37},{"user_id":499,"name":"An Axe Man With An Axe Plan","steam_id":76561199031265293,"connected_time":5285000000000,"state":"active","ping":80},{"user_id":551,"name":"Saikyo","steam_id":76561198212461467,"connected_time":348000000000,"state":"active","ping":72},{"user_id":536,"name":"TeeTree","steam_id":76561198862307874,"connected_time":2406000000000,"state":"active","ping":60},{"user_id":533,"name":"MECHANISM MALE","steam_id":76561198855935442,"connected_time":2588000000000,"state":"active","ping":75},{"user_id":547,"name":"Slapo","steam_id":76561198886705498,"connected_time":754000000000,"state":"active","ping":51},{"user_id":540,"name":"DEQUAVIS","steam_id":76561198843060075,"connected_time":1493000000000,"state":"active","ping":107},{"user_id":538,"name":"2cats_2curious","steam_id":76561198027143149,"connected_time":2281000000000,"state":"active","ping":44},{"user_id":549,"name":"MayaBon","steam_id":76561198797968261,"connected_time":606000000000,"state":"active","ping":107},{"user_id":552,"name":"Skab","steam_id":76561199126112357,"connected_time":141000000000,"state":"active","ping":75},{"user_id":543,"name":"Yonker","steam_id":76561198079473397,"connected_time":1200000000000,"state":"active","ping":63},{"user_id":550,"name":"SirCreuset","steam_id":76561199026707351,"connected_time":589000000000,"state":"active","ping":67},{"user_id":500,"name":"Brocklee","steam_id":76561198073953768,"connected_time":5285000000000,"state":"active","ping":59},{"user_id":535,"name":"Flint","steam_id":76561198148412420,"connected_time":2489000000000,"state":"active","ping":75},{"user_id":539,"name":"COOK","steam_id":76561198149929885,"connected_time":1665000000000,"state":"active","ping":61},{"user_id":494,"name":"[ŸäŸáŸàÿØŸä] Bill Clinton [◊ê◊ú","steam_id":76561198163291190,"connected_time":6310000000000,"state":"active","ping":89},{"user_id":530,"name":"DJ Chalice","steam_id":76561197974872458,"connected_time":3375000000000,"state":"active","ping":76}]},{"server_id":106,"name":"Uncletopia | Chicago | 2 | All Maps","name_short":"chi-2","host":"chi-1.us.uncletopia.com","port":27025,"enabled":true,"region":"us-central","cc":"us","latitude":41.881832,"longitude":-87.62318,"reserved":0,"last_update":"0001-01-01T00:00:00Z","name_a2s":"Uncletopia | Chicago | 2 | All Maps","protocol":17,"map":"cp_process_final","folder":"tf","game":"Team Fortress","app_id":440,"player_count":24,"max_players":24,"Bots":0,"server_type":"Dedicated","server_os":"Linux","password":true,"vac":true,"version":"7757534","steam_id":85568392924469985,"keywords":["cp","nocrits","nodmgspread","uncletopia"],"game_id":440,"stv_port":27026,"stv_name":"Uncletopia | Chicago | 2 | All Maps | STV","players":[{"user_id":391,"name":"nutlube","steam_id":76561198128831131,"connected_time":114000000000,"state":"active","ping":150},{"user_id":354,"name":"BOTBOT","steam_id":76561198271928618,"connected_time":2583000000000,"state":"active","ping":93},{"user_id":387,"name":"SPF420","steam_id":76561198083991705,"connected_time":571000000000,"state":"active","ping":60},{"user_id":357,"name":"Elijah Lead","steam_id":76561198026635388,"connected_time":2300000000000,"state":"active","ping":90},{"user_id":359,"name":"Corpse01.mdl","steam_id":76561198153671643,"connected_time":2272000000000,"state":"active","ping":65},{"user_id":392,"name":"ZeN","steam_id":76561199098746585,"connected_time":74000000000,"state":"active","ping":68},{"user_id":371,"name":"orcluvr69","steam_id":76561198068712028,"connected_time":1487000000000,"state":"active","ping":69},{"user_id":337,"name":"killername","steam_id":76561199105156791,"connected_time":3768000000000,"state":"active","ping":63},{"user_id":390,"name":"pro gamer with a giant mousepad","steam_id":76561197999187629,"connected_time":248000000000,"state":"active","ping":62},{"user_id":361,"name":"21 Percent Milk","steam_id":76561198118529039,"connected_time":2240000000000,"state":"active","ping":64},{"user_id":382,"name":"a narwhal","steam_id":76561198014527353,"connected_time":784000000000,"state":"active","ping":71},{"user_id":347,"name":"Theory-ZaZa","steam_id":76561198116419931,"connected_time":3554000000000,"state":"active","ping":104},{"user_id":287,"name":"vanilla gorilla","steam_id":76561197989019617,"connected_time":7434000000000,"state":"active","ping":49},{"user_id":388,"name":"Waffle Wannabe","steam_id":76561198064510650,"connected_time":571000000000,"state":"active","ping":62},{"user_id":381,"name":"Blitz3k","steam_id":76561198055758741,"connected_time":790000000000,"state":"active","ping":59},{"user_id":293,"name":"L + Ratio","steam_id":76561198263786953,"connected_time":7179000000000,"state":"active","ping":83},{"user_id":389,"name":"Metna","steam_id":76561198092381079,"connected_time":543000000000,"state":"active","ping":60},{"user_id":393,"name":"TheWhoman","steam_id":76561198103921750,"connected_time":68000000000,"state":"active","ping":101},{"user_id":384,"name":"Infinity","steam_id":76561199134919099,"connected_time":769000000000,"state":"active","ping":74},{"user_id":385,"name":"Galaxy","steam_id":76561198035134466,"connected_time":743000000000,"state":"active","ping":84},{"user_id":386,"name":"tulpa","steam_id":76561198013253513,"connected_time":699000000000,"state":"active","ping":78},{"user_id":376,"name":"4 life","steam_id":76561198175961598,"connected_time":1468000000000,"state":"active","ping":119},{"user_id":394,"name":"baguette","steam_id":76561198066048980,"connected_time":58000000000,"state":"active","ping":34},{"user_id":325,"name":"DoctorBodacious","steam_id":76561198258784171,"connected_time":4952000000000,"state":"active","ping":75}]},{"server_id":402,"name":"Uncletopia | Chicago | 3 | All Maps","name_short":"chi-3","host":"chi-1.us.uncletopia.com","port":27035,"enabled":true,"region":"us-central","cc":"us","latitude":41.881832,"longitude":-87.62318,"reserved":0,"last_update":"0001-01-01T00:00:00Z","name_a2s":"Uncletopia | Chicago | 3 | All Maps","protocol":17,"map":"cp_steel","folder":"tf","game":"Team Fortress","app_id":440,"player_count":24,"max_players":24,"Bots":0,"server_type":"Dedicated","server_os":"Linux","password":true,"vac":true,"version":"7757534","steam_id":85568392924515191,"keywords":["cp","nocrits","nodmgspread","uncletopia"],"game_id":440,"stv_port":27036,"stv_name":"Uncletopia | Chicago | 3 | All Maps | STV","players":[{"user_id":359,"name":"CG65","steam_id":76561199440141596,"connected_time":16000000000,"state":"active","ping":74},{"user_id":327,"name":"Jake The Snake","steam_id":76561198047722285,"connected_time":1291000000000,"state":"active","ping":87},{"user_id":338,"name":"Rec","steam_id":76561198022813906,"connected_time":1096000000000,"state":"active","ping":51},{"user_id":328,"name":"jdt631","steam_id":76561198271999934,"connected_time":1282000000000,"state":"active","ping":83},{"user_id":341,"name":"Scita","steam_id":76561198066861559,"connected_time":794000000000,"state":"active","ping":73},{"user_id":329,"name":"balasarthebrave","steam_id":76561198907174158,"connected_time":1257000000000,"state":"active","ping":84},{"user_id":346,"name":"Tying the knot","steam_id":76561198247794130,"connected_time":449000000000,"state":"active","ping":53},{"user_id":315,"name":"Adam (Cursed Confetti Creature)","steam_id":76561198317690197,"connected_time":2484000000000,"state":"active","ping":45},{"user_id":349,"name":"Koishi","steam_id":76561198054541054,"connected_time":387000000000,"state":"active","ping":52},{"user_id":345,"name":"XBOX 360","steam_id":76561198066590783,"connected_time":510000000000,"state":"active","ping":75},{"user_id":347,"name":"Dan Treacy","steam_id":76561198043678638,"connected_time":405000000000,"state":"active","ping":138},{"user_id":325,"name":"Weerk","steam_id":76561199209543551,"connected_time":1311000000000,"state":"active","ping":88},{"user_id":350,"name":"The Lesser Man","steam_id":76561198093268440,"connected_time":382000000000,"state":"active","ping":75},{"user_id":351,"name":"needle_","steam_id":76561199152845426,"connected_time":382000000000,"state":"active","ping":116},{"user_id":292,"name":"Fresh0c0","steam_id":76561198271933283,"connected_time":3132000000000,"state":"active","ping":62},{"user_id":306,"name":"ThatGamingKiwi","steam_id":76561199170522237,"connected_time":2812000000000,"state":"active","ping":79},{"user_id":353,"name":"bad","steam_id":76561198372994028,"connected_time":372000000000,"state":"active","ping":91},{"user_id":356,"name":"Pineapples","steam_id":76561198383586018,"connected_time":324000000000,"state":"active","ping":77},{"user_id":355,"name":"Phlog Roach","steam_id":76561198111154662,"connected_time":343000000000,"state":"active","ping":107},{"user_id":319,"name":"Rukks","steam_id":76561197993918954,"connected_time":2013000000000,"state":"active","ping":84},{"user_id":357,"name":"Phoncible P. Bone","steam_id":76561198332839477,"connected_time":316000000000,"state":"active","ping":86},{"user_id":358,"name":"Cooldude_15","steam_id":76561198346713382,"connected_time":305000000000,"state":"active","ping":43},{"user_id":343,"name":"StarTube","steam_id":76561199122946418,"connected_time":643000000000,"state":"active","ping":142},{"user_id":340,"name":"Chinese \"Weather\" Balloon","steam_id":76561198031675881,"connected_time":860000000000,"state":"active","ping":49}]},{"server_id":403,"name":"Uncletopia | Chicago | 4 | All Maps","name_short":"chi-4","host":"chi-1.us.uncletopia.com","port":27045,"enabled":true,"region":"us-central","cc":"us","latitude":41.881832,"longitude":-87.62318,"reserved":0,"last_update":"0001-01-01T00:00:00Z","name_a2s":"Uncletopia | Chicago | 4 | All Maps","protocol":17,"map":"pl_borneo","folder":"tf","game":"Team Fortress","app_id":440,"player_count":24,"max_players":24,"Bots":0,"server_type":"Dedicated","server_os":"Linux","password":true,"vac":true,"version":"7757534","steam_id":85568392924515193,"keywords":["nocrits","nodmgspread","payload","uncletopia"],"game_id":440,"stv_port":27046,"stv_name":"Uncletopia | Chicago | 4 | All Maps | STV","players":[{"user_id":107,"name":"023e20902o0239ee02390o239e","steam_id":76561198175741741,"connected_time":255000000000,"state":"active","ping":73},{"user_id":89,"name":"Mr.Cool","steam_id":76561198132105194,"connected_time":1630000000000,"state":"active","ping":68},{"user_id":77,"name":"matchmatch                     ","steam_id":76561198048925904,"connected_time":1980000000000,"state":"active","ping":116},{"user_id":48,"name":"Goober","steam_id":76561198988863807,"connected_time":4098000000000,"state":"active","ping":78},{"user_id":94,"name":"arachnakat","steam_id":76561198986095433,"connected_time":944000000000,"state":"active","ping":81},{"user_id":95,"name":"caption cool","steam_id":76561197990612056,"connected_time":891000000000,"state":"active","ping":45},{"user_id":106,"name":"leumas","steam_id":76561198240408540,"connected_time":307000000000,"state":"active","ping":60},{"user_id":108,"name":"TeaCat","steam_id":76561198814841367,"connected_time":193000000000,"state":"active","ping":57},{"user_id":98,"name":"TwizzstedLlama","steam_id":76561198054021548,"connected_time":837000000000,"state":"active","ping":71},{"user_id":51,"name":"lambmyth","steam_id":76561199215261209,"connected_time":3921000000000,"state":"active","ping":87},{"user_id":78,"name":".Cassius.","steam_id":76561199181383832,"connected_time":1976000000000,"state":"active","ping":49},{"user_id":105,"name":"Proof by close enough","steam_id":76561198083345384,"connected_time":412000000000,"state":"active","ping":87},{"user_id":57,"name":"Bond","steam_id":76561198089262776,"connected_time":3486000000000,"state":"active","ping":74},{"user_id":111,"name":"Toygar","steam_id":76561198023679830,"connected_time":21000000000,"state":"active","ping":178},{"user_id":82,"name":"Engineer Gaming","steam_id":76561198840761529,"connected_time":1905000000000,"state":"active","ping":60},{"user_id":100,"name":"Liam","steam_id":76561198036591750,"connected_time":781000000000,"state":"active","ping":70},{"user_id":109,"name":"Texas Man","steam_id":76561198353412986,"connected_time":179000000000,"state":"active","ping":87},{"user_id":96,"name":"Mikeonut","steam_id":76561198305752102,"connected_time":889000000000,"state":"active","ping":106},{"user_id":76,"name":"Gad","steam_id":76561198020792373,"connected_time":2069000000000,"state":"active","ping":50},{"user_id":81,"name":"in the balls","steam_id":76561198886250290,"connected_time":1940000000000,"state":"active","ping":150},{"user_id":102,"name":"F0restFerret","steam_id":76561199112458876,"connected_time":645000000000,"state":"active","ping":65},{"user_id":110,"name":"dell-star","steam_id":76561198841709393,"connected_time":96000000000,"state":"active","ping":67},{"user_id":47,"name":"Carthage","steam_id":76561198049001571,"connected_time":4146000000000,"state":"active","ping":108},{"user_id":85,"name":"pants","steam_id":76561198076688060,"connected_time":1740000000000,"state":"active","ping":70}]},{"server_id":36,"name":"Uncletopia | Chicago | 5 | All Maps","name_short":"chi-5","host":"chi-2.us.uncletopia.com","port":27015,"enabled":true,"region":"us-central","cc":"us","latitude":41.881832,"longitude":-87.62318,"reserved":0,"last_update":"0001-01-01T00:00:00Z","name_a2s":"Uncletopia | Chicago | 5 | All Maps","protocol":17,"map":"koth_viaduct","folder":"tf","game":"Team Fortress","app_id":440,"player_count":24,"max_players":24,"Bots":0,"server_type":"Dedicated","server_os":"Linux","password":true,"vac":true,"version":"7757534","steam_id":85568392924866362,"keywords":["cp","nocrits","nodmgspread","uncletopia"],"game_id":440,"stv_port":27016,"stv_name":"Uncletopia | Chicago | 5 | All Maps | STV","players":[{"user_id":243,"name":"Bl0ckhead123","steam_id":76561198283536929,"connected_time":1318000000000,"state":"active","ping":119},{"user_id":255,"name":"Wicki","steam_id":76561198122590990,"connected_time":606000000000,"state":"active","ping":92},{"user_id":215,"name":"blitzibb (he/they)","steam_id":76561198109469469,"connected_time":2100000000000,"state":"active","ping":103},{"user_id":265,"name":"shart","steam_id":76561198039002838,"connected_time":173000000000,"state":"active","ping":77},{"user_id":228,"name":"Tone","steam_id":76561198139386202,"connected_time":1644000000000,"state":"active","ping":49},{"user_id":216,"name":"bee","steam_id":76561198178015361,"connected_time":2035000000000,"state":"active","ping":49},{"user_id":262,"name":"KingEgamer_03","steam_id":76561199283258364,"connected_time":278000000000,"state":"active","ping":61},{"user_id":254,"name":"raidlps","steam_id":76561199208003679,"connected_time":620000000000,"state":"active","ping":79},{"user_id":239,"name":"portal2trollin","steam_id":76561198046869828,"connected_time":1378000000000,"state":"active","ping":83},{"user_id":267,"name":"noahjwarner09","steam_id":76561199444479988,"connected_time":136000000000,"state":"active","ping":64},{"user_id":264,"name":"King Col","steam_id":76561198033384990,"connected_time":243000000000,"state":"active","ping":60},{"user_id":230,"name":"Smuglas","steam_id":76561197978133899,"connected_time":1606000000000,"state":"active","ping":147},{"user_id":247,"name":"DoomoPelota","steam_id":76561198326462587,"connected_time":1237000000000,"state":"active","ping":95},{"user_id":260,"name":"Nonospokie","steam_id":76561199211785758,"connected_time":520000000000,"state":"active","ping":173},{"user_id":157,"name":"Mike Charlie","steam_id":76561199470538309,"connected_time":5455000000000,"state":"active","ping":101},{"user_id":235,"name":"CupcakeWarlock","steam_id":76561198179963697,"connected_time":1441000000000,"state":"active","ping":72},{"user_id":238,"name":"Kasm","steam_id":76561198151165548,"connected_time":1392000000000,"state":"active","ping":90},{"user_id":266,"name":"Themlgplant","steam_id":76561199446887943,"connected_time":153000000000,"state":"active","ping":111},{"user_id":269,"name":"money getting 1 percenter","steam_id":76561198012796388,"connected_time":85000000000,"state":"active","ping":47},{"user_id":257,"name":"Red.Dude115","steam_id":76561198093069044,"connected_time":598000000000,"state":"active","ping":84},{"user_id":231,"name":"lodediper","steam_id":76561198049606896,"connected_time":1584000000000,"state":"active","ping":78},{"user_id":268,"name":"Marie","steam_id":76561198056104899,"connected_time":135000000000,"state":"active","ping":88},{"user_id":233,"name":"mEch114","steam_id":76561198236936060,"connected_time":1577000000000,"state":"active","ping":72},{"user_id":270,"name":"MacchuPeachu","steam_id":76561199093242587,"connected_time":80000000000,"state":"active","ping":74}]},{"server_id":37,"name":"Uncletopia | Chicago | 6 | All Maps","name_short":"chi-6","host":"chi-2.us.uncletopia.com","port":27025,"enabled":true,"region":"us-central","cc":"us","latitude":41.881832,"longitude":-87.62318,"reserved":0,"last_update":"0001-01-01T00:00:00Z","name_a2s":"Uncletopia | Chicago | 6 | All Maps","protocol":17,"map":"pl_swiftwater_final1","folder":"tf","game":"Team Fortress","app_id":440,"player_count":24,"max_players":24,"Bots":0,"server_type":"Dedicated","server_os":"Linux","password":true,"vac":true,"version":"7757534","steam_id":85568392924866363,"keywords":["nocrits","nodmgspread","payload","uncletopia"],"game_id":440,"stv_port":27026,"stv_name":"Uncletopia | Chicago | 6 | All Maps | STV","players":[{"user_id":81,"name":"Overduecat","steam_id":76561198092452824,"connected_time":2443000000000,"state":"active","ping":70},{"user_id":122,"name":"Generic_Soda","steam_id":76561197993528721,"connected_time":911000000000,"state":"active","ping":61},{"user_id":126,"name":"Pebbled","steam_id":76561199390347605,"connected_time":647000000000,"state":"active","ping":91},{"user_id":73,"name":"Honda Element","steam_id":76561198086907573,"connected_time":2590000000000,"state":"active","ping":73},{"user_id":74,"name":"Snow","steam_id":76561198151556270,"connected_time":2581000000000,"state":"active","ping":92},{"user_id":131,"name":"darkjustin54","steam_id":76561198060056280,"connected_time":226000000000,"state":"active","ping":59},{"user_id":79,"name":"Kohbold","steam_id":76561198996480140,"connected_time":2468000000000,"state":"active","ping":84},{"user_id":128,"name":"Apricot Annihilator","steam_id":76561198415401351,"connected_time":558000000000,"state":"active","ping":98},{"user_id":132,"name":"Not_Douglas","steam_id":76561199024184136,"connected_time":208000000000,"state":"active","ping":64},{"user_id":113,"name":"Wiggee","steam_id":76561197972792989,"connected_time":1396000000000,"state":"active","ping":67},{"user_id":84,"name":"xlaylowx","steam_id":76561198830237952,"connected_time":2401000000000,"state":"active","ping":98},{"user_id":85,"name":"comically large spoon","steam_id":76561198350216657,"connected_time":2396000000000,"state":"active","ping":112},{"user_id":94,"name":"{bee gaming}","steam_id":76561198103194393,"connected_time":2200000000000,"state":"active","ping":75},{"user_id":133,"name":"monke","steam_id":76561198308289194,"connected_time":53000000000,"state":"active","ping":122},{"user_id":107,"name":"bobbymcbobington","steam_id":76561199089411172,"connected_time":1793000000000,"state":"active","ping":119},{"user_id":129,"name":"Praxis","steam_id":76561197960794303,"connected_time":527000000000,"state":"active","ping":106},{"user_id":123,"name":"Joshy","steam_id":76561198061405421,"connected_time":882000000000,"state":"active","ping":80},{"user_id":91,"name":"Ôº≥Ôº¨Ôº∂Ôº¥Ôº£Ôº®Ôº°Ôº≠Ôº∞","steam_id":76561198883157736,"connected_time":2239000000000,"state":"active","ping":117},{"user_id":92,"name":"UzuNep","steam_id":76561198451679346,"connected_time":2237000000000,"state":"active","ping":75},{"user_id":115,"name":"Cutovercarp","steam_id":76561199065978512,"connected_time":1345000000000,"state":"active","ping":64},{"user_id":116,"name":"Harpua","steam_id":76561197988020228,"connected_time":1220000000000,"state":"active","ping":65},{"user_id":130,"name":"Blashcorp","steam_id":76561199122593964,"connected_time":485000000000,"state":"active","ping":59},{"user_id":121,"name":"Owl Pacino","steam_id":76561197979970666,"connected_time":1005000000000,"state":"active","ping":54},{"user_id":100,"name":"Hipster Killer","steam_id":76561198068569249,"connected_time":2047000000000,"state":"active","ping":78}]},{"server_id":38,"name":"Uncletopia | Chicago | 7 | Stopwatch Beta","name_short":"chi-7","host":"chi-2.us.uncletopia.com","port":27035,"enabled":true,"region":"us-central","cc":"us","latitude":41.881832,"longitude":-87.62318,"reserved":0,"last_update":"0001-01-01T00:00:00Z","name_a2s":"Uncletopia | Chicago | 7 | Stopwatch Beta","protocol":17,"map":"workshop/koth_clearcut_b15.ugc2107050255","folder":"tf","game":"Team Fortress","app_id":440,"player_count":0,"max_players":24,"Bots":0,"server_type":"Dedicated","server_os":"Linux","password":true,"vac":true,"version":"7757534","steam_id":85568392924866364,"keywords":["cp","nocrits","nodmgspread","uncletopia"],"game_id":440,"stv_port":27036,"stv_name":"Uncletopia | Chicago | 7 | Stopwatch Beta | STV","players":null},{"server_id":39,"name":"Uncletopia | Chicago | 8 | Community","name_short":"chi-8","host":"chi-2.us.uncletopia.com","port":27045,"enabled":true,"region":"us-central","cc":"us","latitude":41.881832,"longitude":-87.62318,"reserved":0,"last_update":"0001-01-01T00:00:00Z","name_a2s":"Uncletopia | Chicago | 8 | Community","protocol":17,"map":"workshop/pl_corrode_rc2.ugc546577989","folder":"tf","game":"Team Fortress","app_id":440,"player_count":0,"max_players":24,"Bots":0,"server_type":"Dedicated","server_os":"Linux","password":true,"vac":true,"version":"7757534","steam_id":85568392924866365,"keywords":["nocrits","nodmgspread","payload","uncletopia"],"game_id":440,"stv_port":27046,"stv_name":"Uncletopia | Chicago | 8 | Community | STV","players":null},{"server_id":8,"name":"Uncletopia | Dallas | 1 | All Maps","name_short":"dal-1","host":"dal-1.us.uncletopia.com","port":27015,"enabled":true,"region":"us-central","cc":"us","latitude":32.779167,"longitude":-96.80889,"reserved":0,"last_update":"0001-01-01T00:00:00Z","name_a2s":"Uncletopia | Dallas | 1 | All Maps","protocol":17,"map":"cp_sunshine","folder":"tf","game":"Team Fortress","app_id":440,"player_count":22,"max_players":24,"Bots":0,"server_type":"Dedicated","server_os":"Linux","password":true,"vac":true,"version":"7757534","steam_id":85568392924469986,"keywords":["cp","nocrits","nodmgspread","uncletopia"],"game_id":440,"stv_port":27016,"stv_name":"Uncletopia | Dallas | 1 | All Maps | STV","players":[{"user_id":387,"name":"Unreliable Narrator","steam_id":76561198021303959,"connected_time":700000000000,"state":"active","ping":73},{"user_id":342,"name":"maddoxmomo","steam_id":76561198816228532,"connected_time":4076000000000,"state":"active","ping":57},{"user_id":391,"name":"Andromeda","steam_id":76561199070853177,"connected_time":92000000000,"state":"active","ping":81},{"user_id":392,"name":"Tired","steam_id":76561198072620682,"connected_time":89000000000,"state":"active","ping":77},{"user_id":385,"name":"Arrluk","steam_id":76561198396679452,"connected_time":1046000000000,"state":"active","ping":66},{"user_id":308,"name":"Broadsword","steam_id":76561198011160411,"connected_time":7299000000000,"state":"active","ping":77},{"user_id":389,"name":"SB GAMING+","steam_id":76561198992427152,"connected_time":524000000000,"state":"active","ping":101},{"user_id":372,"name":"double tap 2.0","steam_id":76561198062146253,"connected_time":1961000000000,"state":"active","ping":106},{"user_id":393,"name":"Absurdism","steam_id":76561198284997681,"connected_time":8000000000,"state":"spawning","ping":77},{"user_id":377,"name":"Karma","steam_id":76561199112057184,"connected_time":1804000000000,"state":"active","ping":67},{"user_id":204,"name":"Trackpad Gaming","steam_id":76561198189062066,"connected_time":15962000000000,"state":"active","ping":105},{"user_id":366,"name":"Jazztral","steam_id":76561198067827514,"connected_time":2524000000000,"state":"active","ping":30},{"user_id":338,"name":"isaac","steam_id":76561198328618417,"connected_time":4331000000000,"state":"active","ping":86},{"user_id":353,"name":"not real SoundSmith","steam_id":76561198936412406,"connected_time":2989000000000,"state":"active","ping":78},{"user_id":388,"name":"Milkius","steam_id":76561198401392472,"connected_time":616000000000,"state":"active","ping":90},{"user_id":362,"name":"nnobi","steam_id":76561198878729277,"connected_time":2656000000000,"state":"active","ping":75},{"user_id":339,"name":"Hyper","steam_id":76561198976760150,"connected_time":4315000000000,"state":"active","ping":70},{"user_id":384,"name":"Imrgrim","steam_id":76561198135866481,"connected_time":1065000000000,"state":"active","ping":69},{"user_id":370,"name":"awootism","steam_id":76561198046130018,"connected_time":1996000000000,"state":"active","ping":75},{"user_id":386,"name":"Anthid","steam_id":76561198074493797,"connected_time":883000000000,"state":"active","ping":61},{"user_id":382,"name":"Can You Feel It Mr.Krabs","steam_id":76561198128302414,"connected_time":1132000000000,"state":"active","ping":64},{"user_id":143,"name":"xXx_The_REAL_Marge_Simpson_xXx","steam_id":76561199116846851,"connected_time":20951000000000,"state":"active","ping":67}]},{"server_id":108,"name":"Uncletopia | Dallas | 2 | All Maps","name_short":"dal-2","host":"dal-1.us.uncletopia.com","port":27025,"enabled":true,"region":"us-central","cc":"us","latitude":32.779167,"longitude":-96.80889,"reserved":0,"last_update":"0001-01-01T00:00:00Z","name_a2s":"Uncletopia | Dallas | 2 | All Maps","protocol":17,"map":"pl_pier","folder":"tf","game":"Team Fortress","app_id":440,"player_count":23,"max_players":24,"Bots":0,"server_type":"Dedicated","server_os":"Linux","password":true,"vac":true,"version":"7757534","steam_id":85568392924469988,"keywords":["nocrits","nodmgspread","payload","uncletopia"],"game_id":440,"stv_port":27026,"stv_name":"Uncletopia | Dallas | 2 | All Maps | STV","players":[{"user_id":107,"name":"Colonel Salt","steam_id":76561198207009563,"connected_time":577000000000,"state":"active","ping":57},{"user_id":109,"name":"TechnoBear2099","steam_id":76561198238863596,"connected_time":414000000000,"state":"active","ping":47},{"user_id":102,"name":"FenFenFenFenFenFen","steam_id":76561198069033704,"connected_time":835000000000,"state":"active","ping":65},{"user_id":69,"name":"Ping","steam_id":76561199206514106,"connected_time":3062000000000,"state":"active","ping":75},{"user_id":87,"name":"Doomagedden","steam_id":76561198272589475,"connected_time":1481000000000,"state":"active","ping":55},{"user_id":96,"name":"Boingo","steam_id":76561199086931535,"connected_time":1092000000000,"state":"active","ping":57},{"user_id":117,"name":"FEESH EGG","steam_id":76561198164699517,"connected_time":2000000000,"state":"spawning","ping":178},{"user_id":111,"name":"wahooka","steam_id":76561197981211922,"connected_time":354000000000,"state":"active","ping":86},{"user_id":112,"name":"bepis","steam_id":76561198043579703,"connected_time":217000000000,"state":"active","ping":36},{"user_id":113,"name":"bendera","steam_id":76561197965486503,"connected_time":211000000000,"state":"active","ping":86},{"user_id":110,"name":"below sea level","steam_id":76561199027962230,"connected_time":391000000000,"state":"active","ping":173},{"user_id":78,"name":"Cedric","steam_id":76561198072090580,"connected_time":1796000000000,"state":"active","ping":108},{"user_id":44,"name":"GuillerMak","steam_id":76561198100614936,"connected_time":4965000000000,"state":"active","ping":120},{"user_id":45,"name":"Infineable","steam_id":76561198358100698,"connected_time":4947000000000,"state":"active","ping":91},{"user_id":90,"name":"Menacing Pile of Frogs","steam_id":76561198360134800,"connected_time":1235000000000,"state":"active","ping":83},{"user_id":47,"name":"‚ãÜ‚ú∞ùíÆùìÉùí∂ùíæùìÅùìà","steam_id":76561198102045762,"connected_time":4920000000000,"state":"active","ping":100},{"user_id":114,"name":"peachy_day","steam_id":76561198170698267,"connected_time":169000000000,"state":"active","ping":55},{"user_id":115,"name":"porz","steam_id":76561198195711453,"connected_time":161000000000,"state":"active","ping":45},{"user_id":52,"name":"Reksal","steam_id":76561198065694991,"connected_time":4793000000000,"state":"active","ping":75},{"user_id":116,"name":"literally tyler durden","steam_id":76561199014628655,"connected_time":137000000000,"state":"active","ping":60},{"user_id":86,"name":"Sone","steam_id":76561198069601032,"connected_time":1512000000000,"state":"active","ping":93},{"user_id":91,"name":"everyrockstar!","steam_id":76561198272094975,"connected_time":1198000000000,"state":"active","ping":115},{"user_id":57,"name":"SilentSpykiller","steam_id":76561198094050751,"connected_time":4695000000000,"state":"active","ping":104}]},{"server_id":5,"name":"Uncletopia | Frankfurt | 1 | All Maps","name_short":"frk-1","host":"frk-1.de.uncletopia.com","port":27015,"enabled":true,"region":"eu","cc":"de","latitude":50.110924,"longitude":8.682127,"reserved":0,"last_update":"0001-01-01T00:00:00Z","name_a2s":"Uncletopia | Frankfurt | 1 | All Maps","protocol":17,"map":"pl_swiftwater_final1","folder":"tf","game":"Team Fortress","app_id":440,"player_count":20,"max_players":24,"Bots":0,"server_type":"Dedicated","server_os":"Linux","password":true,"vac":true,"version":"7757534","steam_id":85568392924469989,"keywords":["nocrits","nodmgspread","payload","uncletopia"],"game_id":440,"stv_port":27016,"stv_name":"Uncletopia | Frankfurt | 1 | All Maps | STV","players":[{"user_id":760,"name":"pet","steam_id":76561198993222303,"connected_time":214000000000,"state":"active","ping":74},{"user_id":721,"name":"Ecton","steam_id":76561198025103720,"connected_time":2678000000000,"state":"active","ping":62},{"user_id":603,"name":"A stripper","steam_id":76561198034865891,"connected_time":11828000000000,"state":"active","ping":62},{"user_id":764,"name":"Spy Gaming","steam_id":76561198257225296,"connected_time":127000000000,"state":"active","ping":85},{"user_id":754,"name":"üç≠ùí¶ùëíùìÅùìÅùìéüç≠‚ù§","steam_id":76561198092156531,"connected_time":448000000000,"state":"active","ping":64},{"user_id":727,"name":"Andris Fakevics","steam_id":76561198828274778,"connected_time":2501000000000,"state":"active","ping":60},{"user_id":745,"name":"Mr_Joergen","steam_id":76561198364713702,"connected_time":1149000000000,"state":"active","ping":64},{"user_id":761,"name":"Lengard","steam_id":76561198094189180,"connected_time":202000000000,"state":"active","ping":96},{"user_id":759,"name":"modavak","steam_id":76561198946290908,"connected_time":252000000000,"state":"active","ping":92},{"user_id":762,"name":"the youngest trillionaire","steam_id":76561198078780040,"connected_time":200000000000,"state":"active","ping":59},{"user_id":752,"name":"0","steam_id":76561198059693053,"connected_time":564000000000,"state":"active","ping":45},{"user_id":763,"name":"Meff","steam_id":76561197970610839,"connected_time":147000000000,"state":"active","ping":53},{"user_id":765,"name":"BoPoe","steam_id":76561198093333882,"connected_time":87000000000,"state":"active","ping":97},{"user_id":737,"name":"engie?","steam_id":76561198331852832,"connected_time":1887000000000,"state":"active","ping":60},{"user_id":746,"name":"cherry powder","steam_id":76561199006915718,"connected_time":1141000000000,"state":"active","ping":69},{"user_id":738,"name":"Syll","steam_id":76561198040736202,"connected_time":1849000000000,"state":"active","ping":97},{"user_id":767,"name":"Pancakes","steam_id":76561198196259989,"connected_time":13000000000,"state":"active","ping":62},{"user_id":728,"name":"IceDreamer","steam_id":76561197997569989,"connected_time":2498000000000,"state":"active","ping":60},{"user_id":741,"name":"Blank","steam_id":76561198212308677,"connected_time":1811000000000,"state":"active","ping":66},{"user_id":676,"name":"BarrackOmaha","steam_id":76561198027922724,"connected_time":6375000000000,"state":"active","ping":77}]},{"server_id":110,"name":"Uncletopia | Frankfurt | 2 | All Maps","name_short":"frk-2","host":"frk-1.de.uncletopia.com","port":27025,"enabled":true,"region":"eu","cc":"de","latitude":50.110924,"longitude":8.682127,"reserved":0,"last_update":"0001-01-01T00:00:00Z","name_a2s":"Uncletopia | Frankfurt | 2 | All Maps","protocol":17,"map":"pl_badwater","folder":"tf","game":"Team Fortress","app_id":440,"player_count":24,"max_players":24,"Bots":0,"server_type":"Dedicated","server_os":"Linux","password":true,"vac":true,"version":"7757534","steam_id":85568392924469990,"keywords":["nocrits","nodmgspread","payload","uncletopia"],"game_id":440,"stv_port":27026,"stv_name":"Uncletopia | Frankfurt | 2 | All Maps | STV","players":[{"user_id":635,"name":"stefix555","steam_id":76561199035587320,"connected_time":2174000000000,"state":"active","ping":69},{"user_id":597,"name":"WeegeePJ","steam_id":76561199383362382,"connected_time":6167000000000,"state":"active","ping":139},{"user_id":563,"name":"truebosnianking","steam_id":76561199440060597,"connected_time":8429000000000,"state":"active","ping":72},{"user_id":626,"name":"hananamanna","steam_id":76561198006570285,"connected_time":3875000000000,"state":"active","ping":110},{"user_id":600,"name":"ceereen;Bbatt","steam_id":76561198998684199,"connected_time":5939000000000,"state":"active","ping":116},{"user_id":646,"name":"r06u3","steam_id":76561198254099253,"connected_time":521000000000,"state":"active","ping":166},{"user_id":629,"name":"Udinese Dion","steam_id":76561198067931573,"connected_time":3150000000000,"state":"active","ping":52},{"user_id":643,"name":"Rigby","steam_id":76561198021552128,"connected_time":1230000000000,"state":"active","ping":99},{"user_id":638,"name":"Ar|es","steam_id":76561198819160313,"connected_time":1986000000000,"state":"active","ping":84},{"user_id":639,"name":"lettuce at 58p","steam_id":76561199401283123,"connected_time":1937000000000,"state":"active","ping":66},{"user_id":631,"name":"Ember (she/her) gaymer","steam_id":76561199403820517,"connected_time":2965000000000,"state":"active","ping":66},{"user_id":636,"name":"Johan","steam_id":76561199380849468,"connected_time":2053000000000,"state":"active","ping":63},{"user_id":621,"name":"LarsInABox","steam_id":76561198028329262,"connected_time":4504000000000,"state":"active","ping":78},{"user_id":552,"name":"Fat Pigeon","steam_id":76561198817940142,"connected_time":8702000000000,"state":"active","ping":57},{"user_id":650,"name":"Jonten","steam_id":76561198012757253,"connected_time":356000000000,"state":"active","ping":61},{"user_id":648,"name":"luser","steam_id":76561199186893169,"connected_time":468000000000,"state":"active","ping":151},{"user_id":609,"name":"elsuedi","steam_id":76561198074722832,"connected_time":5092000000000,"state":"active","ping":53},{"user_id":622,"name":"Anri Okita's Massive Milkers","steam_id":76561199186352720,"connected_time":4426000000000,"state":"active","ping":81},{"user_id":649,"name":"Peams","steam_id":76561198343328308,"connected_time":452000000000,"state":"active","ping":52},{"user_id":641,"name":"sm0ke","steam_id":76561198198977226,"connected_time":1677000000000,"state":"active","ping":73},{"user_id":637,"name":"metodmiha","steam_id":76561199111498575,"connected_time":2043000000000,"state":"active","ping":75},{"user_id":642,"name":"NotFionn","steam_id":76561198890525176,"connected_time":1611000000000,"state":"active","ping":90},{"user_id":598,"name":"‚ô• aura ‚ô•","steam_id":76561198066258544,"connected_time":6088000000000,"state":"active","ping":69},{"user_id":652,"name":"JustqalaMort","steam_id":76561198160141485,"connected_time":355000000000,"state":"active","ping":114}]},{"server_id":308,"name":"Uncletopia | Frankfurt | 3 | All Maps","name_short":"frk-3","host":"frk-1.de.uncletopia.com","port":27035,"enabled":true,"region":"eu","cc":"de","latitude":50.110924,"longitude":8.682127,"reserved":0,"last_update":"0001-01-01T00:00:00Z","name_a2s":"Uncletopia | Frankfurt | 3 | All Maps","protocol":17,"map":"koth_viaduct","folder":"tf","game":"Team Fortress","app_id":440,"player_count":8,"max_players":24,"Bots":0,"server_type":"Dedicated","server_os":"Linux","password":true,"vac":true,"version":"7757534","steam_id":85568392924504274,"keywords":["cp","nocrits","nodmgspread","uncletopia"],"game_id":440,"stv_port":27036,"stv_name":"Uncletopia | Frankfurt | 3 | All Maps | STV","players":[{"user_id":99,"name":"–ö—Ä–∏–º–∏–Ω–∞–ª—å–Ω—ã–π —É—â–µ","steam_id":76561198034136409,"connected_time":1959000000000,"state":"active","ping":90},{"user_id":95,"name":"Forklift Certified","steam_id":76561198001816577,"connected_time":3083000000000,"state":"active","ping":99},{"user_id":108,"name":"speedy_vespa","steam_id":76561199092013231,"connected_time":1600000000000,"state":"active","ping":86},{"user_id":92,"name":"Can I get a Beep Beep","steam_id":76561198010730967,"connected_time":3685000000000,"state":"active","ping":71},{"user_id":115,"name":"Jackie Chan","steam_id":76561199378865926,"connected_time":1290000000000,"state":"active","ping":73},{"user_id":106,"name":"Anti_Dragon","steam_id":76561198969060607,"connected_time":1706000000000,"state":"active","ping":287},{"user_id":96,"name":"Shadowengell","steam_id":76561198019284410,"connected_time":2914000000000,"state":"active","ping":104},{"user_id":94,"name":"Unstable Goat","steam_id":76561197985788557,"connected_time":3602000000000,"state":"active","ping":77}]},{"server_id":309,"name":"Uncletopia | Frankfurt | 4 | All Maps","name_short":"frk-4","host":"frk-1.de.uncletopia.com","port":27045,"enabled":true,"region":"eu","cc":"de","latitude":50.110924,"longitude":8.682127,"reserved":0,"last_update":"0001-01-01T00:00:00Z","name_a2s":"Uncletopia | Frankfurt | 4 | All Maps","protocol":17,"map":"pl_barnblitz","folder":"tf","game":"Team Fortress","app_id":440,"player_count":19,"max_players":24,"Bots":0,"server_type":"Dedicated","server_os":"Linux","password":true,"vac":true,"version":"7757534","steam_id":85568392924504275,"keywords":["nocrits","nodmgspread","payload","uncletopia"],"game_id":440,"stv_port":27046,"stv_name":"Uncletopia | Frankfurt | 4 | All Maps | STV","players":[{"user_id":198,"name":"Valdis","steam_id":76561198057340489,"connected_time":303000000000,"state":"active","ping":63},{"user_id":199,"name":"robie","steam_id":76561198914744938,"connected_time":281000000000,"state":"active","ping":90},{"user_id":204,"name":"RIFT","steam_id":76561198991622379,"connected_time":28000000000,"state":"active","ping":59},{"user_id":157,"name":"Alcohol Hominid","steam_id":76561198320313950,"connected_time":5006000000000,"state":"active","ping":176},{"user_id":201,"name":"midlpsyzl47","steam_id":76561199475972637,"connected_time":90000000000,"state":"active","ping":66},{"user_id":139,"name":"finbar","steam_id":76561198056812396,"connected_time":5747000000000,"state":"active","ping":82},{"user_id":168,"name":"Vanilla","steam_id":76561198073933435,"connected_time":4139000000000,"state":"active","ping":72},{"user_id":164,"name":"sneaky pete","steam_id":76561198066287297,"connected_time":4295000000000,"state":"active","ping":34},{"user_id":205,"name":"‚ù§Some Generic Femboy‚ù§","steam_id":76561199202438796,"connected_time":0,"state":"spawning","ping":12},{"user_id":184,"name":"Testicular torsion","steam_id":76561198119547399,"connected_time":2373000000000,"state":"active","ping":48},{"user_id":176,"name":"MAKENTAKEN","steam_id":76561199127359587,"connected_time":3893000000000,"state":"active","ping":89},{"user_id":192,"name":"Dr. Death","steam_id":76561198113987065,"connected_time":1236000000000,"state":"active","ping":95},{"user_id":185,"name":"Pope John Paul III","steam_id":76561197999421201,"connected_time":2362000000000,"state":"active","ping":79},{"user_id":182,"name":"Piteras","steam_id":76561198858532207,"connected_time":2511000000000,"state":"active","ping":77},{"user_id":197,"name":"Desp4","steam_id":76561198040767473,"connected_time":533000000000,"state":"active","ping":63},{"user_id":178,"name":"Tfuj Stary","steam_id":76561198126681452,"connected_time":3132000000000,"state":"active","ping":82},{"user_id":171,"name":"i n n o","steam_id":76561199230689289,"connected_time":4104000000000,"state":"active","ping":77},{"user_id":181,"name":"LOBZIK","steam_id":76561198114830120,"connected_time":2943000000000,"state":"active","ping":76},{"user_id":191,"name":"Shynii","steam_id":76561198194682105,"connected_time":1280000000000,"state":"active","ping":70}]},{"server_id":310,"name":"Uncletopia | Frankfurt | 5 | All Maps","name_short":"frk-5","host":"frk-1.de.uncletopia.com","port":27055,"enabled":true,"region":"eu","cc":"de","latitude":50.110924,"longitude":8.682127,"reserved":0,"last_update":"0001-01-01T00:00:00Z","name_a2s":"Uncletopia | Frankfurt | 5 | All Maps","protocol":17,"map":"pl_upward","folder":"tf","game":"Team Fortress","app_id":440,"player_count":23,"max_players":24,"Bots":0,"server_type":"Dedicated","server_os":"Linux","password":true,"vac":true,"version":"7757534","steam_id":85568392924504277,"keywords":["nocrits","nodmgspread","payload","uncletopia"],"game_id":440,"stv_port":27056,"stv_name":"Uncletopia | Frankfurt | 5 | All Maps | STV","players":[{"user_id":609,"name":"mmlock","steam_id":76561198069516191,"connected_time":2484000000000,"state":"active","ping":50},{"user_id":610,"name":"qqq","steam_id":76561199379233899,"connected_time":2406000000000,"state":"active","ping":92},{"user_id":587,"name":"eeeeee","steam_id":76561198017786875,"connected_time":4403000000000,"state":"active","ping":60},{"user_id":615,"name":"minespweper","steam_id":76561199096919345,"connected_time":2087000000000,"state":"active","ping":76},{"user_id":601,"name":"Marquis de Hoto","steam_id":76561198080687708,"connected_time":3535000000000,"state":"active","ping":63},{"user_id":600,"name":"Rezkey","steam_id":76561198206079048,"connected_time":3624000000000,"state":"active","ping":59},{"user_id":629,"name":"\u003e:3","steam_id":76561198368312026,"connected_time":785000000000,"state":"active","ping":82},{"user_id":632,"name":"coree","steam_id":76561199082156030,"connected_time":553000000000,"state":"active","ping":67},{"user_id":633,"name":"Danio211","steam_id":76561199228698878,"connected_time":421000000000,"state":"active","ping":75},{"user_id":634,"name":"After8","steam_id":76561198090750865,"connected_time":387000000000,"state":"active","ping":63},{"user_id":617,"name":"milan","steam_id":76561198858509678,"connected_time":1832000000000,"state":"active","ping":60},{"user_id":630,"name":"Own Fart Enjoyer","steam_id":76561199054251054,"connected_time":730000000000,"state":"active","ping":67},{"user_id":590,"name":"Carrotcracker","steam_id":76561198034862396,"connected_time":4394000000000,"state":"active","ping":77},{"user_id":635,"name":"YOUR MOM GAMING","steam_id":76561199429562693,"connected_time":386000000000,"state":"active","ping":81},{"user_id":619,"name":"zak","steam_id":76561197998895428,"connected_time":1503000000000,"state":"active","ping":54},{"user_id":624,"name":"Castellan","steam_id":76561197994861142,"connected_time":1246000000000,"state":"active","ping":56},{"user_id":620,"name":"Jooo","steam_id":76561198084473792,"connected_time":1432000000000,"state":"active","ping":87},{"user_id":636,"name":"Domestic_Terrorism_Gamming","steam_id":76561199465207725,"connected_time":379000000000,"state":"active","ping":81},{"user_id":551,"name":"shadow39344","steam_id":76561198090639618,"connected_time":6893000000000,"state":"active","ping":69},{"user_id":625,"name":"Balls","steam_id":76561198086400484,"connected_time":1226000000000,"state":"active","ping":74},{"user_id":626,"name":"Mr.TEA","steam_id":76561198014381591,"connected_time":1207000000000,"state":"active","ping":67},{"user_id":638,"name":"D√•vid","steam_id":76561198184135755,"connected_time":315000000000,"state":"active","ping":57},{"user_id":639,"name":"addicted","steam_id":76561199129801006,"connected_time":140000000000,"state":"active","ping":53}]},{"server_id":311,"name":"Uncletopia | Frankfurt | 6 | All Maps","name_short":"frk-6","host":"frk-1.de.uncletopia.com","port":27065,"enabled":true,"region":"eu","cc":"de","latitude":50.110924,"longitude":8.682127,"reserved":0,"last_update":"0001-01-01T00:00:00Z","name_a2s":"Uncletopia | Frankfurt | 6 | All Maps","protocol":17,"map":"pl_snowycoast","folder":"tf","game":"Team Fortress","app_id":440,"player_count":24,"max_players":24,"Bots":0,"server_type":"Dedicated","server_os":"Linux","password":true,"vac":true,"version":"7757534","steam_id":85568392924504278,"keywords":["nocrits","nodmgspread","payload","uncletopia"],"game_id":440,"stv_port":27066,"stv_name":"Uncletopia | Frankfurt | 6 | All Maps | STV","players":[{"user_id":538,"name":"Eat Shit","steam_id":76561198226649464,"connected_time":7250000000000,"state":"active","ping":69},{"user_id":521,"name":"Edmost","steam_id":76561198090748165,"connected_time":8577000000000,"state":"active","ping":64},{"user_id":588,"name":"vvuglic","steam_id":76561198150341955,"connected_time":2025000000000,"state":"active","ping":79},{"user_id":557,"name":"Tesla","steam_id":76561198378649144,"connected_time":5856000000000,"state":"active","ping":73},{"user_id":584,"name":"randompixel","steam_id":76561198003941207,"connected_time":2195000000000,"state":"active","ping":70},{"user_id":612,"name":"moser23","steam_id":76561197960543171,"connected_time":362000000000,"state":"active","ping":50},{"user_id":595,"name":"rA flavo","steam_id":76561198336661918,"connected_time":1261000000000,"state":"active","ping":53},{"user_id":613,"name":"jovi_","steam_id":76561198449280552,"connected_time":297000000000,"state":"active","ping":63},{"user_id":614,"name":"Ender az Endre Dragon","steam_id":76561198202235560,"connected_time":280000000000,"state":"active","ping":98},{"user_id":617,"name":"Clyde","steam_id":76561199086775360,"connected_time":166000000000,"state":"active","ping":173},{"user_id":603,"name":"gwa≈Çt wƒÖtroby 0,7 i 5 piw","steam_id":76561199038973360,"connected_time":585000000000,"state":"active","ping":113},{"user_id":615,"name":"bozo player","steam_id":76561198126762760,"connected_time":198000000000,"state":"active","ping":71},{"user_id":604,"name":"buxu","steam_id":76561197961355259,"connected_time":525000000000,"state":"active","ping":71},{"user_id":598,"name":"Oak","steam_id":76561198412507725,"connected_time":1122000000000,"state":"active","ping":106},{"user_id":616,"name":"CookeMogul","steam_id":76561199229791635,"connected_time":172000000000,"state":"active","ping":189},{"user_id":618,"name":"TheRedstoneRobot","steam_id":76561199087680273,"connected_time":131000000000,"state":"active","ping":169},{"user_id":554,"name":"Crunchips","steam_id":76561198004336818,"connected_time":6242000000000,"state":"active","ping":88},{"user_id":608,"name":"NyklesChef‚Ñ¢","steam_id":76561198039240078,"connected_time":448000000000,"state":"active","ping":67},{"user_id":607,"name":"Cjeff","steam_id":76561198078099059,"connected_time":467000000000,"state":"active","ping":56},{"user_id":558,"name":"‡∂û","steam_id":76561198310232650,"connected_time":5785000000000,"state":"active","ping":137},{"user_id":609,"name":"The Spycrab¬≥","steam_id":76561198128699654,"connected_time":445000000000,"state":"active","ping":45},{"user_id":619,"name":"`Àò¬¥antifriz","steam_id":76561198088806574,"connected_time":91000000000,"state":"active","ping":72},{"user_id":620,"name":"kotamine","steam_id":76561198068907991,"connected_time":55000000000,"state":"active","ping":67},{"user_id":621,"name":"koko","steam_id":76561198953867666,"connected_time":39000000000,"state":"active","ping":101}]},{"server_id":23,"name":"Uncletopia | Frankfurt | 7 | Stopwatch Beta","name_short":"frk-7","host":"frk-1.de.uncletopia.com","port":27075,"enabled":true,"region":"eu","cc":"de","latitude":50.110924,"longitude":8.682127,"reserved":0,"last_update":"0001-01-01T00:00:00Z","name_a2s":"Uncletopia | Frankfurt | 7 | Stopwatch Beta","protocol":17,"map":"koth_lakeside_final","folder":"tf","game":"Team Fortress","app_id":440,"player_count":0,"max_players":24,"Bots":0,"server_type":"Dedicated","server_os":"Linux","password":true,"vac":true,"version":"7757534","steam_id":85568392924742827,"keywords":["cp","nocrits","nodmgspread","uncletopia"],"game_id":440,"stv_port":27076,"stv_name":"Uncletopia | Frankfurt | 7 | Stopwatch Beta | STV","players":null},{"server_id":24,"name":"Uncletopia | Frankfurt | 8 | Community","name_short":"frk-8","host":"frk-1.de.uncletopia.com","port":27085,"enabled":true,"region":"eu","cc":"de","latitude":50.110924,"longitude":8.682127,"reserved":0,"last_update":"0001-01-01T00:00:00Z","name_a2s":"Uncletopia | Frankfurt | 8 | Community","protocol":17,"map":"workshop/koth_bagel_rc6.ugc2514036946","folder":"tf","game":"Team Fortress","app_id":440,"player_count":0,"max_players":24,"Bots":0,"server_type":"Dedicated","server_os":"Linux","password":true,"vac":true,"version":"7757534","steam_id":85568392924742828,"keywords":["cp","nocrits","nodmgspread","uncletopia"],"game_id":440,"stv_port":27086,"stv_name":"Uncletopia | Frankfurt | 8 | Community | STV","players":null},{"server_id":202,"name":"Uncletopia | Hong Kong | 1 | All Maps","name_short":"hgk-1","host":"hgk-1.hk.uncletopia.com","port":27015,"enabled":true,"region":"asia","cc":"hk","latitude":22.302711,"longitude":114.177216,"reserved":0,"last_update":"0001-01-01T00:00:00Z","name_a2s":"Uncletopia | Hong Kong | 1 | All Maps","protocol":17,"map":"koth_viaduct","folder":"tf","game":"Team Fortress","app_id":440,"player_count":0,"max_players":24,"Bots":0,"server_type":"Dedicated","server_os":"Linux","password":true,"vac":true,"version":"7757534","steam_id":85568392924494504,"keywords":["cp","nocrits","nodmgspread","uncletopia"],"game_id":440,"stv_port":27016,"stv_name":"Uncletopia | Hong Kong | 1 | All Maps | STV","players":null},{"server_id":1,"name":"Uncletopia | Los Angeles | 1 | All Maps","name_short":"lax-1","host":"lax-1.us.uncletopia.com","port":27015,"enabled":true,"region":"us-west","cc":"us","latitude":33.94279,"longitude":-118.41004,"reserved":0,"last_update":"0001-01-01T00:00:00Z","name_a2s":"Uncletopia | Los Angeles | 1 | All Maps","protocol":17,"map":"koth_lakeside_final","folder":"tf","game":"Team Fortress","app_id":440,"player_count":0,"max_players":24,"Bots":0,"server_type":"Dedicated","server_os":"Linux","password":true,"vac":true,"version":"7757534","steam_id":85568392924469991,"keywords":["cp","nocrits","nodmgspread","uncletopia"],"game_id":440,"stv_port":27016,"stv_name":"Uncletopia | Los Angeles | 1 | All Maps | STV","players":null},{"server_id":112,"name":"Uncletopia | Los Angeles | 2 | All Maps","name_short":"lax-2","host":"lax-1.us.uncletopia.com","port":27025,"enabled":true,"region":"us-west","cc":"us","latitude":33.94279,"longitude":-118.41004,"reserved":0,"last_update":"0001-01-01T00:00:00Z","name_a2s":"Uncletopia | Los Angeles | 2 | All Maps","protocol":17,"map":"pl_pier","folder":"tf","game":"Team Fortress","app_id":440,"player_count":0,"max_players":24,"Bots":0,"server_type":"Dedicated","server_os":"Linux","password":true,"vac":true,"version":"7757534","steam_id":85568392924469992,"keywords":["nocrits","nodmgspread","payload","uncletopia"],"game_id":440,"stv_port":27026,"stv_name":"Uncletopia | Los Angeles | 2 | All Maps | STV","players":null},{"server_id":324,"name":"Uncletopia | Los Angeles | 3 | All Maps","name_short":"lax-3","host":"lax-1.us.uncletopia.com","port":27035,"enabled":true,"region":"us-west","cc":"us","latitude":33.94279,"longitude":-118.41004,"reserved":0,"last_update":"0001-01-01T00:00:00Z","name_a2s":"Uncletopia | Los Angeles | 3 | All Maps","protocol":17,"map":"cp_gorge","folder":"tf","game":"Team Fortress","app_id":440,"player_count":14,"max_players":24,"Bots":0,"server_type":"Dedicated","server_os":"Linux","password":true,"vac":true,"version":"7757534","steam_id":85568392924510198,"keywords":["cp","nocrits","nodmgspread","uncletopia"],"game_id":440,"stv_port":27036,"stv_name":"Uncletopia | Los Angeles | 3 | All Maps | STV","players":[{"user_id":148,"name":"momus","steam_id":76561198966979196,"connected_time":890000000000,"state":"active","ping":45},{"user_id":149,"name":"Hazvia","steam_id":76561198085339844,"connected_time":873000000000,"state":"active","ping":105},{"user_id":157,"name":"The Narrator","steam_id":76561198155694887,"connected_time":478000000000,"state":"active","ping":89},{"user_id":163,"name":"facedatfatchat","steam_id":76561198335285125,"connected_time":139000000000,"state":"active","ping":81},{"user_id":159,"name":"mrthugpug1732","steam_id":76561198881200768,"connected_time":448000000000,"state":"active","ping":66},{"user_id":151,"name":"jr_rusty","steam_id":76561198313937899,"connected_time":830000000000,"state":"active","ping":224},{"user_id":164,"name":"Saturn","steam_id":76561198109064967,"connected_time":96000000000,"state":"active","ping":86},{"user_id":152,"name":"bigman1","steam_id":76561198050225055,"connected_time":735000000000,"state":"active","ping":35},{"user_id":156,"name":"sniffy","steam_id":76561198184933255,"connected_time":570000000000,"state":"active","ping":52},{"user_id":155,"name":"OttoDogX","steam_id":76561198042007578,"connected_time":589000000000,"state":"active","ping":49},{"user_id":132,"name":"Dietrich","steam_id":76561198028163840,"connected_time":2150000000000,"state":"active","ping":45},{"user_id":146,"name":"Andreshatesmondays","steam_id":76561198889349797,"connected_time":1039000000000,"state":"active","ping":67},{"user_id":81,"name":"Giselle","steam_id":76561198162593640,"connected_time":5778000000000,"state":"active","ping":99},{"user_id":82,"name":"Also UbeR","steam_id":76561198166926843,"connected_time":5636000000000,"state":"active","ping":47}]},{"server_id":25,"name":"Uncletopia | Los Angeles | 4 | Stopwatch Beta","name_short":"lax-4","host":"lax-1.us.uncletopia.com","port":27045,"enabled":true,"region":"us-west","cc":"us","latitude":33.94279,"longitude":-118.41004,"reserved":0,"last_update":"0001-01-01T00:00:00Z","name_a2s":"Uncletopia | Los Angeles | 4 | Stopwatch Beta","protocol":17,"map":"pl_swiftwater_final1","folder":"tf","game":"Team Fortress","app_id":440,"player_count":0,"max_players":24,"Bots":0,"server_type":"Dedicated","server_os":"Linux","password":true,"vac":true,"version":"7757534","steam_id":85568392924510199,"keywords":["nocrits","nodmgspread","payload","uncletopia"],"game_id":440,"stv_port":27046,"stv_name":"Uncletopia | Los Angeles | 4 | Stopwatch Beta | STV","players":null},{"server_id":11,"name":"Uncletopia | London | 1 | All Maps","name_short":"lon-1","host":"lon-1.uk.uncletopia.com","port":27015,"enabled":true,"region":"eu","cc":"gb","latitude":51.509865,"longitude":-0.118092,"reserved":0,"last_update":"0001-01-01T00:00:00Z","name_a2s":"Uncletopia | London | 1 | All Maps","protocol":17,"map":"pl_badwater","folder":"tf","game":"Team Fortress","app_id":440,"player_count":24,"max_players":24,"Bots":0,"server_type":"Dedicated","server_os":"Linux","password":true,"vac":true,"version":"7757534","steam_id":85568392924367362,"keywords":["nocrits","nodmgspread","payload","uncletopia"],"game_id":440,"stv_port":27016,"stv_name":"Uncletopia | London | 1 | All Maps | STV","players":[{"user_id":535,"name":"Spycrab101","steam_id":76561198141836805,"connected_time":2081000000000,"state":"active","ping":52},{"user_id":552,"name":"Desj","steam_id":76561198114212636,"connected_time":1375000000000,"state":"active","ping":58},{"user_id":539,"name":"JOHN GAMING still depressed tho","steam_id":76561199085822219,"connected_time":1887000000000,"state":"active","ping":79},{"user_id":543,"name":"SaltyCupcakes","steam_id":76561198256386417,"connected_time":1674000000000,"state":"active","ping":40},{"user_id":551,"name":"Labial","steam_id":76561198385163046,"connected_time":1463000000000,"state":"active","ping":44},{"user_id":556,"name":"Glenn Quagmire","steam_id":76561199348527880,"connected_time":439000000000,"state":"active","ping":86},{"user_id":465,"name":"Hungeryan","steam_id":76561198887299930,"connected_time":7039000000000,"state":"active","ping":89},{"user_id":534,"name":"quickfast","steam_id":76561199438900919,"connected_time":2099000000000,"state":"active","ping":42},{"user_id":530,"name":"kojitori","steam_id":76561198838072150,"connected_time":2779000000000,"state":"active","ping":46},{"user_id":443,"name":"Jofiah/TTV","steam_id":76561197977233962,"connected_time":8913000000000,"state":"active","ping":44},{"user_id":541,"name":"panakid","steam_id":76561198364121077,"connected_time":1747000000000,"state":"active","ping":104},{"user_id":509,"name":"Shovelhalfrusty","steam_id":76561198346447513,"connected_time":4913000000000,"state":"active","ping":74},{"user_id":544,"name":"rrainbot","steam_id":76561199414716848,"connected_time":1671000000000,"state":"active","ping":76},{"user_id":532,"name":"Lyncurion","steam_id":76561199260022725,"connected_time":2177000000000,"state":"active","ping":88},{"user_id":553,"name":"Grim the lemon","steam_id":76561199083433988,"connected_time":735000000000,"state":"active","ping":48},{"user_id":555,"name":"whimsy.","steam_id":76561198878171763,"connected_time":559000000000,"state":"active","ping":48},{"user_id":549,"name":"Clovis","steam_id":76561198076881381,"connected_time":1479000000000,"state":"active","ping":86},{"user_id":550,"name":"anti","steam_id":76561198313440475,"connected_time":1476000000000,"state":"active","ping":90},{"user_id":523,"name":"Caerot","steam_id":76561198839000676,"connected_time":4096000000000,"state":"active","ping":75},{"user_id":454,"name":"Qpangfire","steam_id":76561198094354139,"connected_time":8267000000000,"state":"active","ping":47},{"user_id":529,"name":"BreadBubbles","steam_id":76561198174332826,"connected_time":2825000000000,"state":"active","ping":57},{"user_id":516,"name":"dec","steam_id":76561198009660168,"connected_time":4257000000000,"state":"active","ping":59},{"user_id":527,"name":"CptHavvock","steam_id":76561199189740651,"connected_time":3718000000000,"state":"active","ping":73},{"user_id":547,"name":"a dollop of bird","steam_id":76561198089003514,"connected_time":1574000000000,"state":"active","ping":55}]},{"server_id":114,"name":"Uncletopia | London | 2 | All Maps","name_short":"lon-2","host":"lon-1.uk.uncletopia.com","port":27025,"enabled":true,"region":"eu","cc":"gb","latitude":51.509865,"longitude":-0.118092,"reserved":0,"last_update":"0001-01-01T00:00:00Z","name_a2s":"Uncletopia | London | 2 | All Maps","protocol":17,"map":"cp_process_final","folder":"tf","game":"Team Fortress","app_id":440,"player_count":4,"max_players":24,"Bots":0,"server_type":"Dedicated","server_os":"Linux","password":true,"vac":true,"version":"7757534","steam_id":85568392924470941,"keywords":["cp","nocrits","nodmgspread","uncletopia"],"game_id":440,"stv_port":27026,"stv_name":"Uncletopia | London | 2 | All Maps | STV","players":[{"user_id":336,"name":"ari","steam_id":76561198355068405,"connected_time":157000000000,"state":"active","ping":124},{"user_id":334,"name":"Mr Toxic","steam_id":76561198040057167,"connected_time":344000000000,"state":"active","ping":164},{"user_id":332,"name":"The_Jaystone","steam_id":76561198126280691,"connected_time":446000000000,"state":"active","ping":33},{"user_id":268,"name":"Blud walked 0 miles üò≠üò≠\ufffd\ufffd\ufffd","steam_id":76561199285074344,"connected_time":5273000000000,"state":"active","ping":139}]},{"server_id":320,"name":"Uncletopia | London | 3 | All Maps","name_short":"lon-3","host":"lon-1.uk.uncletopia.com","port":27035,"enabled":true,"region":"eu","cc":"gb","latitude":51.509865,"longitude":-0.118092,"reserved":0,"last_update":"0001-01-01T00:00:00Z","name_a2s":"Uncletopia | London | 3 | All Maps","protocol":17,"map":"cp_sunshine","folder":"tf","game":"Team Fortress","app_id":440,"player_count":22,"max_players":24,"Bots":0,"server_type":"Dedicated","server_os":"Linux","password":true,"vac":true,"version":"7757534","steam_id":85568392924510192,"keywords":["cp","nocrits","nodmgspread","uncletopia"],"game_id":440,"stv_port":27036,"stv_name":"Uncletopia | London | 3 | All Maps | STV","players":[{"user_id":344,"name":"Woa","steam_id":76561198345683201,"connected_time":3480000000000,"state":"active","ping":46},{"user_id":390,"name":"ARTI","steam_id":76561199446989613,"connected_time":921000000000,"state":"active","ping":62},{"user_id":297,"name":"Cillian","steam_id":76561199471571148,"connected_time":6024000000000,"state":"active","ping":68},{"user_id":399,"name":"Yelowchy","steam_id":76561198199416121,"connected_time":201000000000,"state":"active","ping":75},{"user_id":314,"name":"UltimateSlayer","steam_id":76561198384109309,"connected_time":4867000000000,"state":"active","ping":51},{"user_id":391,"name":"checkswing","steam_id":76561198999816132,"connected_time":908000000000,"state":"active","ping":128},{"user_id":404,"name":"Spike","steam_id":76561198306382723,"connected_time":63000000000,"state":"active","ping":74},{"user_id":405,"name":"hideki","steam_id":76561198030728517,"connected_time":30000000000,"state":"active","ping":45},{"user_id":406,"name":"I.C. Wiener","steam_id":76561197999912254,"connected_time":29000000000,"state":"spawning","ping":77},{"user_id":400,"name":"Tekky","steam_id":76561197990987315,"connected_time":196000000000,"state":"active","ping":35},{"user_id":374,"name":"KorieOne ‚ù£","steam_id":76561197982998663,"connected_time":2645000000000,"state":"active","ping":55},{"user_id":407,"name":"Spetse","steam_id":76561197990649972,"connected_time":27000000000,"state":"active","ping":84},{"user_id":324,"name":"Quartermistress","steam_id":76561198140199123,"connected_time":4361000000000,"state":"active","ping":41},{"user_id":402,"name":"mespe","steam_id":76561198121530649,"connected_time":89000000000,"state":"active","ping":75},{"user_id":392,"name":"St_Thrivin","steam_id":76561198019051778,"connected_time":898000000000,"state":"active","ping":63},{"user_id":387,"name":"Max Andrew","steam_id":76561198158955194,"connected_time":1179000000000,"state":"active","ping":62},{"user_id":403,"name":"mkwii","steam_id":76561198062507768,"connected_time":79000000000,"state":"active","ping":60},{"user_id":384,"name":"Soloman","steam_id":76561199212054667,"connected_time":1544000000000,"state":"active","ping":46},{"user_id":329,"name":"Droy","steam_id":76561198065854668,"connected_time":4284000000000,"state":"active","ping":45},{"user_id":389,"name":"Zepta","steam_id":76561199001659666,"connected_time":1000000000000,"state":"active","ping":100},{"user_id":382,"name":"Raingnome @SaveTF2","steam_id":76561198007394958,"connected_time":1805000000000,"state":"active","ping":56},{"user_id":337,"name":"Kago","steam_id":76561198122617301,"connected_time":4053000000000,"state":"active","ping":119}]},{"server_id":321,"name":"Uncletopia | London | 4 | All Maps","name_short":"lon-4","host":"lon-1.uk.uncletopia.com","port":27045,"enabled":true,"region":"eu","cc":"gb","latitude":51.509865,"longitude":-0.118092,"reserved":0,"last_update":"0001-01-01T00:00:00Z","name_a2s":"Uncletopia | London | 4 | All Maps","protocol":17,"map":"pl_pier","folder":"tf","game":"Team Fortress","app_id":440,"player_count":17,"max_players":24,"Bots":0,"server_type":"Dedicated","server_os":"Linux","password":true,"vac":true,"version":"7757534","steam_id":85568392924510193,"keywords":["nocrits","nodmgspread","payload","uncletopia"],"game_id":440,"stv_port":27046,"stv_name":"Uncletopia | London | 4 | All Maps | STV","players":[{"user_id":633,"name":"Uncle Joe","steam_id":76561198135343869,"connected_time":545000000000,"state":"active","ping":109},{"user_id":644,"name":"is this what you call fun?","steam_id":76561198068081430,"connected_time":98000000000,"state":"active","ping":46},{"user_id":617,"name":"mf baked","steam_id":76561198126634202,"connected_time":1398000000000,"state":"active","ping":49},{"user_id":645,"name":"Rai_to","steam_id":76561199013720618,"connected_time":86000000000,"state":"active","ping":75},{"user_id":625,"name":"nicotine withdrawal","steam_id":76561198284086634,"connected_time":1097000000000,"state":"active","ping":75},{"user_id":568,"name":"Ixsus\u003c3","steam_id":76561198094756869,"connected_time":4667000000000,"state":"active","ping":61},{"user_id":610,"name":"movin that gear up","steam_id":76561198411016918,"connected_time":2436000000000,"state":"active","ping":50},{"user_id":607,"name":"TayTay","steam_id":76561198115819111,"connected_time":2691000000000,"state":"active","ping":126},{"user_id":620,"name":"Alexei","steam_id":76561197987169026,"connected_time":1261000000000,"state":"active","ping":46},{"user_id":635,"name":"yo","steam_id":76561199002023166,"connected_time":538000000000,"state":"active","ping":101},{"user_id":637,"name":"*Monkey Noises*","steam_id":76561198136529691,"connected_time":478000000000,"state":"active","ping":36},{"user_id":623,"name":"arcSolver","steam_id":76561198212013944,"connected_time":1227000000000,"state":"active","ping":64},{"user_id":641,"name":"Dag!","steam_id":76561198030147941,"connected_time":338000000000,"state":"active","ping":65},{"user_id":590,"name":"kenso","steam_id":76561197961247706,"connected_time":3354000000000,"state":"active","ping":43},{"user_id":639,"name":"Duskie","steam_id":76561198036695121,"connected_time":419000000000,"state":"active","ping":46},{"user_id":594,"name":"w*man","steam_id":76561198057210144,"connected_time":3325000000000,"state":"active","ping":53},{"user_id":515,"name":"Espa√±aa","steam_id":76561198879587832,"connected_time":9096000000000,"state":"active","ping":85}]},{"server_id":21,"name":"Uncletopia | London | 5 | All Maps","name_short":"lon-5","host":"lon-1.uk.uncletopia.com","port":27055,"enabled":true,"region":"eu","cc":"gb","latitude":51.509865,"longitude":-0.118092,"reserved":0,"last_update":"0001-01-01T00:00:00Z","name_a2s":"Uncletopia | London | 5 | All Maps","protocol":17,"map":"pl_upward","folder":"tf","game":"Team Fortress","app_id":440,"player_count":24,"max_players":24,"Bots":0,"server_type":"Dedicated","server_os":"Linux","password":true,"vac":true,"version":"7757534","steam_id":85568392924742829,"keywords":["nocrits","nodmgspread","payload","uncletopia"],"game_id":440,"stv_port":27056,"stv_name":"Uncletopia | London | 5 | All Maps | STV","players":[{"user_id":311,"name":"nvmHastee","steam_id":76561199371458295,"connected_time":5451000000000,"state":"active","ping":85},{"user_id":343,"name":"Kedy","steam_id":76561198308990457,"connected_time":3175000000000,"state":"active","ping":101},{"user_id":339,"name":"giclure :;","steam_id":76561197986362828,"connected_time":3259000000000,"state":"active","ping":58},{"user_id":373,"name":"Mark Johnson","steam_id":76561198218293684,"connected_time":1471000000000,"state":"active","ping":68},{"user_id":383,"name":"bob","steam_id":76561198424363858,"connected_time":164000000000,"state":"active","ping":88},{"user_id":262,"name":"sape","steam_id":76561198089322416,"connected_time":9756000000000,"state":"active","ping":97},{"user_id":375,"name":"ma≈Çy #tf2pickup.pl","steam_id":76561198074409147,"connected_time":1330000000000,"state":"active","ping":62},{"user_id":368,"name":"jD_x2r2","steam_id":76561198061001376,"connected_time":1721000000000,"state":"active","ping":75},{"user_id":381,"name":"Night Fury","steam_id":76561197995207032,"connected_time":505000000000,"state":"active","ping":96},{"user_id":364,"name":"zoinks!","steam_id":76561198068645362,"connected_time":1793000000000,"state":"active","ping":39},{"user_id":287,"name":"ja","steam_id":76561199228540618,"connected_time":7858000000000,"state":"active","ping":91},{"user_id":322,"name":"ChPerette","steam_id":76561198060004887,"connected_time":4242000000000,"state":"active","ping":44},{"user_id":384,"name":"rah","steam_id":76561198056381418,"connected_time":64000000000,"state":"active","ping":37},{"user_id":359,"name":"Intruder","steam_id":76561198156128173,"connected_time":2498000000000,"state":"active","ping":76},{"user_id":338,"name":"Lyell","steam_id":76561198350329389,"connected_time":3656000000000,"state":"active","ping":81},{"user_id":290,"name":"Jack","steam_id":76561198079575891,"connected_time":7583000000000,"state":"active","ping":45},{"user_id":336,"name":"Platform666","steam_id":76561198314266851,"connected_time":3743000000000,"state":"active","ping":95},{"user_id":360,"name":"ayadam","steam_id":76561198161515769,"connected_time":2482000000000,"state":"active","ping":116},{"user_id":377,"name":"HilldogGaming","steam_id":76561198082209322,"connected_time":1298000000000,"state":"active","ping":88},{"user_id":378,"name":"[102nd] Lineon","steam_id":76561198170020311,"connected_time":1192000000000,"state":"active","ping":80},{"user_id":357,"name":"Oak","steam_id":76561198067315672,"connected_time":2696000000000,"state":"active","ping":56},{"user_id":363,"name":"-66th- Pvt. Drathuas5","steam_id":76561198202262611,"connected_time":2080000000000,"state":"active","ping":71},{"user_id":320,"name":"S_ApplePie","steam_id":76561198106947669,"connected_time":4386000000000,"state":"active","ping":69},{"user_id":337,"name":"agony","steam_id":76561199192434258,"connected_time":3721000000000,"state":"active","ping":93}]},{"server_id":22,"name":"Uncletopia | London | 6 | All Maps","name_short":"lon-6","host":"lon-1.uk.uncletopia.com","port":27065,"enabled":true,"region":"eu","cc":"gb","latitude":51.509865,"longitude":-0.118092,"reserved":0,"last_update":"0001-01-01T00:00:00Z","name_a2s":"Uncletopia | London | 6 | All Maps","protocol":17,"map":"cp_dustbowl","folder":"tf","game":"Team Fortress","app_id":440,"player_count":24,"max_players":24,"Bots":0,"server_type":"Dedicated","server_os":"Linux","password":true,"vac":true,"version":"7757534","steam_id":85568392924742830,"keywords":["cp","nocrits","nodmgspread","uncletopia"],"game_id":440,"stv_port":27066,"stv_name":"Uncletopia | London | 6 | All Maps | STV","players":[{"user_id":125,"name":"MR.CRAB","steam_id":76561198329833659,"connected_time":505000000000,"state":"active","ping":76},{"user_id":131,"name":"Dallakir","steam_id":76561198072975382,"connected_time":231000000000,"state":"active","ping":77},{"user_id":120,"name":"Asdfasds","steam_id":76561198029296185,"connected_time":813000000000,"state":"active","ping":98},{"user_id":130,"name":"Baki ‡∂û","steam_id":76561198193615529,"connected_time":289000000000,"state":"active","ping":63},{"user_id":132,"name":"Wacka Wacka","steam_id":76561198146194820,"connected_time":180000000000,"state":"active","ping":58},{"user_id":133,"name":"The Power","steam_id":76561198060566884,"connected_time":168000000000,"state":"active","ping":38},{"user_id":116,"name":"padillacampos","steam_id":76561198161923970,"connected_time":986000000000,"state":"active","ping":76},{"user_id":75,"name":"Dor_atar","steam_id":76561198973980542,"connected_time":3032000000000,"state":"active","ping":83},{"user_id":122,"name":"SimonTheOverseer","steam_id":76561198957685588,"connected_time":726000000000,"state":"active","ping":61},{"user_id":121,"name":"johnmonkey1973","steam_id":76561198838725081,"connected_time":781000000000,"state":"active","ping":57},{"user_id":128,"name":"ChefBev","steam_id":76561198189448113,"connected_time":384000000000,"state":"active","ping":118},{"user_id":114,"name":"fshfkr","steam_id":76561198095979282,"connected_time":1081000000000,"state":"active","ping":41},{"user_id":84,"name":"„ÄéDorarhim„Äè","steam_id":76561198220232352,"connected_time":2501000000000,"state":"active","ping":45},{"user_id":119,"name":"the uncle from uncle dane","steam_id":76561198326214068,"connected_time":896000000000,"state":"active","ping":58},{"user_id":82,"name":"Buru","steam_id":76561198024146649,"connected_time":2595000000000,"state":"active","ping":46},{"user_id":83,"name":"MordyQ","steam_id":76561198025613597,"connected_time":2588000000000,"state":"active","ping":99},{"user_id":85,"name":"Glass Kon","steam_id":76561198000042666,"connected_time":2364000000000,"state":"active","ping":174},{"user_id":129,"name":"Juiceydough","steam_id":76561197997323419,"connected_time":299000000000,"state":"active","ping":78},{"user_id":108,"name":"Dope","steam_id":76561198318858892,"connected_time":1583000000000,"state":"active","ping":66},{"user_id":91,"name":"slightly drunk","steam_id":76561199184873889,"connected_time":2202000000000,"state":"active","ping":65},{"user_id":95,"name":"SaltyLove","steam_id":76561198268617503,"connected_time":2101000000000,"state":"active","ping":163},{"user_id":96,"name":"t.tv/pkblizzard","steam_id":76561198039836567,"connected_time":2092000000000,"state":"active","ping":40},{"user_id":134,"name":"Archer","steam_id":76561198132860299,"connected_time":79000000000,"state":"active","ping":52},{"user_id":127,"name":"portal","steam_id":76561198094569952,"connected_time":479000000000,"state":"active","ping":45}]},{"server_id":40,"name":"Uncletopia | London | 7 | No Payload","name_short":"lon-7","host":"lon-1.uk.uncletopia.com","port":27075,"enabled":true,"region":"eu","cc":"gb","latitude":51.509865,"longitude":-0.118092,"reserved":0,"last_update":"0001-01-01T00:00:00Z","name_a2s":"Uncletopia | London | 7 | No Payload","protocol":17,"map":"ctf_doublecross","folder":"tf","game":"Team Fortress","app_id":440,"player_count":0,"max_players":24,"Bots":0,"server_type":"Dedicated","server_os":"Linux","password":true,"vac":true,"version":"7757534","steam_id":85568392924964314,"keywords":["ctf","nocrits","nodmgspread","uncletopia"],"game_id":440,"stv_port":27076,"stv_name":"Uncletopia | London | 7 | No Payload | STV","players":null},{"server_id":41,"name":"Uncletopia | London | 8 | Community","name_short":"lon-8","host":"lon-1.uk.uncletopia.com","port":27085,"enabled":true,"region":"eu","cc":"gb","latitude":51.509865,"longitude":-0.118092,"reserved":0,"last_update":"0001-01-01T00:00:00Z","name_a2s":"Uncletopia | London | 8 | Community","protocol":17,"map":"workshop/cp_sulfur_rc2.ugc619869471","folder":"tf","game":"Team Fortress","app_id":440,"player_count":0,"max_players":24,"Bots":0,"server_type":"Dedicated","server_os":"Linux","password":true,"vac":true,"version":"7757534","steam_id":85568392924964315,"keywords":["cp","nocrits","nodmgspread","uncletopia"],"game_id":440,"stv_port":27086,"stv_name":"Uncletopia | London | 8 | Community | STV","players":null},{"server_id":300,"name":"Uncletopia | Montr√©al | 1 | All Maps","name_short":"mtl-1","host":"mtl-1.ca.uncletopia.com","port":27015,"enabled":true,"region":"us-east","cc":"ca","latitude":45.50889,"longitude":-73.56167,"reserved":0,"last_update":"0001-01-01T00:00:00Z","name_a2s":"Uncletopia | Montr√©al | 1 | All Maps","protocol":17,"map":"koth_highpass","folder":"tf","game":"Team Fortress","app_id":440,"player_count":0,"max_players":24,"Bots":0,"server_type":"Dedicated","server_os":"Linux","password":true,"vac":true,"version":"7757534","steam_id":85568392924500087,"keywords":["cp","nocrits","nodmgspread","uncletopia"],"game_id":440,"stv_port":27016,"stv_name":"Uncletopia | Montr√©al | 1 | All Maps | STV","players":null},{"server_id":301,"name":"Uncletopia | Montr√©al | 2 | All Maps","name_short":"mtl-2","host":"mtl-1.ca.uncletopia.com","port":27025,"enabled":true,"region":"us-east","cc":"ca","latitude":45.50889,"longitude":-73.56167,"reserved":0,"last_update":"0001-01-01T00:00:00Z","name_a2s":"Uncletopia | Montr√©al | 2 | All Maps","protocol":17,"map":"pl_snowycoast","folder":"tf","game":"Team Fortress","app_id":440,"player_count":0,"max_players":24,"Bots":0,"server_type":"Dedicated","server_os":"Linux","password":true,"vac":true,"version":"7757534","steam_id":85568392924500088,"keywords":["nocrits","nodmgspread","payload","uncletopia"],"game_id":440,"stv_port":27026,"stv_name":"Uncletopia | Montr√©al | 2 | All Maps | STV","players":null},{"server_id":302,"name":"Uncletopia | Montr√©al | 3 | All Maps","name_short":"mtl-3","host":"mtl-1.ca.uncletopia.com","port":27035,"enabled":true,"region":"us-east","cc":"ca","latitude":45.50889,"longitude":-73.56167,"reserved":0,"last_update":"0001-01-01T00:00:00Z","name_a2s":"Uncletopia | Montr√©al | 3 | All Maps","protocol":17,"map":"koth_cascade","folder":"tf","game":"Team Fortress","app_id":440,"player_count":1,"max_players":24,"Bots":0,"server_type":"Dedicated","server_os":"Linux","password":true,"vac":true,"version":"7757534","steam_id":85568392924500089,"keywords":["cp","nocrits","nodmgspread","uncletopia"],"game_id":440,"stv_port":27036,"stv_name":"Uncletopia | Montr√©al | 3 | All Maps | STV","players":[{"user_id":9,"name":"Redstonian","steam_id":76561199005947878,"connected_time":127000000000,"state":"active","ping":64}]},{"server_id":303,"name":"Uncletopia | Montr√©al | 4 | No Payload","name_short":"mtl-4","host":"mtl-1.ca.uncletopia.com","port":27045,"enabled":true,"region":"us-east","cc":"ca","latitude":45.50889,"longitude":-73.56167,"reserved":0,"last_update":"0001-01-01T00:00:00Z","name_a2s":"Uncletopia | Montr√©al | 4 | No Payload","protocol":17,"map":"cp_snakewater_final1","folder":"tf","game":"Team Fortress","app_id":440,"player_count":0,"max_players":24,"Bots":0,"server_type":"Dedicated","server_os":"Linux","password":true,"vac":true,"version":"7757534","steam_id":85568392924500090,"keywords":["cp","nocrits","nodmgspread","uncletopia"],"game_id":440,"stv_port":27046,"stv_name":"Uncletopia | Montr√©al | 4 | No Payload | STV","players":null},{"server_id":13,"name":"Uncletopia | New York City | 1 | All Maps","name_short":"nyc-1","host":"nyc-1.us.uncletopia.com","port":27015,"enabled":true,"region":"us-east","cc":"us","latitude":40.73061,"longitude":-73.93524,"reserved":0,"last_update":"0001-01-01T00:00:00Z","name_a2s":"Uncletopia | New York City | 1 | All Maps","protocol":17,"map":"pl_thundermountain","folder":"tf","game":"Team Fortress","app_id":440,"player_count":24,"max_players":24,"Bots":0,"server_type":"Dedicated","server_os":"Linux","password":true,"vac":true,"version":"7757534","steam_id":85568392924469993,"keywords":["nocrits","nodmgspread","payload","uncletopia"],"game_id":440,"stv_port":27016,"stv_name":"Uncletopia | New York City | 1 | All Maps | STV","players":[{"user_id":232,"name":"DaReelSuperDoge","steam_id":76561198877533242,"connected_time":496000000000,"state":"active","ping":66},{"user_id":10,"name":"Mochi","steam_id":76561199151314140,"connected_time":17078000000000,"state":"active","ping":38},{"user_id":221,"name":"touc","steam_id":76561198098001998,"connected_time":1355000000000,"state":"active","ping":60},{"user_id":156,"name":"Adrenaline","steam_id":76561199220100219,"connected_time":5677000000000,"state":"active","ping":53},{"user_id":191,"name":"Alshek","steam_id":76561198115594676,"connected_time":4211000000000,"state":"active","ping":45},{"user_id":224,"name":"Universe Man","steam_id":76561197997710655,"connected_time":1075000000000,"state":"active","ping":84},{"user_id":225,"name":"CashuNutt","steam_id":76561198799387433,"connected_time":855000000000,"state":"active","ping":45},{"user_id":214,"name":"Grebnedulgo The Elder","steam_id":76561199123285878,"connected_time":2043000000000,"state":"active","ping":74},{"user_id":223,"name":"roach_____gluer","steam_id":76561198073269122,"connected_time":1330000000000,"state":"active","ping":55},{"user_id":228,"name":"Sheev Palpatine","steam_id":76561198252332430,"connected_time":671000000000,"state":"active","ping":109},{"user_id":234,"name":"l800","steam_id":76561198256543606,"connected_time":423000000000,"state":"active","ping":70},{"user_id":210,"name":"DededeMain | trade.tf","steam_id":76561198310951632,"connected_time":2369000000000,"state":"active","ping":69},{"user_id":211,"name":"Person","steam_id":76561198093244204,"connected_time":2353000000000,"state":"active","ping":65},{"user_id":196,"name":"eNoble","steam_id":76561197993408761,"connected_time":3662000000000,"state":"active","ping":113},{"user_id":186,"name":"Snugboo","steam_id":76561198147970327,"connected_time":4587000000000,"state":"active","ping":39},{"user_id":229,"name":"Ricky Dicky Doo Dah Grimes","steam_id":76561198143221900,"connected_time":670000000000,"state":"active","ping":58},{"user_id":236,"name":"Mongosling","steam_id":76561198081098215,"connected_time":179000000000,"state":"active","ping":46},{"user_id":230,"name":"917-258-3609","steam_id":76561198174436329,"connected_time":652000000000,"state":"active","ping":64},{"user_id":208,"name":"RogueOstrich","steam_id":76561198246274348,"connected_time":2469000000000,"state":"active","ping":58},{"user_id":219,"name":"Fancy Bed","steam_id":76561198007172366,"connected_time":1708000000000,"state":"active","ping":61},{"user_id":212,"name":"jes√∫s.gonzalez.2007","steam_id":76561199149935993,"connected_time":2222000000000,"state":"active","ping":51},{"user_id":176,"name":"Buttons :)","steam_id":76561198139478534,"connected_time":5202000000000,"state":"active","ping":123},{"user_id":209,"name":"Xana","steam_id":76561198272325909,"connected_time":2422000000000,"state":"active","ping":142},{"user_id":220,"name":"Fuzzy","steam_id":76561199100612353,"connected_time":1704000000000,"state":"active","ping":75}]},{"server_id":14,"name":"Uncletopia | New York City | 2 | All Maps","name_short":"nyc-2","host":"nyc-1.us.uncletopia.com","port":27025,"enabled":true,"region":"us-east","cc":"us","latitude":40.73061,"longitude":-73.93524,"reserved":0,"last_update":"0001-01-01T00:00:00Z","name_a2s":"Uncletopia | New York City | 2 | All Maps","protocol":17,"map":"pl_frontier_final","folder":"tf","game":"Team Fortress","app_id":440,"player_count":24,"max_players":24,"Bots":0,"server_type":"Dedicated","server_os":"Linux","password":true,"vac":true,"version":"7757534","steam_id":85568392924469994,"keywords":["nocrits","nodmgspread","payload","uncletopia"],"game_id":440,"stv_port":27026,"stv_name":"Uncletopia | New York City | 2 | All Maps | STV","players":[{"user_id":197,"name":"Breach","steam_id":76561198045060392,"connected_time":1102000000000,"state":"active","ping":60},{"user_id":168,"name":"Phocae (She/Her)","steam_id":76561199317584594,"connected_time":2144000000000,"state":"active","ping":66},{"user_id":176,"name":"PJL725","steam_id":76561198241220274,"connected_time":1616000000000,"state":"active","ping":70},{"user_id":174,"name":"Sir Quacksalot","steam_id":76561198048942777,"connected_time":1848000000000,"state":"active","ping":98},{"user_id":179,"name":"Mattron1","steam_id":76561198012270524,"connected_time":1465000000000,"state":"active","ping":72},{"user_id":181,"name":"CarsonMan07","steam_id":76561198981875202,"connected_time":1431000000000,"state":"active","ping":58},{"user_id":186,"name":"dakota__","steam_id":76561198076596506,"connected_time":1345000000000,"state":"active","ping":77},{"user_id":182,"name":"Grify","steam_id":76561198012292317,"connected_time":1425000000000,"state":"active","ping":86},{"user_id":206,"name":"Waaagh!","steam_id":76561197995317887,"connected_time":15000000000,"state":"spawning","ping":44},{"user_id":175,"name":"Verschlimmbesserung","steam_id":76561198024991137,"connected_time":1757000000000,"state":"active","ping":66},{"user_id":184,"name":"kametro4","steam_id":76561198835430429,"connected_time":1414000000000,"state":"active","ping":60},{"user_id":157,"name":"Midlife Crisis Jotaro","steam_id":76561199023562280,"connected_time":2813000000000,"state":"active","ping":45},{"user_id":166,"name":"you forgot the sauce","steam_id":76561198387016713,"connected_time":2277000000000,"state":"active","ping":55},{"user_id":107,"name":"claeb :)","steam_id":76561198028761580,"connected_time":6196000000000,"state":"active","ping":77},{"user_id":170,"name":"ungr8t","steam_id":76561198063521721,"connected_time":2067000000000,"state":"active","ping":130},{"user_id":202,"name":"Femtofarad","steam_id":76561198308583053,"connected_time":226000000000,"state":"active","ping":62},{"user_id":205,"name":"yeyoi","steam_id":76561198069821885,"connected_time":106000000000,"state":"active","ping":61},{"user_id":190,"name":"Axities","steam_id":76561198278008225,"connected_time":1243000000000,"state":"active","ping":69},{"user_id":200,"name":"Rockcrusher","steam_id":76561199012666353,"connected_time":998000000000,"state":"active","ping":70},{"user_id":171,"name":"Citron","steam_id":76561198278687374,"connected_time":2019000000000,"state":"active","ping":44},{"user_id":194,"name":"Eden Hazard","steam_id":76561198089241053,"connected_time":1135000000000,"state":"active","ping":54},{"user_id":207,"name":"Mefir","steam_id":76561198013650292,"connected_time":7000000000,"state":"spawning","ping":104},{"user_id":204,"name":"Bohemia-Moravia","steam_id":76561199006388533,"connected_time":211000000000,"state":"active","ping":68},{"user_id":173,"name":"Braamklauw","steam_id":76561198283287697,"connected_time":1959000000000,"state":"active","ping":138}]},{"server_id":15,"name":"Uncletopia | New York City | 3 | Stopwatch Beta","name_short":"nyc-3","host":"nyc-1.us.uncletopia.com","port":27035,"enabled":true,"region":"us-east","cc":"us","latitude":40.73061,"longitude":-73.93524,"reserved":0,"last_update":"0001-01-01T00:00:00Z","name_a2s":"Uncletopia | New York City | 3 | Stopwatch Beta","protocol":17,"map":"workshop/koth_bagel_rc6.ugc2514036946","folder":"tf","game":"Team Fortress","app_id":440,"player_count":24,"max_players":24,"Bots":0,"server_type":"Dedicated","server_os":"Linux","password":true,"vac":true,"version":"7757534","steam_id":85568392924742820,"keywords":["cp","nocrits","nodmgspread","uncletopia"],"game_id":440,"stv_port":27036,"stv_name":"Uncletopia | New York City | 3 | Stopwatch Beta | STV","players":[{"user_id":301,"name":"Wso1123","steam_id":76561198048040111,"connected_time":1590000000000,"state":"active","ping":90},{"user_id":285,"name":"BB L","steam_id":76561198360946437,"connected_time":2554000000000,"state":"active","ping":51},{"user_id":294,"name":"onsen episode","steam_id":76561197979960008,"connected_time":2242000000000,"state":"active","ping":45},{"user_id":310,"name":"*coughs and dies*","steam_id":76561198337692867,"connected_time":825000000000,"state":"active","ping":75},{"user_id":300,"name":"Bot Karma","steam_id":76561198422386331,"connected_time":1687000000000,"state":"active","ping":133},{"user_id":297,"name":"Dreamzapp","steam_id":76561199084936632,"connected_time":1949000000000,"state":"active","ping":130},{"user_id":302,"name":"oxygen user","steam_id":76561199111975528,"connected_time":1587000000000,"state":"active","ping":87},{"user_id":314,"name":"leonardo doujinshi","steam_id":76561198025810326,"connected_time":103000000000,"state":"active","ping":60},{"user_id":295,"name":"Arnat Barca","steam_id":76561198831628458,"connected_time":2234000000000,"state":"active","ping":42},{"user_id":250,"name":"Fetus in a paper bag","steam_id":76561199047286823,"connected_time":4320000000000,"state":"active","ping":62},{"user_id":315,"name":"toastman","steam_id":76561198207073088,"connected_time":6000000000,"state":"spawning","ping":97},{"user_id":312,"name":"2-hundred-million-centimeter","steam_id":76561198394787270,"connected_time":507000000000,"state":"active","ping":84},{"user_id":307,"name":"Luck","steam_id":76561199122232082,"connected_time":981000000000,"state":"active","ping":62},{"user_id":306,"name":"Dino Aids","steam_id":76561199204984924,"connected_time":1165000000000,"state":"active","ping":68},{"user_id":290,"name":"neet","steam_id":76561197968115168,"connected_time":2446000000000,"state":"active","ping":46},{"user_id":275,"name":"SuperNinja","steam_id":76561199333646036,"connected_time":3306000000000,"state":"active","ping":64},{"user_id":259,"name":"bob","steam_id":76561198261060542,"connected_time":3901000000000,"state":"active","ping":57},{"user_id":308,"name":"Andrew","steam_id":76561198070615190,"connected_time":971000000000,"state":"active","ping":87},{"user_id":228,"name":"A Can of Arizona Green Tea","steam_id":76561198062481133,"connected_time":5408000000000,"state":"active","ping":97},{"user_id":276,"name":"xbox record that","steam_id":76561198040912048,"connected_time":3247000000000,"state":"active","ping":60},{"user_id":277,"name":"‚í∑‚ìõ‚ìê‚ìí‚ìö‚íº‚ì§‚ì®‚ë†‚ë•","steam_id":76561198121581363,"connected_time":3235000000000,"state":"active","ping":45},{"user_id":291,"name":"starulan","steam_id":76561198006975014,"connected_time":2437000000000,"state":"active","ping":51},{"user_id":279,"name":"Large Man","steam_id":76561198880396651,"connected_time":3182000000000,"state":"active","ping":85},{"user_id":293,"name":"[BBW] b0nes","steam_id":76561198120312532,"connected_time":2294000000000,"state":"active","ping":60}]},{"server_id":16,"name":"Uncletopia | New York City | 4 | Community","name_short":"nyc-4","host":"nyc-1.us.uncletopia.com","port":27045,"enabled":true,"region":"us-east","cc":"us","latitude":40.73061,"longitude":-73.93524,"reserved":0,"last_update":"0001-01-01T00:00:00Z","name_a2s":"Uncletopia | New York City | 4 | Community","protocol":17,"map":"workshop/pl_boundary_final1.ugc456799153","folder":"tf","game":"Team Fortress","app_id":440,"player_count":0,"max_players":24,"Bots":0,"server_type":"Dedicated","server_os":"Linux","password":true,"vac":true,"version":"7757534","steam_id":85568392924742821,"keywords":["nocrits","nodmgspread","payload","uncletopia"],"game_id":440,"stv_port":27046,"stv_name":"Uncletopia | New York City | 4 | Community | STV","players":null},{"server_id":142,"name":"Uncletopia | S√£o Paulo | 1 | All Maps","name_short":"sao-1","host":"sao-1.br.uncletopia.com","port":27015,"enabled":true,"region":"sa","cc":"br","latitude":-23.533773,"longitude":-46.62529,"reserved":0,"last_update":"0001-01-01T00:00:00Z","name_a2s":"Uncletopia | S√£o Paulo | 1 | All Maps","protocol":17,"map":"koth_harvest_final","folder":"tf","game":"Team Fortress","app_id":440,"player_count":0,"max_players":24,"Bots":0,"server_type":"Dedicated","server_os":"Linux","password":true,"vac":true,"version":"7757534","steam_id":85568392924469996,"keywords":["cp","nocrits","nodmgspread","uncletopia"],"game_id":440,"stv_port":27016,"stv_name":"Uncletopia | S√£o Paulo | 1 | All Maps | STV","players":null},{"server_id":143,"name":"Uncletopia | S√£o Paulo | 2 | All Maps","name_short":"sao-2","host":"sao-2.br.uncletopia.com","port":27015,"enabled":true,"region":"sa","cc":"br","latitude":-23.533773,"longitude":-46.62529,"reserved":0,"last_update":"0001-01-01T00:00:00Z","name_a2s":"Uncletopia | S√£o Paulo | 2 | All Maps","protocol":17,"map":"koth_viaduct","folder":"tf","game":"Team Fortress","app_id":440,"player_count":0,"max_players":24,"Bots":0,"server_type":"Dedicated","server_os":"Linux","password":true,"vac":true,"version":"7757534","steam_id":85568392924485349,"keywords":["cp","nocrits","nodmgspread","uncletopia"],"game_id":440,"stv_port":27016,"stv_name":"Uncletopia | S√£o Paulo | 2 | All Maps | STV","players":null},{"server_id":7,"name":"Uncletopia | Seattle | 1 | All Maps","name_short":"sea-1","host":"sea-1.us.uncletopia.com","port":27015,"enabled":true,"region":"us-west","cc":"us","latitude":47.608013,"longitude":-122.33517,"reserved":0,"last_update":"0001-01-01T00:00:00Z","name_a2s":"Uncletopia | Seattle | 1 | All Maps","protocol":17,"map":"pl_upward","folder":"tf","game":"Team Fortress","app_id":440,"player_count":24,"max_players":24,"Bots":0,"server_type":"Dedicated","server_os":"Linux","password":true,"vac":true,"version":"7757534","steam_id":85568392924469997,"keywords":["nocrits","nodmgspread","payload","uncletopia"],"game_id":440,"stv_port":27016,"stv_name":"Uncletopia | Seattle | 1 | All Maps | STV","players":[{"user_id":375,"name":"forest","steam_id":76561198157960257,"connected_time":1691000000000,"state":"active","ping":35},{"user_id":349,"name":"jayeskae","steam_id":76561198144220801,"connected_time":3910000000000,"state":"active","ping":45},{"user_id":380,"name":"ed","steam_id":76561198080475712,"connected_time":1115000000000,"state":"active","ping":61},{"user_id":378,"name":"exephur","steam_id":76561198135763234,"connected_time":1135000000000,"state":"active","ping":60},{"user_id":377,"name":"Sweatpants","steam_id":76561198097188001,"connected_time":1147000000000,"state":"active","ping":54},{"user_id":363,"name":"parkinsons enjoyer","steam_id":76561198857237473,"connected_time":2472000000000,"state":"active","ping":46},{"user_id":385,"name":"jose.gonzales.2005","steam_id":76561198399315280,"connected_time":895000000000,"state":"active","ping":128},{"user_id":341,"name":"Y2K","steam_id":76561199191855486,"connected_time":4308000000000,"state":"active","ping":42},{"user_id":360,"name":"[TrC] Dackstrus","steam_id":76561197973518509,"connected_time":2867000000000,"state":"active","ping":57},{"user_id":379,"name":"Tom","steam_id":76561198070630154,"connected_time":1126000000000,"state":"active","ping":77},{"user_id":353,"name":"MathNerd","steam_id":76561198917912627,"connected_time":3524000000000,"state":"active","ping":120},{"user_id":371,"name":"moldugg","steam_id":76561199368150857,"connected_time":2070000000000,"state":"active","ping":138},{"user_id":288,"name":"dougrocks421","steam_id":76561198165063918,"connected_time":5780000000000,"state":"active","ping":41},{"user_id":331,"name":"Smile","steam_id":76561198110008786,"connected_time":4815000000000,"state":"active","ping":46},{"user_id":384,"name":"Xevon","steam_id":76561198355618921,"connected_time":950000000000,"state":"active","ping":117},{"user_id":372,"name":"Spirit","steam_id":76561199069322627,"connected_time":2028000000000,"state":"active","ping":120},{"user_id":348,"name":"Wormhole","steam_id":76561199008302939,"connected_time":3932000000000,"state":"active","ping":45},{"user_id":386,"name":"goose the zarn","steam_id":76561198280875132,"connected_time":81000000000,"state":"active","ping":62},{"user_id":382,"name":"bullet man","steam_id":76561198080058079,"connected_time":1061000000000,"state":"active","ping":57},{"user_id":367,"name":"SaltyFlump","steam_id":76561199379601288,"connected_time":2288000000000,"state":"active","ping":59},{"user_id":374,"name":"darktheif54","steam_id":76561198043650119,"connected_time":1994000000000,"state":"active","ping":82},{"user_id":366,"name":"mooney","steam_id":76561199110622484,"connected_time":2364000000000,"state":"active","ping":63},{"user_id":365,"name":"[ibb‚Ñ¢]Shadow20X6-ENGI","steam_id":76561198019292755,"connected_time":2420000000000,"state":"active","ping":81},{"user_id":376,"name":"Dimple #TF2Center","steam_id":76561198980324190,"connected_time":1688000000000,"state":"active","ping":52}]},{"server_id":119,"name":"Uncletopia | Seattle | 2 | All Maps","name_short":"sea-2","host":"sea-1.us.uncletopia.com","port":27025,"enabled":true,"region":"us-west","cc":"us","latitude":47.608013,"longitude":-122.33517,"reserved":0,"last_update":"0001-01-01T00:00:00Z","name_a2s":"Uncletopia | Seattle | 2 | All Maps","protocol":17,"map":"cp_powerhouse","folder":"tf","game":"Team Fortress","app_id":440,"player_count":25,"max_players":24,"Bots":0,"server_type":"Dedicated","server_os":"Linux","password":true,"vac":true,"version":"7757534","steam_id":85568392924469998,"keywords":["cp","nocrits","nodmgspread","uncletopia"],"game_id":440,"stv_port":27026,"stv_name":"Uncletopia | Seattle | 2 | All Maps | STV","players":[{"user_id":136,"name":"Birdman743","steam_id":76561198799636748,"connected_time":181000000000,"state":"active","ping":55},{"user_id":73,"name":"Cesar","steam_id":76561199244427790,"connected_time":2236000000000,"state":"active","ping":78},{"user_id":63,"name":"J0hN","steam_id":76561198055972894,"connected_time":2595000000000,"state":"active","ping":44},{"user_id":21,"name":"Sleepy Hot Cocoa","steam_id":76561199475447764,"connected_time":5001000000000,"state":"active","ping":87},{"user_id":32,"name":"nfseskimo","steam_id":76561198078745666,"connected_time":3706000000000,"state":"active","ping":44},{"user_id":77,"name":"he/him whimper","steam_id":76561198097175164,"connected_time":1945000000000,"state":"active","ping":130},{"user_id":113,"name":"AnonymousCritter","steam_id":76561198864475187,"connected_time":960000000000,"state":"active","ping":89},{"user_id":89,"name":"SneekiCheekiQbone","steam_id":76561198045077980,"connected_time":1590000000000,"state":"active","ping":70},{"user_id":34,"name":"McSpazatron","steam_id":76561198955942148,"connected_time":3576000000000,"state":"active","ping":75},{"user_id":71,"name":"Mike Bean Burritos","steam_id":76561198173430607,"connected_time":2346000000000,"state":"active","ping":48},{"user_id":119,"name":"Vagrant","steam_id":76561198242536886,"connected_time":724000000000,"state":"active","ping":88},{"user_id":120,"name":"Marzbee115","steam_id":76561198095821025,"connected_time":652000000000,"state":"active","ping":76},{"user_id":42,"name":"Nassu","steam_id":76561198147367577,"connected_time":3298000000000,"state":"active","ping":122},{"user_id":43,"name":"Zogovro","steam_id":76561199163618880,"connected_time":3269000000000,"state":"active","ping":88},{"user_id":138,"name":"selvhat","steam_id":76561198114225509,"connected_time":109000000000,"state":"active","ping":72},{"user_id":47,"name":"Thequirka","steam_id":76561198968058652,"connected_time":3136000000000,"state":"active","ping":50},{"user_id":139,"name":"N«ùcr0Blaze–Ø","steam_id":76561198039015593,"connected_time":73000000000,"state":"active","ping":59},{"user_id":88,"name":"LesserAce","steam_id":76561198153258132,"connected_time":1601000000000,"state":"active","ping":123},{"user_id":137,"name":"Amadeus","steam_id":76561198160047173,"connected_time":151000000000,"state":"active","ping":35},{"user_id":127,"name":"MerkZ","steam_id":76561198047620432,"connected_time":458000000000,"state":"active","ping":66},{"user_id":140,"name":"dirty30","steam_id":76561198021226566,"connected_time":59000000000,"state":"active","ping":47},{"user_id":141,"name":"squash","steam_id":76561198150281353,"connected_time":32000000000,"state":"active","ping":55},{"user_id":109,"name":"weenie hut jr","steam_id":76561198206922028,"connected_time":1087000000000,"state":"active","ping":76},{"user_id":133,"name":"TheCowledWiz","steam_id":76561198016735868,"connected_time":265000000000,"state":"active","ping":47},{"user_id":142,"name":"CodeBaron","steam_id":76561199466064042,"connected_time":0,"state":"spawning","ping":0}]},{"server_id":406,"name":"Uncletopia | Seattle | 3 | Stopwatch Beta","name_short":"sea-3","host":"sea-1.us.uncletopia.com","port":27035,"enabled":true,"region":"us-west","cc":"us","latitude":47.608013,"longitude":-122.33517,"reserved":0,"last_update":"0001-01-01T00:00:00Z","name_a2s":"Uncletopia | Seattle | 3 | Stopwatch Beta","protocol":17,"map":"workshop/koth_product_final.ugc454272353","folder":"tf","game":"Team Fortress","app_id":440,"player_count":0,"max_players":24,"Bots":0,"server_type":"Dedicated","server_os":"Linux","password":true,"vac":true,"version":"7757534","steam_id":85568392924515217,"keywords":["cp","nocrits","nodmgspread","uncletopia"],"game_id":440,"stv_port":27036,"stv_name":"Uncletopia | Seattle | 3 | Stopwatch Beta | STV","players":null},{"server_id":17,"name":"Uncletopia | San Francisco | 1 | All Maps","name_short":"sfo-1","host":"sfo-1.us.uncletopia.com","port":27015,"enabled":true,"region":"us-west","cc":"us","latitude":37.77397,"longitude":-122.4313,"reserved":0,"last_update":"0001-01-01T00:00:00Z","name_a2s":"Uncletopia | San Francisco | 1 | All Maps","protocol":17,"map":"plr_hightower","folder":"tf","game":"Team Fortress","app_id":440,"player_count":0,"max_players":24,"Bots":0,"server_type":"Dedicated","server_os":"Linux","password":true,"vac":true,"version":"7757534","steam_id":85568392924469999,"keywords":["nocrits","nodmgspread","payload","uncletopia"],"game_id":440,"stv_port":27016,"stv_name":"Uncletopia | San Francisco | 1 | All Maps | STV","players":null},{"server_id":18,"name":"Uncletopia | San Francisco | 2 | All Maps","name_short":"sfo-2","host":"sfo-1.us.uncletopia.com","port":27025,"enabled":true,"region":"us-west","cc":"us","latitude":37.77397,"longitude":-122.4313,"reserved":0,"last_update":"0001-01-01T00:00:00Z","name_a2s":"Uncletopia | San Francisco | 2 | All Maps","protocol":17,"map":"cp_snakewater_final1","folder":"tf","game":"Team Fortress","app_id":440,"player_count":24,"max_players":24,"Bots":0,"server_type":"Dedicated","server_os":"Linux","password":true,"vac":true,"version":"7757534","steam_id":85568392924470000,"keywords":["cp","nocrits","nodmgspread","uncletopia"],"game_id":440,"stv_port":27026,"stv_name":"Uncletopia | San Francisco | 2 | All Maps | STV","players":[{"user_id":195,"name":"Dongus","steam_id":76561197979056451,"connected_time":906000000000,"state":"active","ping":65},{"user_id":198,"name":"„Å®„Çä„ÅÇ„Åà„Åö„Åæ„Å† ÁßÅ„ÅØÊäò","steam_id":76561198068672882,"connected_time":773000000000,"state":"active","ping":48},{"user_id":62,"name":"kaede :3","steam_id":76561198345528370,"connected_time":9061000000000,"state":"active","ping":44},{"user_id":199,"name":"ivylain","steam_id":76561198287330136,"connected_time":748000000000,"state":"active","ping":104},{"user_id":193,"name":"Training Arc","steam_id":76561198038832034,"connected_time":1139000000000,"state":"active","ping":68},{"user_id":202,"name":"cheems","steam_id":76561198155843685,"connected_time":202000000000,"state":"active","ping":51},{"user_id":187,"name":"Goblin Mode","steam_id":76561198064870076,"connected_time":1936000000000,"state":"active","ping":114},{"user_id":197,"name":"rmbl","steam_id":76561198150137369,"connected_time":787000000000,"state":"active","ping":47},{"user_id":189,"name":"huiei","steam_id":76561198073763735,"connected_time":1534000000000,"state":"active","ping":54},{"user_id":155,"name":"cool beans","steam_id":76561198045758072,"connected_time":4397000000000,"state":"active","ping":45},{"user_id":201,"name":"Livin' Like Larry","steam_id":76561198313360974,"connected_time":325000000000,"state":"active","ping":42},{"user_id":204,"name":"SaltyService","steam_id":76561198120366751,"connected_time":120000000000,"state":"active","ping":70},{"user_id":191,"name":"KibbiChibi","steam_id":76561198965978919,"connected_time":1210000000000,"state":"active","ping":60},{"user_id":166,"name":"yaoi knight","steam_id":76561199047969318,"connected_time":4183000000000,"state":"active","ping":85},{"user_id":190,"name":"Altruisticailuridae","steam_id":76561198335295596,"connected_time":1249000000000,"state":"active","ping":60},{"user_id":188,"name":"mob","steam_id":76561199140164173,"connected_time":1936000000000,"state":"active","ping":45},{"user_id":175,"name":"Pan-Demonica","steam_id":76561198294350105,"connected_time":3158000000000,"state":"active","ping":105},{"user_id":157,"name":"Clit Yeastwood","steam_id":76561199042672094,"connected_time":4389000000000,"state":"active","ping":71},{"user_id":138,"name":"apes on wheels","steam_id":76561198101324429,"connected_time":5636000000000,"state":"active","ping":114},{"user_id":206,"name":"rafaelbragasantos","steam_id":76561198060141773,"connected_time":17000000000,"state":"active","ping":242},{"user_id":169,"name":"help me","steam_id":76561198306393090,"connected_time":4153000000000,"state":"active","ping":120},{"user_id":205,"name":"Speg","steam_id":76561198101312573,"connected_time":105000000000,"state":"active","ping":79},{"user_id":194,"name":"Dani","steam_id":76561198348012378,"connected_time":1095000000000,"state":"active","ping":111},{"user_id":196,"name":"GarboBeans","steam_id":76561198089127316,"connected_time":900000000000,"state":"active","ping":63}]},{"server_id":19,"name":"Uncletopia | San Francisco | 3 | Stopwatch Beta","name_short":"sfo-3","host":"sfo-1.us.uncletopia.com","port":27035,"enabled":true,"region":"us-west","cc":"us","latitude":37.77397,"longitude":-122.4313,"reserved":0,"last_update":"0001-01-01T00:00:00Z","name_a2s":"Uncletopia | San Francisco | 3 | Stopwatch Beta","protocol":17,"map":"pl_borneo","folder":"tf","game":"Team Fortress","app_id":440,"player_count":0,"max_players":24,"Bots":0,"server_type":"Dedicated","server_os":"Linux","password":true,"vac":true,"version":"7757534","steam_id":85568392924742824,"keywords":["nocrits","nodmgspread","payload","uncletopia"],"game_id":440,"stv_port":27036,"stv_name":"Uncletopia | San Francisco | 3 | Stopwatch Beta | STV","players":null},{"server_id":20,"name":"Uncletopia | San Francisco | 4 | Community","name_short":"sfo-4","host":"sfo-1.us.uncletopia.com","port":27045,"enabled":true,"region":"us-west","cc":"us","latitude":37.77397,"longitude":-122.4313,"reserved":0,"last_update":"0001-01-01T00:00:00Z","name_a2s":"Uncletopia | San Francisco | 4 | Community","protocol":17,"map":"workshop/koth_ramjam_rc1.ugc459778887","folder":"tf","game":"Team Fortress","app_id":440,"player_count":0,"max_players":24,"Bots":0,"server_type":"Dedicated","server_os":"Linux","password":true,"vac":true,"version":"7757534","steam_id":85568392924742826,"keywords":["cp","nocrits","nodmgspread","uncletopia"],"game_id":440,"stv_port":27046,"stv_name":"Uncletopia | San Francisco | 4 | Community | STV","players":null},{"server_id":141,"name":"Uncletopia | Sydney | 1 | All Maps","name_short":"syd-1","host":"syd-1.au.uncletopia.com","port":27015,"enabled":true,"region":"au","cc":"au","latitude":-33.865143,"longitude":151.2099,"reserved":0,"last_update":"0001-01-01T00:00:00Z","name_a2s":"Uncletopia | Sydney | 1 | All Maps","protocol":17,"map":"koth_viaduct","folder":"tf","game":"Team Fortress","app_id":440,"player_count":0,"max_players":24,"Bots":0,"server_type":"Dedicated","server_os":"Linux","password":true,"vac":true,"version":"7757534","steam_id":85568392924470001,"keywords":["cp","nocrits","nodmgspread","uncletopia"],"game_id":440,"stv_port":27016,"stv_name":"Uncletopia | Sydney | 1 | All Maps | STV","players":null},{"server_id":123,"name":"Uncletopia | Sydney | 2 | All Maps","name_short":"syd-2","host":"syd-1.au.uncletopia.com","port":27025,"enabled":true,"region":"au","cc":"au","latitude":-33.865143,"longitude":151.2099,"reserved":0,"last_update":"0001-01-01T00:00:00Z","name_a2s":"Uncletopia | Sydney | 2 | All Maps","protocol":17,"map":"cp_process_final","folder":"tf","game":"Team Fortress","app_id":440,"player_count":0,"max_players":24,"Bots":0,"server_type":"Dedicated","server_os":"Linux","password":true,"vac":true,"version":"7757534","steam_id":85568392924470002,"keywords":["cp","nocrits","nodmgspread","uncletopia"],"game_id":440,"stv_port":27026,"stv_name":"Uncletopia | Sydney | 2 | All Maps | STV","players":null},{"server_id":395,"name":"Uncletopia | Sydney | 3 | All Maps","name_short":"syd-3","host":"syd-1.au.uncletopia.com","port":27035,"enabled":true,"region":"au","cc":"au","latitude":-33.865143,"longitude":151.2099,"reserved":0,"last_update":"0001-01-01T00:00:00Z","name_a2s":"Uncletopia | Sydney | 3 | All Maps","protocol":17,"map":"pl_pier","folder":"tf","game":"Team Fortress","app_id":440,"player_count":2,"max_players":24,"Bots":0,"server_type":"Dedicated","server_os":"Linux","password":true,"vac":true,"version":"7757534","steam_id":85568392925194467,"keywords":["nocrits","nodmgspread","payload","uncletopia"],"game_id":440,"stv_port":27036,"stv_name":"Uncletopia | Sydney | 3 | All Maps | STV","players":[{"user_id":18,"name":"discord.gg/FB6YuUvQQA","steam_id":76561199478085210,"connected_time":297000000000,"state":"active","ping":318},{"user_id":20,"name":"The Bisoneer Tf2","steam_id":76561199446773766,"connected_time":247000000000,"state":"active","ping":90}]},{"server_id":396,"name":"Uncletopia | Sydney | 4 | All Maps","name_short":"syd-4","host":"syd-1.au.uncletopia.com","port":27045,"enabled":true,"region":"au","cc":"au","latitude":-33.865143,"longitude":151.2099,"reserved":0,"last_update":"0001-01-01T00:00:00Z","name_a2s":"Uncletopia | Sydney | 4 | All Maps","protocol":17,"map":"koth_highpass","folder":"tf","game":"Team Fortress","app_id":440,"player_count":0,"max_players":24,"Bots":0,"server_type":"Dedicated","server_os":"Linux","password":true,"vac":true,"version":"7757534","steam_id":85568392925397958,"keywords":["cp","nocrits","nodmgspread","uncletopia"],"game_id":440,"stv_port":27046,"stv_name":"Uncletopia | Sydney | 4 | All Maps | STV","players":null},{"server_id":58,"name":"Uncletopia | Sydney | 5 | Stopwatch Beta","name_short":"syd-5","host":"syd-1.au.uncletopia.com","port":27055,"enabled":true,"region":"au","cc":"au","latitude":-33.865143,"longitude":151.2099,"reserved":0,"last_update":"0001-01-01T00:00:00Z","name_a2s":"Uncletopia | Sydney | 5 | Stopwatch Beta","protocol":17,"map":"koth_cascade","folder":"tf","game":"Team Fortress","app_id":440,"player_count":0,"max_players":24,"Bots":0,"server_type":"Dedicated","server_os":"Linux","password":true,"vac":true,"version":"7757534","steam_id":85568392925397959,"keywords":["cp","nocrits","nodmgspread","uncletopia"],"game_id":440,"stv_port":27056,"stv_name":"Uncletopia | Sydney | 5 | Stopwatch Beta | STV","players":null},{"server_id":59,"name":"Uncletopia | Sydney | 6 | Community","name_short":"syd-6","host":"syd-1.au.uncletopia.com","port":27065,"enabled":true,"region":"au","cc":"au","latitude":-33.865143,"longitude":151.2099,"reserved":0,"last_update":"0001-01-01T00:00:00Z","name_a2s":"Uncletopia | Sydney | 6 | Community","protocol":17,"map":"cp_snakewater_final1","folder":"tf","game":"Team Fortress","app_id":440,"player_count":0,"max_players":24,"Bots":0,"server_type":"Dedicated","server_os":"Linux","password":true,"vac":true,"version":"7757534","steam_id":85568392925397960,"keywords":["cp","nocrits","nodmgspread","uncletopia"],"game_id":440,"stv_port":27066,"stv_name":"Uncletopia | Sydney | 6 | Community | STV","players":null},{"server_id":49,"name":"Uncletopia | Warsaw | 1 | All Maps","name_short":"waw-1","host":"waw-1.pl.uncletopia.com","port":27015,"enabled":true,"region":"eu","cc":"pl","latitude":52.2297,"longitude":21.017532,"reserved":0,"last_update":"0001-01-01T00:00:00Z","name_a2s":"","protocol":0,"map":"","folder":"","game":"","app_id":0,"player_count":0,"max_players":0,"Bots":0,"server_type":"","server_os":"","password":false,"vac":false,"version":"","steam_id":0,"keywords":null,"game_id":0,"stv_port":0,"stv_name":"","players":null},{"server_id":50,"name":"Uncletopia | Warsaw | 2 | All Maps","name_short":"waw-2","host":"waw-1.pl.uncletopia.com","port":27025,"enabled":true,"region":"eu","cc":"pl","latitude":52.2297,"longitude":21.017532,"reserved":0,"last_update":"0001-01-01T00:00:00Z","name_a2s":"Uncletopia | Warsaw | 2 | All Maps","protocol":17,"map":"cp_mountainlab","folder":"tf","game":"Team Fortress","app_id":440,"player_count":23,"max_players":24,"Bots":0,"server_type":"Dedicated","server_os":"Linux","password":true,"vac":true,"version":"7757534","steam_id":85568392925397851,"keywords":["cp","nocrits","nodmgspread","uncletopia"],"game_id":440,"stv_port":27026,"stv_name":"Uncletopia | Warsaw | 2 | All Maps | STV","players":[{"user_id":441,"name":"GrzMik","steam_id":76561198061951968,"connected_time":1413000000000,"state":"active","ping":67},{"user_id":438,"name":"Proud Jojo Fan #TF2SP","steam_id":76561198847327216,"connected_time":1532000000000,"state":"active","ping":45},{"user_id":448,"name":"My left foot itches","steam_id":76561198078411001,"connected_time":250000000000,"state":"active","ping":57},{"user_id":449,"name":"dexter","steam_id":76561198937297906,"connected_time":173000000000,"state":"active","ping":109},{"user_id":368,"name":"JeckBanan","steam_id":76561198219869200,"connected_time":6509000000000,"state":"active","ping":182},{"user_id":394,"name":"aziz micheal","steam_id":76561199185059009,"connected_time":3957000000000,"state":"active","ping":115},{"user_id":431,"name":"***** ***","steam_id":76561198048037379,"connected_time":1830000000000,"state":"active","ping":58},{"user_id":412,"name":"ZagreusNoMoney","steam_id":76561198996162089,"connected_time":3286000000000,"state":"active","ping":51},{"user_id":450,"name":"cassius banditcamp.com","steam_id":76561198412521286,"connected_time":84000000000,"state":"active","ping":103},{"user_id":439,"name":"Kakograf","steam_id":76561198148375639,"connected_time":1506000000000,"state":"active","ping":63},{"user_id":451,"name":"8onJour","steam_id":76561198995725491,"connected_time":71000000000,"state":"active","ping":77},{"user_id":446,"name":"Cookies and Bakies","steam_id":76561198017442928,"connected_time":1072000000000,"state":"active","ping":71},{"user_id":417,"name":"Shade [potato mafia]","steam_id":76561198864459057,"connected_time":2775000000000,"state":"active","ping":68},{"user_id":414,"name":"vinsanity","steam_id":76561198106912794,"connected_time":3148000000000,"state":"active","ping":91},{"user_id":427,"name":"lipino777","steam_id":76561199005158933,"connected_time":2191000000000,"state":"active","ping":292},{"user_id":421,"name":"Ziltoid","steam_id":76561198020753675,"connected_time":2524000000000,"state":"active","ping":76},{"user_id":452,"name":"not a nihilist","steam_id":76561198004340466,"connected_time":35000000000,"state":"active","ping":68},{"user_id":422,"name":"FuneralDJ (semen demon)","steam_id":76561198105320071,"connected_time":2452000000000,"state":"active","ping":79},{"user_id":443,"name":"ThellanM","steam_id":76561199014222387,"connected_time":1358000000000,"state":"active","ping":97},{"user_id":444,"name":"The Guy For That","steam_id":76561198195208795,"connected_time":1303000000000,"state":"active","ping":155},{"user_id":365,"name":"fedor alexandrovich","steam_id":76561198057733920,"connected_time":6716000000000,"state":"active","ping":132},{"user_id":429,"name":"PSHH YOBA","steam_id":76561197999869136,"connected_time":2028000000000,"state":"active","ping":95},{"user_id":445,"name":"Manne","steam_id":76561197966137258,"connected_time":1264000000000,"state":"active","ping":90}]},{"server_id":51,"name":"Uncletopia | Warsaw | 3 | All Maps","name_short":"waw-3","host":"waw-1.pl.uncletopia.com","port":27035,"enabled":true,"region":"eu","cc":"pl","latitude":52.2297,"longitude":21.017532,"reserved":0,"last_update":"0001-01-01T00:00:00Z","name_a2s":"Uncletopia | Warsaw | 3 | All Maps","protocol":17,"map":"koth_highpass","folder":"tf","game":"Team Fortress","app_id":440,"player_count":0,"max_players":24,"Bots":0,"server_type":"Dedicated","server_os":"Linux","password":true,"vac":true,"version":"7757534","steam_id":85568392925397852,"keywords":["cp","nocrits","nodmgspread","uncletopia"],"game_id":440,"stv_port":27036,"stv_name":"Uncletopia | Warsaw | 3 | All Maps | STV","players":null},{"server_id":52,"name":"Uncletopia | Warsaw | 4 | All Maps","name_short":"waw-4","host":"waw-1.pl.uncletopia.com","port":27045,"enabled":true,"region":"eu","cc":"pl","latitude":52.2297,"longitude":21.017532,"reserved":0,"last_update":"0001-01-01T00:00:00Z","name_a2s":"Uncletopia | Warsaw | 4 | All Maps","protocol":17,"map":"koth_lakeside_final","folder":"tf","game":"Team Fortress","app_id":440,"player_count":0,"max_players":24,"Bots":0,"server_type":"Dedicated","server_os":"Linux","password":true,"vac":true,"version":"7757534","steam_id":85568392925397853,"keywords":["cp","nocrits","nodmgspread","uncletopia"],"game_id":440,"stv_port":27046,"stv_name":"Uncletopia | Warsaw | 4 | All Maps | STV","players":null},{"server_id":53,"name":"Uncletopia | Warsaw | 5 | Stopwatch Beta","name_short":"waw-5","host":"waw-1.pl.uncletopia.com","port":27055,"enabled":true,"region":"eu","cc":"pl","latitude":52.2297,"longitude":21.017532,"reserved":0,"last_update":"0001-01-01T00:00:00Z","name_a2s":"Uncletopia | Warsaw | 5 | Stopwatch Beta","protocol":17,"map":"pl_borneo","folder":"tf","game":"Team Fortress","app_id":440,"player_count":0,"max_players":24,"Bots":0,"server_type":"Dedicated","server_os":"Linux","password":true,"vac":true,"version":"7757534","steam_id":85568392925397854,"keywords":["nocrits","nodmgspread","payload","uncletopia"],"game_id":440,"stv_port":27056,"stv_name":"Uncletopia | Warsaw | 5 | Stopwatch Beta | STV","players":null},{"server_id":54,"name":"Uncletopia | Warsaw | 6 | Community","name_short":"waw-6","host":"waw-1.pl.uncletopia.com","port":27065,"enabled":true,"region":"eu","cc":"pl","latitude":52.2297,"longitude":21.017532,"reserved":0,"last_update":"0001-01-01T00:00:00Z","name_a2s":"Uncletopia | Warsaw | 6 | Community","protocol":17,"map":"workshop/cp_caldera_rc2.ugc2834196889","folder":"tf","game":"Team Fortress","app_id":440,"player_count":0,"max_players":24,"Bots":0,"server_type":"Dedicated","server_os":"Linux","password":true,"vac":true,"version":"7757534","steam_id":85568392925397856,"keywords":["cp","nocrits","nodmgspread","uncletopia"],"game_id":440,"stv_port":27066,"stv_name":"Uncletopia | Warsaw | 6 | Community | STV","players":null}]}