{"status":true,"message":"","result":[{"server_id":9,"name":"Uncletopia | Atlanta | 1 | All Maps","name_short":"atl-1","host":"atl-1.us.uncletopia.com","port":27015,"enabled":true,"region":"us-east","cc":"us","latitude":33.753746,"longitude":-84.38633,"reserved":0,"last_update":"0001-01-01T00:00:00Z","name_a2s":"Uncletopia | Atlanta | 1 | All Maps","protocol":17,"map":"pl_barnblitz","folder":"tf","game":"Team Fortress","app_id":440,"player_count":23,"max_players":24,"Bots":0,"server_type":"Dedicated","server_os":"Linux","password":true,"vac":true,"version":"7742253","steam_id":85568392924469982,"keywords":["nocrits","nodmgspread","payload","uncletopia"],"game_id":440,"stv_port":27016,"stv_name":"Uncletopia | Atlanta | 1 | All Maps | STV","players":[{"user_id":580,"name":"DFR Wingm4n","steam_id":76561198064127012,"connected_time":1143000000000,"state":"active","ping":63},{"user_id":588,"name":"lucas tagert","steam_id":76561199210205814,"connected_time":515000000000,"state":"active","ping":87},{"user_id":518,"name":"--_Cook_--","steam_id":76561198080855748,"connected_time":8663000000000,"state":"active","ping":65},{"user_id":550,"name":"new year new personality","steam_id":76561198016121536,"connected_time":5447000000000,"state":"active","ping":80},{"user_id":583,"name":"Koishi","steam_id":76561198054541054,"connected_time":1106000000000,"state":"active","ping":58},{"user_id":587,"name":"bad username","steam_id":76561198397009880,"connected_time":564000000000,"state":"active","ping":47},{"user_id":572,"name":"WitheringLeo","steam_id":76561198046722918,"connected_time":2282000000000,"state":"active","ping":67},{"user_id":586,"name":"[txc] garf","steam_id":76561198083078030,"connected_time":1022000000000,"state":"active","ping":60},{"user_id":538,"name":"shaderoses","steam_id":76561198070800500,"connected_time":6258000000000,"state":"active","ping":74},{"user_id":576,"name":"ATL1 | to4st","steam_id":76561198981009008,"connected_time":1980000000000,"state":"active","ping":69},{"user_id":590,"name":"nahhhhh aint no way","steam_id":76561198085571748,"connected_time":64000000000,"state":"active","ping":41},{"user_id":578,"name":"LionHeart","steam_id":76561198075573693,"connected_time":1601000000000,"state":"active","ping":60},{"user_id":589,"name":"floofy","steam_id":76561198389769098,"connected_time":294000000000,"state":"active","ping":86},{"user_id":541,"name":"trappy","steam_id":76561198402801140,"connected_time":6253000000000,"state":"active","ping":83},{"user_id":577,"name":"Vladikr1","steam_id":76561198401495362,"connected_time":1843000000000,"state":"active","ping":79},{"user_id":516,"name":"stink","steam_id":76561198099318923,"connected_time":8699000000000,"state":"active","ping":79},{"user_id":505,"name":"ash","steam_id":76561198127890645,"connected_time":10885000000000,"state":"active","ping":67},{"user_id":568,"name":"C papi","steam_id":76561198027779564,"connected_time":2695000000000,"state":"active","ping":58},{"user_id":562,"name":"ATL1 | Lav4ie They/Them","steam_id":76561198825997674,"connected_time":3951000000000,"state":"active","ping":57},{"user_id":579,"name":"Alt","steam_id":76561197992591984,"connected_time":1396000000000,"state":"active","ping":90},{"user_id":560,"name":"☙ Corrupt ❧","steam_id":76561197977631915,"connected_time":4101000000000,"state":"active","ping":67},{"user_id":567,"name":"[txc] milk","steam_id":76561198127457787,"connected_time":3179000000000,"state":"active","ping":72},{"user_id":574,"name":"DFR Le4n!!!","steam_id":76561198045522596,"connected_time":2260000000000,"state":"active","ping":75}]},{"server_id":400,"name":"Uncletopia | Atlanta | 3 | Stopwatch Beta","name_short":"atl-3","host":"atl-1.us.uncletopia.com","port":27035,"enabled":true,"region":"us-east","cc":"us","latitude":33.753746,"longitude":-84.38633,"reserved":0,"last_update":"0001-01-01T00:00:00Z","name_a2s":"Uncletopia | Atlanta | 3 | Stopwatch Beta","protocol":17,"map":"pl_upward","folder":"tf","game":"Team Fortress","app_id":440,"player_count":0,"max_players":24,"Bots":0,"server_type":"Dedicated","server_os":"Linux","password":true,"vac":true,"version":"7742253","steam_id":85568392924515187,"keywords":["nocrits","nodmgspread","payload","uncletopia"],"game_id":440,"stv_port":27036,"stv_name":"Uncletopia | Atlanta | 3 | Stopwatch Beta | STV","players":null},{"server_id":401,"name":"Uncletopia | Atlanta | 4 | No Payload","name_short":"atl-4","host":"atl-1.us.uncletopia.com","port":27045,"enabled":true,"region":"us-east","cc":"us","latitude":33.753746,"longitude":-84.38633,"reserved":0,"last_update":"0001-01-01T00:00:00Z","name_a2s":"Uncletopia | Atlanta | 4 | No Payload","protocol":17,"map":"pl_pier","folder":"tf","game":"Team Fortress","app_id":440,"player_count":0,"max_players":24,"Bots":0,"server_type":"Dedicated","server_os":"Linux","password":true,"vac":true,"version":"7723704","steam_id":85568392924515188,"keywords":["nocrits","nodmgspread","payload","uncletopia"],"game_id":440,"stv_port":27046,"stv_name":"Uncletopia | Atlanta | 4 | No Payload | STV","players":null},{"server_id":2,"name":"Uncletopia | Chicago | 1 | All Maps","name_short":"chi-1","host":"chi-1.us.uncletopia.com","port":27015,"enabled":true,"region":"us-central","cc":"us","latitude":41.881832,"longitude":-87.62318,"reserved":0,"last_update":"0001-01-01T00:00:00Z","name_a2s":"Uncletopia | Chicago | 1 | All Maps","protocol":17,"map":"pl_frontier_final","folder":"tf","game":"Team Fortress","app_id":440,"player_count":24,"max_players":24,"Bots":0,"server_type":"Dedicated","server_os":"Linux","password":true,"vac":true,"version":"7742253","steam_id":85568392924469984,"keywords":["nocrits","nodmgspread","payload","uncletopia"],"game_id":440,"stv_port":27016,"stv_name":"Uncletopia | Chicago | 1 | All Maps | STV","players":[{"user_id":721,"name":".-.","steam_id":76561198820617005,"connected_time":856000000000,"state":"active","ping":120},{"user_id":707,"name":"Dan Flashes Rewards Card Holder","steam_id":76561199215811448,"connected_time":1451000000000,"state":"active","ping":66},{"user_id":683,"name":"penguinlord","steam_id":76561198305192692,"connected_time":2774000000000,"state":"active","ping":54},{"user_id":713,"name":"Mothership","steam_id":76561198044029501,"connected_time":1164000000000,"state":"active","ping":151},{"user_id":726,"name":"Ap1hw","steam_id":76561199122883466,"connected_time":261000000000,"state":"active","ping":64},{"user_id":708,"name":"Dr. Pleasant","steam_id":76561198111945101,"connected_time":1450000000000,"state":"active","ping":66},{"user_id":723,"name":"zpoxthedark","steam_id":76561198199549510,"connected_time":602000000000,"state":"active","ping":60},{"user_id":722,"name":"xXBigWingmanFanXx","steam_id":76561198067904392,"connected_time":665000000000,"state":"active","ping":61},{"user_id":662,"name":"Witch!","steam_id":76561198062763756,"connected_time":5492000000000,"state":"active","ping":61},{"user_id":715,"name":"Shwal","steam_id":76561198138840448,"connected_time":1083000000000,"state":"active","ping":91},{"user_id":704,"name":"ุ","steam_id":76561198170624701,"connected_time":1800000000000,"state":"active","ping":78},{"user_id":716,"name":"crossbow only until i can aim","steam_id":76561198071229473,"connected_time":1080000000000,"state":"active","ping":66},{"user_id":687,"name":"Trusty","steam_id":76561198035444237,"connected_time":2712000000000,"state":"active","ping":68},{"user_id":711,"name":"Shmoopy","steam_id":76561198030459152,"connected_time":1248000000000,"state":"active","ping":76},{"user_id":717,"name":"big texas cum","steam_id":76561198031794961,"connected_time":1075000000000,"state":"active","ping":56},{"user_id":725,"name":"JayArr","steam_id":76561198124371253,"connected_time":436000000000,"state":"active","ping":44},{"user_id":649,"name":"TheToastingToaster","steam_id":76561198439391966,"connected_time":9093000000000,"state":"active","ping":61},{"user_id":718,"name":"Jerma983","steam_id":76561198104182138,"connected_time":1074000000000,"state":"active","ping":69},{"user_id":654,"name":"Liquid Oxycodone","steam_id":76561198154162664,"connected_time":8574000000000,"state":"active","ping":67},{"user_id":680,"name":"potato pat","steam_id":76561198025489194,"connected_time":3223000000000,"state":"active","ping":79},{"user_id":703,"name":"Malaflub_55","steam_id":76561199112453790,"connected_time":1845000000000,"state":"active","ping":64},{"user_id":693,"name":"The Muffin Man","steam_id":76561199088286427,"connected_time":2615000000000,"state":"active","ping":92},{"user_id":720,"name":"CampinCarl","steam_id":76561197997373624,"connected_time":934000000000,"state":"active","ping":102},{"user_id":719,"name":"Tom","steam_id":76561198126800063,"connected_time":1028000000000,"state":"active","ping":132}]},{"server_id":106,"name":"Uncletopia | Chicago | 2 | All Maps","name_short":"chi-2","host":"chi-1.us.uncletopia.com","port":27025,"enabled":true,"region":"us-central","cc":"us","latitude":41.881832,"longitude":-87.62318,"reserved":0,"last_update":"0001-01-01T00:00:00Z","name_a2s":"Uncletopia | Chicago | 2 | All Maps","protocol":17,"map":"pl_swiftwater_final1","folder":"tf","game":"Team Fortress","app_id":440,"player_count":23,"max_players":24,"Bots":0,"server_type":"Dedicated","server_os":"Linux","password":true,"vac":true,"version":"7742253","steam_id":85568392924469985,"keywords":["nocrits","nodmgspread","payload","uncletopia"],"game_id":440,"stv_port":27026,"stv_name":"Uncletopia | Chicago | 2 | All Maps | STV","players":[{"user_id":710,"name":"SketchMeister","steam_id":76561198042362032,"connected_time":1563000000000,"state":"active","ping":56},{"user_id":730,"name":"turnip","steam_id":76561197999375941,"connected_time":130000000000,"state":"active","ping":74},{"user_id":667,"name":"skiky","steam_id":76561198797004708,"connected_time":6175000000000,"state":"active","ping":77},{"user_id":657,"name":"Cloudman","steam_id":76561198041389138,"connected_time":6694000000000,"state":"active","ping":77},{"user_id":718,"name":"Bobato Chaps","steam_id":76561198065103552,"connected_time":713000000000,"state":"active","ping":49},{"user_id":732,"name":"Mr. Sandman","steam_id":76561198065870487,"connected_time":93000000000,"state":"active","ping":50},{"user_id":688,"name":"WannaSeeA","steam_id":76561198097701042,"connected_time":4027000000000,"state":"active","ping":73},{"user_id":733,"name":"Sanic_Bum","steam_id":76561198094179822,"connected_time":85000000000,"state":"active","ping":58},{"user_id":734,"name":"Dagsdaf","steam_id":76561198055317112,"connected_time":83000000000,"state":"active","ping":62},{"user_id":735,"name":"Binky Den","steam_id":76561198164035863,"connected_time":82000000000,"state":"active","ping":56},{"user_id":708,"name":"Grandpa Simpson (Official)","steam_id":76561198057607033,"connected_time":1802000000000,"state":"active","ping":46},{"user_id":666,"name":"ShitsandGiggles™","steam_id":76561198058708019,"connected_time":6348000000000,"state":"active","ping":50},{"user_id":714,"name":"Metal 9","steam_id":76561198178318343,"connected_time":1049000000000,"state":"active","ping":64},{"user_id":684,"name":"chucknut","steam_id":76561199329553584,"connected_time":4267000000000,"state":"active","ping":144},{"user_id":680,"name":"-flagellum","steam_id":76561198006297974,"connected_time":4513000000000,"state":"active","ping":59},{"user_id":736,"name":"Maxwell5123","steam_id":76561198025959510,"connected_time":80000000000,"state":"active","ping":124},{"user_id":737,"name":"Porsy","steam_id":76561198041850843,"connected_time":71000000000,"state":"active","ping":43},{"user_id":670,"name":"celty","steam_id":76561198141204302,"connected_time":5124000000000,"state":"active","ping":80},{"user_id":725,"name":"Doinnoid","steam_id":76561198262276139,"connected_time":487000000000,"state":"active","ping":78},{"user_id":668,"name":"CreativeUsername","steam_id":76561198186045503,"connected_time":6150000000000,"state":"active","ping":55},{"user_id":722,"name":"Bottle","steam_id":76561198044031558,"connected_time":525000000000,"state":"active","ping":63},{"user_id":681,"name":"Xx_PR3TTY_R4VE_G!R1_xX","steam_id":76561199059016425,"connected_time":4385000000000,"state":"active","ping":58},{"user_id":705,"name":"comet sooicidy","steam_id":76561198025173479,"connected_time":2377000000000,"state":"active","ping":91}]},{"server_id":402,"name":"Uncletopia | Chicago | 3 | All Maps","name_short":"chi-3","host":"chi-1.us.uncletopia.com","port":27035,"enabled":true,"region":"us-central","cc":"us","latitude":41.881832,"longitude":-87.62318,"reserved":0,"last_update":"0001-01-01T00:00:00Z","name_a2s":"Uncletopia | Chicago | 3 | All Maps","protocol":17,"map":"pl_upward","folder":"tf","game":"Team Fortress","app_id":440,"player_count":21,"max_players":24,"Bots":0,"server_type":"Dedicated","server_os":"Linux","password":true,"vac":true,"version":"7742253","steam_id":85568392924515191,"keywords":["nocrits","nodmgspread","payload","uncletopia"],"game_id":440,"stv_port":27036,"stv_name":"Uncletopia | Chicago | 3 | All Maps | STV","players":[{"user_id":618,"name":"dodecadron","steam_id":76561198027397222,"connected_time":12000000000,"state":"spawning","ping":138},{"user_id":589,"name":"BADLANDS CHUGS","steam_id":76561198129028971,"connected_time":2113000000000,"state":"spawning","ping":83},{"user_id":612,"name":"ForShovelry1","steam_id":76561198149395527,"connected_time":794000000000,"state":"spawning","ping":133},{"user_id":530,"name":"you are loved","steam_id":76561198108524571,"connected_time":6665000000000,"state":"spawning","ping":126},{"user_id":604,"name":"Dust","steam_id":76561198063959574,"connected_time":1261000000000,"state":"spawning","ping":127},{"user_id":614,"name":"pipibaby","steam_id":76561198067430685,"connected_time":757000000000,"state":"spawning","ping":167},{"user_id":610,"name":"breathing meat donut","steam_id":76561198123566649,"connected_time":971000000000,"state":"spawning","ping":149},{"user_id":573,"name":"Antknee","steam_id":76561198263793809,"connected_time":3870000000000,"state":"spawning","ping":212},{"user_id":611,"name":"mae","steam_id":76561198425739511,"connected_time":913000000000,"state":"spawning","ping":122},{"user_id":565,"name":"bass97","steam_id":76561198849018884,"connected_time":4661000000000,"state":"spawning","ping":138},{"user_id":599,"name":"SuperFresh","steam_id":76561198200723198,"connected_time":1721000000000,"state":"spawning","ping":103},{"user_id":529,"name":"kairOs.fk","steam_id":76561197972421260,"connected_time":6869000000000,"state":"spawning","ping":147},{"user_id":579,"name":"100 PERCENT PURE CROWTEIN","steam_id":76561198011134631,"connected_time":2960000000000,"state":"spawning","ping":133},{"user_id":616,"name":"oh god i'm gonna CHUM","steam_id":76561198019210187,"connected_time":391000000000,"state":"spawning","ping":137},{"user_id":617,"name":"Bread Baker","steam_id":76561198185335103,"connected_time":31000000000,"state":"spawning","ping":111},{"user_id":595,"name":"Frosti","steam_id":76561198332850064,"connected_time":1937000000000,"state":"spawning","ping":129},{"user_id":596,"name":"Bojangles Sr. VIII","steam_id":76561198354564001,"connected_time":1864000000000,"state":"spawning","ping":126},{"user_id":567,"name":"Duncan Idaho","steam_id":76561197988963861,"connected_time":4644000000000,"state":"spawning","ping":199},{"user_id":577,"name":"dahperson","steam_id":76561198067207467,"connected_time":3695000000000,"state":"spawning","ping":105},{"user_id":585,"name":"PHONE","steam_id":76561198029268743,"connected_time":2809000000000,"state":"spawning","ping":148},{"user_id":615,"name":"bad spy player","steam_id":76561198873699671,"connected_time":456000000000,"state":"spawning","ping":162}]},{"server_id":403,"name":"Uncletopia | Chicago | 4 | All Maps","name_short":"chi-4","host":"chi-1.us.uncletopia.com","port":27045,"enabled":true,"region":"us-central","cc":"us","latitude":41.881832,"longitude":-87.62318,"reserved":0,"last_update":"0001-01-01T00:00:00Z","name_a2s":"Uncletopia | Chicago | 4 | All Maps","protocol":17,"map":"pl_pier","folder":"tf","game":"Team Fortress","app_id":440,"player_count":24,"max_players":24,"Bots":0,"server_type":"Dedicated","server_os":"Linux","password":true,"vac":true,"version":"7742253","steam_id":85568392924515193,"keywords":["nocrits","nodmgspread","payload","uncletopia"],"game_id":440,"stv_port":27046,"stv_name":"Uncletopia | Chicago | 4 | All Maps | STV","players":[{"user_id":491,"name":"Simply G","steam_id":76561199221934609,"connected_time":1055000000000,"state":"active","ping":106},{"user_id":453,"name":"Distinguished Banana","steam_id":76561198143930557,"connected_time":4022000000000,"state":"active","ping":62},{"user_id":494,"name":"Rikuus","steam_id":76561198093799835,"connected_time":975000000000,"state":"active","ping":71},{"user_id":458,"name":"morbissey","steam_id":76561198072592880,"connected_time":3276000000000,"state":"active","ping":42},{"user_id":460,"name":"Raine","steam_id":76561199081937889,"connected_time":3223000000000,"state":"active","ping":64},{"user_id":487,"name":"Aspxts","steam_id":76561199125254746,"connected_time":1886000000000,"state":"active","ping":57},{"user_id":482,"name":"Pal","steam_id":76561198004363431,"connected_time":2055000000000,"state":"active","ping":94},{"user_id":473,"name":"xeeyuh","steam_id":76561198822313775,"connected_time":2787000000000,"state":"active","ping":75},{"user_id":497,"name":"dbelow_","steam_id":76561198056148853,"connected_time":752000000000,"state":"active","ping":67},{"user_id":499,"name":"Rukks","steam_id":76561197993918954,"connected_time":391000000000,"state":"active","ping":68},{"user_id":463,"name":"Mr. Morrow","steam_id":76561198011333701,"connected_time":3101000000000,"state":"active","ping":78},{"user_id":498,"name":"Guy Who Names Square Enix Games","steam_id":76561198202195792,"connected_time":684000000000,"state":"active","ping":75},{"user_id":462,"name":"glitch","steam_id":76561197979495589,"connected_time":3185000000000,"state":"active","ping":71},{"user_id":427,"name":"matchstick","steam_id":76561198190100027,"connected_time":6274000000000,"state":"active","ping":63},{"user_id":424,"name":"bobdragon27","steam_id":76561198065833387,"connected_time":6332000000000,"state":"active","ping":61},{"user_id":496,"name":"Mina's Ninas","steam_id":76561198046502179,"connected_time":831000000000,"state":"active","ping":94},{"user_id":475,"name":"jaboody","steam_id":76561197997274845,"connected_time":2614000000000,"state":"active","ping":71},{"user_id":425,"name":"snawg","steam_id":76561198141739280,"connected_time":6316000000000,"state":"active","ping":94},{"user_id":488,"name":"Raven","steam_id":76561198393887732,"connected_time":1569000000000,"state":"active","ping":81},{"user_id":400,"name":"Semyr","steam_id":76561198125655939,"connected_time":7973000000000,"state":"active","ping":68},{"user_id":500,"name":"Lore","steam_id":76561198098407538,"connected_time":369000000000,"state":"active","ping":58},{"user_id":486,"name":"JoānKisaragiⱽ⁰","steam_id":76561199370650064,"connected_time":1988000000000,"state":"active","ping":165},{"user_id":492,"name":"Jax_Senn","steam_id":76561199092522972,"connected_time":1050000000000,"state":"active","ping":75},{"user_id":478,"name":"Rainbow","steam_id":76561199036658795,"connected_time":2402000000000,"state":"active","ping":76}]},{"server_id":36,"name":"Uncletopia | Chicago | 5 | All Maps","name_short":"chi-5","host":"chi-2.us.uncletopia.com","port":27015,"enabled":true,"region":"us-central","cc":"us","latitude":41.881832,"longitude":-87.62318,"reserved":0,"last_update":"0001-01-01T00:00:00Z","name_a2s":"Uncletopia | Chicago | 5 | All Maps","protocol":17,"map":"pl_barnblitz","folder":"tf","game":"Team Fortress","app_id":440,"player_count":24,"max_players":24,"Bots":0,"server_type":"Dedicated","server_os":"Linux","password":true,"vac":true,"version":"7742253","steam_id":85568392924866362,"keywords":["nocrits","nodmgspread","payload","uncletopia"],"game_id":440,"stv_port":27016,"stv_name":"Uncletopia | Chicago | 5 | All Maps | STV","players":[{"user_id":182,"name":"Undertime Slopper","steam_id":76561198396789061,"connected_time":3942000000000,"state":"active","ping":82},{"user_id":177,"name":"Jamendithas","steam_id":76561198119537716,"connected_time":4806000000000,"state":"active","ping":64},{"user_id":221,"name":"lanoc","steam_id":76561198055415367,"connected_time":1811000000000,"state":"active","ping":59},{"user_id":230,"name":"Shystie","steam_id":76561198025371440,"connected_time":591000000000,"state":"active","ping":68},{"user_id":231,"name":"sithreis","steam_id":76561198000564263,"connected_time":562000000000,"state":"active","ping":74},{"user_id":227,"name":"nthn","steam_id":76561198093529182,"connected_time":927000000000,"state":"active","ping":75},{"user_id":223,"name":"AlecTheNefarious","steam_id":76561198035291230,"connected_time":1433000000000,"state":"active","ping":66},{"user_id":159,"name":"Zeora","steam_id":76561198799145251,"connected_time":6033000000000,"state":"active","ping":69},{"user_id":210,"name":"4r da locals","steam_id":76561198147746558,"connected_time":2334000000000,"state":"active","ping":58},{"user_id":225,"name":"KTB","steam_id":76561197990744614,"connected_time":1374000000000,"state":"active","ping":45},{"user_id":232,"name":"Stapler","steam_id":76561198099295077,"connected_time":558000000000,"state":"active","ping":98},{"user_id":203,"name":"Trap Card","steam_id":76561197991648012,"connected_time":2697000000000,"state":"active","ping":79},{"user_id":233,"name":"java","steam_id":76561198030276792,"connected_time":538000000000,"state":"active","ping":75},{"user_id":222,"name":"boog","steam_id":76561198010203040,"connected_time":1524000000000,"state":"active","ping":74},{"user_id":205,"name":"MR.meeseeks","steam_id":76561198294943420,"connected_time":2494000000000,"state":"active","ping":66},{"user_id":212,"name":"azr","steam_id":76561198146234744,"connected_time":2320000000000,"state":"active","ping":81},{"user_id":234,"name":"[T]aKer","steam_id":76561198001778013,"connected_time":488000000000,"state":"active","ping":138},{"user_id":214,"name":"boy actress","steam_id":76561198106690989,"connected_time":2288000000000,"state":"active","ping":74},{"user_id":235,"name":"Dr Frasier Crane","steam_id":76561198071790583,"connected_time":468000000000,"state":"active","ping":70},{"user_id":237,"name":"Jeremy","steam_id":76561198352333793,"connected_time":305000000000,"state":"active","ping":73},{"user_id":229,"name":"AlaNo","steam_id":76561198133099582,"connected_time":607000000000,"state":"active","ping":105},{"user_id":173,"name":"GarlicDipp","steam_id":76561198064438763,"connected_time":5255000000000,"state":"active","ping":93},{"user_id":180,"name":"pilk♡","steam_id":76561198284683550,"connected_time":4585000000000,"state":"active","ping":77},{"user_id":219,"name":"middd","steam_id":76561198072996397,"connected_time":2133000000000,"state":"active","ping":60}]},{"server_id":37,"name":"Uncletopia | Chicago | 6 | All Maps","name_short":"chi-6","host":"chi-2.us.uncletopia.com","port":27025,"enabled":true,"region":"us-central","cc":"us","latitude":41.881832,"longitude":-87.62318,"reserved":0,"last_update":"0001-01-01T00:00:00Z","name_a2s":"Uncletopia | Chicago | 6 | All Maps","protocol":17,"map":"pl_upward","folder":"tf","game":"Team Fortress","app_id":440,"player_count":24,"max_players":24,"Bots":0,"server_type":"Dedicated","server_os":"Linux","password":true,"vac":true,"version":"7742253","steam_id":85568392924866363,"keywords":["nocrits","nodmgspread","payload","uncletopia"],"game_id":440,"stv_port":27026,"stv_name":"Uncletopia | Chicago | 6 | All Maps | STV","players":[{"user_id":484,"name":"starboy","steam_id":76561198072072241,"connected_time":3534000000000,"state":"active","ping":50},{"user_id":501,"name":"FireQuiz","steam_id":76561198107357249,"connected_time":2060000000000,"state":"active","ping":99},{"user_id":499,"name":"RhyThm","steam_id":76561198090916616,"connected_time":2407000000000,"state":"active","ping":80},{"user_id":435,"name":"tyler","steam_id":76561198112039956,"connected_time":5569000000000,"state":"active","ping":72},{"user_id":520,"name":"nom","steam_id":76561198001842223,"connected_time":819000000000,"state":"active","ping":61},{"user_id":508,"name":"Leviathan","steam_id":76561197997528907,"connected_time":1684000000000,"state":"active","ping":59},{"user_id":439,"name":"Dealyo","steam_id":76561198282395338,"connected_time":5452000000000,"state":"active","ping":67},{"user_id":497,"name":"[GUT] RiDiK®","steam_id":76561197969756446,"connected_time":2442000000000,"state":"active","ping":51},{"user_id":518,"name":"Dug","steam_id":76561198017691029,"connected_time":896000000000,"state":"active","ping":51},{"user_id":522,"name":"raspberry preserves","steam_id":76561198033073709,"connected_time":373000000000,"state":"active","ping":62},{"user_id":511,"name":"Dr. Martin Luther","steam_id":76561198064572586,"connected_time":1566000000000,"state":"active","ping":72},{"user_id":447,"name":"bee gamer","steam_id":76561198092135570,"connected_time":5213000000000,"state":"active","ping":62},{"user_id":515,"name":"Negurescu","steam_id":76561198128777349,"connected_time":1299000000000,"state":"active","ping":155},{"user_id":494,"name":"game sucks","steam_id":76561198237479738,"connected_time":2775000000000,"state":"active","ping":83},{"user_id":506,"name":"winkelwagen","steam_id":76561197987025017,"connected_time":1785000000000,"state":"active","ping":94},{"user_id":490,"name":"[GUT] 13","steam_id":76561197985209820,"connected_time":3328000000000,"state":"active","ping":64},{"user_id":503,"name":"Jesus Of Suburbia","steam_id":76561198941700660,"connected_time":2045000000000,"state":"active","ping":119},{"user_id":519,"name":"Divine Kitty","steam_id":76561198293490689,"connected_time":891000000000,"state":"active","ping":105},{"user_id":507,"name":"Bee","steam_id":76561198074681324,"connected_time":1737000000000,"state":"active","ping":65},{"user_id":524,"name":"Sprinklingmydoughnut","steam_id":76561198168009092,"connected_time":98000000000,"state":"active","ping":88},{"user_id":415,"name":"Ras","steam_id":76561198123546775,"connected_time":6494000000000,"state":"active","ping":65},{"user_id":523,"name":"slep.py","steam_id":76561197988287144,"connected_time":101000000000,"state":"active","ping":59},{"user_id":495,"name":"Bluejay","steam_id":76561198092542171,"connected_time":2700000000000,"state":"active","ping":78},{"user_id":513,"name":"Theory-ZaZa","steam_id":76561198116419931,"connected_time":1483000000000,"state":"active","ping":113}]},{"server_id":38,"name":"Uncletopia | Chicago | 7 | Stopwatch Beta","name_short":"chi-7","host":"chi-2.us.uncletopia.com","port":27035,"enabled":true,"region":"us-central","cc":"us","latitude":41.881832,"longitude":-87.62318,"reserved":0,"last_update":"0001-01-01T00:00:00Z","name_a2s":"Uncletopia | Chicago | 7 | Stopwatch Beta","protocol":17,"map":"pl_upward","folder":"tf","game":"Team Fortress","app_id":440,"player_count":1,"max_players":24,"Bots":0,"server_type":"Dedicated","server_os":"Linux","password":true,"vac":true,"version":"7742253","steam_id":85568392924866364,"keywords":["nocrits","nodmgspread","payload","uncletopia"],"game_id":440,"stv_port":27036,"stv_name":"Uncletopia | Chicago | 7 | Stopwatch Beta | STV","players":[{"user_id":33,"name":"Cleric","steam_id":76561198045887994,"connected_time":60000000000,"state":"spawning","ping":57}]},{"server_id":39,"name":"Uncletopia | Chicago | 8 | Community","name_short":"chi-8","host":"chi-2.us.uncletopia.com","port":27045,"enabled":true,"region":"us-central","cc":"us","latitude":41.881832,"longitude":-87.62318,"reserved":0,"last_update":"0001-01-01T00:00:00Z","name_a2s":"Uncletopia | Chicago | 8 | Community","protocol":17,"map":"workshop/koth_product_final.ugc454272353","folder":"tf","game":"Team Fortress","app_id":440,"player_count":0,"max_players":24,"Bots":0,"server_type":"Dedicated","server_os":"Linux","password":true,"vac":true,"version":"7742253","steam_id":85568392924866365,"keywords":["cp","nocrits","nodmgspread","uncletopia"],"game_id":440,"stv_port":27046,"stv_name":"Uncletopia | Chicago | 8 | Community | STV","players":null},{"server_id":8,"name":"Uncletopia | Dallas | 1 | All Maps","name_short":"dal-1","host":"dal-1.us.uncletopia.com","port":27015,"enabled":true,"region":"us-central","cc":"us","latitude":32.779167,"longitude":-96.80889,"reserved":0,"last_update":"0001-01-01T00:00:00Z","name_a2s":"Uncletopia | Dallas | 1 | All Maps","protocol":17,"map":"pl_snowycoast","folder":"tf","game":"Team Fortress","app_id":440,"player_count":23,"max_players":24,"Bots":0,"server_type":"Dedicated","server_os":"Linux","password":true,"vac":true,"version":"7742253","steam_id":85568392924469986,"keywords":["nocrits","nodmgspread","payload","uncletopia"],"game_id":440,"stv_port":27016,"stv_name":"Uncletopia | Dallas | 1 | All Maps | STV","players":[{"user_id":663,"name":"Nobody","steam_id":76561199352089107,"connected_time":2304000000000,"state":"active","ping":89},{"user_id":692,"name":"Krow","steam_id":76561198010392099,"connected_time":1464000000000,"state":"active","ping":48},{"user_id":654,"name":"Mayor McCheese","steam_id":76561198063955582,"connected_time":2522000000000,"state":"active","ping":72},{"user_id":732,"name":"ElectronX","steam_id":76561198116034988,"connected_time":440000000000,"state":"active","ping":75},{"user_id":669,"name":"Quack ò_ó   \u003c3","steam_id":76561198100375038,"connected_time":2146000000000,"state":"active","ping":76},{"user_id":723,"name":"MoonWolf","steam_id":76561198095735033,"connected_time":601000000000,"state":"active","ping":62},{"user_id":547,"name":"MrHappyMAg","steam_id":76561198060359133,"connected_time":11055000000000,"state":"active","ping":47},{"user_id":664,"name":"WhistlingFox04","steam_id":76561198381509938,"connected_time":2299000000000,"state":"active","ping":127},{"user_id":658,"name":"Sneezes in braille","steam_id":76561198059502626,"connected_time":2452000000000,"state":"active","ping":62},{"user_id":656,"name":"water daniel","steam_id":76561198267702400,"connected_time":2469000000000,"state":"active","ping":54},{"user_id":697,"name":"addison","steam_id":76561198859580427,"connected_time":1371000000000,"state":"active","ping":55},{"user_id":724,"name":"YES YES YES","steam_id":76561198969592244,"connected_time":582000000000,"state":"active","ping":91},{"user_id":725,"name":"thebestman982","steam_id":76561199001698710,"connected_time":569000000000,"state":"active","ping":73},{"user_id":726,"name":"November","steam_id":76561198131631865,"connected_time":551000000000,"state":"active","ping":74},{"user_id":727,"name":"Stylo","steam_id":76561198157735574,"connected_time":535000000000,"state":"active","ping":118},{"user_id":699,"name":"pain.","steam_id":76561198289370780,"connected_time":1255000000000,"state":"active","ping":74},{"user_id":712,"name":"Zero","steam_id":76561199383267408,"connected_time":871000000000,"state":"active","ping":41},{"user_id":742,"name":"MEDIC!","steam_id":76561198149344029,"connected_time":131000000000,"state":"active","ping":85},{"user_id":728,"name":"Zombie Boy","steam_id":76561199064758232,"connected_time":509000000000,"state":"active","ping":56},{"user_id":677,"name":"Cringle McDuberry","steam_id":76561199122518364,"connected_time":1968000000000,"state":"active","ping":61},{"user_id":721,"name":"snazzyhead","steam_id":76561199165468734,"connected_time":627000000000,"state":"active","ping":44},{"user_id":730,"name":"BackToSchoolAds","steam_id":76561198870281128,"connected_time":497000000000,"state":"active","ping":101},{"user_id":695,"name":"arashsmash","steam_id":76561198277649058,"connected_time":1442000000000,"state":"active","ping":90}]},{"server_id":108,"name":"Uncletopia | Dallas | 2 | All Maps","name_short":"dal-2","host":"dal-1.us.uncletopia.com","port":27025,"enabled":true,"region":"us-central","cc":"us","latitude":32.779167,"longitude":-96.80889,"reserved":0,"last_update":"0001-01-01T00:00:00Z","name_a2s":"Uncletopia | Dallas | 2 | All Maps","protocol":17,"map":"pl_upward","folder":"tf","game":"Team Fortress","app_id":440,"player_count":24,"max_players":24,"Bots":0,"server_type":"Dedicated","server_os":"Linux","password":true,"vac":true,"version":"7742253","steam_id":85568392924469988,"keywords":["nocrits","nodmgspread","payload","uncletopia"],"game_id":440,"stv_port":27026,"stv_name":"Uncletopia | Dallas | 2 | All Maps | STV","players":[{"user_id":626,"name":"DeadlyPinkSheep","steam_id":76561198271773858,"connected_time":1592000000000,"state":"active","ping":50},{"user_id":596,"name":"Moonflower ✦","steam_id":76561198191782483,"connected_time":3723000000000,"state":"active","ping":48},{"user_id":640,"name":"Sarbanes-Oxley","steam_id":76561197975898479,"connected_time":199000000000,"state":"active","ping":51},{"user_id":633,"name":"Professor Cuthbert Calculus","steam_id":76561198003257461,"connected_time":716000000000,"state":"active","ping":100},{"user_id":636,"name":"yerb *18badies","steam_id":76561198312055294,"connected_time":279000000000,"state":"active","ping":78},{"user_id":637,"name":"matcha ^_^ \u003c3","steam_id":76561198832230598,"connected_time":278000000000,"state":"active","ping":85},{"user_id":609,"name":"JasonIsGold79","steam_id":76561198101441539,"connected_time":2737000000000,"state":"active","ping":97},{"user_id":634,"name":"Jesus","steam_id":76561198018890911,"connected_time":699000000000,"state":"active","ping":55},{"user_id":630,"name":"Alset","steam_id":76561197993820174,"connected_time":1271000000000,"state":"active","ping":48},{"user_id":628,"name":"a bucket of chicken","steam_id":76561198023710042,"connected_time":1563000000000,"state":"active","ping":59},{"user_id":621,"name":"Dead Dude","steam_id":76561197965448444,"connected_time":2340000000000,"state":"active","ping":60},{"user_id":606,"name":"Genuine angeri","steam_id":76561198044549863,"connected_time":2872000000000,"state":"active","ping":84},{"user_id":569,"name":"Snoopy","steam_id":76561198273735974,"connected_time":7114000000000,"state":"active","ping":85},{"user_id":638,"name":"Yakul","steam_id":76561198100040013,"connected_time":247000000000,"state":"active","ping":80},{"user_id":635,"name":"O bez","steam_id":76561198841579939,"connected_time":316000000000,"state":"active","ping":79},{"user_id":625,"name":"Riff","steam_id":76561198066921423,"connected_time":1905000000000,"state":"active","ping":64},{"user_id":629,"name":"tobrehto","steam_id":76561198097544038,"connected_time":1491000000000,"state":"active","ping":70},{"user_id":575,"name":"Astro","steam_id":76561198035676106,"connected_time":6395000000000,"state":"active","ping":66},{"user_id":632,"name":"Anderswo","steam_id":76561198253224241,"connected_time":818000000000,"state":"active","ping":101},{"user_id":605,"name":"blehz","steam_id":76561198048429098,"connected_time":3040000000000,"state":"active","ping":98},{"user_id":639,"name":"How About Lunch","steam_id":76561198024016435,"connected_time":239000000000,"state":"active","ping":90},{"user_id":514,"name":"Pitch Stick","steam_id":76561198800287853,"connected_time":9411000000000,"state":"active","ping":125},{"user_id":616,"name":"redzach","steam_id":76561198444094359,"connected_time":2470000000000,"state":"active","ping":80},{"user_id":623,"name":"jer","steam_id":76561198148235230,"connected_time":2336000000000,"state":"active","ping":88}]},{"server_id":5,"name":"Uncletopia | Frankfurt | 1 | All Maps","name_short":"frk-1","host":"frk-1.de.uncletopia.com","port":27015,"enabled":true,"region":"eu","cc":"de","latitude":50.110924,"longitude":8.682127,"reserved":0,"last_update":"0001-01-01T00:00:00Z","name_a2s":"Uncletopia | Frankfurt | 1 | All Maps","protocol":17,"map":"pl_borneo","folder":"tf","game":"Team Fortress","app_id":440,"player_count":0,"max_players":24,"Bots":0,"server_type":"Dedicated","server_os":"Linux","password":true,"vac":true,"version":"7742253","steam_id":85568392924469989,"keywords":["nocrits","nodmgspread","payload","uncletopia"],"game_id":440,"stv_port":27016,"stv_name":"Uncletopia | Frankfurt | 1 | All Maps | STV","players":null},{"server_id":110,"name":"Uncletopia | Frankfurt | 2 | All Maps","name_short":"frk-2","host":"frk-1.de.uncletopia.com","port":27025,"enabled":true,"region":"eu","cc":"de","latitude":50.110924,"longitude":8.682127,"reserved":0,"last_update":"0001-01-01T00:00:00Z","name_a2s":"Uncletopia | Frankfurt | 2 | All Maps","protocol":17,"map":"pl_swiftwater_final1","folder":"tf","game":"Team Fortress","app_id":440,"player_count":0,"max_players":24,"Bots":0,"server_type":"Dedicated","server_os":"Linux","password":true,"vac":true,"version":"7742253","steam_id":85568392924469990,"keywords":["nocrits","nodmgspread","payload","uncletopia"],"game_id":440,"stv_port":27026,"stv_name":"Uncletopia | Frankfurt | 2 | All Maps | STV","players":null},{"server_id":308,"name":"Uncletopia | Frankfurt | 3 | All Maps","name_short":"frk-3","host":"frk-1.de.uncletopia.com","port":27035,"enabled":true,"region":"eu","cc":"de","latitude":50.110924,"longitude":8.682127,"reserved":0,"last_update":"0001-01-01T00:00:00Z","name_a2s":"Uncletopia | Frankfurt | 3 | All Maps","protocol":17,"map":"cp_dustbowl","folder":"tf","game":"Team Fortress","app_id":440,"player_count":0,"max_players":24,"Bots":0,"server_type":"Dedicated","server_os":"Linux","password":true,"vac":true,"version":"7742253","steam_id":85568392924504274,"keywords":["cp","nocrits","nodmgspread","uncletopia"],"game_id":440,"stv_port":27036,"stv_name":"Uncletopia | Frankfurt | 3 | All Maps | STV","players":null},{"server_id":309,"name":"Uncletopia | Frankfurt | 4 | All Maps","name_short":"frk-4","host":"frk-1.de.uncletopia.com","port":27045,"enabled":true,"region":"eu","cc":"de","latitude":50.110924,"longitude":8.682127,"reserved":0,"last_update":"0001-01-01T00:00:00Z","name_a2s":"Uncletopia | Frankfurt | 4 | All Maps","protocol":17,"map":"cp_sunshine","folder":"tf","game":"Team Fortress","app_id":440,"player_count":0,"max_players":24,"Bots":0,"server_type":"Dedicated","server_os":"Linux","password":true,"vac":true,"version":"7742253","steam_id":85568392924504275,"keywords":["cp","nocrits","nodmgspread","uncletopia"],"game_id":440,"stv_port":27046,"stv_name":"Uncletopia | Frankfurt | 4 | All Maps | STV","players":null},{"server_id":310,"name":"Uncletopia | Frankfurt | 5 | All Maps","name_short":"frk-5","host":"frk-1.de.uncletopia.com","port":27055,"enabled":true,"region":"eu","cc":"de","latitude":50.110924,"longitude":8.682127,"reserved":0,"last_update":"0001-01-01T00:00:00Z","name_a2s":"Uncletopia | Frankfurt | 5 | All Maps","protocol":17,"map":"cp_snakewater_final1","folder":"tf","game":"Team Fortress","app_id":440,"player_count":0,"max_players":24,"Bots":0,"server_type":"Dedicated","server_os":"Linux","password":true,"vac":true,"version":"7742253","steam_id":85568392924504277,"keywords":["cp","nocrits","nodmgspread","uncletopia"],"game_id":440,"stv_port":27056,"stv_name":"Uncletopia | Frankfurt | 5 | All Maps | STV","players":null},{"server_id":311,"name":"Uncletopia | Frankfurt | 6 | All Maps","name_short":"frk-6","host":"frk-1.de.uncletopia.com","port":27065,"enabled":true,"region":"eu","cc":"de","latitude":50.110924,"longitude":8.682127,"reserved":0,"last_update":"0001-01-01T00:00:00Z","name_a2s":"Uncletopia | Frankfurt | 6 | All Maps","protocol":17,"map":"koth_lakeside_final","folder":"tf","game":"Team Fortress","app_id":440,"player_count":0,"max_players":24,"Bots":0,"server_type":"Dedicated","server_os":"Linux","password":true,"vac":true,"version":"7742253","steam_id":85568392924504278,"keywords":["cp","nocrits","nodmgspread","uncletopia"],"game_id":440,"stv_port":27066,"stv_name":"Uncletopia | Frankfurt | 6 | All Maps | STV","players":null},{"server_id":23,"name":"Uncletopia | Frankfurt | 7 | Stopwatch Beta","name_short":"frk-7","host":"frk-1.de.uncletopia.com","port":27075,"enabled":true,"region":"eu","cc":"de","latitude":50.110924,"longitude":8.682127,"reserved":0,"last_update":"0001-01-01T00:00:00Z","name_a2s":"Uncletopia | Frankfurt | 7 | Stopwatch Beta","protocol":17,"map":"pl_badwater","folder":"tf","game":"Team Fortress","app_id":440,"player_count":0,"max_players":24,"Bots":0,"server_type":"Dedicated","server_os":"Linux","password":true,"vac":true,"version":"7742253","steam_id":85568392924742827,"keywords":["nocrits","nodmgspread","payload","uncletopia"],"game_id":440,"stv_port":27076,"stv_name":"Uncletopia | Frankfurt | 7 | Stopwatch Beta | STV","players":null},{"server_id":24,"name":"Uncletopia | Frankfurt | 8 | Community","name_short":"frk-8","host":"frk-1.de.uncletopia.com","port":27085,"enabled":true,"region":"eu","cc":"de","latitude":50.110924,"longitude":8.682127,"reserved":0,"last_update":"0001-01-01T00:00:00Z","name_a2s":"Uncletopia | Frankfurt | 8 | Community","protocol":17,"map":"koth_cascade","folder":"tf","game":"Team Fortress","app_id":440,"player_count":0,"max_players":24,"Bots":0,"server_type":"Dedicated","server_os":"Linux","password":true,"vac":true,"version":"7742253","steam_id":85568392924742828,"keywords":["cp","nocrits","nodmgspread","uncletopia"],"game_id":440,"stv_port":27086,"stv_name":"Uncletopia | Frankfurt | 8 | Community | STV","players":null},{"server_id":202,"name":"Uncletopia | Hong Kong | 1 | All Maps","name_short":"hgk-1","host":"hgk-1.hk.uncletopia.com","port":27015,"enabled":true,"region":"asia","cc":"hk","latitude":22.302711,"longitude":114.177216,"reserved":0,"last_update":"0001-01-01T00:00:00Z","name_a2s":"Uncletopia | Hong Kong | 1 | All Maps","protocol":17,"map":"koth_harvest_final","folder":"tf","game":"Team Fortress","app_id":440,"player_count":24,"max_players":24,"Bots":0,"server_type":"Dedicated","server_os":"Linux","password":true,"vac":true,"version":"7742253","steam_id":85568392924494504,"keywords":["cp","nocrits","nodmgspread","uncletopia"],"game_id":440,"stv_port":27016,"stv_name":"Uncletopia | Hong Kong | 1 | All Maps | STV","players":[{"user_id":131,"name":"Mr. Large Man","steam_id":76561199015718598,"connected_time":709000000000,"state":"active","ping":131},{"user_id":135,"name":"Cheesey","steam_id":76561198975684137,"connected_time":661000000000,"state":"active","ping":92},{"user_id":113,"name":"qb","steam_id":76561198412329672,"connected_time":2830000000000,"state":"active","ping":87},{"user_id":126,"name":"Ian","steam_id":76561198159334435,"connected_time":1217000000000,"state":"active","ping":162},{"user_id":127,"name":"Momoxhien","steam_id":76561198414997429,"connected_time":894000000000,"state":"active","ping":64},{"user_id":87,"name":"T.","steam_id":76561198337887896,"connected_time":4307000000000,"state":"active","ping":77},{"user_id":86,"name":"Urotsuki","steam_id":76561198074339034,"connected_time":4402000000000,"state":"active","ping":71},{"user_id":125,"name":"Mega 00F","steam_id":76561198962485791,"connected_time":1856000000000,"state":"active","ping":130},{"user_id":141,"name":"i suck","steam_id":76561198987746141,"connected_time":165000000000,"state":"active","ping":36},{"user_id":53,"name":"Male Detected!","steam_id":76561199082459598,"connected_time":6911000000000,"state":"active","ping":92},{"user_id":128,"name":"Lu","steam_id":76561198320532821,"connected_time":729000000000,"state":"active","ping":62},{"user_id":90,"name":"RedBee (Femboy Nurse 雙)","steam_id":76561198976736971,"connected_time":4297000000000,"state":"active","ping":44},{"user_id":136,"name":"ɔuᗡඞ ɟƨuᒐ","steam_id":76561199031283970,"connected_time":661000000000,"state":"active","ping":75},{"user_id":37,"name":"uptriste","steam_id":76561198158666692,"connected_time":7896000000000,"state":"active","ping":45},{"user_id":121,"name":"aisha","steam_id":76561198132172320,"connected_time":2006000000000,"state":"active","ping":76},{"user_id":130,"name":"UZ","steam_id":76561198179320563,"connected_time":717000000000,"state":"active","ping":143},{"user_id":122,"name":"FAQ","steam_id":76561198068689092,"connected_time":1978000000000,"state":"active","ping":90},{"user_id":144,"name":"Du57Y","steam_id":76561198120973476,"connected_time":109000000000,"state":"active","ping":87},{"user_id":133,"name":"yamasheet","steam_id":76561198318184389,"connected_time":705000000000,"state":"active","ping":134},{"user_id":119,"name":"nihil","steam_id":76561198339641444,"connected_time":2212000000000,"state":"active","ping":79},{"user_id":68,"name":"lillalune","steam_id":76561198230213828,"connected_time":5895000000000,"state":"active","ping":69},{"user_id":111,"name":"ellz","steam_id":76561199216074568,"connected_time":2911000000000,"state":"active","ping":123},{"user_id":49,"name":"UltraFat","steam_id":76561198253918132,"connected_time":7609000000000,"state":"active","ping":72},{"user_id":140,"name":"JayJ","steam_id":76561198324008555,"connected_time":367000000000,"state":"active","ping":69}]},{"server_id":1,"name":"Uncletopia | Los Angeles | 1 | All Maps","name_short":"lax-1","host":"lax-1.us.uncletopia.com","port":27015,"enabled":true,"region":"us-west","cc":"us","latitude":33.94279,"longitude":-118.41004,"reserved":0,"last_update":"0001-01-01T00:00:00Z","name_a2s":"Uncletopia | Los Angeles | 1 | All Maps","protocol":17,"map":"pl_upward","folder":"tf","game":"Team Fortress","app_id":440,"player_count":14,"max_players":24,"Bots":0,"server_type":"Dedicated","server_os":"Linux","password":true,"vac":true,"version":"7742253","steam_id":85568392924469991,"keywords":["nocrits","nodmgspread","payload","uncletopia"],"game_id":440,"stv_port":27016,"stv_name":"Uncletopia | Los Angeles | 1 | All Maps | STV","players":[{"user_id":551,"name":"poey","steam_id":76561198865346767,"connected_time":101000000000,"state":"active","ping":168},{"user_id":521,"name":"M.L.JEW","steam_id":76561198997375055,"connected_time":1474000000000,"state":"active","ping":109},{"user_id":540,"name":"Ahzain","steam_id":76561198035894333,"connected_time":597000000000,"state":"active","ping":112},{"user_id":526,"name":"jelderjr","steam_id":76561198208862897,"connected_time":1291000000000,"state":"active","ping":45},{"user_id":531,"name":"t h e n a","steam_id":76561198169736062,"connected_time":842000000000,"state":"active","ping":102},{"user_id":535,"name":"beans","steam_id":76561199132406388,"connected_time":795000000000,"state":"active","ping":87},{"user_id":534,"name":"Michiru Kagemori","steam_id":76561198257241799,"connected_time":816000000000,"state":"active","ping":75},{"user_id":541,"name":"SAMMY THA SLUMP GODD","steam_id":76561198197273625,"connected_time":590000000000,"state":"active","ping":123},{"user_id":527,"name":"sweaterfan","steam_id":76561199389567214,"connected_time":1264000000000,"state":"active","ping":95},{"user_id":550,"name":"sun sugar","steam_id":76561198385085005,"connected_time":151000000000,"state":"active","ping":58},{"user_id":546,"name":"The Super Mario Bros. Movie","steam_id":76561198871692156,"connected_time":395000000000,"state":"active","ping":76},{"user_id":536,"name":"DeckofDragons","steam_id":76561198057398213,"connected_time":789000000000,"state":"active","ping":102},{"user_id":544,"name":"Frongus","steam_id":76561197979056451,"connected_time":528000000000,"state":"active","ping":62},{"user_id":507,"name":"SQbuilder","steam_id":76561198076473375,"connected_time":2634000000000,"state":"active","ping":49}]},{"server_id":112,"name":"Uncletopia | Los Angeles | 2 | All Maps","name_short":"lax-2","host":"lax-1.us.uncletopia.com","port":27025,"enabled":true,"region":"us-west","cc":"us","latitude":33.94279,"longitude":-118.41004,"reserved":0,"last_update":"0001-01-01T00:00:00Z","name_a2s":"Uncletopia | Los Angeles | 2 | All Maps","protocol":17,"map":"ctf_2fort","folder":"tf","game":"Team Fortress","app_id":440,"player_count":20,"max_players":24,"Bots":0,"server_type":"Dedicated","server_os":"Linux","password":true,"vac":true,"version":"7742253","steam_id":85568392924469992,"keywords":["ctf","nocrits","nodmgspread","uncletopia"],"game_id":440,"stv_port":27026,"stv_name":"Uncletopia | Los Angeles | 2 | All Maps | STV","players":[{"user_id":194,"name":"prdxninja","steam_id":76561198170081774,"connected_time":3551000000000,"state":"active","ping":83},{"user_id":195,"name":"The Assistant Regional Manager","steam_id":76561199221484936,"connected_time":3542000000000,"state":"active","ping":55},{"user_id":237,"name":"Big Pete","steam_id":76561198100754827,"connected_time":409000000000,"state":"active","ping":47},{"user_id":233,"name":"Legend of Nolan","steam_id":76561198020661880,"connected_time":502000000000,"state":"active","ping":53},{"user_id":231,"name":"!MONSTR_GRRL!","steam_id":76561198265633146,"connected_time":587000000000,"state":"active","ping":58},{"user_id":234,"name":"2007jwhite","steam_id":76561198312583829,"connected_time":483000000000,"state":"active","ping":64},{"user_id":236,"name":"Arbiter Soul","steam_id":76561198067798973,"connected_time":417000000000,"state":"active","ping":56},{"user_id":238,"name":"goon tf2","steam_id":76561198341806593,"connected_time":392000000000,"state":"active","ping":88},{"user_id":250,"name":"GnafS","steam_id":76561199101583864,"connected_time":272000000000,"state":"active","ping":81},{"user_id":251,"name":"Lonka","steam_id":76561199008415182,"connected_time":221000000000,"state":"active","ping":55},{"user_id":252,"name":"SaltySlade","steam_id":76561198299719583,"connected_time":203000000000,"state":"active","ping":99},{"user_id":257,"name":"jrmadmallard","steam_id":76561198275994616,"connected_time":27000000000,"state":"active","ping":83},{"user_id":254,"name":"Halo","steam_id":76561198144909435,"connected_time":129000000000,"state":"active","ping":54},{"user_id":192,"name":"HeroOfTime","steam_id":76561199096218001,"connected_time":3647000000000,"state":"active","ping":51},{"user_id":256,"name":"another breloom","steam_id":76561198006938024,"connected_time":91000000000,"state":"active","ping":38},{"user_id":196,"name":"Mohjin","steam_id":76561198300786414,"connected_time":3485000000000,"state":"active","ping":120},{"user_id":213,"name":"plat","steam_id":76561198974178569,"connected_time":2731000000000,"state":"active","ping":75},{"user_id":216,"name":"krootonitron","steam_id":76561198114113037,"connected_time":1926000000000,"state":"active","ping":54},{"user_id":215,"name":"Deku Scrublord","steam_id":76561198036602402,"connected_time":2349000000000,"state":"active","ping":105},{"user_id":229,"name":"grandma","steam_id":76561198203789568,"connected_time":1184000000000,"state":"active","ping":116}]},{"server_id":324,"name":"Uncletopia | Los Angeles | 3 | All Maps","name_short":"lax-3","host":"lax-1.us.uncletopia.com","port":27035,"enabled":true,"region":"us-west","cc":"us","latitude":33.94279,"longitude":-118.41004,"reserved":0,"last_update":"0001-01-01T00:00:00Z","name_a2s":"Uncletopia | Los Angeles | 3 | All Maps","protocol":17,"map":"pl_snowycoast","folder":"tf","game":"Team Fortress","app_id":440,"player_count":22,"max_players":24,"Bots":0,"server_type":"Dedicated","server_os":"Linux","password":true,"vac":true,"version":"7742253","steam_id":85568392924510198,"keywords":["nocrits","nodmgspread","payload","uncletopia"],"game_id":440,"stv_port":27036,"stv_name":"Uncletopia | Los Angeles | 3 | All Maps | STV","players":[{"user_id":103,"name":"DanielDaSavage9","steam_id":76561198401532367,"connected_time":1522000000000,"state":"active","ping":60},{"user_id":127,"name":"Blagoni","steam_id":76561198079134230,"connected_time":217000000000,"state":"active","ping":52},{"user_id":109,"name":"PirateJet","steam_id":76561198050858744,"connected_time":1316000000000,"state":"active","ping":54},{"user_id":119,"name":"Canob","steam_id":76561198910909677,"connected_time":437000000000,"state":"active","ping":57},{"user_id":89,"name":"assassincrazy18","steam_id":76561199465661561,"connected_time":2625000000000,"state":"active","ping":83},{"user_id":100,"name":"Chiaki Nanami","steam_id":76561198164782653,"connected_time":1863000000000,"state":"active","ping":120},{"user_id":131,"name":"Sad Sapling","steam_id":76561198075612150,"connected_time":146000000000,"state":"active","ping":55},{"user_id":90,"name":"El Gato Paranoico","steam_id":76561198116567116,"connected_time":2624000000000,"state":"active","ping":90},{"user_id":99,"name":"Axis","steam_id":76561198065881173,"connected_time":2126000000000,"state":"active","ping":55},{"user_id":121,"name":"Schnitz","steam_id":76561198265484253,"connected_time":414000000000,"state":"active","ping":64},{"user_id":124,"name":"Krack Korn","steam_id":76561198249188132,"connected_time":255000000000,"state":"active","ping":64},{"user_id":132,"name":"Cute Gatito","steam_id":76561198351147780,"connected_time":49000000000,"state":"active","ping":46},{"user_id":76,"name":"gerg","steam_id":76561197997127387,"connected_time":4620000000000,"state":"active","ping":60},{"user_id":125,"name":"'Oddo","steam_id":76561198090866900,"connected_time":246000000000,"state":"active","ping":91},{"user_id":95,"name":"Chafn","steam_id":76561197969386702,"connected_time":2423000000000,"state":"active","ping":59},{"user_id":75,"name":"social distance warrior","steam_id":76561198128992994,"connected_time":4681000000000,"state":"active","ping":73},{"user_id":114,"name":"berserker_tf2 ttv","steam_id":76561198303464488,"connected_time":546000000000,"state":"active","ping":67},{"user_id":126,"name":"Bagelpenguin64","steam_id":76561198291342703,"connected_time":245000000000,"state":"active","ping":60},{"user_id":128,"name":"Flyinglab","steam_id":76561198042161408,"connected_time":202000000000,"state":"active","ping":107},{"user_id":108,"name":"NeoN","steam_id":76561198117608366,"connected_time":1381000000000,"state":"active","ping":78},{"user_id":129,"name":"spheremonger","steam_id":76561198119178364,"connected_time":200000000000,"state":"active","ping":106},{"user_id":130,"name":"FISH JENGA","steam_id":76561198038901145,"connected_time":199000000000,"state":"active","ping":118}]},{"server_id":25,"name":"Uncletopia | Los Angeles | 4 | Stopwatch Beta","name_short":"lax-4","host":"lax-1.us.uncletopia.com","port":27045,"enabled":true,"region":"us-west","cc":"us","latitude":33.94279,"longitude":-118.41004,"reserved":0,"last_update":"0001-01-01T00:00:00Z","name_a2s":"Uncletopia | Los Angeles | 4 | Stopwatch Beta","protocol":17,"map":"workshop/koth_product_final.ugc454272353","folder":"tf","game":"Team Fortress","app_id":440,"player_count":0,"max_players":24,"Bots":0,"server_type":"Dedicated","server_os":"Linux","password":true,"vac":true,"version":"7742253","steam_id":85568392924510199,"keywords":["cp","nocrits","nodmgspread","uncletopia"],"game_id":440,"stv_port":27046,"stv_name":"Uncletopia | Los Angeles | 4 | Stopwatch Beta | STV","players":null},{"server_id":11,"name":"Uncletopia | London | 1 | All Maps","name_short":"lon-1","host":"lon-1.uk.uncletopia.com","port":27015,"enabled":true,"region":"eu","cc":"gb","latitude":51.509865,"longitude":-0.118092,"reserved":0,"last_update":"0001-01-01T00:00:00Z","name_a2s":"Uncletopia | London | 1 | All Maps","protocol":17,"map":"koth_lakeside_final","folder":"tf","game":"Team Fortress","app_id":440,"player_count":0,"max_players":24,"Bots":0,"server_type":"Dedicated","server_os":"Linux","password":true,"vac":true,"version":"7742253","steam_id":85568392924367362,"keywords":["cp","nocrits","nodmgspread","uncletopia"],"game_id":440,"stv_port":27016,"stv_name":"Uncletopia | London | 1 | All Maps | STV","players":null},{"server_id":114,"name":"Uncletopia | London | 2 | All Maps","name_short":"lon-2","host":"lon-1.uk.uncletopia.com","port":27025,"enabled":true,"region":"eu","cc":"gb","latitude":51.509865,"longitude":-0.118092,"reserved":0,"last_update":"0001-01-01T00:00:00Z","name_a2s":"Uncletopia | London | 2 | All Maps","protocol":17,"map":"koth_cascade","folder":"tf","game":"Team Fortress","app_id":440,"player_count":0,"max_players":24,"Bots":0,"server_type":"Dedicated","server_os":"Linux","password":true,"vac":true,"version":"7742253","steam_id":85568392924470941,"keywords":["cp","nocrits","nodmgspread","uncletopia"],"game_id":440,"stv_port":27026,"stv_name":"Uncletopia | London | 2 | All Maps | STV","players":null},{"server_id":320,"name":"Uncletopia | London | 3 | All Maps","name_short":"lon-3","host":"lon-1.uk.uncletopia.com","port":27035,"enabled":true,"region":"eu","cc":"gb","latitude":51.509865,"longitude":-0.118092,"reserved":0,"last_update":"0001-01-01T00:00:00Z","name_a2s":"Uncletopia | London | 3 | All Maps","protocol":17,"map":"koth_lakeside_final","folder":"tf","game":"Team Fortress","app_id":440,"player_count":6,"max_players":24,"Bots":0,"server_type":"Dedicated","server_os":"Linux","password":true,"vac":true,"version":"7742253","steam_id":85568392924510192,"keywords":["cp","nocrits","nodmgspread","uncletopia"],"game_id":440,"stv_port":27036,"stv_name":"Uncletopia | London | 3 | All Maps | STV","players":[{"user_id":1005,"name":"Noodle","steam_id":76561197997208006,"connected_time":3862000000000,"state":"active","ping":60},{"user_id":949,"name":"thomas +","steam_id":76561198355097756,"connected_time":8020000000000,"state":"active","ping":62},{"user_id":992,"name":"hmscole09","steam_id":76561198811362788,"connected_time":4771000000000,"state":"active","ping":46},{"user_id":1038,"name":"IKARUS","steam_id":76561198850898422,"connected_time":1038000000000,"state":"active","ping":78},{"user_id":1039,"name":"CarbonPan","steam_id":76561198072169983,"connected_time":985000000000,"state":"active","ping":100},{"user_id":1041,"name":"duster cat","steam_id":76561198832231975,"connected_time":909000000000,"state":"active","ping":91}]},{"server_id":321,"name":"Uncletopia | London | 4 | All Maps","name_short":"lon-4","host":"lon-1.uk.uncletopia.com","port":27045,"enabled":true,"region":"eu","cc":"gb","latitude":51.509865,"longitude":-0.118092,"reserved":0,"last_update":"0001-01-01T00:00:00Z","name_a2s":"Uncletopia | London | 4 | All Maps","protocol":17,"map":"koth_highpass","folder":"tf","game":"Team Fortress","app_id":440,"player_count":0,"max_players":24,"Bots":0,"server_type":"Dedicated","server_os":"Linux","password":true,"vac":true,"version":"7742253","steam_id":85568392924510193,"keywords":["cp","nocrits","nodmgspread","uncletopia"],"game_id":440,"stv_port":27046,"stv_name":"Uncletopia | London | 4 | All Maps | STV","players":null},{"server_id":21,"name":"Uncletopia | London | 5 | All Maps","name_short":"lon-5","host":"lon-1.uk.uncletopia.com","port":27055,"enabled":true,"region":"eu","cc":"gb","latitude":51.509865,"longitude":-0.118092,"reserved":0,"last_update":"0001-01-01T00:00:00Z","name_a2s":"Uncletopia | London | 5 | All Maps","protocol":17,"map":"koth_lakeside_final","folder":"tf","game":"Team Fortress","app_id":440,"player_count":0,"max_players":24,"Bots":0,"server_type":"Dedicated","server_os":"Linux","password":true,"vac":true,"version":"7742253","steam_id":85568392924742829,"keywords":["cp","nocrits","nodmgspread","uncletopia"],"game_id":440,"stv_port":27056,"stv_name":"Uncletopia | London | 5 | All Maps | STV","players":null},{"server_id":22,"name":"Uncletopia | London | 6 | All Maps","name_short":"lon-6","host":"lon-1.uk.uncletopia.com","port":27065,"enabled":true,"region":"eu","cc":"gb","latitude":51.509865,"longitude":-0.118092,"reserved":0,"last_update":"0001-01-01T00:00:00Z","name_a2s":"Uncletopia | London | 6 | All Maps","protocol":17,"map":"pl_swiftwater_final1","folder":"tf","game":"Team Fortress","app_id":440,"player_count":0,"max_players":24,"Bots":0,"server_type":"Dedicated","server_os":"Linux","password":true,"vac":true,"version":"7742253","steam_id":85568392924742830,"keywords":["nocrits","nodmgspread","payload","uncletopia"],"game_id":440,"stv_port":27066,"stv_name":"Uncletopia | London | 6 | All Maps | STV","players":null},{"server_id":40,"name":"Uncletopia | London | 7 | No Payload","name_short":"lon-7","host":"lon-1.uk.uncletopia.com","port":27075,"enabled":true,"region":"eu","cc":"gb","latitude":51.509865,"longitude":-0.118092,"reserved":0,"last_update":"0001-01-01T00:00:00Z","name_a2s":"Uncletopia | London | 7 | No Payload","protocol":17,"map":"koth_badlands","folder":"tf","game":"Team Fortress","app_id":440,"player_count":0,"max_players":24,"Bots":0,"server_type":"Dedicated","server_os":"Linux","password":true,"vac":true,"version":"7742253","steam_id":85568392924964314,"keywords":["cp","nocrits","nodmgspread","uncletopia"],"game_id":440,"stv_port":27076,"stv_name":"Uncletopia | London | 7 | No Payload | STV","players":null},{"server_id":41,"name":"Uncletopia | London | 8 | Community","name_short":"lon-8","host":"lon-1.uk.uncletopia.com","port":27085,"enabled":true,"region":"eu","cc":"gb","latitude":51.509865,"longitude":-0.118092,"reserved":0,"last_update":"0001-01-01T00:00:00Z","name_a2s":"Uncletopia | London | 8 | Community","protocol":17,"map":"workshop/koth_ramjam_rc1.ugc459778887","folder":"tf","game":"Team Fortress","app_id":440,"player_count":0,"max_players":24,"Bots":0,"server_type":"Dedicated","server_os":"Linux","password":true,"vac":true,"version":"7742253","steam_id":85568392924964315,"keywords":["cp","nocrits","nodmgspread","uncletopia"],"game_id":440,"stv_port":27086,"stv_name":"Uncletopia | London | 8 | Community | STV","players":null},{"server_id":300,"name":"Uncletopia | Montréal | 1 | All Maps","name_short":"mtl-1","host":"mtl-1.ca.uncletopia.com","port":27015,"enabled":true,"region":"us-east","cc":"ca","latitude":45.50889,"longitude":-73.56167,"reserved":0,"last_update":"0001-01-01T00:00:00Z","name_a2s":"Uncletopia | Montréal | 1 | All Maps","protocol":17,"map":"cp_sunshine","folder":"tf","game":"Team Fortress","app_id":440,"player_count":2,"max_players":24,"Bots":0,"server_type":"Dedicated","server_os":"Linux","password":true,"vac":true,"version":"7742253","steam_id":85568392924500087,"keywords":["cp","nocrits","nodmgspread","uncletopia"],"game_id":440,"stv_port":27016,"stv_name":"Uncletopia | Montréal | 1 | All Maps | STV","players":[{"user_id":532,"name":"ShitpostSamuel","steam_id":76561198346660049,"connected_time":1119000000000,"state":"active","ping":125},{"user_id":510,"name":"Ziixx","steam_id":76561198380423847,"connected_time":3179000000000,"state":"active","ping":60}]},{"server_id":301,"name":"Uncletopia | Montréal | 2 | All Maps","name_short":"mtl-2","host":"mtl-1.ca.uncletopia.com","port":27025,"enabled":true,"region":"us-east","cc":"ca","latitude":45.50889,"longitude":-73.56167,"reserved":0,"last_update":"0001-01-01T00:00:00Z","name_a2s":"Uncletopia | Montréal | 2 | All Maps","protocol":17,"map":"cp_altitude","folder":"tf","game":"Team Fortress","app_id":440,"player_count":0,"max_players":24,"Bots":0,"server_type":"Dedicated","server_os":"Linux","password":true,"vac":true,"version":"7742253","steam_id":85568392924500088,"keywords":["cp","nocrits","nodmgspread","uncletopia"],"game_id":440,"stv_port":27026,"stv_name":"Uncletopia | Montréal | 2 | All Maps | STV","players":null},{"server_id":302,"name":"Uncletopia | Montréal | 3 | All Maps","name_short":"mtl-3","host":"mtl-1.ca.uncletopia.com","port":27035,"enabled":true,"region":"us-east","cc":"ca","latitude":45.50889,"longitude":-73.56167,"reserved":0,"last_update":"0001-01-01T00:00:00Z","name_a2s":"Uncletopia | Montréal | 3 | All Maps","protocol":17,"map":"cp_process_final","folder":"tf","game":"Team Fortress","app_id":440,"player_count":0,"max_players":24,"Bots":0,"server_type":"Dedicated","server_os":"Linux","password":true,"vac":true,"version":"7742253","steam_id":85568392924500089,"keywords":["cp","nocrits","nodmgspread","uncletopia"],"game_id":440,"stv_port":27036,"stv_name":"Uncletopia | Montréal | 3 | All Maps | STV","players":null},{"server_id":303,"name":"Uncletopia | Montréal | 4 | No Payload","name_short":"mtl-4","host":"mtl-1.ca.uncletopia.com","port":27045,"enabled":true,"region":"us-east","cc":"ca","latitude":45.50889,"longitude":-73.56167,"reserved":0,"last_update":"0001-01-01T00:00:00Z","name_a2s":"Uncletopia | Montréal | 4 | No Payload","protocol":17,"map":"plr_pipeline","folder":"tf","game":"Team Fortress","app_id":440,"player_count":0,"max_players":24,"Bots":0,"server_type":"Dedicated","server_os":"Linux","password":true,"vac":true,"version":"7742253","steam_id":85568392924500090,"keywords":["nocrits","nodmgspread","payload","uncletopia"],"game_id":440,"stv_port":27046,"stv_name":"Uncletopia | Montréal | 4 | No Payload | STV","players":null},{"server_id":13,"name":"Uncletopia | New York City | 1 | All Maps","name_short":"nyc-1","host":"nyc-1.us.uncletopia.com","port":27015,"enabled":true,"region":"us-east","cc":"us","latitude":40.73061,"longitude":-73.93524,"reserved":0,"last_update":"0001-01-01T00:00:00Z","name_a2s":"Uncletopia | New York City | 1 | All Maps","protocol":17,"map":"cp_altitude","folder":"tf","game":"Team Fortress","app_id":440,"player_count":24,"max_players":24,"Bots":0,"server_type":"Dedicated","server_os":"Linux","password":true,"vac":true,"version":"7742253","steam_id":85568392924469993,"keywords":["cp","nocrits","nodmgspread","uncletopia"],"game_id":440,"stv_port":27016,"stv_name":"Uncletopia | New York City | 1 | All Maps | STV","players":[{"user_id":678,"name":"Striuph","steam_id":76561198097002352,"connected_time":3542000000000,"state":"active","ping":46},{"user_id":708,"name":"qjkxkcd","steam_id":76561198035922283,"connected_time":690000000000,"state":"active","ping":56},{"user_id":706,"name":"Saristan","steam_id":76561198093346048,"connected_time":826000000000,"state":"active","ping":59},{"user_id":691,"name":"dan","steam_id":76561197984998426,"connected_time":2090000000000,"state":"active","ping":97},{"user_id":724,"name":"87","steam_id":76561197976345859,"connected_time":200000000000,"state":"active","ping":138},{"user_id":693,"name":"Zed","steam_id":76561197961852209,"connected_time":1975000000000,"state":"active","ping":65},{"user_id":620,"name":"Sammich","steam_id":76561198010543087,"connected_time":6471000000000,"state":"active","ping":77},{"user_id":649,"name":"Aldinach","steam_id":76561198079912615,"connected_time":4563000000000,"state":"active","ping":60},{"user_id":618,"name":"Spiral Mountain","steam_id":76561198058683715,"connected_time":6582000000000,"state":"active","ping":70},{"user_id":709,"name":"Lesbian Chungus","steam_id":76561198055964295,"connected_time":671000000000,"state":"active","ping":66},{"user_id":588,"name":"robert","steam_id":76561198001196512,"connected_time":8591000000000,"state":"active","ping":90},{"user_id":569,"name":"RokkitFrog","steam_id":76561198046465850,"connected_time":9672000000000,"state":"active","ping":95},{"user_id":710,"name":"Chilakiller","steam_id":76561198182348907,"connected_time":662000000000,"state":"active","ping":143},{"user_id":712,"name":"lyanide","steam_id":76561198311704368,"connected_time":651000000000,"state":"active","ping":58},{"user_id":713,"name":"0hiois4Luvers","steam_id":76561199466240242,"connected_time":641000000000,"state":"active","ping":148},{"user_id":714,"name":"miki","steam_id":76561198331374895,"connected_time":618000000000,"state":"active","ping":108},{"user_id":707,"name":"Inevitable","steam_id":76561198210050169,"connected_time":732000000000,"state":"active","ping":44},{"user_id":715,"name":"Brass beast heavy","steam_id":76561198274197623,"connected_time":590000000000,"state":"active","ping":134},{"user_id":723,"name":"Godfinger","steam_id":76561198426346549,"connected_time":311000000000,"state":"active","ping":88},{"user_id":687,"name":"the skeleton","steam_id":76561198237671314,"connected_time":2994000000000,"state":"active","ping":79},{"user_id":717,"name":"Chesh","steam_id":76561197990316722,"connected_time":565000000000,"state":"active","ping":71},{"user_id":719,"name":"Big Time Bobby","steam_id":76561198935266162,"connected_time":513000000000,"state":"active","ping":61},{"user_id":675,"name":"Bucket of Chestnuts","steam_id":76561198115079427,"connected_time":3669000000000,"state":"active","ping":52},{"user_id":720,"name":"E-why","steam_id":76561198063270899,"connected_time":497000000000,"state":"active","ping":111}]},{"server_id":14,"name":"Uncletopia | New York City | 2 | All Maps","name_short":"nyc-2","host":"nyc-1.us.uncletopia.com","port":27025,"enabled":true,"region":"us-east","cc":"us","latitude":40.73061,"longitude":-73.93524,"reserved":0,"last_update":"0001-01-01T00:00:00Z","name_a2s":"Uncletopia | New York City | 2 | All Maps","protocol":17,"map":"pl_barnblitz","folder":"tf","game":"Team Fortress","app_id":440,"player_count":24,"max_players":24,"Bots":0,"server_type":"Dedicated","server_os":"Linux","password":true,"vac":true,"version":"7742253","steam_id":85568392924469994,"keywords":["nocrits","nodmgspread","payload","uncletopia"],"game_id":440,"stv_port":27026,"stv_name":"Uncletopia | New York City | 2 | All Maps | STV","players":[{"user_id":692,"name":"flexer_2000","steam_id":76561198084422657,"connected_time":418000000000,"state":"active","ping":116},{"user_id":702,"name":"Ronin Grinch","steam_id":76561198041439581,"connected_time":14000000000,"state":"spawning","ping":59},{"user_id":680,"name":"vastrobotmax","steam_id":76561198417110724,"connected_time":990000000000,"state":"active","ping":66},{"user_id":696,"name":"Toest","steam_id":76561198076061844,"connected_time":115000000000,"state":"active","ping":60},{"user_id":664,"name":"DazzlingMaggot","steam_id":76561197972716928,"connected_time":1704000000000,"state":"active","ping":53},{"user_id":700,"name":"Magic Missile","steam_id":76561198338594187,"connected_time":73000000000,"state":"active","ping":55},{"user_id":681,"name":"aversa","steam_id":76561198840460101,"connected_time":987000000000,"state":"active","ping":45},{"user_id":698,"name":"amidamarulasii","steam_id":76561198836799906,"connected_time":104000000000,"state":"active","ping":133},{"user_id":693,"name":"drifloy","steam_id":76561198153437083,"connected_time":390000000000,"state":"active","ping":45},{"user_id":667,"name":"Sezlinc","steam_id":76561198884251725,"connected_time":1557000000000,"state":"active","ping":65},{"user_id":697,"name":"wyatt","steam_id":76561198035096199,"connected_time":112000000000,"state":"active","ping":90},{"user_id":694,"name":"ndvr","steam_id":76561199379200102,"connected_time":134000000000,"state":"active","ping":38},{"user_id":689,"name":"rainingmudkips","steam_id":76561198018010854,"connected_time":502000000000,"state":"active","ping":61},{"user_id":687,"name":"BirdsEatSeeds","steam_id":76561198216002355,"connected_time":544000000000,"state":"active","ping":78},{"user_id":684,"name":"Frank HardWood","steam_id":76561198109364911,"connected_time":791000000000,"state":"active","ping":63},{"user_id":699,"name":"Lennu","steam_id":76561198060730154,"connected_time":96000000000,"state":"active","ping":71},{"user_id":701,"name":"Idiot Sandwhich","steam_id":76561198178295858,"connected_time":72000000000,"state":"active","ping":82},{"user_id":647,"name":"$200 Shirt","steam_id":76561197977329534,"connected_time":3183000000000,"state":"active","ping":47},{"user_id":610,"name":"deech","steam_id":76561198066429444,"connected_time":5833000000000,"state":"active","ping":46},{"user_id":690,"name":"hello","steam_id":76561198063595962,"connected_time":488000000000,"state":"active","ping":144},{"user_id":691,"name":"BigOrca54","steam_id":76561198181360271,"connected_time":471000000000,"state":"active","ping":70},{"user_id":614,"name":"☃❆FLVRRY☃❆","steam_id":76561199072765441,"connected_time":5807000000000,"state":"active","ping":119},{"user_id":632,"name":"Not Guztaf","steam_id":76561198334924763,"connected_time":4187000000000,"state":"active","ping":89},{"user_id":679,"name":"Fimose Nuclear","steam_id":76561198874985577,"connected_time":1076000000000,"state":"active","ping":171}]},{"server_id":15,"name":"Uncletopia | New York City | 3 | Stopwatch Beta","name_short":"nyc-3","host":"nyc-1.us.uncletopia.com","port":27035,"enabled":true,"region":"us-east","cc":"us","latitude":40.73061,"longitude":-73.93524,"reserved":0,"last_update":"0001-01-01T00:00:00Z","name_a2s":"Uncletopia | New York City | 3 | Stopwatch Beta","protocol":17,"map":"workshop/pl_summercoast_rc8e.ugc1761528829","folder":"tf","game":"Team Fortress","app_id":440,"player_count":0,"max_players":24,"Bots":0,"server_type":"Dedicated","server_os":"Linux","password":true,"vac":true,"version":"7742253","steam_id":85568392924742820,"keywords":["nocrits","nodmgspread","payload","uncletopia"],"game_id":440,"stv_port":27036,"stv_name":"Uncletopia | New York City | 3 | Stopwatch Beta | STV","players":null},{"server_id":16,"name":"Uncletopia | New York City | 4 | Community","name_short":"nyc-4","host":"nyc-1.us.uncletopia.com","port":27045,"enabled":true,"region":"us-east","cc":"us","latitude":40.73061,"longitude":-73.93524,"reserved":0,"last_update":"0001-01-01T00:00:00Z","name_a2s":"Uncletopia | New York City | 4 | Community","protocol":17,"map":"workshop/pl_vigil_rc9.ugc1266210012","folder":"tf","game":"Team Fortress","app_id":440,"player_count":14,"max_players":24,"Bots":0,"server_type":"Dedicated","server_os":"Linux","password":true,"vac":true,"version":"7742253","steam_id":85568392924742821,"keywords":["nocrits","nodmgspread","payload","uncletopia"],"game_id":440,"stv_port":27046,"stv_name":"Uncletopia | New York City | 4 | Community | STV","players":[{"user_id":533,"name":"Froman Joe","steam_id":76561197991243253,"connected_time":900000000000,"state":"active","ping":61},{"user_id":506,"name":"e2_e8","steam_id":76561198025032556,"connected_time":2716000000000,"state":"active","ping":52},{"user_id":524,"name":"Hemo-Goblin","steam_id":76561198433424320,"connected_time":1923000000000,"state":"active","ping":62},{"user_id":508,"name":"Missing Minus","steam_id":76561198120822928,"connected_time":2594000000000,"state":"active","ping":70},{"user_id":539,"name":"Declivity","steam_id":76561198024690138,"connected_time":183000000000,"state":"active","ping":76},{"user_id":534,"name":"Xanber","steam_id":76561198310491763,"connected_time":800000000000,"state":"active","ping":52},{"user_id":540,"name":"Cinderace:)","steam_id":76561198132899671,"connected_time":156000000000,"state":"active","ping":74},{"user_id":536,"name":"The Prankster™","steam_id":76561199123285878,"connected_time":599000000000,"state":"active","ping":59},{"user_id":541,"name":"korsu","steam_id":76561198359090934,"connected_time":137000000000,"state":"active","ping":109},{"user_id":542,"name":"benito","steam_id":76561199098569869,"connected_time":83000000000,"state":"spawning","ping":123},{"user_id":544,"name":"Semi","steam_id":76561199105889252,"connected_time":16000000000,"state":"spawning","ping":269},{"user_id":525,"name":"Pizza Parker","steam_id":76561198797278008,"connected_time":1913000000000,"state":"active","ping":79},{"user_id":526,"name":"Dankly Do This","steam_id":76561199001161929,"connected_time":1906000000000,"state":"active","ping":81},{"user_id":485,"name":"uhooter","steam_id":76561198007829078,"connected_time":3848000000000,"state":"active","ping":59}]},{"server_id":142,"name":"Uncletopia | São Paulo | 1 | All Maps","name_short":"sao-1","host":"sao-1.br.uncletopia.com","port":27015,"enabled":true,"region":"sa","cc":"br","latitude":-23.533773,"longitude":-46.62529,"reserved":0,"last_update":"0001-01-01T00:00:00Z","name_a2s":"Uncletopia | São Paulo | 1 | All Maps","protocol":17,"map":"plr_hightower","folder":"tf","game":"Team Fortress","app_id":440,"player_count":0,"max_players":24,"Bots":0,"server_type":"Dedicated","server_os":"Linux","password":true,"vac":true,"version":"7742253","steam_id":85568392924469996,"keywords":["nocrits","nodmgspread","payload","uncletopia"],"game_id":440,"stv_port":27016,"stv_name":"Uncletopia | São Paulo | 1 | All Maps | STV","players":null},{"server_id":143,"name":"Uncletopia | São Paulo | 2 | All Maps","name_short":"sao-2","host":"sao-2.br.uncletopia.com","port":27015,"enabled":true,"region":"sa","cc":"br","latitude":-23.533773,"longitude":-46.62529,"reserved":0,"last_update":"0001-01-01T00:00:00Z","name_a2s":"Uncletopia | São Paulo | 2 | All Maps","protocol":17,"map":"cp_mountainlab","folder":"tf","game":"Team Fortress","app_id":440,"player_count":0,"max_players":24,"Bots":0,"server_type":"Dedicated","server_os":"Linux","password":true,"vac":true,"version":"7742253","steam_id":85568392924485349,"keywords":["cp","nocrits","nodmgspread","uncletopia"],"game_id":440,"stv_port":27016,"stv_name":"Uncletopia | São Paulo | 2 | All Maps | STV","players":null},{"server_id":7,"name":"Uncletopia | Seattle | 1 | All Maps","name_short":"sea-1","host":"sea-1.us.uncletopia.com","port":27015,"enabled":true,"region":"us-west","cc":"us","latitude":47.608013,"longitude":-122.33517,"reserved":0,"last_update":"0001-01-01T00:00:00Z","name_a2s":"Uncletopia | Seattle | 1 | All Maps","protocol":17,"map":"pl_snowycoast","folder":"tf","game":"Team Fortress","app_id":440,"player_count":24,"max_players":24,"Bots":0,"server_type":"Dedicated","server_os":"Linux","password":true,"vac":true,"version":"7742253","steam_id":85568392924469997,"keywords":["nocrits","nodmgspread","payload","uncletopia"],"game_id":440,"stv_port":27016,"stv_name":"Uncletopia | Seattle | 1 | All Maps | STV","players":[{"user_id":496,"name":"padder b0i","steam_id":76561198088131563,"connected_time":7173000000000,"state":"active","ping":83},{"user_id":579,"name":"Snoogs","steam_id":76561198444880931,"connected_time":717000000000,"state":"active","ping":127},{"user_id":544,"name":"[TrC] Nosy","steam_id":76561197978859310,"connected_time":3271000000000,"state":"active","ping":60},{"user_id":504,"name":"Agent","steam_id":76561199389584938,"connected_time":6841000000000,"state":"active","ping":37},{"user_id":494,"name":"NickoDeeBz","steam_id":76561198294657867,"connected_time":7442000000000,"state":"active","ping":97},{"user_id":568,"name":"Canaan ❤","steam_id":76561198044337051,"connected_time":1694000000000,"state":"active","ping":92},{"user_id":574,"name":"WaDogKing","steam_id":76561198143436741,"connected_time":839000000000,"state":"active","ping":50},{"user_id":392,"name":"soup","steam_id":76561198043209046,"connected_time":16056000000000,"state":"active","ping":78},{"user_id":577,"name":"AspenIsPoplar","steam_id":76561198346382060,"connected_time":740000000000,"state":"active","ping":60},{"user_id":561,"name":"glop shitto bounter hunter","steam_id":76561198063138457,"connected_time":2092000000000,"state":"active","ping":55},{"user_id":565,"name":"Rave Cat","steam_id":76561198026369683,"connected_time":1913000000000,"state":"active","ping":94},{"user_id":583,"name":"Dr. Karl, the AUS Science Guy","steam_id":76561198031278747,"connected_time":23000000000,"state":"active","ping":49},{"user_id":563,"name":"Crabby","steam_id":76561198040023173,"connected_time":2016000000000,"state":"active","ping":63},{"user_id":573,"name":"Lonestar827","steam_id":76561198035533639,"connected_time":862000000000,"state":"active","ping":52},{"user_id":538,"name":"[TrC] Dackstrus","steam_id":76561197973518509,"connected_time":3594000000000,"state":"active","ping":59},{"user_id":524,"name":"rachel slurs","steam_id":76561198986534519,"connected_time":5225000000000,"state":"active","ping":48},{"user_id":572,"name":"Voxeltile","steam_id":76561198043724134,"connected_time":1124000000000,"state":"active","ping":60},{"user_id":541,"name":"weegeebad","steam_id":76561198280841437,"connected_time":3327000000000,"state":"active","ping":118},{"user_id":582,"name":"scarfhero","steam_id":76561198257541502,"connected_time":164000000000,"state":"active","ping":58},{"user_id":424,"name":"dosimeter","steam_id":76561198039608940,"connected_time":13778000000000,"state":"active","ping":57},{"user_id":578,"name":"Strikerbolt","steam_id":76561199095622897,"connected_time":737000000000,"state":"active","ping":84},{"user_id":580,"name":"Cinna Mon","steam_id":76561198005840633,"connected_time":682000000000,"state":"active","ping":60},{"user_id":557,"name":"goldhed","steam_id":76561198051751133,"connected_time":2642000000000,"state":"active","ping":55}]},{"server_id":119,"name":"Uncletopia | Seattle | 2 | All Maps","name_short":"sea-2","host":"sea-1.us.uncletopia.com","port":27025,"enabled":true,"region":"us-west","cc":"us","latitude":47.608013,"longitude":-122.33517,"reserved":0,"last_update":"0001-01-01T00:00:00Z","name_a2s":"Uncletopia | Seattle | 2 | All Maps","protocol":17,"map":"pl_upward","folder":"tf","game":"Team Fortress","app_id":440,"player_count":24,"max_players":24,"Bots":0,"server_type":"Dedicated","server_os":"Linux","password":true,"vac":true,"version":"7742253","steam_id":85568392924469998,"keywords":["nocrits","nodmgspread","payload","uncletopia"],"game_id":440,"stv_port":27026,"stv_name":"Uncletopia | Seattle | 2 | All Maps | STV","players":[{"user_id":484,"name":"Sylain","steam_id":76561198043958855,"connected_time":1958000000000,"state":"active","ping":67},{"user_id":498,"name":"It's Me. A Mario.","steam_id":76561197961107982,"connected_time":336000000000,"state":"active","ping":82},{"user_id":499,"name":"squashbone","steam_id":76561197999466442,"connected_time":334000000000,"state":"active","ping":48},{"user_id":480,"name":"jacix3 [gay wolfgirl]{she/it}","steam_id":76561198205004165,"connected_time":2408000000000,"state":"active","ping":62},{"user_id":467,"name":"eraser cat","steam_id":76561199045570463,"connected_time":3618000000000,"state":"active","ping":42},{"user_id":493,"name":"Mom","steam_id":76561198207936000,"connected_time":895000000000,"state":"active","ping":75},{"user_id":441,"name":"Thembo","steam_id":76561199037594575,"connected_time":6353000000000,"state":"active","ping":61},{"user_id":497,"name":"TheCowledWiz","steam_id":76561198016735868,"connected_time":359000000000,"state":"active","ping":46},{"user_id":477,"name":"Glen Frogmire","steam_id":76561198059313367,"connected_time":2543000000000,"state":"active","ping":43},{"user_id":496,"name":"Blurpee","steam_id":76561198057197988,"connected_time":440000000000,"state":"active","ping":52},{"user_id":462,"name":"Dad 2","steam_id":76561198138546187,"connected_time":3911000000000,"state":"active","ping":89},{"user_id":492,"name":"TheAlphaDoor","steam_id":76561198336551859,"connected_time":995000000000,"state":"active","ping":71},{"user_id":501,"name":"Kav","steam_id":76561198331562055,"connected_time":289000000000,"state":"active","ping":122},{"user_id":479,"name":"snorlax_gamer","steam_id":76561199084972996,"connected_time":2459000000000,"state":"active","ping":50},{"user_id":474,"name":"Gahuppy","steam_id":76561198072129855,"connected_time":2781000000000,"state":"active","ping":57},{"user_id":453,"name":"KingTinkerer","steam_id":76561198226856548,"connected_time":5290000000000,"state":"active","ping":70},{"user_id":426,"name":"dust","steam_id":76561198045218909,"connected_time":8164000000000,"state":"active","ping":44},{"user_id":347,"name":"tweaker","steam_id":76561198115269587,"connected_time":13171000000000,"state":"active","ping":118},{"user_id":470,"name":"Pneumo.","steam_id":76561197987911883,"connected_time":3391000000000,"state":"active","ping":65},{"user_id":481,"name":"ZaniZ","steam_id":76561198161467000,"connected_time":2391000000000,"state":"active","ping":31},{"user_id":485,"name":"SvicidalBug","steam_id":76561198221390504,"connected_time":1740000000000,"state":"active","ping":69},{"user_id":500,"name":"gorlab","steam_id":76561198025089694,"connected_time":313000000000,"state":"active","ping":52},{"user_id":466,"name":"Amateur Glaswegian","steam_id":76561198030851956,"connected_time":3805000000000,"state":"active","ping":57},{"user_id":456,"name":"Strength!!","steam_id":76561198001241984,"connected_time":4990000000000,"state":"active","ping":55}]},{"server_id":406,"name":"Uncletopia | Seattle | 3 | Stopwatch Beta","name_short":"sea-3","host":"sea-1.us.uncletopia.com","port":27035,"enabled":true,"region":"us-west","cc":"us","latitude":47.608013,"longitude":-122.33517,"reserved":0,"last_update":"0001-01-01T00:00:00Z","name_a2s":"Uncletopia | Seattle | 3 | Stopwatch Beta","protocol":17,"map":"pl_borneo","folder":"tf","game":"Team Fortress","app_id":440,"player_count":1,"max_players":24,"Bots":0,"server_type":"Dedicated","server_os":"Linux","password":true,"vac":true,"version":"7742253","steam_id":85568392924515217,"keywords":["nocrits","nodmgspread","payload","uncletopia"],"game_id":440,"stv_port":27036,"stv_name":"Uncletopia | Seattle | 3 | Stopwatch Beta | STV","players":[{"user_id":16,"name":"NaisaCantika","steam_id":76561199185227681,"connected_time":374000000000,"state":"active","ping":238}]},{"server_id":17,"name":"Uncletopia | San Francisco | 1 | All Maps","name_short":"sfo-1","host":"sfo-1.us.uncletopia.com","port":27015,"enabled":true,"region":"us-west","cc":"us","latitude":37.77397,"longitude":-122.4313,"reserved":0,"last_update":"0001-01-01T00:00:00Z","name_a2s":"Uncletopia | San Francisco | 1 | All Maps","protocol":17,"map":"cp_altitude","folder":"tf","game":"Team Fortress","app_id":440,"player_count":0,"max_players":24,"Bots":0,"server_type":"Dedicated","server_os":"Linux","password":true,"vac":true,"version":"7742253","steam_id":85568392924469999,"keywords":["cp","nocrits","nodmgspread","uncletopia"],"game_id":440,"stv_port":27016,"stv_name":"Uncletopia | San Francisco | 1 | All Maps | STV","players":null},{"server_id":18,"name":"Uncletopia | San Francisco | 2 | All Maps","name_short":"sfo-2","host":"sfo-1.us.uncletopia.com","port":27025,"enabled":true,"region":"us-west","cc":"us","latitude":37.77397,"longitude":-122.4313,"reserved":0,"last_update":"0001-01-01T00:00:00Z","name_a2s":"Uncletopia | San Francisco | 2 | All Maps","protocol":17,"map":"pl_barnblitz","folder":"tf","game":"Team Fortress","app_id":440,"player_count":24,"max_players":24,"Bots":0,"server_type":"Dedicated","server_os":"Linux","password":true,"vac":true,"version":"7742253","steam_id":85568392924470000,"keywords":["nocrits","nodmgspread","payload","uncletopia"],"game_id":440,"stv_port":27026,"stv_name":"Uncletopia | San Francisco | 2 | All Maps | STV","players":[{"user_id":113,"name":"NotThatTox","steam_id":76561198075201905,"connected_time":6154000000000,"state":"active","ping":109},{"user_id":143,"name":"marin","steam_id":76561198805841066,"connected_time":1276000000000,"state":"active","ping":46},{"user_id":96,"name":"Blizzard","steam_id":76561198052643541,"connected_time":7321000000000,"state":"active","ping":94},{"user_id":112,"name":"Agent86","steam_id":76561198046794593,"connected_time":6163000000000,"state":"active","ping":82},{"user_id":144,"name":"Camohno","steam_id":76561198283519918,"connected_time":1257000000000,"state":"active","ping":57},{"user_id":149,"name":"up tossin my pigskin","steam_id":76561198062294687,"connected_time":457000000000,"state":"active","ping":49},{"user_id":65,"name":"Grungus","steam_id":76561198047700230,"connected_time":8685000000000,"state":"active","ping":48},{"user_id":145,"name":"deku is my nigga","steam_id":76561198134411374,"connected_time":1246000000000,"state":"active","ping":115},{"user_id":124,"name":"RMBL","steam_id":76561198150137369,"connected_time":4090000000000,"state":"active","ping":55},{"user_id":140,"name":"doobiebob","steam_id":76561198071963742,"connected_time":2233000000000,"state":"active","ping":61},{"user_id":87,"name":"sciz","steam_id":76561198065303402,"connected_time":7599000000000,"state":"active","ping":106},{"user_id":152,"name":"en.wikipedia.org/wiki/Nae_Nae","steam_id":76561198418288939,"connected_time":39000000000,"state":"active","ping":53},{"user_id":119,"name":"Crustiest_Bill","steam_id":76561198842722858,"connected_time":5617000000000,"state":"active","ping":57},{"user_id":37,"name":"conductor i have a problem","steam_id":76561198140231083,"connected_time":12254000000000,"state":"active","ping":65},{"user_id":114,"name":"G. Howard Dee","steam_id":76561198058382812,"connected_time":6137000000000,"state":"active","ping":67},{"user_id":148,"name":"TF2_Class.mp4","steam_id":76561198362954269,"connected_time":637000000000,"state":"active","ping":37},{"user_id":150,"name":"SHADOW (he/him)","steam_id":76561198207768148,"connected_time":457000000000,"state":"active","ping":71},{"user_id":38,"name":"Magikarp_Gamer","steam_id":76561198143910511,"connected_time":12247000000000,"state":"active","ping":72},{"user_id":90,"name":"Sulong","steam_id":76561198798244209,"connected_time":7555000000000,"state":"active","ping":113},{"user_id":40,"name":"Ranger Lugi","steam_id":76561198143611016,"connected_time":12228000000000,"state":"active","ping":80},{"user_id":44,"name":"Locrian","steam_id":76561198356159602,"connected_time":12135000000000,"state":"active","ping":62},{"user_id":110,"name":"DoctorHa","steam_id":76561198044026008,"connected_time":6856000000000,"state":"active","ping":66},{"user_id":151,"name":"1000 Ping","steam_id":76561198098330939,"connected_time":446000000000,"state":"active","ping":75},{"user_id":121,"name":"jawnymac","steam_id":76561198179529599,"connected_time":4922000000000,"state":"active","ping":54}]},{"server_id":19,"name":"Uncletopia | San Francisco | 3 | Stopwatch Beta","name_short":"sfo-3","host":"sfo-1.us.uncletopia.com","port":27035,"enabled":true,"region":"us-west","cc":"us","latitude":37.77397,"longitude":-122.4313,"reserved":0,"last_update":"0001-01-01T00:00:00Z","name_a2s":"Uncletopia | San Francisco | 3 | Stopwatch Beta","protocol":17,"map":"workshop/cp_process_f11.ugc2302948105","folder":"tf","game":"Team Fortress","app_id":440,"player_count":0,"max_players":24,"Bots":0,"server_type":"Dedicated","server_os":"Linux","password":true,"vac":true,"version":"7742253","steam_id":85568392924742824,"keywords":["cp","nocrits","nodmgspread","uncletopia"],"game_id":440,"stv_port":27036,"stv_name":"Uncletopia | San Francisco | 3 | Stopwatch Beta | STV","players":null},{"server_id":20,"name":"Uncletopia | San Francisco | 4 | Community","name_short":"sfo-4","host":"sfo-1.us.uncletopia.com","port":27045,"enabled":true,"region":"us-west","cc":"us","latitude":37.77397,"longitude":-122.4313,"reserved":0,"last_update":"0001-01-01T00:00:00Z","name_a2s":"Uncletopia | San Francisco | 4 | Community","protocol":17,"map":"workshop/pl_fifthcurve_rc1.ugc648227046","folder":"tf","game":"Team Fortress","app_id":440,"player_count":0,"max_players":24,"Bots":0,"server_type":"Dedicated","server_os":"Linux","password":true,"vac":true,"version":"7742253","steam_id":85568392924742826,"keywords":["nocrits","nodmgspread","payload","uncletopia"],"game_id":440,"stv_port":27046,"stv_name":"Uncletopia | San Francisco | 4 | Community | STV","players":null},{"server_id":141,"name":"Uncletopia | Sydney | 1 | All Maps","name_short":"syd-1","host":"syd-1.au.uncletopia.com","port":27015,"enabled":true,"region":"au","cc":"au","latitude":-33.865143,"longitude":151.2099,"reserved":0,"last_update":"0001-01-01T00:00:00Z","name_a2s":"Uncletopia | Sydney | 1 | All Maps","protocol":17,"map":"pl_swiftwater_final1","folder":"tf","game":"Team Fortress","app_id":440,"player_count":24,"max_players":24,"Bots":0,"server_type":"Dedicated","server_os":"Linux","password":true,"vac":true,"version":"7742253","steam_id":85568392924470001,"keywords":["nocrits","nodmgspread","payload","uncletopia"],"game_id":440,"stv_port":27016,"stv_name":"Uncletopia | Sydney | 1 | All Maps | STV","players":[{"user_id":436,"name":"billy loomis","steam_id":76561198032687714,"connected_time":2019000000000,"state":"active","ping":92},{"user_id":422,"name":"Huyimon","steam_id":76561198051208660,"connected_time":2599000000000,"state":"active","ping":48},{"user_id":390,"name":"Livid","steam_id":76561198060024585,"connected_time":4399000000000,"state":"active","ping":39},{"user_id":396,"name":"ElectGibbon","steam_id":76561198379243449,"connected_time":3599000000000,"state":"active","ping":47},{"user_id":440,"name":"Salty Dog","steam_id":76561198038713921,"connected_time":1308000000000,"state":"active","ping":52},{"user_id":449,"name":"broccoli","steam_id":76561198362942706,"connected_time":810000000000,"state":"active","ping":72},{"user_id":423,"name":"Glockenspe (She/Her)","steam_id":76561199184115241,"connected_time":2547000000000,"state":"active","ping":38},{"user_id":366,"name":"R4GLER","steam_id":76561198151027681,"connected_time":5585000000000,"state":"active","ping":57},{"user_id":455,"name":"XTX","steam_id":76561198093828661,"connected_time":531000000000,"state":"active","ping":78},{"user_id":415,"name":"Oppa","steam_id":76561198008388855,"connected_time":2846000000000,"state":"active","ping":51},{"user_id":450,"name":"robor","steam_id":76561198084686835,"connected_time":792000000000,"state":"active","ping":55},{"user_id":367,"name":"The_Green_Jelly","steam_id":76561198381061704,"connected_time":5556000000000,"state":"active","ping":83},{"user_id":448,"name":"seiran","steam_id":76561198880907232,"connected_time":885000000000,"state":"active","ping":101},{"user_id":451,"name":"vrooom","steam_id":76561198075376393,"connected_time":727000000000,"state":"active","ping":53},{"user_id":416,"name":"FREAK NASTY","steam_id":76561198045797344,"connected_time":2839000000000,"state":"active","ping":64},{"user_id":452,"name":"Veðrfölnir","steam_id":76561198105113720,"connected_time":652000000000,"state":"active","ping":91},{"user_id":355,"name":"1ocalTechSuppor1","steam_id":76561198175547093,"connected_time":6761000000000,"state":"active","ping":92},{"user_id":382,"name":"emperor palpating","steam_id":76561198079351541,"connected_time":4676000000000,"state":"active","ping":51},{"user_id":454,"name":"Snare","steam_id":76561198134913453,"connected_time":599000000000,"state":"active","ping":57},{"user_id":418,"name":"Enchanted Cat","steam_id":76561198866538028,"connected_time":2830000000000,"state":"active","ping":75},{"user_id":446,"name":"ree boy","steam_id":76561199024189820,"connected_time":1032000000000,"state":"active","ping":70},{"user_id":447,"name":"Racecar Richards","steam_id":76561198066440524,"connected_time":1008000000000,"state":"active","ping":104},{"user_id":431,"name":"Wake'n'Bake'n'Make'n'Bacon","steam_id":76561198061960926,"connected_time":2332000000000,"state":"active","ping":82},{"user_id":433,"name":"Nyda","steam_id":76561198152311904,"connected_time":2222000000000,"state":"active","ping":57}]},{"server_id":123,"name":"Uncletopia | Sydney | 2 | All Maps","name_short":"syd-2","host":"syd-1.au.uncletopia.com","port":27025,"enabled":true,"region":"au","cc":"au","latitude":-33.865143,"longitude":151.2099,"reserved":0,"last_update":"0001-01-01T00:00:00Z","name_a2s":"Uncletopia | Sydney | 2 | All Maps","protocol":17,"map":"cp_powerhouse","folder":"tf","game":"Team Fortress","app_id":440,"player_count":21,"max_players":24,"Bots":0,"server_type":"Dedicated","server_os":"Linux","password":true,"vac":true,"version":"7742253","steam_id":85568392924470002,"keywords":["cp","nocrits","nodmgspread","uncletopia"],"game_id":440,"stv_port":27026,"stv_name":"Uncletopia | Sydney | 2 | All Maps | STV","players":[{"user_id":216,"name":"cimpact","steam_id":76561198452258917,"connected_time":290000000000,"state":"active","ping":119},{"user_id":200,"name":"Sentry Gun (DJ)","steam_id":76561198340730741,"connected_time":1302000000000,"state":"active","ping":59},{"user_id":217,"name":"Thy_Green_Gamer","steam_id":76561199089181953,"connected_time":209000000000,"state":"active","ping":99},{"user_id":218,"name":"Lancer","steam_id":76561198122813810,"connected_time":205000000000,"state":"active","ping":73},{"user_id":219,"name":"SK","steam_id":76561199233693786,"connected_time":177000000000,"state":"active","ping":60},{"user_id":204,"name":"Joshua Graham","steam_id":76561198136604959,"connected_time":985000000000,"state":"active","ping":56},{"user_id":220,"name":"FrOStY","steam_id":76561198088155805,"connected_time":142000000000,"state":"active","ping":89},{"user_id":221,"name":"Bigrichard","steam_id":76561198032092945,"connected_time":142000000000,"state":"active","ping":67},{"user_id":222,"name":"Pale-Nimbus White","steam_id":76561198070817727,"connected_time":137000000000,"state":"active","ping":119},{"user_id":226,"name":"Puueds","steam_id":76561198313324562,"connected_time":15000000000,"state":"active","ping":46},{"user_id":224,"name":"TurboVEVO","steam_id":76561198163694415,"connected_time":45000000000,"state":"active","ping":63},{"user_id":189,"name":"clout","steam_id":76561198073310502,"connected_time":1757000000000,"state":"active","ping":72},{"user_id":206,"name":"Van","steam_id":76561198027324852,"connected_time":797000000000,"state":"active","ping":76},{"user_id":225,"name":"Brent Gaming","steam_id":76561198004079481,"connected_time":31000000000,"state":"active","ping":70},{"user_id":191,"name":"Phantom Postman","steam_id":76561198075252643,"connected_time":1625000000000,"state":"active","ping":63},{"user_id":227,"name":"Ralphy","steam_id":76561198019107403,"connected_time":12000000000,"state":"spawning","ping":59},{"user_id":193,"name":"random.","steam_id":76561198848689967,"connected_time":1480000000000,"state":"active","ping":44},{"user_id":228,"name":"Tiblob","steam_id":76561198159195449,"connected_time":5000000000,"state":"spawning","ping":59},{"user_id":212,"name":"dumb_master","steam_id":76561198082899130,"connected_time":460000000000,"state":"active","ping":56},{"user_id":202,"name":"covenofbats","steam_id":76561198152117315,"connected_time":1200000000000,"state":"active","ping":41},{"user_id":205,"name":"Fuzz","steam_id":76561198063077180,"connected_time":908000000000,"state":"active","ping":49}]},{"server_id":395,"name":"Uncletopia | Sydney | 3 | All Maps","name_short":"syd-3","host":"syd-1.au.uncletopia.com","port":27035,"enabled":true,"region":"au","cc":"au","latitude":-33.865143,"longitude":151.2099,"reserved":0,"last_update":"0001-01-01T00:00:00Z","name_a2s":"Uncletopia | Sydney | 3 | All Maps","protocol":17,"map":"koth_viaduct","folder":"tf","game":"Team Fortress","app_id":440,"player_count":0,"max_players":24,"Bots":0,"server_type":"Dedicated","server_os":"Linux","password":true,"vac":true,"version":"7742253","steam_id":85568392925194467,"keywords":["cp","nocrits","nodmgspread","uncletopia"],"game_id":440,"stv_port":27036,"stv_name":"Uncletopia | Sydney | 3 | All Maps | STV","players":null},{"server_id":396,"name":"Uncletopia | Sydney | 4 | All Maps","name_short":"syd-4","host":"syd-1.au.uncletopia.com","port":27045,"enabled":true,"region":"au","cc":"au","latitude":-33.865143,"longitude":151.2099,"reserved":0,"last_update":"0001-01-01T00:00:00Z","name_a2s":"Uncletopia | Sydney | 4 | All Maps","protocol":17,"map":"cp_mountainlab","folder":"tf","game":"Team Fortress","app_id":440,"player_count":0,"max_players":24,"Bots":0,"server_type":"Dedicated","server_os":"Linux","password":true,"vac":true,"version":"7742253","steam_id":85568392925397958,"keywords":["cp","nocrits","nodmgspread","uncletopia"],"game_id":440,"stv_port":27046,"stv_name":"Uncletopia | Sydney | 4 | All Maps | STV","players":null},{"server_id":58,"name":"Uncletopia | Sydney | 5 | Stopwatch Beta","name_short":"syd-5","host":"syd-1.au.uncletopia.com","port":27055,"enabled":true,"region":"au","cc":"au","latitude":-33.865143,"longitude":151.2099,"reserved":0,"last_update":"0001-01-01T00:00:00Z","name_a2s":"Uncletopia | Sydney | 5 | Stopwatch Beta","protocol":17,"map":"workshop/koth_ramjam_rc1.ugc459778887","folder":"tf","game":"Team Fortress","app_id":440,"player_count":0,"max_players":24,"Bots":0,"server_type":"Dedicated","server_os":"Linux","password":true,"vac":true,"version":"7742253","steam_id":85568392925397959,"keywords":["cp","nocrits","nodmgspread","uncletopia"],"game_id":440,"stv_port":27056,"stv_name":"Uncletopia | Sydney | 5 | Stopwatch Beta | STV","players":null},{"server_id":59,"name":"Uncletopia | Sydney | 6 | Community","name_short":"syd-6","host":"syd-1.au.uncletopia.com","port":27065,"enabled":true,"region":"au","cc":"au","latitude":-33.865143,"longitude":151.2099,"reserved":0,"last_update":"0001-01-01T00:00:00Z","name_a2s":"Uncletopia | Sydney | 6 | Community","protocol":17,"map":"workshop/koth_bagel_rc5.ugc2514036946","folder":"tf","game":"Team Fortress","app_id":440,"player_count":0,"max_players":24,"Bots":0,"server_type":"Dedicated","server_os":"Linux","password":true,"vac":true,"version":"7742253","steam_id":85568392925397960,"keywords":["cp","nocrits","nodmgspread","uncletopia"],"game_id":440,"stv_port":27066,"stv_name":"Uncletopia | Sydney | 6 | Community | STV","players":null},{"server_id":49,"name":"Uncletopia | Warsaw | 1 | All Maps","name_short":"waw-1","host":"waw-1.pl.uncletopia.com","port":27015,"enabled":true,"region":"eu","cc":"pl","latitude":52.2297,"longitude":21.017532,"reserved":0,"last_update":"0001-01-01T00:00:00Z","name_a2s":"","protocol":0,"map":"","folder":"","game":"","app_id":0,"player_count":0,"max_players":0,"Bots":0,"server_type":"","server_os":"","password":false,"vac":false,"version":"","steam_id":0,"keywords":null,"game_id":0,"stv_port":0,"stv_name":"","players":null},{"server_id":50,"name":"Uncletopia | Warsaw | 2 | All Maps","name_short":"waw-2","host":"waw-1.pl.uncletopia.com","port":27025,"enabled":true,"region":"eu","cc":"pl","latitude":52.2297,"longitude":21.017532,"reserved":0,"last_update":"0001-01-01T00:00:00Z","name_a2s":"Uncletopia | Warsaw | 2 | All Maps","protocol":17,"map":"pl_upward","folder":"tf","game":"Team Fortress","app_id":440,"player_count":0,"max_players":24,"Bots":0,"server_type":"Dedicated","server_os":"Linux","password":true,"vac":true,"version":"7742253","steam_id":85568392925397851,"keywords":["nocrits","nodmgspread","payload","uncletopia"],"game_id":440,"stv_port":27026,"stv_name":"Uncletopia | Warsaw | 2 | All Maps | STV","players":null},{"server_id":51,"name":"Uncletopia | Warsaw | 3 | All Maps","name_short":"waw-3","host":"waw-1.pl.uncletopia.com","port":27035,"enabled":true,"region":"eu","cc":"pl","latitude":52.2297,"longitude":21.017532,"reserved":0,"last_update":"0001-01-01T00:00:00Z","name_a2s":"Uncletopia | Warsaw | 3 | All Maps","protocol":17,"map":"koth_lakeside_final","folder":"tf","game":"Team Fortress","app_id":440,"player_count":0,"max_players":24,"Bots":0,"server_type":"Dedicated","server_os":"Linux","password":true,"vac":true,"version":"7742253","steam_id":85568392925397852,"keywords":["cp","nocrits","nodmgspread","uncletopia"],"game_id":440,"stv_port":27036,"stv_name":"Uncletopia | Warsaw | 3 | All Maps | STV","players":null},{"server_id":52,"name":"Uncletopia | Warsaw | 4 | All Maps","name_short":"waw-4","host":"waw-1.pl.uncletopia.com","port":27045,"enabled":true,"region":"eu","cc":"pl","latitude":52.2297,"longitude":21.017532,"reserved":0,"last_update":"0001-01-01T00:00:00Z","name_a2s":"Uncletopia | Warsaw | 4 | All Maps","protocol":17,"map":"pl_upward","folder":"tf","game":"Team Fortress","app_id":440,"player_count":0,"max_players":24,"Bots":0,"server_type":"Dedicated","server_os":"Linux","password":true,"vac":true,"version":"7742253","steam_id":85568392925397853,"keywords":["nocrits","nodmgspread","payload","uncletopia"],"game_id":440,"stv_port":27046,"stv_name":"Uncletopia | Warsaw | 4 | All Maps | STV","players":null},{"server_id":53,"name":"Uncletopia | Warsaw | 5 | Stopwatch Beta","name_short":"waw-5","host":"waw-1.pl.uncletopia.com","port":27055,"enabled":true,"region":"eu","cc":"pl","latitude":52.2297,"longitude":21.017532,"reserved":0,"last_update":"0001-01-01T00:00:00Z","name_a2s":"Uncletopia | Warsaw | 5 | Stopwatch Beta","protocol":17,"map":"pl_swiftwater_final1","folder":"tf","game":"Team Fortress","app_id":440,"player_count":0,"max_players":24,"Bots":0,"server_type":"Dedicated","server_os":"Linux","password":true,"vac":true,"version":"7742253","steam_id":85568392925397854,"keywords":["nocrits","nodmgspread","payload","uncletopia"],"game_id":440,"stv_port":27056,"stv_name":"Uncletopia | Warsaw | 5 | Stopwatch Beta | STV","players":null},{"server_id":54,"name":"Uncletopia | Warsaw | 6 | Community","name_short":"waw-6","host":"waw-1.pl.uncletopia.com","port":27065,"enabled":true,"region":"eu","cc":"pl","latitude":52.2297,"longitude":21.017532,"reserved":0,"last_update":"0001-01-01T00:00:00Z","name_a2s":"Uncletopia | Warsaw | 6 | Community","protocol":17,"map":"koth_highpass","folder":"tf","game":"Team Fortress","app_id":440,"player_count":0,"max_players":24,"Bots":0,"server_type":"Dedicated","server_os":"Linux","password":true,"vac":true,"version":"7742253","steam_id":85568392925397856,"keywords":["cp","nocrits","nodmgspread","uncletopia"],"game_id":440,"stv_port":27066,"stv_name":"Uncletopia | Warsaw | 6 | Community | STV","players":null}]}