{"status":true,"message":"","result":[{"server_id":9,"name":"Uncletopia | Atlanta | 1 | All Maps","name_short":"atl-1","host":"atl-1.us.uncletopia.com","port":27015,"enabled":true,"region":"us-east","cc":"us","latitude":33.753746,"longitude":-84.38633,"reserved":0,"last_update":"0001-01-01T00:00:00Z","name_a2s":"Uncletopia | Atlanta | 1 | All Maps","protocol":17,"map":"plr_hightower","folder":"tf","game":"Team Fortress","app_id":440,"player_count":3,"max_players":24,"Bots":0,"server_type":"Dedicated","server_os":"Linux","password":true,"vac":true,"version":"7882260","steam_id":85568392924469982,"keywords":["cp","nocrits","nodmgspread","uncletopia"],"game_id":440,"stv_port":27016,"stv_name":"Uncletopia | Atlanta | 1 | All Maps | STV","players":[{"user_id":826,"name":"SpyGamerCool64","steam_id":76561199226513809,"connected_time":202000000000,"state":"spawning","ping":209},{"user_id":827,"name":"nori_420","steam_id":76561199117134203,"connected_time":79000000000,"state":"spawning","ping":111},{"user_id":537,"name":"TOYSIPO2","steam_id":76561198042183304,"connected_time":10920000000000,"state":"spawning","ping":77}]},{"server_id":104,"name":"Uncletopia | Atlanta | 2 | All Maps","name_short":"atl-2","host":"atl-1.us.uncletopia.com","port":27025,"enabled":true,"region":"us-east","cc":"us","latitude":33.753746,"longitude":-84.38633,"reserved":0,"last_update":"0001-01-01T00:00:00Z","name_a2s":"Uncletopia | Atlanta | 2 | All Maps","protocol":17,"map":"cp_altitude","folder":"tf","game":"Team Fortress","app_id":440,"player_count":0,"max_players":24,"Bots":0,"server_type":"Dedicated","server_os":"Linux","password":true,"vac":true,"version":"7882260","steam_id":85568392924469983,"keywords":["cp","nocrits","nodmgspread","uncletopia"],"game_id":440,"stv_port":27026,"stv_name":"Uncletopia | Atlanta | 2 | All Maps | STV","players":null},{"server_id":400,"name":"Uncletopia | Atlanta | 3 | Community","name_short":"atl-3","host":"atl-1.us.uncletopia.com","port":27035,"enabled":true,"region":"us-east","cc":"us","latitude":33.753746,"longitude":-84.38633,"reserved":0,"last_update":"0001-01-01T00:00:00Z","name_a2s":"Uncletopia | Atlanta | 3 | Community","protocol":17,"map":"workshop/cp_indulge.ugc528106646","folder":"tf","game":"Team Fortress","app_id":440,"player_count":0,"max_players":24,"Bots":0,"server_type":"Dedicated","server_os":"Linux","password":true,"vac":true,"version":"7882260","steam_id":85568392924515187,"keywords":["cp","nocrits","nodmgspread","uncletopia"],"game_id":440,"stv_port":27036,"stv_name":"Uncletopia | Atlanta | 3 | Community | STV","players":null},{"server_id":401,"name":"Uncletopia | Atlanta | 4 | No Payload","name_short":"atl-4","host":"atl-1.us.uncletopia.com","port":27045,"enabled":true,"region":"us-east","cc":"us","latitude":33.753746,"longitude":-84.38633,"reserved":0,"last_update":"0001-01-01T00:00:00Z","name_a2s":"","protocol":0,"map":"","folder":"","game":"","app_id":0,"player_count":0,"max_players":0,"Bots":0,"server_type":"","server_os":"","password":false,"vac":false,"version":"","steam_id":0,"keywords":null,"game_id":0,"stv_port":0,"stv_name":"","players":null},{"server_id":2,"name":"Uncletopia | Chicago | 1 | All Maps","name_short":"chi-1","host":"chi-1.us.uncletopia.com","port":27015,"enabled":true,"region":"us-central","cc":"us","latitude":41.881832,"longitude":-87.62318,"reserved":0,"last_update":"0001-01-01T00:00:00Z","name_a2s":"Uncletopia | Chicago | 1 | All Maps","protocol":17,"map":"cp_granary","folder":"tf","game":"Team Fortress","app_id":440,"player_count":24,"max_players":24,"Bots":0,"server_type":"Dedicated","server_os":"Linux","password":true,"vac":true,"version":"7882260","steam_id":85568392924469984,"keywords":["cp","nocrits","nodmgspread","uncletopia"],"game_id":440,"stv_port":27016,"stv_name":"Uncletopia | Chicago | 1 | All Maps | STV","players":[{"user_id":680,"name":"ultralisk52","steam_id":76561198051666604,"connected_time":2742000000000,"state":"active","ping":55},{"user_id":714,"name":"Intro Bonito","steam_id":76561198119478838,"connected_time":468000000000,"state":"active","ping":59},{"user_id":708,"name":"The Burglar","steam_id":76561198325685937,"connected_time":1419000000000,"state":"active","ping":58},{"user_id":682,"name":"how to fly?","steam_id":76561198064255155,"connected_time":2692000000000,"state":"active","ping":53},{"user_id":715,"name":"LtK","steam_id":76561197993180943,"connected_time":384000000000,"state":"active","ping":59},{"user_id":709,"name":"Gentoo Linux Gaming","steam_id":76561197999657118,"connected_time":1407000000000,"state":"active","ping":74},{"user_id":660,"name":"minty","steam_id":76561198096347625,"connected_time":4548000000000,"state":"active","ping":83},{"user_id":716,"name":"TheRealMud","steam_id":76561198138312993,"connected_time":343000000000,"state":"active","ping":72},{"user_id":662,"name":"Elena Manetta","steam_id":76561197998344054,"connected_time":4540000000000,"state":"active","ping":46},{"user_id":706,"name":"Bodhi","steam_id":76561198103230995,"connected_time":1554000000000,"state":"active","ping":76},{"user_id":719,"name":"Potato","steam_id":76561198115604238,"connected_time":36000000000,"state":"active","ping":123},{"user_id":663,"name":"Goofball","steam_id":76561198074189084,"connected_time":4540000000000,"state":"active","ping":45},{"user_id":720,"name":"Wallet","steam_id":76561198081067377,"connected_time":29000000000,"state":"active","ping":55},{"user_id":686,"name":"fishy butters ♠","steam_id":76561198147453405,"connected_time":2589000000000,"state":"active","ping":73},{"user_id":705,"name":"funny weed dot com","steam_id":76561198843967834,"connected_time":1645000000000,"state":"active","ping":46},{"user_id":653,"name":"come to butthead","steam_id":76561198020322241,"connected_time":5304000000000,"state":"active","ping":68},{"user_id":721,"name":"Ms. TV \u003c3","steam_id":76561199013930215,"connected_time":27000000000,"state":"active","ping":97},{"user_id":707,"name":"Bitblock","steam_id":76561198359772017,"connected_time":1426000000000,"state":"active","ping":90},{"user_id":697,"name":"Kuddly Kay (She/Her)","steam_id":76561198353432576,"connected_time":2171000000000,"state":"active","ping":62},{"user_id":710,"name":"kinars","steam_id":76561198857791409,"connected_time":1399000000000,"state":"active","ping":138},{"user_id":711,"name":"Ferruco:3","steam_id":76561198431714229,"connected_time":1396000000000,"state":"active","ping":90},{"user_id":722,"name":"LProduct","steam_id":76561199442139670,"connected_time":14000000000,"state":"active","ping":257},{"user_id":639,"name":"kree","steam_id":76561197979960008,"connected_time":7020000000000,"state":"active","ping":58},{"user_id":717,"name":"car","steam_id":76561198999217575,"connected_time":291000000000,"state":"active","ping":67}]},{"server_id":106,"name":"Uncletopia | Chicago | 2 | All Maps","name_short":"chi-2","host":"chi-1.us.uncletopia.com","port":27025,"enabled":true,"region":"us-central","cc":"us","latitude":41.881832,"longitude":-87.62318,"reserved":0,"last_update":"0001-01-01T00:00:00Z","name_a2s":"Uncletopia | Chicago | 2 | All Maps","protocol":17,"map":"cp_snakewater_final1","folder":"tf","game":"Team Fortress","app_id":440,"player_count":24,"max_players":24,"Bots":0,"server_type":"Dedicated","server_os":"Linux","password":true,"vac":true,"version":"7882260","steam_id":85568392924469985,"keywords":["cp","nocrits","nodmgspread","uncletopia"],"game_id":440,"stv_port":27026,"stv_name":"Uncletopia | Chicago | 2 | All Maps | STV","players":[{"user_id":665,"name":"DolphiN | RGL.gg","steam_id":76561198048614515,"connected_time":2822000000000,"state":"active","ping":59},{"user_id":634,"name":"chicken wit dah eggrow","steam_id":76561198115458307,"connected_time":5455000000000,"state":"active","ping":105},{"user_id":638,"name":"steakfarmasian","steam_id":76561198212754036,"connected_time":4961000000000,"state":"active","ping":58},{"user_id":672,"name":"BoddhosDaughter","steam_id":76561198140202317,"connected_time":1776000000000,"state":"active","ping":57},{"user_id":679,"name":"crayonnipple","steam_id":76561198070253331,"connected_time":1610000000000,"state":"active","ping":74},{"user_id":686,"name":"gromit","steam_id":76561198037746805,"connected_time":326000000000,"state":"active","ping":69},{"user_id":640,"name":"mu","steam_id":76561197997530228,"connected_time":4925000000000,"state":"active","ping":106},{"user_id":669,"name":"El Gato Paranoico","steam_id":76561198116567116,"connected_time":2315000000000,"state":"active","ping":100},{"user_id":592,"name":"incompetentmedic","steam_id":76561199466073856,"connected_time":8218000000000,"state":"active","ping":61},{"user_id":674,"name":"GOLDIE","steam_id":76561199375258674,"connected_time":1764000000000,"state":"active","ping":95},{"user_id":684,"name":"Maxxycat","steam_id":76561198194062681,"connected_time":1205000000000,"state":"active","ping":55},{"user_id":637,"name":"JD","steam_id":76561198202669250,"connected_time":4979000000000,"state":"active","ping":70},{"user_id":676,"name":"Spike","steam_id":76561198141356571,"connected_time":1720000000000,"state":"active","ping":58},{"user_id":620,"name":"Monochi","steam_id":76561198093093118,"connected_time":6372000000000,"state":"active","ping":81},{"user_id":630,"name":"Dot.","steam_id":76561198149463984,"connected_time":5866000000000,"state":"active","ping":49},{"user_id":670,"name":"shadow elite","steam_id":76561198165212575,"connected_time":1946000000000,"state":"active","ping":61},{"user_id":683,"name":"exa*✩‧₊˚","steam_id":76561198044511912,"connected_time":1406000000000,"state":"active","ping":95},{"user_id":685,"name":"Dale","steam_id":76561198095794136,"connected_time":449000000000,"state":"active","ping":98},{"user_id":653,"name":"Baby gaming","steam_id":76561198867319323,"connected_time":4179000000000,"state":"active","ping":62},{"user_id":666,"name":"skyking","steam_id":76561198092703501,"connected_time":2716000000000,"state":"active","ping":116},{"user_id":661,"name":"leonardo doujinshi","steam_id":76561198025810326,"connected_time":3610000000000,"state":"active","ping":76},{"user_id":668,"name":"Tesh","steam_id":76561199089982885,"connected_time":2651000000000,"state":"active","ping":79},{"user_id":681,"name":"Dr.LeatherPsycho","steam_id":76561198800480998,"connected_time":1598000000000,"state":"active","ping":149},{"user_id":664,"name":"M249 | Spectre","steam_id":76561198118334485,"connected_time":3351000000000,"state":"active","ping":74}]},{"server_id":402,"name":"Uncletopia | Chicago | 3 | All Maps","name_short":"chi-3","host":"chi-1.us.uncletopia.com","port":27035,"enabled":true,"region":"us-central","cc":"us","latitude":41.881832,"longitude":-87.62318,"reserved":0,"last_update":"0001-01-01T00:00:00Z","name_a2s":"Uncletopia | Chicago | 3 | All Maps","protocol":17,"map":"pl_swiftwater_final1","folder":"tf","game":"Team Fortress","app_id":440,"player_count":19,"max_players":24,"Bots":0,"server_type":"Dedicated","server_os":"Linux","password":true,"vac":true,"version":"7882260","steam_id":85568392924515191,"keywords":["nocrits","nodmgspread","payload","uncletopia"],"game_id":440,"stv_port":27036,"stv_name":"Uncletopia | Chicago | 3 | All Maps | STV","players":[{"user_id":804,"name":"marcie","steam_id":76561198170642407,"connected_time":625000000000,"state":"active","ping":60},{"user_id":780,"name":"Drunk gaming","steam_id":76561198164619692,"connected_time":1995000000000,"state":"active","ping":89},{"user_id":762,"name":"(◎﹏◎)","steam_id":76561198007464245,"connected_time":3221000000000,"state":"active","ping":75},{"user_id":811,"name":"Esteban Delsin","steam_id":76561198433519639,"connected_time":63000000000,"state":"active","ping":95},{"user_id":802,"name":"scrom doglin","steam_id":76561198073176682,"connected_time":688000000000,"state":"active","ping":56},{"user_id":727,"name":"CheeseCake488","steam_id":76561199407617942,"connected_time":6401000000000,"state":"active","ping":165},{"user_id":790,"name":"None of that $9.99 bullshit","steam_id":76561198116169903,"connected_time":884000000000,"state":"active","ping":45},{"user_id":738,"name":"Melody","steam_id":76561198407789232,"connected_time":5478000000000,"state":"active","ping":125},{"user_id":794,"name":"Wizard Raccoon","steam_id":76561198072562591,"connected_time":861000000000,"state":"active","ping":77},{"user_id":807,"name":"kab789","steam_id":76561198069842202,"connected_time":347000000000,"state":"active","ping":70},{"user_id":791,"name":"Rudy","steam_id":76561198013456828,"connected_time":883000000000,"state":"active","ping":66},{"user_id":796,"name":"bog","steam_id":76561198086008437,"connected_time":845000000000,"state":"active","ping":77},{"user_id":809,"name":"επιλέγω","steam_id":76561198076639682,"connected_time":270000000000,"state":"active","ping":70},{"user_id":812,"name":"Constipated Barry","steam_id":76561198004482269,"connected_time":16000000000,"state":"active","ping":83},{"user_id":800,"name":"the guinnesseur","steam_id":76561198049685207,"connected_time":805000000000,"state":"active","ping":58},{"user_id":797,"name":"just call me joe","steam_id":76561198043911582,"connected_time":838000000000,"state":"active","ping":60},{"user_id":785,"name":"Rohi Mig","steam_id":76561198113623627,"connected_time":1882000000000,"state":"active","ping":69},{"user_id":813,"name":"shaq$","steam_id":76561198045246504,"connected_time":16000000000,"state":"spawning","ping":55},{"user_id":787,"name":"rad killl raccoon","steam_id":76561198980975595,"connected_time":1767000000000,"state":"active","ping":96}]},{"server_id":403,"name":"Uncletopia | Chicago | 4 | All Maps","name_short":"chi-4","host":"chi-1.us.uncletopia.com","port":27045,"enabled":true,"region":"us-central","cc":"us","latitude":41.881832,"longitude":-87.62318,"reserved":0,"last_update":"0001-01-01T00:00:00Z","name_a2s":"Uncletopia | Chicago | 4 | All Maps","protocol":17,"map":"koth_lakeside_final","folder":"tf","game":"Team Fortress","app_id":440,"player_count":23,"max_players":24,"Bots":0,"server_type":"Dedicated","server_os":"Linux","password":true,"vac":true,"version":"7882260","steam_id":85568392924515193,"keywords":["cp","nocrits","nodmgspread","uncletopia"],"game_id":440,"stv_port":27046,"stv_name":"Uncletopia | Chicago | 4 | All Maps | STV","players":[{"user_id":573,"name":"Literally Chaeryeong","steam_id":76561198082873880,"connected_time":1031000000000,"state":"active","ping":70},{"user_id":574,"name":"Lord_Manship","steam_id":76561198045168765,"connected_time":895000000000,"state":"active","ping":93},{"user_id":575,"name":"m yfrogs","steam_id":76561198371149432,"connected_time":884000000000,"state":"active","ping":46},{"user_id":538,"name":"June","steam_id":76561198211858204,"connected_time":5844000000000,"state":"active","ping":118},{"user_id":566,"name":"frank","steam_id":76561198137777483,"connected_time":2670000000000,"state":"active","ping":60},{"user_id":588,"name":"James","steam_id":76561198077251918,"connected_time":418000000000,"state":"active","ping":90},{"user_id":589,"name":"[S]Mr. X [No Monitor]","steam_id":76561197963746035,"connected_time":388000000000,"state":"active","ping":110},{"user_id":577,"name":"Cwiishe","steam_id":76561199482943969,"connected_time":869000000000,"state":"active","ping":61},{"user_id":552,"name":"Excalibrine","steam_id":76561198129312118,"connected_time":4024000000000,"state":"active","ping":88},{"user_id":578,"name":"Moonadoo","steam_id":76561198133377546,"connected_time":838000000000,"state":"active","ping":74},{"user_id":592,"name":"R.Y.","steam_id":76561199384459715,"connected_time":154000000000,"state":"active","ping":85},{"user_id":542,"name":"Fever Dreams","steam_id":76561198116614620,"connected_time":5184000000000,"state":"active","ping":79},{"user_id":590,"name":"aVO","steam_id":76561198161429389,"connected_time":317000000000,"state":"active","ping":78},{"user_id":581,"name":"Adonut","steam_id":76561198805858184,"connected_time":725000000000,"state":"active","ping":96},{"user_id":582,"name":"Yoloisnotded","steam_id":76561198995043589,"connected_time":718000000000,"state":"active","ping":217},{"user_id":519,"name":"Grand","steam_id":76561198290143399,"connected_time":8057000000000,"state":"active","ping":67},{"user_id":557,"name":"HanakoToast","steam_id":76561198045233131,"connected_time":3853000000000,"state":"active","ping":117},{"user_id":585,"name":"Day-Date","steam_id":76561198081148684,"connected_time":677000000000,"state":"active","ping":61},{"user_id":584,"name":"fuck","steam_id":76561198181043841,"connected_time":699000000000,"state":"active","ping":60},{"user_id":586,"name":"shadowknight","steam_id":76561198346998108,"connected_time":627000000000,"state":"active","ping":102},{"user_id":540,"name":"OrangeSodaMachine","steam_id":76561198079230156,"connected_time":5366000000000,"state":"active","ping":73},{"user_id":591,"name":"Future Breed Machine","steam_id":76561198298889418,"connected_time":313000000000,"state":"active","ping":87},{"user_id":521,"name":"Truffles","steam_id":76561198095868800,"connected_time":7936000000000,"state":"active","ping":84}]},{"server_id":36,"name":"Uncletopia | Chicago | 5 | All Maps","name_short":"chi-5","host":"chi-2.us.uncletopia.com","port":27015,"enabled":true,"region":"us-central","cc":"us","latitude":41.881832,"longitude":-87.62318,"reserved":0,"last_update":"0001-01-01T00:00:00Z","name_a2s":"Uncletopia | Chicago | 5 | All Maps","protocol":17,"map":"cp_mountainlab","folder":"tf","game":"Team Fortress","app_id":440,"player_count":0,"max_players":24,"Bots":0,"server_type":"Dedicated","server_os":"Linux","password":true,"vac":true,"version":"7882260","steam_id":85568392924866362,"keywords":["cp","nocrits","nodmgspread","uncletopia"],"game_id":440,"stv_port":27016,"stv_name":"Uncletopia | Chicago | 5 | All Maps | STV","players":null},{"server_id":37,"name":"Uncletopia | Chicago | 6 | All Maps","name_short":"chi-6","host":"chi-2.us.uncletopia.com","port":27025,"enabled":true,"region":"us-central","cc":"us","latitude":41.881832,"longitude":-87.62318,"reserved":0,"last_update":"0001-01-01T00:00:00Z","name_a2s":"Uncletopia | Chicago | 6 | All Maps","protocol":17,"map":"pl_swiftwater_final1","folder":"tf","game":"Team Fortress","app_id":440,"player_count":24,"max_players":24,"Bots":0,"server_type":"Dedicated","server_os":"Linux","password":true,"vac":true,"version":"7882260","steam_id":85568392924866363,"keywords":["nocrits","nodmgspread","payload","uncletopia"],"game_id":440,"stv_port":27026,"stv_name":"Uncletopia | Chicago | 6 | All Maps | STV","players":[{"user_id":613,"name":"Lore","steam_id":76561198098407538,"connected_time":1141000000000,"state":"active","ping":52},{"user_id":580,"name":"shitass | troutsupply.net","steam_id":76561198210572481,"connected_time":4121000000000,"state":"active","ping":87},{"user_id":584,"name":"ThatOneGuy831","steam_id":76561198000422558,"connected_time":4087000000000,"state":"active","ping":74},{"user_id":595,"name":"Eleen - Live","steam_id":76561198063800293,"connected_time":3322000000000,"state":"active","ping":104},{"user_id":609,"name":"loader","steam_id":76561199196442823,"connected_time":1281000000000,"state":"active","ping":136},{"user_id":601,"name":"g8rade","steam_id":76561198070593964,"connected_time":2092000000000,"state":"active","ping":79},{"user_id":619,"name":"dabula","steam_id":76561198149421510,"connected_time":707000000000,"state":"active","ping":95},{"user_id":533,"name":"Mastermind","steam_id":76561198127783432,"connected_time":8132000000000,"state":"active","ping":75},{"user_id":487,"name":"Bag","steam_id":76561198012395490,"connected_time":12384000000000,"state":"active","ping":71},{"user_id":623,"name":"wzyazrael","steam_id":76561198844221455,"connected_time":548000000000,"state":"active","ping":101},{"user_id":624,"name":"StarManMatt","steam_id":76561198125513574,"connected_time":484000000000,"state":"active","ping":94},{"user_id":520,"name":"Snoopy","steam_id":76561198065339248,"connected_time":8944000000000,"state":"active","ping":94},{"user_id":572,"name":"Clumsy","steam_id":76561198056345245,"connected_time":5770000000000,"state":"active","ping":69},{"user_id":629,"name":"Gustavo Fring","steam_id":76561198132807405,"connected_time":218000000000,"state":"active","ping":92},{"user_id":625,"name":"Joob","steam_id":76561197972852132,"connected_time":453000000000,"state":"active","ping":73},{"user_id":626,"name":"Ramsay","steam_id":76561198027065805,"connected_time":436000000000,"state":"active","ping":93},{"user_id":627,"name":"Rein","steam_id":76561198300340427,"connected_time":371000000000,"state":"active","ping":64},{"user_id":631,"name":"Saucy Boy","steam_id":76561198178332031,"connected_time":0,"state":"spawning","ping":15},{"user_id":612,"name":"xFactr","steam_id":76561198129007422,"connected_time":1158000000000,"state":"active","ping":60},{"user_id":630,"name":"Voodo133","steam_id":76561198042670351,"connected_time":200000000000,"state":"active","ping":92},{"user_id":590,"name":"SHADY SWEATER SALESMAN","steam_id":76561198014616865,"connected_time":3867000000000,"state":"active","ping":65},{"user_id":593,"name":"Medic Boyfriend","steam_id":76561198104086771,"connected_time":3615000000000,"state":"active","ping":101},{"user_id":594,"name":"Blackbird","steam_id":76561198127818333,"connected_time":3600000000000,"state":"active","ping":56},{"user_id":615,"name":"AdvertisingMerc","steam_id":76561198065290842,"connected_time":1028000000000,"state":"active","ping":75}]},{"server_id":38,"name":"Uncletopia | Chicago | 7 | Stopwatch Beta","name_short":"chi-7","host":"chi-2.us.uncletopia.com","port":27035,"enabled":true,"region":"us-central","cc":"us","latitude":41.881832,"longitude":-87.62318,"reserved":0,"last_update":"0001-01-01T00:00:00Z","name_a2s":"Uncletopia | Chicago | 7 | Stopwatch Beta","protocol":17,"map":"koth_lakeside_final","folder":"tf","game":"Team Fortress","app_id":440,"player_count":0,"max_players":24,"Bots":0,"server_type":"Dedicated","server_os":"Linux","password":true,"vac":true,"version":"7882260","steam_id":85568392924866364,"keywords":["cp","nocrits","nodmgspread","uncletopia"],"game_id":440,"stv_port":27036,"stv_name":"Uncletopia | Chicago | 7 | Stopwatch Beta | STV","players":null},{"server_id":39,"name":"Uncletopia | Chicago | 8 | Community","name_short":"chi-8","host":"chi-2.us.uncletopia.com","port":27045,"enabled":true,"region":"us-central","cc":"us","latitude":41.881832,"longitude":-87.62318,"reserved":0,"last_update":"0001-01-01T00:00:00Z","name_a2s":"Uncletopia | Chicago | 8 | Community","protocol":17,"map":"workshop/pl_fifthcurve_rc1.ugc648227046","folder":"tf","game":"Team Fortress","app_id":440,"player_count":20,"max_players":24,"Bots":0,"server_type":"Dedicated","server_os":"Linux","password":true,"vac":true,"version":"7882260","steam_id":85568392924866365,"keywords":["nocrits","nodmgspread","payload","uncletopia"],"game_id":440,"stv_port":27046,"stv_name":"Uncletopia | Chicago | 8 | Community | STV","players":[{"user_id":310,"name":"rept","steam_id":76561198022100969,"connected_time":2975000000000,"state":"active","ping":46},{"user_id":346,"name":"Loleo","steam_id":76561198348132374,"connected_time":41000000000,"state":"active","ping":51},{"user_id":299,"name":"Etzan","steam_id":76561198026897084,"connected_time":3744000000000,"state":"active","ping":108},{"user_id":316,"name":"Janice","steam_id":76561198205346760,"connected_time":2057000000000,"state":"active","ping":43},{"user_id":263,"name":"Snoozey","steam_id":76561198017120466,"connected_time":7069000000000,"state":"active","ping":75},{"user_id":339,"name":"LalitoTV","steam_id":76561198334302951,"connected_time":278000000000,"state":"active","ping":118},{"user_id":266,"name":"erm what the scallop","steam_id":76561198983069721,"connected_time":6860000000000,"state":"active","ping":65},{"user_id":340,"name":"Dive(z)","steam_id":76561198140843225,"connected_time":248000000000,"state":"active","ping":104},{"user_id":338,"name":"Markus_Artemis","steam_id":76561198061298774,"connected_time":284000000000,"state":"active","ping":78},{"user_id":341,"name":"Lone_Explorer","steam_id":76561198081972715,"connected_time":190000000000,"state":"active","ping":113},{"user_id":273,"name":"High Caliber Triangle","steam_id":76561197999059241,"connected_time":6060000000000,"state":"active","ping":94},{"user_id":342,"name":"Your Local NPR Station","steam_id":76561198143830279,"connected_time":189000000000,"state":"active","ping":59},{"user_id":343,"name":"hotdog4332","steam_id":76561198215559840,"connected_time":179000000000,"state":"active","ping":61},{"user_id":293,"name":"Golurk with some bitches","steam_id":76561198085888959,"connected_time":4061000000000,"state":"active","ping":59},{"user_id":305,"name":"Zerg","steam_id":76561198334336702,"connected_time":3281000000000,"state":"active","ping":60},{"user_id":281,"name":"platinum","steam_id":76561198038599536,"connected_time":5003000000000,"state":"active","ping":79},{"user_id":345,"name":"Sticks","steam_id":76561199013914575,"connected_time":131000000000,"state":"active","ping":67},{"user_id":337,"name":"BigNugs","steam_id":76561198056402610,"connected_time":367000000000,"state":"active","ping":70},{"user_id":325,"name":"Rusted Cake","steam_id":76561198209755931,"connected_time":1800000000000,"state":"active","ping":114},{"user_id":326,"name":"boy from the rafters","steam_id":76561198042926224,"connected_time":1773000000000,"state":"active","ping":89}]},{"server_id":8,"name":"Uncletopia | Dallas | 1 | All Maps","name_short":"dal-1","host":"dal-1.us.uncletopia.com","port":27015,"enabled":true,"region":"us-central","cc":"us","latitude":32.779167,"longitude":-96.80889,"reserved":0,"last_update":"0001-01-01T00:00:00Z","name_a2s":"Uncletopia | Dallas | 1 | All Maps","protocol":17,"map":"pl_swiftwater_final1","folder":"tf","game":"Team Fortress","app_id":440,"player_count":24,"max_players":24,"Bots":0,"server_type":"Dedicated","server_os":"Linux","password":true,"vac":true,"version":"7882260","steam_id":85568392924469986,"keywords":["nocrits","nodmgspread","payload","uncletopia"],"game_id":440,"stv_port":27016,"stv_name":"Uncletopia | Dallas | 1 | All Maps | STV","players":[{"user_id":819,"name":"Chunky Little Chongus","steam_id":76561199094873145,"connected_time":1235000000000,"state":"active","ping":101},{"user_id":816,"name":"geen","steam_id":76561197999318398,"connected_time":1274000000000,"state":"active","ping":106},{"user_id":809,"name":"STILLZ","steam_id":76561198131892406,"connected_time":2486000000000,"state":"active","ping":88},{"user_id":818,"name":"Housetoy","steam_id":76561198859204757,"connected_time":1252000000000,"state":"active","ping":83},{"user_id":822,"name":"Zanartan","steam_id":76561198050528902,"connected_time":1165000000000,"state":"active","ping":190},{"user_id":827,"name":"keffers","steam_id":76561198202338796,"connected_time":556000000000,"state":"active","ping":75},{"user_id":821,"name":"FRANKY!!!","steam_id":76561199211305343,"connected_time":1229000000000,"state":"active","ping":86},{"user_id":828,"name":"FluttyPutty","steam_id":76561198218446556,"connected_time":419000000000,"state":"active","ping":61},{"user_id":832,"name":"Sahbi","steam_id":76561199196292242,"connected_time":109000000000,"state":"active","ping":69},{"user_id":823,"name":"Kegs","steam_id":76561198353712949,"connected_time":1162000000000,"state":"active","ping":176},{"user_id":761,"name":"Yongle","steam_id":76561198068591156,"connected_time":5799000000000,"state":"active","ping":71},{"user_id":808,"name":"skegeton","steam_id":76561198095581099,"connected_time":2693000000000,"state":"active","ping":58},{"user_id":814,"name":"Tideflat","steam_id":76561198179850851,"connected_time":2218000000000,"state":"active","ping":123},{"user_id":759,"name":"larguu","steam_id":76561197994336210,"connected_time":5927000000000,"state":"active","ping":77},{"user_id":806,"name":"E P H E M E R A L","steam_id":76561198128614882,"connected_time":2917000000000,"state":"active","ping":82},{"user_id":797,"name":"EvilPigglet","steam_id":76561197987243470,"connected_time":3482000000000,"state":"active","ping":75},{"user_id":824,"name":"cousin boy","steam_id":76561198012955043,"connected_time":1142000000000,"state":"active","ping":185},{"user_id":784,"name":"Chauncey","steam_id":76561198012885060,"connected_time":3993000000000,"state":"active","ping":72},{"user_id":829,"name":"Mr. Mime","steam_id":76561199197676776,"connected_time":260000000000,"state":"active","ping":61},{"user_id":830,"name":"sex","steam_id":76561198138467891,"connected_time":246000000000,"state":"active","ping":84},{"user_id":831,"name":"Etomb","steam_id":76561198210017208,"connected_time":133000000000,"state":"active","ping":74},{"user_id":802,"name":".-.. --- ...- . / -.-- --- ..-","steam_id":76561198002483206,"connected_time":3269000000000,"state":"active","ping":39},{"user_id":833,"name":"Mang","steam_id":76561198074322048,"connected_time":94000000000,"state":"active","ping":111},{"user_id":834,"name":"Lumina","steam_id":76561198089227368,"connected_time":86000000000,"state":"active","ping":196}]},{"server_id":108,"name":"Uncletopia | Dallas | 2 | All Maps","name_short":"dal-2","host":"dal-1.us.uncletopia.com","port":27025,"enabled":true,"region":"us-central","cc":"us","latitude":32.779167,"longitude":-96.80889,"reserved":0,"last_update":"0001-01-01T00:00:00Z","name_a2s":"Uncletopia | Dallas | 2 | All Maps","protocol":17,"map":"pl_swiftwater_final1","folder":"tf","game":"Team Fortress","app_id":440,"player_count":23,"max_players":24,"Bots":0,"server_type":"Dedicated","server_os":"Linux","password":true,"vac":true,"version":"7882260","steam_id":85568392924469988,"keywords":["nocrits","nodmgspread","payload","uncletopia"],"game_id":440,"stv_port":27026,"stv_name":"Uncletopia | Dallas | 2 | All Maps | STV","players":[{"user_id":621,"name":"Holly","steam_id":76561198982631429,"connected_time":114000000000,"state":"active","ping":50},{"user_id":607,"name":"matto1120","steam_id":76561198201321499,"connected_time":1407000000000,"state":"active","ping":86},{"user_id":593,"name":"SleeplessCollin","steam_id":76561198968140914,"connected_time":1702000000000,"state":"active","ping":64},{"user_id":567,"name":"Cliffigriff","steam_id":76561198121924499,"connected_time":4102000000000,"state":"active","ping":54},{"user_id":614,"name":"Scrux","steam_id":76561198129763115,"connected_time":825000000000,"state":"active","ping":83},{"user_id":594,"name":"lucasgamer4life","steam_id":76561198129816242,"connected_time":1695000000000,"state":"active","ping":86},{"user_id":622,"name":"WM1 PYRO","steam_id":76561198045893896,"connected_time":69000000000,"state":"active","ping":105},{"user_id":618,"name":"WorminCrazy","steam_id":76561198927509821,"connected_time":758000000000,"state":"active","ping":100},{"user_id":596,"name":"Bananodile","steam_id":76561197999021551,"connected_time":1664000000000,"state":"active","ping":88},{"user_id":598,"name":"pony","steam_id":76561198059483994,"connected_time":1574000000000,"state":"active","ping":79},{"user_id":599,"name":"Loashes","steam_id":76561198119608299,"connected_time":1564000000000,"state":"active","ping":51},{"user_id":604,"name":"Panckakebro","steam_id":76561198106419992,"connected_time":1445000000000,"state":"active","ping":63},{"user_id":610,"name":"Billy zane","steam_id":76561198413386212,"connected_time":1326000000000,"state":"active","ping":62},{"user_id":612,"name":"Polaco","steam_id":76561198176326523,"connected_time":1300000000000,"state":"active","ping":59},{"user_id":623,"name":"Plains Phoenix","steam_id":76561198817161299,"connected_time":5000000000,"state":"spawning","ping":47},{"user_id":613,"name":"Kuvorious","steam_id":76561198153729934,"connected_time":928000000000,"state":"active","ping":61},{"user_id":605,"name":"Fluffy_Toast","steam_id":76561199120045918,"connected_time":1435000000000,"state":"active","ping":85},{"user_id":606,"name":"Swiggs","steam_id":76561198135015291,"connected_time":1419000000000,"state":"active","ping":64},{"user_id":620,"name":"kilometers","steam_id":76561198090642147,"connected_time":509000000000,"state":"active","ping":88},{"user_id":586,"name":"0x01FE","steam_id":76561198838881917,"connected_time":2682000000000,"state":"active","ping":60},{"user_id":591,"name":"8th Ward","steam_id":76561198405839882,"connected_time":1752000000000,"state":"active","ping":58},{"user_id":616,"name":"Gelliterate","steam_id":76561198107233070,"connected_time":815000000000,"state":"active","ping":48},{"user_id":611,"name":"Vriska","steam_id":76561198942104681,"connected_time":1306000000000,"state":"active","ping":99}]},{"server_id":5,"name":"Uncletopia | Frankfurt | 1 | All Maps","name_short":"frk-1","host":"frk-1.de.uncletopia.com","port":27015,"enabled":true,"region":"eu","cc":"de","latitude":50.110924,"longitude":8.682127,"reserved":0,"last_update":"0001-01-01T00:00:00Z","name_a2s":"Uncletopia | Frankfurt | 1 | All Maps","protocol":17,"map":"pl_snowycoast","folder":"tf","game":"Team Fortress","app_id":440,"player_count":0,"max_players":24,"Bots":0,"server_type":"Dedicated","server_os":"Linux","password":true,"vac":true,"version":"7882260","steam_id":85568392924469989,"keywords":["nocrits","nodmgspread","payload","uncletopia"],"game_id":440,"stv_port":27016,"stv_name":"Uncletopia | Frankfurt | 1 | All Maps | STV","players":null},{"server_id":110,"name":"Uncletopia | Frankfurt | 2 | All Maps","name_short":"frk-2","host":"frk-1.de.uncletopia.com","port":27025,"enabled":true,"region":"eu","cc":"de","latitude":50.110924,"longitude":8.682127,"reserved":0,"last_update":"0001-01-01T00:00:00Z","name_a2s":"Uncletopia | Frankfurt | 2 | All Maps","protocol":17,"map":"pl_upward","folder":"tf","game":"Team Fortress","app_id":440,"player_count":0,"max_players":24,"Bots":0,"server_type":"Dedicated","server_os":"Linux","password":true,"vac":true,"version":"7882260","steam_id":85568392924469990,"keywords":["nocrits","nodmgspread","payload","uncletopia"],"game_id":440,"stv_port":27026,"stv_name":"Uncletopia | Frankfurt | 2 | All Maps | STV","players":null},{"server_id":308,"name":"Uncletopia | Frankfurt | 3 | All Maps","name_short":"frk-3","host":"frk-1.de.uncletopia.com","port":27035,"enabled":true,"region":"eu","cc":"de","latitude":50.110924,"longitude":8.682127,"reserved":0,"last_update":"0001-01-01T00:00:00Z","name_a2s":"Uncletopia | Frankfurt | 3 | All Maps","protocol":17,"map":"cp_process_final","folder":"tf","game":"Team Fortress","app_id":440,"player_count":0,"max_players":24,"Bots":0,"server_type":"Dedicated","server_os":"Linux","password":true,"vac":true,"version":"7882260","steam_id":85568392924504274,"keywords":["cp","nocrits","nodmgspread","uncletopia"],"game_id":440,"stv_port":27036,"stv_name":"Uncletopia | Frankfurt | 3 | All Maps | STV","players":null},{"server_id":309,"name":"Uncletopia | Frankfurt | 4 | All Maps","name_short":"frk-4","host":"frk-1.de.uncletopia.com","port":27045,"enabled":true,"region":"eu","cc":"de","latitude":50.110924,"longitude":8.682127,"reserved":0,"last_update":"0001-01-01T00:00:00Z","name_a2s":"Uncletopia | Frankfurt | 4 | All Maps","protocol":17,"map":"pl_swiftwater_final1","folder":"tf","game":"Team Fortress","app_id":440,"player_count":0,"max_players":24,"Bots":0,"server_type":"Dedicated","server_os":"Linux","password":true,"vac":true,"version":"7882260","steam_id":85568392924504275,"keywords":["nocrits","nodmgspread","payload","uncletopia"],"game_id":440,"stv_port":27046,"stv_name":"Uncletopia | Frankfurt | 4 | All Maps | STV","players":null},{"server_id":310,"name":"Uncletopia | Frankfurt | 5 | All Maps","name_short":"frk-5","host":"frk-1.de.uncletopia.com","port":27055,"enabled":true,"region":"eu","cc":"de","latitude":50.110924,"longitude":8.682127,"reserved":0,"last_update":"0001-01-01T00:00:00Z","name_a2s":"Uncletopia | Frankfurt | 5 | All Maps","protocol":17,"map":"pl_borneo","folder":"tf","game":"Team Fortress","app_id":440,"player_count":0,"max_players":24,"Bots":0,"server_type":"Dedicated","server_os":"Linux","password":true,"vac":true,"version":"7882260","steam_id":85568392924504277,"keywords":["nocrits","nodmgspread","payload","uncletopia"],"game_id":440,"stv_port":27056,"stv_name":"Uncletopia | Frankfurt | 5 | All Maps | STV","players":null},{"server_id":311,"name":"Uncletopia | Frankfurt | 6 | All Maps","name_short":"frk-6","host":"frk-1.de.uncletopia.com","port":27065,"enabled":true,"region":"eu","cc":"de","latitude":50.110924,"longitude":8.682127,"reserved":0,"last_update":"0001-01-01T00:00:00Z","name_a2s":"Uncletopia | Frankfurt | 6 | All Maps","protocol":17,"map":"cp_snakewater_final1","folder":"tf","game":"Team Fortress","app_id":440,"player_count":0,"max_players":24,"Bots":0,"server_type":"Dedicated","server_os":"Linux","password":true,"vac":true,"version":"7882260","steam_id":85568392924504278,"keywords":["cp","nocrits","nodmgspread","uncletopia"],"game_id":440,"stv_port":27066,"stv_name":"Uncletopia | Frankfurt | 6 | All Maps | STV","players":null},{"server_id":23,"name":"Uncletopia | Frankfurt | 7 | Stopwatch Beta","name_short":"frk-7","host":"frk-1.de.uncletopia.com","port":27075,"enabled":true,"region":"eu","cc":"de","latitude":50.110924,"longitude":8.682127,"reserved":0,"last_update":"0001-01-01T00:00:00Z","name_a2s":"Uncletopia | Frankfurt | 7 | Stopwatch Beta","protocol":17,"map":"cp_snakewater_final1","folder":"tf","game":"Team Fortress","app_id":440,"player_count":0,"max_players":24,"Bots":0,"server_type":"Dedicated","server_os":"Linux","password":true,"vac":true,"version":"7882260","steam_id":85568392924742827,"keywords":["cp","nocrits","nodmgspread","uncletopia"],"game_id":440,"stv_port":27076,"stv_name":"Uncletopia | Frankfurt | 7 | Stopwatch Beta | STV","players":null},{"server_id":24,"name":"Uncletopia | Frankfurt | 8 | Community","name_short":"frk-8","host":"frk-1.de.uncletopia.com","port":27085,"enabled":true,"region":"eu","cc":"de","latitude":50.110924,"longitude":8.682127,"reserved":0,"last_update":"0001-01-01T00:00:00Z","name_a2s":"Uncletopia | Frankfurt | 8 | Community","protocol":17,"map":"cp_mountainlab","folder":"tf","game":"Team Fortress","app_id":440,"player_count":0,"max_players":24,"Bots":0,"server_type":"Dedicated","server_os":"Linux","password":true,"vac":true,"version":"7882260","steam_id":85568392924742828,"keywords":["cp","nocrits","nodmgspread","uncletopia"],"game_id":440,"stv_port":27086,"stv_name":"Uncletopia | Frankfurt | 8 | Community | STV","players":null},{"server_id":202,"name":"Uncletopia | Hong Kong | 1 | All Maps","name_short":"hgk-1","host":"hgk-1.hk.uncletopia.com","port":27015,"enabled":true,"region":"asia","cc":"hk","latitude":22.302711,"longitude":114.177216,"reserved":0,"last_update":"0001-01-01T00:00:00Z","name_a2s":"Uncletopia | Hong Kong | 1 | All Maps","protocol":17,"map":"cp_sunshine","folder":"tf","game":"Team Fortress","app_id":440,"player_count":0,"max_players":24,"Bots":0,"server_type":"Dedicated","server_os":"Linux","password":true,"vac":true,"version":"7882260","steam_id":85568392924494504,"keywords":["cp","nocrits","nodmgspread","uncletopia"],"game_id":440,"stv_port":27016,"stv_name":"Uncletopia | Hong Kong | 1 | All Maps | STV","players":null},{"server_id":1,"name":"Uncletopia | Los Angeles | 1 | All Maps","name_short":"lax-1","host":"lax-1.us.uncletopia.com","port":27015,"enabled":true,"region":"us-west","cc":"us","latitude":33.94279,"longitude":-118.41004,"reserved":0,"last_update":"0001-01-01T00:00:00Z","name_a2s":"Uncletopia | Los Angeles | 1 | All Maps","protocol":17,"map":"cp_dustbowl","folder":"tf","game":"Team Fortress","app_id":440,"player_count":24,"max_players":24,"Bots":0,"server_type":"Dedicated","server_os":"Linux","password":true,"vac":true,"version":"7882260","steam_id":85568392924469991,"keywords":["cp","nocrits","nodmgspread","uncletopia"],"game_id":440,"stv_port":27016,"stv_name":"Uncletopia | Los Angeles | 1 | All Maps | STV","players":[{"user_id":725,"name":"That Classy Cat","steam_id":76561198147130680,"connected_time":2945000000000,"state":"active","ping":63},{"user_id":689,"name":"Trippy","steam_id":76561199090730294,"connected_time":5557000000000,"state":"active","ping":71},{"user_id":739,"name":"Neo Kojiro","steam_id":76561198000967076,"connected_time":1552000000000,"state":"active","ping":145},{"user_id":736,"name":"basmati jarate","steam_id":76561198319442494,"connected_time":1719000000000,"state":"active","ping":59},{"user_id":710,"name":"renewbot","steam_id":76561198149140645,"connected_time":3977000000000,"state":"active","ping":99},{"user_id":744,"name":"john fitzgerald kennedy","steam_id":76561199087667270,"connected_time":603000000000,"state":"active","ping":61},{"user_id":740,"name":"human trafficking","steam_id":76561198309823950,"connected_time":1539000000000,"state":"active","ping":74},{"user_id":743,"name":"Monochrome | Cashmoney","steam_id":76561198377320040,"connected_time":623000000000,"state":"active","ping":108},{"user_id":697,"name":"Lukey Pookey | Ham Mafia |","steam_id":76561199095883827,"connected_time":5148000000000,"state":"active","ping":63},{"user_id":738,"name":"Kururma","steam_id":76561199073421378,"connected_time":1626000000000,"state":"active","ping":73},{"user_id":745,"name":"You","steam_id":76561198154209806,"connected_time":543000000000,"state":"active","ping":102},{"user_id":651,"name":"Feel the bern","steam_id":76561198078824519,"connected_time":7799000000000,"state":"active","ping":45},{"user_id":752,"name":"frustration is getting bigger","steam_id":76561198318126190,"connected_time":257000000000,"state":"active","ping":149},{"user_id":747,"name":"Jamie","steam_id":76561198917309036,"connected_time":486000000000,"state":"active","ping":182},{"user_id":742,"name":"Whisper!","steam_id":76561198119609795,"connected_time":898000000000,"state":"active","ping":51},{"user_id":748,"name":"❤[Lilly]❤","steam_id":76561198817361963,"connected_time":412000000000,"state":"active","ping":74},{"user_id":713,"name":"Squatter1","steam_id":76561198078987734,"connected_time":3768000000000,"state":"active","ping":72},{"user_id":711,"name":"Sailor","steam_id":76561199081983517,"connected_time":3942000000000,"state":"active","ping":85},{"user_id":750,"name":"grant","steam_id":76561198061366853,"connected_time":346000000000,"state":"active","ping":52},{"user_id":719,"name":"bobby","steam_id":76561198050767193,"connected_time":3489000000000,"state":"active","ping":52},{"user_id":753,"name":"jumbi","steam_id":76561198353456379,"connected_time":246000000000,"state":"active","ping":82},{"user_id":722,"name":"nella","steam_id":76561198079349621,"connected_time":3212000000000,"state":"active","ping":58},{"user_id":726,"name":"spiritual surcharge","steam_id":76561198164460801,"connected_time":2774000000000,"state":"active","ping":60},{"user_id":707,"name":"FROYO b4nny","steam_id":76561197970669109,"connected_time":4454000000000,"state":"active","ping":52}]},{"server_id":112,"name":"Uncletopia | Los Angeles | 2 | All Maps","name_short":"lax-2","host":"lax-1.us.uncletopia.com","port":27025,"enabled":true,"region":"us-west","cc":"us","latitude":33.94279,"longitude":-118.41004,"reserved":0,"last_update":"0001-01-01T00:00:00Z","name_a2s":"Uncletopia | Los Angeles | 2 | All Maps","protocol":17,"map":"pl_snowycoast","folder":"tf","game":"Team Fortress","app_id":440,"player_count":23,"max_players":24,"Bots":0,"server_type":"Dedicated","server_os":"Linux","password":true,"vac":true,"version":"7882260","steam_id":85568392924469992,"keywords":["nocrits","nodmgspread","payload","uncletopia"],"game_id":440,"stv_port":27026,"stv_name":"Uncletopia | Los Angeles | 2 | All Maps | STV","players":[{"user_id":451,"name":"sussycheese","steam_id":76561198384139570,"connected_time":3193000000000,"state":"active","ping":52},{"user_id":464,"name":"Wavelengths (they/it)","steam_id":76561197997621320,"connected_time":1940000000000,"state":"active","ping":90},{"user_id":457,"name":"DarkMewMew","steam_id":76561199471715552,"connected_time":2476000000000,"state":"active","ping":71},{"user_id":494,"name":"a homeless cat","steam_id":76561198058388903,"connected_time":398000000000,"state":"active","ping":76},{"user_id":469,"name":"eepy ahh boo","steam_id":76561198072879485,"connected_time":1683000000000,"state":"active","ping":56},{"user_id":454,"name":"Cypress [ +/- ] ✔","steam_id":76561198067164431,"connected_time":2818000000000,"state":"active","ping":34},{"user_id":490,"name":"Sarbanes-Oxley","steam_id":76561197975898479,"connected_time":754000000000,"state":"active","ping":82},{"user_id":498,"name":"Dongus","steam_id":76561197979056451,"connected_time":306000000000,"state":"active","ping":74},{"user_id":461,"name":"Rorver","steam_id":76561198114030795,"connected_time":2133000000000,"state":"active","ping":81},{"user_id":476,"name":"Elementary my dear Watson","steam_id":76561198028123939,"connected_time":1252000000000,"state":"active","ping":113},{"user_id":474,"name":"Josey Wales","steam_id":76561198070931610,"connected_time":1401000000000,"state":"active","ping":74},{"user_id":431,"name":"Nylox","steam_id":76561198191196389,"connected_time":5408000000000,"state":"active","ping":61},{"user_id":496,"name":"krootonitron","steam_id":76561198114113037,"connected_time":396000000000,"state":"active","ping":49},{"user_id":475,"name":"Lambchop","steam_id":76561198043900363,"connected_time":1362000000000,"state":"active","ping":65},{"user_id":497,"name":"Soda","steam_id":76561198219209367,"connected_time":379000000000,"state":"active","ping":62},{"user_id":326,"name":"California Jew","steam_id":76561198914032112,"connected_time":11980000000000,"state":"active","ping":86},{"user_id":480,"name":"samvaluez","steam_id":76561199213743808,"connected_time":1150000000000,"state":"active","ping":77},{"user_id":481,"name":"The Utmost of Class","steam_id":76561198252156874,"connected_time":1144000000000,"state":"active","ping":59},{"user_id":488,"name":"Frontier Psychiatrist","steam_id":76561198038689088,"connected_time":975000000000,"state":"active","ping":123},{"user_id":503,"name":"Jack from Jack in The Box","steam_id":76561199083594971,"connected_time":145000000000,"state":"active","ping":48},{"user_id":499,"name":"H _ N G M _ N","steam_id":76561198064662875,"connected_time":301000000000,"state":"active","ping":60},{"user_id":500,"name":"JellyParrot","steam_id":76561199190990163,"connected_time":290000000000,"state":"active","ping":107},{"user_id":489,"name":"TF2C | fac -AA-","steam_id":76561198009818412,"connected_time":951000000000,"state":"active","ping":87}]},{"server_id":324,"name":"Uncletopia | Los Angeles | 3 | All Maps","name_short":"lax-3","host":"lax-1.us.uncletopia.com","port":27035,"enabled":true,"region":"us-west","cc":"us","latitude":33.94279,"longitude":-118.41004,"reserved":0,"last_update":"0001-01-01T00:00:00Z","name_a2s":"Uncletopia | Los Angeles | 3 | All Maps","protocol":17,"map":"cp_dustbowl","folder":"tf","game":"Team Fortress","app_id":440,"player_count":24,"max_players":24,"Bots":0,"server_type":"Dedicated","server_os":"Linux","password":true,"vac":true,"version":"7882260","steam_id":85568392924510198,"keywords":["cp","nocrits","nodmgspread","uncletopia"],"game_id":440,"stv_port":27036,"stv_name":"Uncletopia | Los Angeles | 3 | All Maps | STV","players":[{"user_id":226,"name":"Weiner Cleaner","steam_id":76561198147514577,"connected_time":4544000000000,"state":"active","ping":65},{"user_id":258,"name":"Gold","steam_id":76561199122071871,"connected_time":385000000000,"state":"active","ping":55},{"user_id":263,"name":"bloodsmoke420","steam_id":76561198044703480,"connected_time":265000000000,"state":"active","ping":60},{"user_id":269,"name":"badas smoking camol","steam_id":76561198043732416,"connected_time":120000000000,"state":"active","ping":90},{"user_id":237,"name":"hooli","steam_id":76561197985708998,"connected_time":3141000000000,"state":"active","ping":75},{"user_id":200,"name":"vioxynteris","steam_id":76561198161428666,"connected_time":5745000000000,"state":"active","ping":31},{"user_id":247,"name":"Jokezonyu","steam_id":76561198213167893,"connected_time":2359000000000,"state":"active","ping":57},{"user_id":265,"name":"TeriyakiDynamite","steam_id":76561198050049346,"connected_time":220000000000,"state":"active","ping":64},{"user_id":203,"name":"HOG RIDER","steam_id":76561198298589502,"connected_time":5640000000000,"state":"active","ping":54},{"user_id":250,"name":"Dr. B Busta","steam_id":76561198206387303,"connected_time":1961000000000,"state":"active","ping":38},{"user_id":191,"name":"danger","steam_id":76561198000459165,"connected_time":6171000000000,"state":"active","ping":85},{"user_id":266,"name":"SorcererMinty","steam_id":76561199185659553,"connected_time":213000000000,"state":"active","ping":88},{"user_id":239,"name":"dev","steam_id":76561198401482388,"connected_time":3095000000000,"state":"active","ping":81},{"user_id":238,"name":"Ralph Kramden (Slim Charles)","steam_id":76561197981687895,"connected_time":3126000000000,"state":"active","ping":61},{"user_id":240,"name":"Snoopy","steam_id":76561198273735974,"connected_time":3067000000000,"state":"active","ping":83},{"user_id":215,"name":"ejschild745","steam_id":76561199013388867,"connected_time":5309000000000,"state":"active","ping":105},{"user_id":267,"name":"KidPuncher Supreme","steam_id":76561198452927805,"connected_time":204000000000,"state":"active","ping":55},{"user_id":259,"name":"armpit fetishist","steam_id":76561199008452637,"connected_time":360000000000,"state":"active","ping":103},{"user_id":248,"name":"Sleuth","steam_id":76561198418288939,"connected_time":2032000000000,"state":"active","ping":67},{"user_id":257,"name":"chrome 2008 (she/they)","steam_id":76561198321277216,"connected_time":430000000000,"state":"active","ping":60},{"user_id":242,"name":"Smooth™","steam_id":76561197995866050,"connected_time":3044000000000,"state":"active","ping":130},{"user_id":268,"name":"dead elf wagon","steam_id":76561198122303574,"connected_time":204000000000,"state":"active","ping":69},{"user_id":270,"name":"♠Silver♠","steam_id":76561198206109224,"connected_time":17000000000,"state":"active","ping":160},{"user_id":245,"name":"steve","steam_id":76561198207881077,"connected_time":2972000000000,"state":"active","ping":93}]},{"server_id":25,"name":"Uncletopia | Los Angeles | 4 | Stopwatch Beta","name_short":"lax-4","host":"lax-1.us.uncletopia.com","port":27045,"enabled":true,"region":"us-west","cc":"us","latitude":33.94279,"longitude":-118.41004,"reserved":0,"last_update":"0001-01-01T00:00:00Z","name_a2s":"Uncletopia | Los Angeles | 4 | Stopwatch Beta","protocol":17,"map":"koth_viaduct","folder":"tf","game":"Team Fortress","app_id":440,"player_count":0,"max_players":24,"Bots":0,"server_type":"Dedicated","server_os":"Linux","password":true,"vac":true,"version":"7882260","steam_id":85568392924510199,"keywords":["cp","nocrits","nodmgspread","uncletopia"],"game_id":440,"stv_port":27046,"stv_name":"Uncletopia | Los Angeles | 4 | Stopwatch Beta | STV","players":null},{"server_id":11,"name":"Uncletopia | London | 1 | All Maps","name_short":"lon-1","host":"lon-1.uk.uncletopia.com","port":27015,"enabled":true,"region":"eu","cc":"gb","latitude":51.509865,"longitude":-0.118092,"reserved":0,"last_update":"0001-01-01T00:00:00Z","name_a2s":"Uncletopia | London | 1 | All Maps","protocol":17,"map":"pl_borneo","folder":"tf","game":"Team Fortress","app_id":440,"player_count":0,"max_players":24,"Bots":0,"server_type":"Dedicated","server_os":"Linux","password":true,"vac":true,"version":"7882260","steam_id":85568392924367362,"keywords":["nocrits","nodmgspread","payload","uncletopia"],"game_id":440,"stv_port":27016,"stv_name":"Uncletopia | London | 1 | All Maps | STV","players":null},{"server_id":114,"name":"Uncletopia | London | 2 | All Maps","name_short":"lon-2","host":"lon-1.uk.uncletopia.com","port":27025,"enabled":true,"region":"eu","cc":"gb","latitude":51.509865,"longitude":-0.118092,"reserved":0,"last_update":"0001-01-01T00:00:00Z","name_a2s":"Uncletopia | London | 2 | All Maps","protocol":17,"map":"pl_frontier_final","folder":"tf","game":"Team Fortress","app_id":440,"player_count":12,"max_players":24,"Bots":0,"server_type":"Dedicated","server_os":"Linux","password":true,"vac":true,"version":"7882260","steam_id":85568392924470941,"keywords":["nocrits","nodmgspread","payload","uncletopia"],"game_id":440,"stv_port":27026,"stv_name":"Uncletopia | London | 2 | All Maps | STV","players":[{"user_id":556,"name":"Qdarks","steam_id":76561198013391340,"connected_time":246000000000,"state":"active","ping":130},{"user_id":548,"name":"sokige","steam_id":76561198167112371,"connected_time":1468000000000,"state":"active","ping":104},{"user_id":544,"name":"Ancient Number One","steam_id":76561197997933853,"connected_time":1843000000000,"state":"active","ping":80},{"user_id":557,"name":"The Funny Cat-Heaby","steam_id":76561198439978112,"connected_time":213000000000,"state":"active","ping":107},{"user_id":530,"name":"bebedanotbebedahebebedashebebed","steam_id":76561198277943630,"connected_time":3456000000000,"state":"active","ping":68},{"user_id":558,"name":"Gimmick","steam_id":76561197979603871,"connected_time":166000000000,"state":"active","ping":61},{"user_id":555,"name":"strideΔ","steam_id":76561199007826093,"connected_time":416000000000,"state":"active","ping":77},{"user_id":551,"name":"Paladin","steam_id":76561198042593027,"connected_time":1234000000000,"state":"active","ping":98},{"user_id":519,"name":"David Asura","steam_id":76561198017852330,"connected_time":4031000000000,"state":"active","ping":84},{"user_id":554,"name":".","steam_id":76561199084809092,"connected_time":571000000000,"state":"active","ping":108},{"user_id":500,"name":"Pramanix is my only frien","steam_id":76561198325612834,"connected_time":5077000000000,"state":"active","ping":124},{"user_id":509,"name":"Edith","steam_id":76561198867635722,"connected_time":4821000000000,"state":"active","ping":97}]},{"server_id":320,"name":"Uncletopia | London | 3 | All Maps","name_short":"lon-3","host":"lon-1.uk.uncletopia.com","port":27035,"enabled":true,"region":"eu","cc":"gb","latitude":51.509865,"longitude":-0.118092,"reserved":0,"last_update":"0001-01-01T00:00:00Z","name_a2s":"Uncletopia | London | 3 | All Maps","protocol":17,"map":"pl_borneo","folder":"tf","game":"Team Fortress","app_id":440,"player_count":0,"max_players":24,"Bots":0,"server_type":"Dedicated","server_os":"Linux","password":true,"vac":true,"version":"7882260","steam_id":85568392924510192,"keywords":["nocrits","nodmgspread","payload","uncletopia"],"game_id":440,"stv_port":27036,"stv_name":"Uncletopia | London | 3 | All Maps | STV","players":null},{"server_id":321,"name":"Uncletopia | London | 4 | All Maps","name_short":"lon-4","host":"lon-1.uk.uncletopia.com","port":27045,"enabled":true,"region":"eu","cc":"gb","latitude":51.509865,"longitude":-0.118092,"reserved":0,"last_update":"0001-01-01T00:00:00Z","name_a2s":"Uncletopia | London | 4 | All Maps","protocol":17,"map":"pl_frontier_final","folder":"tf","game":"Team Fortress","app_id":440,"player_count":0,"max_players":24,"Bots":0,"server_type":"Dedicated","server_os":"Linux","password":true,"vac":true,"version":"7882260","steam_id":85568392924510193,"keywords":["nocrits","nodmgspread","payload","uncletopia"],"game_id":440,"stv_port":27046,"stv_name":"Uncletopia | London | 4 | All Maps | STV","players":null},{"server_id":21,"name":"Uncletopia | London | 5 | All Maps","name_short":"lon-5","host":"lon-1.uk.uncletopia.com","port":27055,"enabled":true,"region":"eu","cc":"gb","latitude":51.509865,"longitude":-0.118092,"reserved":0,"last_update":"0001-01-01T00:00:00Z","name_a2s":"Uncletopia | London | 5 | All Maps","protocol":17,"map":"pl_frontier_final","folder":"tf","game":"Team Fortress","app_id":440,"player_count":0,"max_players":24,"Bots":0,"server_type":"Dedicated","server_os":"Linux","password":true,"vac":true,"version":"7882260","steam_id":85568392924742829,"keywords":["nocrits","nodmgspread","payload","uncletopia"],"game_id":440,"stv_port":27056,"stv_name":"Uncletopia | London | 5 | All Maps | STV","players":null},{"server_id":22,"name":"Uncletopia | London | 6 | All Maps","name_short":"lon-6","host":"lon-1.uk.uncletopia.com","port":27065,"enabled":true,"region":"eu","cc":"gb","latitude":51.509865,"longitude":-0.118092,"reserved":0,"last_update":"0001-01-01T00:00:00Z","name_a2s":"Uncletopia | London | 6 | All Maps","protocol":17,"map":"cp_mountainlab","folder":"tf","game":"Team Fortress","app_id":440,"player_count":0,"max_players":24,"Bots":0,"server_type":"Dedicated","server_os":"Linux","password":true,"vac":true,"version":"7882260","steam_id":85568392924742830,"keywords":["cp","nocrits","nodmgspread","uncletopia"],"game_id":440,"stv_port":27066,"stv_name":"Uncletopia | London | 6 | All Maps | STV","players":null},{"server_id":40,"name":"Uncletopia | London | 7 | No Payload","name_short":"lon-7","host":"lon-1.uk.uncletopia.com","port":27075,"enabled":true,"region":"eu","cc":"gb","latitude":51.509865,"longitude":-0.118092,"reserved":0,"last_update":"0001-01-01T00:00:00Z","name_a2s":"Uncletopia | London | 7 | No Payload","protocol":17,"map":"koth_suijin","folder":"tf","game":"Team Fortress","app_id":440,"player_count":0,"max_players":24,"Bots":0,"server_type":"Dedicated","server_os":"Linux","password":true,"vac":true,"version":"7882260","steam_id":85568392924964314,"keywords":["cp","nocrits","nodmgspread","uncletopia"],"game_id":440,"stv_port":27076,"stv_name":"Uncletopia | London | 7 | No Payload | STV","players":null},{"server_id":41,"name":"Uncletopia | London | 8 | Community","name_short":"lon-8","host":"lon-1.uk.uncletopia.com","port":27085,"enabled":true,"region":"eu","cc":"gb","latitude":51.509865,"longitude":-0.118092,"reserved":0,"last_update":"0001-01-01T00:00:00Z","name_a2s":"Uncletopia | London | 8 | Community","protocol":17,"map":"workshop/koth_slaughter_rc1.ugc1712845210","folder":"tf","game":"Team Fortress","app_id":440,"player_count":0,"max_players":24,"Bots":0,"server_type":"Dedicated","server_os":"Linux","password":true,"vac":true,"version":"7882260","steam_id":85568392924964315,"keywords":["cp","nocrits","nodmgspread","uncletopia"],"game_id":440,"stv_port":27086,"stv_name":"Uncletopia | London | 8 | Community | STV","players":null},{"server_id":300,"name":"Uncletopia | Montréal | 1 | All Maps","name_short":"mtl-1","host":"mtl-1.ca.uncletopia.com","port":27015,"enabled":true,"region":"us-east","cc":"ca","latitude":45.50889,"longitude":-73.56167,"reserved":0,"last_update":"0001-01-01T00:00:00Z","name_a2s":"Uncletopia | Montréal | 1 | All Maps","protocol":17,"map":"koth_viaduct","folder":"tf","game":"Team Fortress","app_id":440,"player_count":0,"max_players":24,"Bots":0,"server_type":"Dedicated","server_os":"Linux","password":true,"vac":true,"version":"7882260","steam_id":85568392924500087,"keywords":["cp","nocrits","nodmgspread","uncletopia"],"game_id":440,"stv_port":27016,"stv_name":"Uncletopia | Montréal | 1 | All Maps | STV","players":null},{"server_id":301,"name":"Uncletopia | Montréal | 2 | All Maps","name_short":"mtl-2","host":"mtl-1.ca.uncletopia.com","port":27025,"enabled":true,"region":"us-east","cc":"ca","latitude":45.50889,"longitude":-73.56167,"reserved":0,"last_update":"0001-01-01T00:00:00Z","name_a2s":"Uncletopia | Montréal | 2 | All Maps","protocol":17,"map":"koth_cascade","folder":"tf","game":"Team Fortress","app_id":440,"player_count":0,"max_players":24,"Bots":0,"server_type":"Dedicated","server_os":"Linux","password":true,"vac":true,"version":"7882260","steam_id":85568392924500088,"keywords":["cp","nocrits","nodmgspread","uncletopia"],"game_id":440,"stv_port":27026,"stv_name":"Uncletopia | Montréal | 2 | All Maps | STV","players":null},{"server_id":302,"name":"Uncletopia | Montréal | 3 | All Maps","name_short":"mtl-3","host":"mtl-1.ca.uncletopia.com","port":27035,"enabled":true,"region":"us-east","cc":"ca","latitude":45.50889,"longitude":-73.56167,"reserved":0,"last_update":"0001-01-01T00:00:00Z","name_a2s":"Uncletopia | Montréal | 3 | All Maps","protocol":17,"map":"cp_altitude","folder":"tf","game":"Team Fortress","app_id":440,"player_count":0,"max_players":24,"Bots":0,"server_type":"Dedicated","server_os":"Linux","password":true,"vac":true,"version":"7882260","steam_id":85568392924500089,"keywords":["cp","nocrits","nodmgspread","uncletopia"],"game_id":440,"stv_port":27036,"stv_name":"Uncletopia | Montréal | 3 | All Maps | STV","players":null},{"server_id":303,"name":"Uncletopia | Montréal | 4 | No Payload","name_short":"mtl-4","host":"mtl-1.ca.uncletopia.com","port":27045,"enabled":true,"region":"us-east","cc":"ca","latitude":45.50889,"longitude":-73.56167,"reserved":0,"last_update":"0001-01-01T00:00:00Z","name_a2s":"Uncletopia | Montréal | 4 | No Payload","protocol":17,"map":"koth_highpass","folder":"tf","game":"Team Fortress","app_id":440,"player_count":0,"max_players":24,"Bots":0,"server_type":"Dedicated","server_os":"Linux","password":true,"vac":true,"version":"7882260","steam_id":85568392924500090,"keywords":["cp","nocrits","nodmgspread","uncletopia"],"game_id":440,"stv_port":27046,"stv_name":"Uncletopia | Montréal | 4 | No Payload | STV","players":null},{"server_id":13,"name":"Uncletopia | New York City | 1 | All Maps","name_short":"nyc-1","host":"nyc-1.us.uncletopia.com","port":27015,"enabled":true,"region":"us-east","cc":"us","latitude":40.73061,"longitude":-73.93524,"reserved":0,"last_update":"0001-01-01T00:00:00Z","name_a2s":"Uncletopia | New York City | 1 | All Maps","protocol":17,"map":"pl_swiftwater_final1","folder":"tf","game":"Team Fortress","app_id":440,"player_count":0,"max_players":24,"Bots":0,"server_type":"Dedicated","server_os":"Linux","password":true,"vac":true,"version":"7882260","steam_id":85568392924469993,"keywords":["nocrits","nodmgspread","payload","uncletopia"],"game_id":440,"stv_port":27016,"stv_name":"Uncletopia | New York City | 1 | All Maps | STV","players":null},{"server_id":14,"name":"Uncletopia | New York City | 2 | All Maps","name_short":"nyc-2","host":"nyc-1.us.uncletopia.com","port":27025,"enabled":true,"region":"us-east","cc":"us","latitude":40.73061,"longitude":-73.93524,"reserved":0,"last_update":"0001-01-01T00:00:00Z","name_a2s":"Uncletopia | New York City | 2 | All Maps","protocol":17,"map":"koth_cascade","folder":"tf","game":"Team Fortress","app_id":440,"player_count":0,"max_players":24,"Bots":0,"server_type":"Dedicated","server_os":"Linux","password":true,"vac":true,"version":"7882260","steam_id":85568392924469994,"keywords":["cp","nocrits","nodmgspread","uncletopia"],"game_id":440,"stv_port":27026,"stv_name":"Uncletopia | New York City | 2 | All Maps | STV","players":null},{"server_id":15,"name":"Uncletopia | New York City | 3 | Stopwatch Beta","name_short":"nyc-3","host":"nyc-1.us.uncletopia.com","port":27035,"enabled":true,"region":"us-east","cc":"us","latitude":40.73061,"longitude":-73.93524,"reserved":0,"last_update":"0001-01-01T00:00:00Z","name_a2s":"Uncletopia | New York City | 3 | Stopwatch Beta","protocol":17,"map":"pl_borneo","folder":"tf","game":"Team Fortress","app_id":440,"player_count":0,"max_players":24,"Bots":0,"server_type":"Dedicated","server_os":"Linux","password":true,"vac":true,"version":"7882260","steam_id":85568392924742820,"keywords":["nocrits","nodmgspread","payload","uncletopia"],"game_id":440,"stv_port":27036,"stv_name":"Uncletopia | New York City | 3 | Stopwatch Beta | STV","players":null},{"server_id":16,"name":"Uncletopia | New York City | 4 | Community","name_short":"nyc-4","host":"nyc-1.us.uncletopia.com","port":27045,"enabled":true,"region":"us-east","cc":"us","latitude":40.73061,"longitude":-73.93524,"reserved":0,"last_update":"0001-01-01T00:00:00Z","name_a2s":"Uncletopia | New York City | 4 | Community","protocol":17,"map":"workshop/cp_villa_b19.ugc2113052569","folder":"tf","game":"Team Fortress","app_id":440,"player_count":8,"max_players":24,"Bots":0,"server_type":"Dedicated","server_os":"Linux","password":true,"vac":true,"version":"7882260","steam_id":85568392924742821,"keywords":["cp","nocrits","nodmgspread","uncletopia"],"game_id":440,"stv_port":27046,"stv_name":"Uncletopia | New York City | 4 | Community | STV","players":[{"user_id":298,"name":"ShiverShock","steam_id":76561198994768522,"connected_time":3291000000000,"state":"active","ping":99},{"user_id":299,"name":"Slavocado","steam_id":76561198161381266,"connected_time":2553000000000,"state":"active","ping":69},{"user_id":303,"name":"buh","steam_id":76561199421933900,"connected_time":698000000000,"state":"active","ping":135},{"user_id":291,"name":"IKOVKY/TTV","steam_id":76561198138035040,"connected_time":4160000000000,"state":"active","ping":59},{"user_id":292,"name":"YEE","steam_id":76561198317068510,"connected_time":4148000000000,"state":"active","ping":57},{"user_id":304,"name":"vadim_kotler","steam_id":76561199016634369,"connected_time":576000000000,"state":"active","ping":177},{"user_id":305,"name":"MagicMuffinman","steam_id":76561198149255313,"connected_time":242000000000,"state":"active","ping":62},{"user_id":297,"name":"Kuji Katsumi TTV ♡","steam_id":76561198165615964,"connected_time":3722000000000,"state":"active","ping":55}]},{"server_id":142,"name":"Uncletopia | São Paulo | 1 | All Maps","name_short":"sao-1","host":"sao-1.br.uncletopia.com","port":27015,"enabled":true,"region":"sa","cc":"br","latitude":-23.533773,"longitude":-46.62529,"reserved":0,"last_update":"0001-01-01T00:00:00Z","name_a2s":"Uncletopia | São Paulo | 1 | All Maps","protocol":17,"map":"pl_badwater","folder":"tf","game":"Team Fortress","app_id":440,"player_count":0,"max_players":24,"Bots":0,"server_type":"Dedicated","server_os":"Linux","password":true,"vac":true,"version":"7882260","steam_id":85568392924469996,"keywords":["nocrits","nodmgspread","payload","uncletopia"],"game_id":440,"stv_port":27016,"stv_name":"Uncletopia | São Paulo | 1 | All Maps | STV","players":null},{"server_id":143,"name":"Uncletopia | São Paulo | 2 | All Maps","name_short":"sao-2","host":"sao-2.br.uncletopia.com","port":27015,"enabled":true,"region":"sa","cc":"br","latitude":-23.533773,"longitude":-46.62529,"reserved":0,"last_update":"0001-01-01T00:00:00Z","name_a2s":"Uncletopia | São Paulo | 2 | All Maps","protocol":17,"map":"pl_snowycoast","folder":"tf","game":"Team Fortress","app_id":440,"player_count":0,"max_players":24,"Bots":0,"server_type":"Dedicated","server_os":"Linux","password":true,"vac":true,"version":"7882260","steam_id":85568392924485349,"keywords":["nocrits","nodmgspread","payload","uncletopia"],"game_id":440,"stv_port":27016,"stv_name":"Uncletopia | São Paulo | 2 | All Maps | STV","players":null},{"server_id":7,"name":"Uncletopia | Seattle | 1 | All Maps","name_short":"sea-1","host":"sea-1.us.uncletopia.com","port":27015,"enabled":true,"region":"us-west","cc":"us","latitude":47.608013,"longitude":-122.33517,"reserved":0,"last_update":"0001-01-01T00:00:00Z","name_a2s":"Uncletopia | Seattle | 1 | All Maps","protocol":17,"map":"pl_borneo","folder":"tf","game":"Team Fortress","app_id":440,"player_count":24,"max_players":24,"Bots":0,"server_type":"Dedicated","server_os":"Linux","password":true,"vac":true,"version":"7882260","steam_id":85568392924469997,"keywords":["nocrits","nodmgspread","payload","uncletopia"],"game_id":440,"stv_port":27016,"stv_name":"Uncletopia | Seattle | 1 | All Maps | STV","players":[{"user_id":792,"name":"Google","steam_id":76561198857237473,"connected_time":330000000000,"state":"active","ping":51},{"user_id":717,"name":"Johnny Testickle","steam_id":76561198032736600,"connected_time":7278000000000,"state":"active","ping":70},{"user_id":787,"name":"H0UZM@$T3R!!!!1","steam_id":76561198044297170,"connected_time":465000000000,"state":"active","ping":70},{"user_id":793,"name":"RURU","steam_id":76561198039758987,"connected_time":126000000000,"state":"active","ping":45},{"user_id":765,"name":"Ryshy02","steam_id":76561198055425447,"connected_time":2522000000000,"state":"active","ping":100},{"user_id":743,"name":"louie, a conch guy now","steam_id":76561198168084763,"connected_time":4254000000000,"state":"active","ping":42},{"user_id":624,"name":"rat gets the cheese","steam_id":76561198031234032,"connected_time":15110000000000,"state":"active","ping":92},{"user_id":788,"name":"lili","steam_id":76561199391478575,"connected_time":462000000000,"state":"active","ping":58},{"user_id":778,"name":"InvalidUserID","steam_id":76561198014177920,"connected_time":1821000000000,"state":"active","ping":68},{"user_id":780,"name":"Nakasmacka","steam_id":76561198049787270,"connected_time":1027000000000,"state":"active","ping":38},{"user_id":732,"name":"An Old Lady","steam_id":76561198047480318,"connected_time":5364000000000,"state":"active","ping":76},{"user_id":749,"name":"mike, has 3 baby mamas","steam_id":76561198225411004,"connected_time":4224000000000,"state":"active","ping":60},{"user_id":779,"name":"Astronat","steam_id":76561198096321896,"connected_time":1450000000000,"state":"active","ping":64},{"user_id":764,"name":"Mignyanne :3","steam_id":76561198048754056,"connected_time":2603000000000,"state":"active","ping":68},{"user_id":676,"name":"lusty","steam_id":76561198138478947,"connected_time":11158000000000,"state":"active","ping":43},{"user_id":789,"name":"Muskawashee (YOUTUBE)","steam_id":76561199373253672,"connected_time":450000000000,"state":"active","ping":53},{"user_id":760,"name":"hosewater","steam_id":76561198023383126,"connected_time":2781000000000,"state":"active","ping":47},{"user_id":767,"name":"Peppy","steam_id":76561198866629645,"connected_time":2184000000000,"state":"active","ping":57},{"user_id":724,"name":"fwoov","steam_id":76561198129166260,"connected_time":6349000000000,"state":"active","ping":76},{"user_id":781,"name":"RipHunter77","steam_id":76561198272973014,"connected_time":999000000000,"state":"active","ping":85},{"user_id":786,"name":"Bald Rice","steam_id":76561199019142767,"connected_time":483000000000,"state":"active","ping":64},{"user_id":776,"name":"chocolatkey","steam_id":76561198092466325,"connected_time":1891000000000,"state":"active","ping":53},{"user_id":693,"name":"quaq","steam_id":76561198059604047,"connected_time":10268000000000,"state":"active","ping":43},{"user_id":791,"name":"goldhed","steam_id":76561198051751133,"connected_time":372000000000,"state":"active","ping":62}]},{"server_id":119,"name":"Uncletopia | Seattle | 2 | All Maps","name_short":"sea-2","host":"sea-1.us.uncletopia.com","port":27025,"enabled":true,"region":"us-west","cc":"us","latitude":47.608013,"longitude":-122.33517,"reserved":0,"last_update":"0001-01-01T00:00:00Z","name_a2s":"Uncletopia | Seattle | 2 | All Maps","protocol":17,"map":"pl_frontier_final","folder":"tf","game":"Team Fortress","app_id":440,"player_count":25,"max_players":24,"Bots":0,"server_type":"Dedicated","server_os":"Linux","password":true,"vac":true,"version":"7882260","steam_id":85568392924469998,"keywords":["nocrits","nodmgspread","payload","uncletopia"],"game_id":440,"stv_port":27026,"stv_name":"Uncletopia | Seattle | 2 | All Maps | STV","players":[{"user_id":398,"name":"bota box burglar","steam_id":76561198134309750,"connected_time":862000000000,"state":"active","ping":106},{"user_id":395,"name":"meowbop","steam_id":76561198130198601,"connected_time":977000000000,"state":"active","ping":52},{"user_id":378,"name":"Corpe","steam_id":76561198054490549,"connected_time":2776000000000,"state":"active","ping":57},{"user_id":401,"name":"squash","steam_id":76561198150281353,"connected_time":835000000000,"state":"active","ping":57},{"user_id":389,"name":"mega","steam_id":76561198089520959,"connected_time":1971000000000,"state":"active","ping":113},{"user_id":402,"name":"Person Man","steam_id":76561198293857963,"connected_time":802000000000,"state":"active","ping":93},{"user_id":320,"name":"i.love.ants.321","steam_id":76561198169755734,"connected_time":8287000000000,"state":"active","ping":60},{"user_id":403,"name":"Strikerbolt","steam_id":76561199095622897,"connected_time":800000000000,"state":"active","ping":99},{"user_id":362,"name":"Overvote","steam_id":76561198067641129,"connected_time":4097000000000,"state":"active","ping":56},{"user_id":316,"name":"thunderous prophet","steam_id":76561198131166135,"connected_time":9014000000000,"state":"active","ping":39},{"user_id":260,"name":"Florist","steam_id":76561198009121060,"connected_time":12508000000000,"state":"active","ping":45},{"user_id":380,"name":"ElectronX","steam_id":76561198116034988,"connected_time":2753000000000,"state":"active","ping":81},{"user_id":381,"name":"Stev the Prurient Oxymoron","steam_id":76561197999442625,"connected_time":2749000000000,"state":"active","ping":67},{"user_id":310,"name":"NEBULA","steam_id":76561198086878595,"connected_time":9238000000000,"state":"active","ping":75},{"user_id":404,"name":"benji","steam_id":76561198084417967,"connected_time":789000000000,"state":"active","ping":74},{"user_id":399,"name":"delight","steam_id":76561197980280272,"connected_time":847000000000,"state":"active","ping":48},{"user_id":317,"name":"Retesaurus","steam_id":76561198045189319,"connected_time":8805000000000,"state":"active","ping":51},{"user_id":352,"name":"resh","steam_id":76561198239598834,"connected_time":4767000000000,"state":"active","ping":133},{"user_id":390,"name":"♥ Milo Stefferson ♥ (Soupca","steam_id":76561198056269538,"connected_time":1277000000000,"state":"active","ping":59},{"user_id":405,"name":"jorts","steam_id":76561199041179985,"connected_time":775000000000,"state":"active","ping":70},{"user_id":400,"name":"Sniff","steam_id":76561198010270922,"connected_time":847000000000,"state":"active","ping":48},{"user_id":387,"name":"SAP","steam_id":76561198005186905,"connected_time":2317000000000,"state":"active","ping":65},{"user_id":332,"name":"gorlab","steam_id":76561198025089694,"connected_time":6213000000000,"state":"active","ping":66},{"user_id":406,"name":"rorywashere /ᐠ - ˕ -マ Ⳋ","steam_id":76561198065825165,"connected_time":343000000000,"state":"active","ping":122},{"user_id":333,"name":"Shields","steam_id":76561198043216746,"connected_time":6213000000000,"state":"active","ping":67}]},{"server_id":406,"name":"Uncletopia | Seattle | 3 | Stopwatch Beta","name_short":"sea-3","host":"sea-1.us.uncletopia.com","port":27035,"enabled":true,"region":"us-west","cc":"us","latitude":47.608013,"longitude":-122.33517,"reserved":0,"last_update":"0001-01-01T00:00:00Z","name_a2s":"Uncletopia | Seattle | 3 | Stopwatch Beta","protocol":17,"map":"workshop/cp_process_f12.ugc2302948105","folder":"tf","game":"Team Fortress","app_id":440,"player_count":3,"max_players":24,"Bots":0,"server_type":"Dedicated","server_os":"Linux","password":true,"vac":true,"version":"7882260","steam_id":85568392924515217,"keywords":["cp","nocrits","nodmgspread","uncletopia"],"game_id":440,"stv_port":27036,"stv_name":"Uncletopia | Seattle | 3 | Stopwatch Beta | STV","players":[{"user_id":276,"name":"miscellaneous","steam_id":76561199436642954,"connected_time":5641000000000,"state":"active","ping":56},{"user_id":318,"name":"JellyRoll Jerry","steam_id":76561198037149474,"connected_time":2006000000000,"state":"active","ping":82},{"user_id":277,"name":"NewGuy","steam_id":76561198968058652,"connected_time":5462000000000,"state":"active","ping":46}]},{"server_id":17,"name":"Uncletopia | San Francisco | 1 | All Maps","name_short":"sfo-1","host":"sfo-1.us.uncletopia.com","port":27015,"enabled":true,"region":"us-west","cc":"us","latitude":37.77397,"longitude":-122.4313,"reserved":0,"last_update":"0001-01-01T00:00:00Z","name_a2s":"Uncletopia | San Francisco | 1 | All Maps","protocol":17,"map":"cp_process_final","folder":"tf","game":"Team Fortress","app_id":440,"player_count":0,"max_players":24,"Bots":0,"server_type":"Dedicated","server_os":"Linux","password":true,"vac":true,"version":"7882260","steam_id":85568392924469999,"keywords":["cp","nocrits","nodmgspread","uncletopia"],"game_id":440,"stv_port":27016,"stv_name":"Uncletopia | San Francisco | 1 | All Maps | STV","players":null},{"server_id":18,"name":"Uncletopia | San Francisco | 2 | All Maps","name_short":"sfo-2","host":"sfo-1.us.uncletopia.com","port":27025,"enabled":true,"region":"us-west","cc":"us","latitude":37.77397,"longitude":-122.4313,"reserved":0,"last_update":"0001-01-01T00:00:00Z","name_a2s":"Uncletopia | San Francisco | 2 | All Maps","protocol":17,"map":"pl_frontier_final","folder":"tf","game":"Team Fortress","app_id":440,"player_count":0,"max_players":24,"Bots":0,"server_type":"Dedicated","server_os":"Linux","password":true,"vac":true,"version":"7882260","steam_id":85568392924470000,"keywords":["nocrits","nodmgspread","payload","uncletopia"],"game_id":440,"stv_port":27026,"stv_name":"Uncletopia | San Francisco | 2 | All Maps | STV","players":null},{"server_id":19,"name":"Uncletopia | San Francisco | 3 | Stopwatch Beta","name_short":"sfo-3","host":"sfo-1.us.uncletopia.com","port":27035,"enabled":true,"region":"us-west","cc":"us","latitude":37.77397,"longitude":-122.4313,"reserved":0,"last_update":"0001-01-01T00:00:00Z","name_a2s":"Uncletopia | San Francisco | 3 | Stopwatch Beta","protocol":17,"map":"pl_snowycoast","folder":"tf","game":"Team Fortress","app_id":440,"player_count":0,"max_players":24,"Bots":0,"server_type":"Dedicated","server_os":"Linux","password":true,"vac":true,"version":"7882260","steam_id":85568392924742824,"keywords":["nocrits","nodmgspread","payload","uncletopia"],"game_id":440,"stv_port":27036,"stv_name":"Uncletopia | San Francisco | 3 | Stopwatch Beta | STV","players":null},{"server_id":20,"name":"Uncletopia | San Francisco | 4 | Community","name_short":"sfo-4","host":"sfo-1.us.uncletopia.com","port":27045,"enabled":true,"region":"us-west","cc":"us","latitude":37.77397,"longitude":-122.4313,"reserved":0,"last_update":"0001-01-01T00:00:00Z","name_a2s":"Uncletopia | San Francisco | 4 | Community","protocol":17,"map":"workshop/cp_caldera_rc2.ugc2834196889","folder":"tf","game":"Team Fortress","app_id":440,"player_count":0,"max_players":24,"Bots":0,"server_type":"Dedicated","server_os":"Linux","password":true,"vac":true,"version":"7882260","steam_id":85568392924742826,"keywords":["cp","nocrits","nodmgspread","uncletopia"],"game_id":440,"stv_port":27046,"stv_name":"Uncletopia | San Francisco | 4 | Community | STV","players":null},{"server_id":141,"name":"Uncletopia | Sydney | 1 | All Maps","name_short":"syd-1","host":"syd-1.au.uncletopia.com","port":27015,"enabled":true,"region":"au","cc":"au","latitude":-33.865143,"longitude":151.2099,"reserved":0,"last_update":"0001-01-01T00:00:00Z","name_a2s":"Uncletopia | Sydney | 1 | All Maps","protocol":17,"map":"pl_upward","folder":"tf","game":"Team Fortress","app_id":440,"player_count":23,"max_players":24,"Bots":0,"server_type":"Dedicated","server_os":"Linux","password":true,"vac":true,"version":"7882260","steam_id":85568392924470001,"keywords":["nocrits","nodmgspread","payload","uncletopia"],"game_id":440,"stv_port":27016,"stv_name":"Uncletopia | Sydney | 1 | All Maps | STV","players":[{"user_id":170,"name":"david malouf","steam_id":76561198107085849,"connected_time":423000000000,"state":"active","ping":54},{"user_id":166,"name":"???","steam_id":76561199046481213,"connected_time":814000000000,"state":"active","ping":71},{"user_id":156,"name":"PoblinGyro","steam_id":76561198081314932,"connected_time":1543000000000,"state":"active","ping":85},{"user_id":174,"name":"dog","steam_id":76561198073933737,"connected_time":373000000000,"state":"active","ping":34},{"user_id":101,"name":"yewl","steam_id":76561198073922951,"connected_time":5050000000000,"state":"active","ping":44},{"user_id":93,"name":"meatenschlappen","steam_id":76561198048064049,"connected_time":5963000000000,"state":"active","ping":73},{"user_id":176,"name":"fatmod","steam_id":76561198128889890,"connected_time":358000000000,"state":"active","ping":76},{"user_id":108,"name":"splurboingus wazoogort","steam_id":76561198063481761,"connected_time":4599000000000,"state":"active","ping":45},{"user_id":155,"name":"I eat crayons","steam_id":76561198179045463,"connected_time":1607000000000,"state":"active","ping":54},{"user_id":95,"name":"you've left me be Wilbur'd","steam_id":76561198301282416,"connected_time":5938000000000,"state":"active","ping":59},{"user_id":165,"name":"Phibs","steam_id":76561199323730865,"connected_time":916000000000,"state":"active","ping":43},{"user_id":103,"name":"local fella","steam_id":76561198000568803,"connected_time":5009000000000,"state":"active","ping":46},{"user_id":172,"name":"hxfm","steam_id":76561198392607727,"connected_time":399000000000,"state":"active","ping":71},{"user_id":168,"name":"TR(ash)ISH [She/Her]","steam_id":76561198857353689,"connected_time":639000000000,"state":"active","ping":56},{"user_id":169,"name":"Yeat","steam_id":76561198202555552,"connected_time":614000000000,"state":"active","ping":33},{"user_id":173,"name":"Warren","steam_id":76561198120350917,"connected_time":398000000000,"state":"active","ping":39},{"user_id":167,"name":"Zort","steam_id":76561198056414289,"connected_time":811000000000,"state":"active","ping":68},{"user_id":150,"name":"yoga","steam_id":76561199163801558,"connected_time":1864000000000,"state":"active","ping":44},{"user_id":175,"name":"Atlas","steam_id":76561198069332870,"connected_time":372000000000,"state":"active","ping":52},{"user_id":163,"name":"Empolé","steam_id":76561198363939040,"connected_time":1254000000000,"state":"active","ping":115},{"user_id":161,"name":"ForgottenPizzaUncle","steam_id":76561198064337953,"connected_time":1426000000000,"state":"active","ping":139},{"user_id":179,"name":"maburaho1","steam_id":76561198211416633,"connected_time":161000000000,"state":"active","ping":76},{"user_id":178,"name":"timboe","steam_id":76561198003442007,"connected_time":171000000000,"state":"active","ping":57}]},{"server_id":123,"name":"Uncletopia | Sydney | 2 | All Maps","name_short":"syd-2","host":"syd-1.au.uncletopia.com","port":27025,"enabled":true,"region":"au","cc":"au","latitude":-33.865143,"longitude":151.2099,"reserved":0,"last_update":"0001-01-01T00:00:00Z","name_a2s":"Uncletopia | Sydney | 2 | All Maps","protocol":17,"map":"pl_pier","folder":"tf","game":"Team Fortress","app_id":440,"player_count":0,"max_players":24,"Bots":0,"server_type":"Dedicated","server_os":"Linux","password":true,"vac":true,"version":"7882260","steam_id":85568392924470002,"keywords":["nocrits","nodmgspread","payload","uncletopia"],"game_id":440,"stv_port":27026,"stv_name":"Uncletopia | Sydney | 2 | All Maps | STV","players":null},{"server_id":395,"name":"Uncletopia | Sydney | 3 | All Maps","name_short":"syd-3","host":"syd-1.au.uncletopia.com","port":27035,"enabled":true,"region":"au","cc":"au","latitude":-33.865143,"longitude":151.2099,"reserved":0,"last_update":"0001-01-01T00:00:00Z","name_a2s":"Uncletopia | Sydney | 3 | All Maps","protocol":17,"map":"pl_badwater","folder":"tf","game":"Team Fortress","app_id":440,"player_count":0,"max_players":24,"Bots":0,"server_type":"Dedicated","server_os":"Linux","password":true,"vac":true,"version":"7882260","steam_id":85568392925194467,"keywords":["nocrits","nodmgspread","payload","uncletopia"],"game_id":440,"stv_port":27036,"stv_name":"Uncletopia | Sydney | 3 | All Maps | STV","players":null},{"server_id":396,"name":"Uncletopia | Sydney | 4 | All Maps","name_short":"syd-4","host":"syd-1.au.uncletopia.com","port":27045,"enabled":true,"region":"au","cc":"au","latitude":-33.865143,"longitude":151.2099,"reserved":0,"last_update":"0001-01-01T00:00:00Z","name_a2s":"Uncletopia | Sydney | 4 | All Maps","protocol":17,"map":"cp_altitude","folder":"tf","game":"Team Fortress","app_id":440,"player_count":0,"max_players":24,"Bots":0,"server_type":"Dedicated","server_os":"Linux","password":true,"vac":true,"version":"7882260","steam_id":85568392925397958,"keywords":["cp","nocrits","nodmgspread","uncletopia"],"game_id":440,"stv_port":27046,"stv_name":"Uncletopia | Sydney | 4 | All Maps | STV","players":null},{"server_id":58,"name":"Uncletopia | Sydney | 5 | Stopwatch Beta","name_short":"syd-5","host":"syd-1.au.uncletopia.com","port":27055,"enabled":true,"region":"au","cc":"au","latitude":-33.865143,"longitude":151.2099,"reserved":0,"last_update":"0001-01-01T00:00:00Z","name_a2s":"Uncletopia | Sydney | 5 | Stopwatch Beta","protocol":17,"map":"koth_viaduct","folder":"tf","game":"Team Fortress","app_id":440,"player_count":0,"max_players":24,"Bots":0,"server_type":"Dedicated","server_os":"Linux","password":true,"vac":true,"version":"7882260","steam_id":85568392925397959,"keywords":["cp","nocrits","nodmgspread","uncletopia"],"game_id":440,"stv_port":27056,"stv_name":"Uncletopia | Sydney | 5 | Stopwatch Beta | STV","players":null},{"server_id":59,"name":"Uncletopia | Sydney | 6 | Community","name_short":"syd-6","host":"syd-1.au.uncletopia.com","port":27065,"enabled":true,"region":"au","cc":"au","latitude":-33.865143,"longitude":151.2099,"reserved":0,"last_update":"0001-01-01T00:00:00Z","name_a2s":"Uncletopia | Sydney | 6 | Community","protocol":17,"map":"workshop/pl_emerge_rc2.ugc888027758","folder":"tf","game":"Team Fortress","app_id":440,"player_count":0,"max_players":24,"Bots":0,"server_type":"Dedicated","server_os":"Linux","password":true,"vac":true,"version":"7882260","steam_id":85568392925397960,"keywords":["nocrits","nodmgspread","payload","uncletopia"],"game_id":440,"stv_port":27066,"stv_name":"Uncletopia | Sydney | 6 | Community | STV","players":null},{"server_id":49,"name":"Uncletopia | Warsaw | 1 | All Maps","name_short":"waw-1","host":"waw-1.pl.uncletopia.com","port":27015,"enabled":true,"region":"eu","cc":"pl","latitude":52.2297,"longitude":21.017532,"reserved":0,"last_update":"0001-01-01T00:00:00Z","name_a2s":"","protocol":0,"map":"","folder":"","game":"","app_id":0,"player_count":0,"max_players":0,"Bots":0,"server_type":"","server_os":"","password":false,"vac":false,"version":"","steam_id":0,"keywords":null,"game_id":0,"stv_port":0,"stv_name":"","players":null},{"server_id":50,"name":"Uncletopia | Warsaw | 2 | All Maps","name_short":"waw-2","host":"waw-1.pl.uncletopia.com","port":27025,"enabled":true,"region":"eu","cc":"pl","latitude":52.2297,"longitude":21.017532,"reserved":0,"last_update":"0001-01-01T00:00:00Z","name_a2s":"Uncletopia | Warsaw | 2 | All Maps","protocol":17,"map":"koth_viaduct","folder":"tf","game":"Team Fortress","app_id":440,"player_count":0,"max_players":24,"Bots":0,"server_type":"Dedicated","server_os":"Linux","password":true,"vac":true,"version":"7882260","steam_id":85568392925397851,"keywords":["cp","nocrits","nodmgspread","uncletopia"],"game_id":440,"stv_port":27026,"stv_name":"Uncletopia | Warsaw | 2 | All Maps | STV","players":null},{"server_id":51,"name":"Uncletopia | Warsaw | 3 | All Maps","name_short":"waw-3","host":"waw-1.pl.uncletopia.com","port":27035,"enabled":true,"region":"eu","cc":"pl","latitude":52.2297,"longitude":21.017532,"reserved":0,"last_update":"0001-01-01T00:00:00Z","name_a2s":"Uncletopia | Warsaw | 3 | All Maps","protocol":17,"map":"pl_badwater","folder":"tf","game":"Team Fortress","app_id":440,"player_count":0,"max_players":24,"Bots":0,"server_type":"Dedicated","server_os":"Linux","password":true,"vac":true,"version":"7882260","steam_id":85568392925397852,"keywords":["nocrits","nodmgspread","payload","uncletopia"],"game_id":440,"stv_port":27036,"stv_name":"Uncletopia | Warsaw | 3 | All Maps | STV","players":null},{"server_id":52,"name":"Uncletopia | Warsaw | 4 | All Maps","name_short":"waw-4","host":"waw-1.pl.uncletopia.com","port":27045,"enabled":true,"region":"eu","cc":"pl","latitude":52.2297,"longitude":21.017532,"reserved":0,"last_update":"0001-01-01T00:00:00Z","name_a2s":"Uncletopia | Warsaw | 4 | All Maps","protocol":17,"map":"koth_cascade","folder":"tf","game":"Team Fortress","app_id":440,"player_count":0,"max_players":24,"Bots":0,"server_type":"Dedicated","server_os":"Linux","password":true,"vac":true,"version":"7882260","steam_id":85568392925397853,"keywords":["cp","nocrits","nodmgspread","uncletopia"],"game_id":440,"stv_port":27046,"stv_name":"Uncletopia | Warsaw | 4 | All Maps | STV","players":null},{"server_id":53,"name":"Uncletopia | Warsaw | 5 | Stopwatch Beta","name_short":"waw-5","host":"waw-1.pl.uncletopia.com","port":27055,"enabled":true,"region":"eu","cc":"pl","latitude":52.2297,"longitude":21.017532,"reserved":0,"last_update":"0001-01-01T00:00:00Z","name_a2s":"Uncletopia | Warsaw | 5 | Stopwatch Beta","protocol":17,"map":"cp_dustbowl","folder":"tf","game":"Team Fortress","app_id":440,"player_count":0,"max_players":24,"Bots":0,"server_type":"Dedicated","server_os":"Linux","password":true,"vac":true,"version":"7882260","steam_id":85568392925397854,"keywords":["cp","nocrits","nodmgspread","uncletopia"],"game_id":440,"stv_port":27056,"stv_name":"Uncletopia | Warsaw | 5 | Stopwatch Beta | STV","players":null},{"server_id":54,"name":"Uncletopia | Warsaw | 6 | Community","name_short":"waw-6","host":"waw-1.pl.uncletopia.com","port":27065,"enabled":true,"region":"eu","cc":"pl","latitude":52.2297,"longitude":21.017532,"reserved":0,"last_update":"0001-01-01T00:00:00Z","name_a2s":"Uncletopia | Warsaw | 6 | Community","protocol":17,"map":"cp_dustbowl","folder":"tf","game":"Team Fortress","app_id":440,"player_count":0,"max_players":24,"Bots":0,"server_type":"Dedicated","server_os":"Linux","password":true,"vac":true,"version":"7882260","steam_id":85568392925397856,"keywords":["cp","nocrits","nodmgspread","uncletopia"],"game_id":440,"stv_port":27066,"stv_name":"Uncletopia | Warsaw | 6 | Community | STV","players":null}]}