{"status":true,"message":"","result":[{"server_id":9,"name":"Uncletopia | Atlanta | 1 | All Maps","name_short":"atl-1","host":"atl-1.us.uncletopia.com","port":27015,"enabled":true,"region":"us-east","cc":"us","latitude":33.753746,"longitude":-84.38633,"reserved":0,"last_update":"0001-01-01T00:00:00Z","name_a2s":"Uncletopia | Atlanta | 1 | All Maps","protocol":17,"map":"pl_snowycoast","folder":"tf","game":"Team Fortress","app_id":440,"player_count":23,"max_players":24,"Bots":0,"server_type":"Dedicated","server_os":"Linux","password":true,"vac":true,"version":"7882260","steam_id":85568392924469982,"keywords":["nocrits","nodmgspread","payload","uncletopia"],"game_id":440,"stv_port":27016,"stv_name":"Uncletopia | Atlanta | 1 | All Maps | STV","players":[{"user_id":7,"name":"timestew 1","steam_id":76561198367583372,"connected_time":1549000000000,"state":"active","ping":113},{"user_id":59,"name":"Litshoes","steam_id":76561198992569059,"connected_time":268000000000,"state":"active","ping":176},{"user_id":69,"name":"$lime k‚úîng kawhi_4NIMEGURL^-^","steam_id":76561198283687382,"connected_time":109000000000,"state":"active","ping":124},{"user_id":8,"name":"Goofy Goober","steam_id":76561198065361279,"connected_time":1481000000000,"state":"active","ping":124},{"user_id":55,"name":"niprip","steam_id":76561198091929681,"connected_time":350000000000,"state":"active","ping":104},{"user_id":54,"name":"Mr. Stockington","steam_id":76561198091354032,"connected_time":434000000000,"state":"active","ping":112},{"user_id":71,"name":"stupid bastard","steam_id":76561199195104977,"connected_time":103000000000,"state":"active","ping":105},{"user_id":57,"name":"heletorsteletor","steam_id":76561199152447160,"connected_time":313000000000,"state":"active","ping":83},{"user_id":61,"name":"firefly77","steam_id":76561199155478745,"connected_time":216000000000,"state":"active","ping":126},{"user_id":62,"name":"olivia","steam_id":76561198288130849,"connected_time":186000000000,"state":"active","ping":119},{"user_id":42,"name":"ayecodex","steam_id":76561199477598858,"connected_time":854000000000,"state":"active","ping":87},{"user_id":75,"name":"KING KONG","steam_id":76561198927517471,"connected_time":39000000000,"state":"spawning","ping":143},{"user_id":39,"name":"ash","steam_id":76561198127890645,"connected_time":926000000000,"state":"active","ping":93},{"user_id":64,"name":"boy kisser","steam_id":76561198142129648,"connected_time":158000000000,"state":"active","ping":125},{"user_id":49,"name":"Santiago","steam_id":76561198079754155,"connected_time":723000000000,"state":"active","ping":163},{"user_id":66,"name":"HARRY B HOLE","steam_id":76561198842067238,"connected_time":139000000000,"state":"active","ping":98},{"user_id":76,"name":"Ice Teea","steam_id":76561198195673201,"connected_time":39000000000,"state":"spawning","ping":150},{"user_id":68,"name":"Idk","steam_id":76561198971629959,"connected_time":125000000000,"state":"active","ping":150},{"user_id":29,"name":"Poo","steam_id":76561198265144507,"connected_time":1024000000000,"state":"active","ping":115},{"user_id":72,"name":"Tue","steam_id":76561198181668501,"connected_time":102000000000,"state":"active","ping":89},{"user_id":46,"name":"Amyxts36","steam_id":76561198872232094,"connected_time":812000000000,"state":"active","ping":124},{"user_id":74,"name":"k3ramb1t","steam_id":76561198097880352,"connected_time":68000000000,"state":"active","ping":115},{"user_id":37,"name":"Bald Jersey","steam_id":76561199140335277,"connected_time":964000000000,"state":"active","ping":102}]},{"server_id":104,"name":"Uncletopia | Atlanta | 2 | All Maps","name_short":"atl-2","host":"atl-1.us.uncletopia.com","port":27025,"enabled":true,"region":"us-east","cc":"us","latitude":33.753746,"longitude":-84.38633,"reserved":0,"last_update":"0001-01-01T00:00:00Z","name_a2s":"Uncletopia | Atlanta | 2 | All Maps","protocol":17,"map":"cp_mountainlab","folder":"tf","game":"Team Fortress","app_id":440,"player_count":2,"max_players":24,"Bots":0,"server_type":"Dedicated","server_os":"Linux","password":true,"vac":true,"version":"7882260","steam_id":85568392924469983,"keywords":["cp","nocrits","nodmgspread","uncletopia"],"game_id":440,"stv_port":27026,"stv_name":"Uncletopia | Atlanta | 2 | All Maps | STV","players":[{"user_id":3,"name":"superprogamerman2009","steam_id":76561199393831863,"connected_time":1575000000000,"state":"active","ping":122},{"user_id":5,"name":"Bullwinkle J. Moose","steam_id":76561198075977196,"connected_time":1555000000000,"state":"active","ping":74}]},{"server_id":400,"name":"Uncletopia | Atlanta | 3 | Community","name_short":"atl-3","host":"atl-1.us.uncletopia.com","port":27035,"enabled":true,"region":"us-east","cc":"us","latitude":33.753746,"longitude":-84.38633,"reserved":0,"last_update":"0001-01-01T00:00:00Z","name_a2s":"Uncletopia | Atlanta | 3 | Community","protocol":17,"map":"pl_borneo","folder":"tf","game":"Team Fortress","app_id":440,"player_count":0,"max_players":24,"Bots":0,"server_type":"Dedicated","server_os":"Linux","password":true,"vac":true,"version":"7882260","steam_id":85568392924515187,"keywords":["nocrits","nodmgspread","payload","uncletopia"],"game_id":440,"stv_port":27036,"stv_name":"Uncletopia | Atlanta | 3 | Community | STV","players":null},{"server_id":401,"name":"Uncletopia | Atlanta | 4 | No Payload","name_short":"atl-4","host":"atl-1.us.uncletopia.com","port":27045,"enabled":true,"region":"us-east","cc":"us","latitude":33.753746,"longitude":-84.38633,"reserved":0,"last_update":"0001-01-01T00:00:00Z","name_a2s":"","protocol":0,"map":"","folder":"","game":"","app_id":0,"player_count":0,"max_players":0,"Bots":0,"server_type":"","server_os":"","password":false,"vac":false,"version":"","steam_id":0,"keywords":null,"game_id":0,"stv_port":0,"stv_name":"","players":null},{"server_id":2,"name":"Uncletopia | Chicago | 1 | All Maps","name_short":"chi-1","host":"chi-1.us.uncletopia.com","port":27015,"enabled":true,"region":"us-central","cc":"us","latitude":41.881832,"longitude":-87.62318,"reserved":0,"last_update":"0001-01-01T00:00:00Z","name_a2s":"Uncletopia | Chicago | 1 | All Maps","protocol":17,"map":"pl_upward","folder":"tf","game":"Team Fortress","app_id":440,"player_count":24,"max_players":24,"Bots":0,"server_type":"Dedicated","server_os":"Linux","password":true,"vac":true,"version":"7882260","steam_id":85568392924469984,"keywords":["nocrits","nodmgspread","payload","uncletopia"],"game_id":440,"stv_port":27016,"stv_name":"Uncletopia | Chicago | 1 | All Maps | STV","players":[{"user_id":343,"name":"Astoriae!","steam_id":76561199090168858,"connected_time":2173000000000,"state":"active","ping":81},{"user_id":341,"name":"Twissim","steam_id":76561198141842291,"connected_time":2250000000000,"state":"active","ping":112},{"user_id":372,"name":"smoking on bhutanese shadow pac","steam_id":76561198095313463,"connected_time":827000000000,"state":"active","ping":60},{"user_id":277,"name":"Maverick","steam_id":76561198322829814,"connected_time":7374000000000,"state":"active","ping":75},{"user_id":316,"name":"drwwby","steam_id":76561198067741339,"connected_time":4142000000000,"state":"active","ping":60},{"user_id":363,"name":"?UZAN","steam_id":76561199484644402,"connected_time":918000000000,"state":"active","ping":49},{"user_id":349,"name":"FunGi","steam_id":76561198881418662,"connected_time":1838000000000,"state":"active","ping":78},{"user_id":364,"name":"CertifiedCereal","steam_id":76561198055027895,"connected_time":910000000000,"state":"active","ping":73},{"user_id":365,"name":"Zoo Keeper Engie","steam_id":76561198064380111,"connected_time":906000000000,"state":"active","ping":83},{"user_id":336,"name":"LeadHickory","steam_id":76561198219756521,"connected_time":3228000000000,"state":"active","ping":87},{"user_id":333,"name":"bee","steam_id":76561198025553902,"connected_time":3351000000000,"state":"active","ping":44},{"user_id":366,"name":"Goobus","steam_id":76561198013808088,"connected_time":904000000000,"state":"active","ping":71},{"user_id":368,"name":"Fredrick","steam_id":76561197981419964,"connected_time":893000000000,"state":"active","ping":65},{"user_id":369,"name":"Antonin Scalia","steam_id":76561198080687598,"connected_time":868000000000,"state":"active","ping":59},{"user_id":353,"name":"Discourse","steam_id":76561198984286678,"connected_time":1622000000000,"state":"active","ping":61},{"user_id":357,"name":"underworld","steam_id":76561198173047169,"connected_time":1311000000000,"state":"active","ping":61},{"user_id":361,"name":"üå∏Callie The Potatoüå∏","steam_id":76561198313463421,"connected_time":1118000000000,"state":"active","ping":70},{"user_id":347,"name":"macchiato","steam_id":76561197995405233,"connected_time":1852000000000,"state":"active","ping":76},{"user_id":376,"name":"Acehay14","steam_id":76561198052373291,"connected_time":449000000000,"state":"active","ping":69},{"user_id":371,"name":"Bheem","steam_id":76561198170453459,"connected_time":857000000000,"state":"active","ping":87},{"user_id":373,"name":"Infineable","steam_id":76561198358100698,"connected_time":825000000000,"state":"active","ping":67},{"user_id":354,"name":"anotherl2","steam_id":76561198354418895,"connected_time":1613000000000,"state":"active","ping":103},{"user_id":374,"name":"fentanyl enthusiast","steam_id":76561198351895498,"connected_time":783000000000,"state":"active","ping":59},{"user_id":375,"name":"Phatbuda","steam_id":76561198447969000,"connected_time":755000000000,"state":"active","ping":138}]},{"server_id":106,"name":"Uncletopia | Chicago | 2 | All Maps","name_short":"chi-2","host":"chi-1.us.uncletopia.com","port":27025,"enabled":true,"region":"us-central","cc":"us","latitude":41.881832,"longitude":-87.62318,"reserved":0,"last_update":"0001-01-01T00:00:00Z","name_a2s":"Uncletopia | Chicago | 2 | All Maps","protocol":17,"map":"koth_lakeside_final","folder":"tf","game":"Team Fortress","app_id":440,"player_count":24,"max_players":24,"Bots":0,"server_type":"Dedicated","server_os":"Linux","password":true,"vac":true,"version":"7882260","steam_id":85568392924469985,"keywords":["cp","nocrits","nodmgspread","uncletopia"],"game_id":440,"stv_port":27026,"stv_name":"Uncletopia | Chicago | 2 | All Maps | STV","players":[{"user_id":358,"name":"steve","steam_id":76561198207881077,"connected_time":589000000000,"state":"active","ping":87},{"user_id":322,"name":"Zoot","steam_id":76561198121944243,"connected_time":4216000000000,"state":"active","ping":72},{"user_id":317,"name":"BookBurner23","steam_id":76561198034771185,"connected_time":4640000000000,"state":"active","ping":65},{"user_id":344,"name":"Foreskin Reattachment service","steam_id":76561198060342804,"connected_time":1857000000000,"state":"active","ping":73},{"user_id":312,"name":"ùïÆùñÜùñíùñäùñóùñîùñì \ufffd\ufffd","steam_id":76561198045826628,"connected_time":5271000000000,"state":"active","ping":108},{"user_id":318,"name":"Fake Butter","steam_id":76561198196743681,"connected_time":4602000000000,"state":"active","ping":111},{"user_id":364,"name":"Aiden939","steam_id":76561198860530097,"connected_time":491000000000,"state":"active","ping":85},{"user_id":319,"name":"E4Estrogen","steam_id":76561198085813708,"connected_time":4584000000000,"state":"active","ping":64},{"user_id":348,"name":"Dongus","steam_id":76561197979056451,"connected_time":1732000000000,"state":"active","ping":99},{"user_id":360,"name":"SnazzyCelestial","steam_id":76561198328763813,"connected_time":552000000000,"state":"active","ping":85},{"user_id":341,"name":"kermitcreeper(ZAZA)","steam_id":76561199222829972,"connected_time":2320000000000,"state":"active","ping":57},{"user_id":335,"name":"‚úøœâilliethepilloœâ‚úø","steam_id":76561198066161301,"connected_time":3048000000000,"state":"active","ping":91},{"user_id":345,"name":"GoofyAhGamingGuy","steam_id":76561199331315881,"connected_time":1789000000000,"state":"active","ping":75},{"user_id":355,"name":"Evan","steam_id":76561197972292926,"connected_time":1418000000000,"state":"active","ping":73},{"user_id":354,"name":"air¬≤","steam_id":76561198318855276,"connected_time":1425000000000,"state":"active","ping":48},{"user_id":338,"name":"westward (was/were)","steam_id":76561198805512350,"connected_time":2677000000000,"state":"active","ping":116},{"user_id":343,"name":"Famelegion","steam_id":76561198958341424,"connected_time":2009000000000,"state":"active","ping":96},{"user_id":356,"name":"xray0905","steam_id":76561198407981361,"connected_time":1113000000000,"state":"active","ping":65},{"user_id":363,"name":"8bean","steam_id":76561198239138132,"connected_time":525000000000,"state":"active","ping":59},{"user_id":328,"name":"DarthEthanBoy","steam_id":76561198441643581,"connected_time":3240000000000,"state":"active","ping":68},{"user_id":350,"name":"Myn","steam_id":76561198055438857,"connected_time":1715000000000,"state":"active","ping":72},{"user_id":362,"name":"the spider is real","steam_id":76561198076693017,"connected_time":539000000000,"state":"active","ping":101},{"user_id":262,"name":"Lia_Rein TTV","steam_id":76561198151569597,"connected_time":8894000000000,"state":"active","ping":161},{"user_id":357,"name":"Al Cabone","steam_id":76561198956823243,"connected_time":830000000000,"state":"active","ping":70}]},{"server_id":402,"name":"Uncletopia | Chicago | 3 | All Maps","name_short":"chi-3","host":"chi-1.us.uncletopia.com","port":27035,"enabled":true,"region":"us-central","cc":"us","latitude":41.881832,"longitude":-87.62318,"reserved":0,"last_update":"0001-01-01T00:00:00Z","name_a2s":"Uncletopia | Chicago | 3 | All Maps","protocol":17,"map":"pl_barnblitz","folder":"tf","game":"Team Fortress","app_id":440,"player_count":24,"max_players":24,"Bots":0,"server_type":"Dedicated","server_os":"Linux","password":true,"vac":true,"version":"7882260","steam_id":85568392924515191,"keywords":["nocrits","nodmgspread","payload","uncletopia"],"game_id":440,"stv_port":27036,"stv_name":"Uncletopia | Chicago | 3 | All Maps | STV","players":[{"user_id":337,"name":"bagel sandwich","steam_id":76561198087971968,"connected_time":7942000000000,"state":"active","ping":66},{"user_id":420,"name":"The Power","steam_id":76561198060566884,"connected_time":1679000000000,"state":"active","ping":148},{"user_id":424,"name":"theycallmesoup","steam_id":76561198141514537,"connected_time":1131000000000,"state":"active","ping":70},{"user_id":405,"name":"Dim","steam_id":76561198061411324,"connected_time":2912000000000,"state":"active","ping":157},{"user_id":418,"name":"ShawnLmao","steam_id":76561198350691501,"connected_time":1840000000000,"state":"active","ping":85},{"user_id":425,"name":"GooniOoni","steam_id":76561198102154561,"connected_time":1008000000000,"state":"active","ping":45},{"user_id":423,"name":"NotSoNorth","steam_id":76561198447292053,"connected_time":1423000000000,"state":"active","ping":63},{"user_id":426,"name":"Sam","steam_id":76561198079393512,"connected_time":932000000000,"state":"active","ping":76},{"user_id":409,"name":"Begrip","steam_id":76561198091990094,"connected_time":1895000000000,"state":"active","ping":76},{"user_id":414,"name":"humanoiid","steam_id":76561199085322190,"connected_time":1873000000000,"state":"active","ping":82},{"user_id":393,"name":"vv","steam_id":76561198134813102,"connected_time":3705000000000,"state":"active","ping":60},{"user_id":437,"name":"TSM NarutoUzumaki","steam_id":76561198044844522,"connected_time":207000000000,"state":"active","ping":66},{"user_id":429,"name":"Bush.exe","steam_id":76561198124385307,"connected_time":811000000000,"state":"active","ping":70},{"user_id":411,"name":"Ms.Silver","steam_id":76561199194349087,"connected_time":1878000000000,"state":"active","ping":77},{"user_id":435,"name":"cuzimlatin2704","steam_id":76561199094752899,"connected_time":459000000000,"state":"active","ping":86},{"user_id":412,"name":"Missing Minus","steam_id":76561198120822928,"connected_time":1877000000000,"state":"active","ping":65},{"user_id":428,"name":"tofuuu-k","steam_id":76561199125287855,"connected_time":884000000000,"state":"active","ping":122},{"user_id":404,"name":"Freddy Fazbear","steam_id":76561198383502667,"connected_time":2927000000000,"state":"active","ping":78},{"user_id":431,"name":"Yellow Mellow","steam_id":76561198089697360,"connected_time":770000000000,"state":"active","ping":76},{"user_id":417,"name":"Tri-Dot","steam_id":76561199075186597,"connected_time":1867000000000,"state":"active","ping":67},{"user_id":406,"name":"Drapph","steam_id":76561199384213314,"connected_time":2891000000000,"state":"active","ping":61},{"user_id":331,"name":"I came (up)","steam_id":76561198057745131,"connected_time":9147000000000,"state":"active","ping":58},{"user_id":422,"name":"joubrou.13","steam_id":76561198208567991,"connected_time":1636000000000,"state":"active","ping":94},{"user_id":434,"name":"ceres","steam_id":76561198291976960,"connected_time":582000000000,"state":"active","ping":105}]},{"server_id":403,"name":"Uncletopia | Chicago | 4 | All Maps","name_short":"chi-4","host":"chi-1.us.uncletopia.com","port":27045,"enabled":true,"region":"us-central","cc":"us","latitude":41.881832,"longitude":-87.62318,"reserved":0,"last_update":"0001-01-01T00:00:00Z","name_a2s":"Uncletopia | Chicago | 4 | All Maps","protocol":17,"map":"cp_dustbowl","folder":"tf","game":"Team Fortress","app_id":440,"player_count":24,"max_players":24,"Bots":0,"server_type":"Dedicated","server_os":"Linux","password":true,"vac":true,"version":"7882260","steam_id":85568392924515193,"keywords":["cp","nocrits","nodmgspread","uncletopia"],"game_id":440,"stv_port":27046,"stv_name":"Uncletopia | Chicago | 4 | All Maps | STV","players":[{"user_id":257,"name":"MrVegasAguitar","steam_id":76561198084466946,"connected_time":656000000000,"state":"active","ping":91},{"user_id":265,"name":"pyokoryder","steam_id":76561198203399204,"connected_time":145000000000,"state":"active","ping":53},{"user_id":243,"name":"N U T T","steam_id":76561198139661511,"connected_time":1949000000000,"state":"active","ping":70},{"user_id":255,"name":"Nephi","steam_id":76561198031525122,"connected_time":835000000000,"state":"active","ping":94},{"user_id":222,"name":"Fatal Top Deficiency","steam_id":76561198141738612,"connected_time":3507000000000,"state":"active","ping":74},{"user_id":227,"name":"RiverEgg","steam_id":76561198888913405,"connected_time":2779000000000,"state":"active","ping":56},{"user_id":261,"name":"ecto cooler","steam_id":76561198068409067,"connected_time":469000000000,"state":"active","ping":75},{"user_id":254,"name":"n_sacco","steam_id":76561198432818448,"connected_time":1289000000000,"state":"active","ping":80},{"user_id":256,"name":"Hindmost","steam_id":76561199081837220,"connected_time":717000000000,"state":"active","ping":86},{"user_id":258,"name":"Corpe","steam_id":76561198054490549,"connected_time":601000000000,"state":"active","ping":103},{"user_id":262,"name":"greg club","steam_id":76561198370506193,"connected_time":352000000000,"state":"active","ping":56},{"user_id":238,"name":"ElElliot","steam_id":76561198842278840,"connected_time":2557000000000,"state":"active","ping":75},{"user_id":206,"name":"brozier","steam_id":76561198823526581,"connected_time":4010000000000,"state":"active","ping":76},{"user_id":231,"name":"PootisPowHAHA","steam_id":76561199023536209,"connected_time":2666000000000,"state":"active","ping":89},{"user_id":264,"name":"kjorbjort","steam_id":76561198855201444,"connected_time":226000000000,"state":"active","ping":100},{"user_id":250,"name":"Michaelpc1","steam_id":76561198088365519,"connected_time":1422000000000,"state":"active","ping":83},{"user_id":251,"name":"BoneBoiWizard","steam_id":76561198088688531,"connected_time":1399000000000,"state":"active","ping":70},{"user_id":241,"name":"TheLlamaKang","steam_id":76561198125828837,"connected_time":2137000000000,"state":"active","ping":68},{"user_id":242,"name":"Am I Good At The Video Game?","steam_id":76561198046053281,"connected_time":2038000000000,"state":"active","ping":65},{"user_id":252,"name":"honked off the bobo","steam_id":76561198123287268,"connected_time":1398000000000,"state":"active","ping":49},{"user_id":229,"name":"ThatGamingKiwi","steam_id":76561199170522237,"connected_time":2745000000000,"state":"active","ping":84},{"user_id":260,"name":"Doubting Dave","steam_id":76561198066410749,"connected_time":588000000000,"state":"active","ping":81},{"user_id":237,"name":"nips slippin n slappin","steam_id":76561198051959007,"connected_time":2599000000000,"state":"active","ping":85},{"user_id":246,"name":"Oddball","steam_id":76561198040440984,"connected_time":1573000000000,"state":"active","ping":74}]},{"server_id":36,"name":"Uncletopia | Chicago | 5 | All Maps","name_short":"chi-5","host":"chi-2.us.uncletopia.com","port":27015,"enabled":true,"region":"us-central","cc":"us","latitude":41.881832,"longitude":-87.62318,"reserved":0,"last_update":"0001-01-01T00:00:00Z","name_a2s":"Uncletopia | Chicago | 5 | All Maps","protocol":17,"map":"koth_lakeside_final","folder":"tf","game":"Team Fortress","app_id":440,"player_count":24,"max_players":24,"Bots":0,"server_type":"Dedicated","server_os":"Linux","password":true,"vac":true,"version":"7882260","steam_id":85568392924866362,"keywords":["cp","nocrits","nodmgspread","uncletopia"],"game_id":440,"stv_port":27016,"stv_name":"Uncletopia | Chicago | 5 | All Maps | STV","players":[{"user_id":291,"name":"scout blood","steam_id":76561199185354638,"connected_time":323000000000,"state":"active","ping":119},{"user_id":277,"name":"Anor","steam_id":76561198356139775,"connected_time":959000000000,"state":"active","ping":82},{"user_id":242,"name":"Jev | Ham Mafia |","steam_id":76561198115847299,"connected_time":3129000000000,"state":"active","ping":59},{"user_id":250,"name":"Gm_Trash","steam_id":76561199445091548,"connected_time":2559000000000,"state":"active","ping":81},{"user_id":251,"name":"The_Epic_Conclusion","steam_id":76561198084250179,"connected_time":2518000000000,"state":"active","ping":70},{"user_id":225,"name":"MgMaster7","steam_id":76561199229916638,"connected_time":3496000000000,"state":"active","ping":60},{"user_id":126,"name":"Lifial","steam_id":76561198271885819,"connected_time":10614000000000,"state":"active","ping":76},{"user_id":279,"name":"samantha","steam_id":76561198049258493,"connected_time":915000000000,"state":"active","ping":120},{"user_id":273,"name":"martin cabello","steam_id":76561199075387079,"connected_time":1481000000000,"state":"active","ping":70},{"user_id":284,"name":"glowskull","steam_id":76561198013650292,"connected_time":809000000000,"state":"active","ping":116},{"user_id":283,"name":"99999999 Ë™¨Êòé„ÇíË¶ã„Å¶","steam_id":76561199163884669,"connected_time":860000000000,"state":"active","ping":107},{"user_id":227,"name":"LUM","steam_id":76561198069976825,"connected_time":3415000000000,"state":"active","ping":72},{"user_id":269,"name":"ipaytaxes","steam_id":76561199233367627,"connected_time":1671000000000,"state":"active","ping":118},{"user_id":265,"name":"CHAIRMAN MAO GAMING","steam_id":76561198066018972,"connected_time":1710000000000,"state":"active","ping":84},{"user_id":272,"name":"tesagi","steam_id":76561198026664629,"connected_time":1508000000000,"state":"active","ping":60},{"user_id":263,"name":"Punished Kong","steam_id":76561198973620882,"connected_time":1895000000000,"state":"active","ping":83},{"user_id":262,"name":"Peppino Spaghetti","steam_id":76561198306076386,"connected_time":2028000000000,"state":"active","ping":79},{"user_id":230,"name":"SpaceOfHate | HM |","steam_id":76561199029944244,"connected_time":3337000000000,"state":"active","ping":73},{"user_id":206,"name":"Haveltherock27","steam_id":76561199219844391,"connected_time":5237000000000,"state":"active","ping":93},{"user_id":243,"name":"hardtack |HM/THWU|","steam_id":76561198860212406,"connected_time":3105000000000,"state":"active","ping":100},{"user_id":216,"name":"Nimro","steam_id":76561198049334200,"connected_time":4233000000000,"state":"active","ping":124},{"user_id":238,"name":"WAR_CRIMES |HM|","steam_id":76561199481159545,"connected_time":3199000000000,"state":"active","ping":84},{"user_id":288,"name":"king monke | HM","steam_id":76561198881194202,"connected_time":600000000000,"state":"active","ping":196},{"user_id":287,"name":"Dart Vadoor","steam_id":76561198336030917,"connected_time":614000000000,"state":"active","ping":94}]},{"server_id":37,"name":"Uncletopia | Chicago | 6 | All Maps","name_short":"chi-6","host":"chi-2.us.uncletopia.com","port":27025,"enabled":true,"region":"us-central","cc":"us","latitude":41.881832,"longitude":-87.62318,"reserved":0,"last_update":"0001-01-01T00:00:00Z","name_a2s":"Uncletopia | Chicago | 6 | All Maps","protocol":17,"map":"pl_upward","folder":"tf","game":"Team Fortress","app_id":440,"player_count":24,"max_players":24,"Bots":0,"server_type":"Dedicated","server_os":"Linux","password":true,"vac":true,"version":"7882260","steam_id":85568392924866363,"keywords":["nocrits","nodmgspread","payload","uncletopia"],"game_id":440,"stv_port":27026,"stv_name":"Uncletopia | Chicago | 6 | All Maps | STV","players":[{"user_id":299,"name":"Shanks","steam_id":76561198200408161,"connected_time":790000000000,"state":"active","ping":85},{"user_id":296,"name":"noah","steam_id":76561198173310157,"connected_time":1569000000000,"state":"active","ping":54},{"user_id":283,"name":"TheKromeDome","steam_id":76561198288951592,"connected_time":2622000000000,"state":"active","ping":177},{"user_id":308,"name":"Superplay64","steam_id":76561198172471162,"connected_time":360000000000,"state":"active","ping":85},{"user_id":251,"name":"A Puppy","steam_id":76561198828184456,"connected_time":4613000000000,"state":"active","ping":60},{"user_id":232,"name":"RapBap Bird in Lap","steam_id":76561198105613110,"connected_time":6880000000000,"state":"active","ping":60},{"user_id":309,"name":"sfoster","steam_id":76561197993895857,"connected_time":300000000000,"state":"active","ping":85},{"user_id":250,"name":"Flint","steam_id":76561198148412420,"connected_time":4661000000000,"state":"active","ping":75},{"user_id":266,"name":"bonk","steam_id":76561198922763623,"connected_time":3779000000000,"state":"active","ping":101},{"user_id":233,"name":"scapegoat","steam_id":76561198188722751,"connected_time":6880000000000,"state":"active","ping":101},{"user_id":240,"name":"mario","steam_id":76561198148282278,"connected_time":5916000000000,"state":"active","ping":66},{"user_id":294,"name":"Zirael","steam_id":76561198057143358,"connected_time":1854000000000,"state":"active","ping":79},{"user_id":298,"name":"Mugenman88","steam_id":76561198041261388,"connected_time":848000000000,"state":"active","ping":64},{"user_id":301,"name":"‚ù§ Ashley ‚ù§","steam_id":76561198056428303,"connected_time":761000000000,"state":"active","ping":105},{"user_id":263,"name":"Setsuko","steam_id":76561198830953881,"connected_time":3801000000000,"state":"active","ping":176},{"user_id":310,"name":"Torrensz64(But weezer)","steam_id":76561198239036482,"connected_time":245000000000,"state":"active","ping":73},{"user_id":302,"name":"Soul_Intern","steam_id":76561198310238109,"connected_time":757000000000,"state":"active","ping":92},{"user_id":289,"name":"rat","steam_id":76561199171889240,"connected_time":2269000000000,"state":"active","ping":76},{"user_id":306,"name":"TrustworthyStranger","steam_id":76561198154105678,"connected_time":493000000000,"state":"active","ping":75},{"user_id":279,"name":"Solstrom","steam_id":76561198313364985,"connected_time":3006000000000,"state":"active","ping":76},{"user_id":293,"name":"Smug Pug","steam_id":76561198059423334,"connected_time":2123000000000,"state":"active","ping":59},{"user_id":311,"name":"noque","steam_id":76561199439893118,"connected_time":192000000000,"state":"active","ping":142},{"user_id":304,"name":"too funky ·óúÀ¨·óú","steam_id":76561199120399776,"connected_time":747000000000,"state":"active","ping":80},{"user_id":273,"name":"bubbles","steam_id":76561198974276335,"connected_time":3631000000000,"state":"active","ping":57}]},{"server_id":38,"name":"Uncletopia | Chicago | 7 | Stopwatch Beta","name_short":"chi-7","host":"chi-2.us.uncletopia.com","port":27035,"enabled":true,"region":"us-central","cc":"us","latitude":41.881832,"longitude":-87.62318,"reserved":0,"last_update":"0001-01-01T00:00:00Z","name_a2s":"Uncletopia | Chicago | 7 | Stopwatch Beta","protocol":17,"map":"pl_upward","folder":"tf","game":"Team Fortress","app_id":440,"player_count":0,"max_players":24,"Bots":0,"server_type":"Dedicated","server_os":"Linux","password":true,"vac":true,"version":"7882260","steam_id":85568392924866364,"keywords":["nocrits","nodmgspread","payload","uncletopia"],"game_id":440,"stv_port":27036,"stv_name":"Uncletopia | Chicago | 7 | Stopwatch Beta | STV","players":null},{"server_id":39,"name":"Uncletopia | Chicago | 8 | Community","name_short":"chi-8","host":"chi-2.us.uncletopia.com","port":27045,"enabled":true,"region":"us-central","cc":"us","latitude":41.881832,"longitude":-87.62318,"reserved":0,"last_update":"0001-01-01T00:00:00Z","name_a2s":"Uncletopia | Chicago | 8 | Community","protocol":17,"map":"workshop/cp_croissant_final.ugc458840209","folder":"tf","game":"Team Fortress","app_id":440,"player_count":0,"max_players":24,"Bots":0,"server_type":"Dedicated","server_os":"Linux","password":true,"vac":true,"version":"7882260","steam_id":85568392924866365,"keywords":["cp","nocrits","nodmgspread","uncletopia"],"game_id":440,"stv_port":27046,"stv_name":"Uncletopia | Chicago | 8 | Community | STV","players":null},{"server_id":8,"name":"Uncletopia | Dallas | 1 | All Maps","name_short":"dal-1","host":"dal-1.us.uncletopia.com","port":27015,"enabled":true,"region":"us-central","cc":"us","latitude":32.779167,"longitude":-96.80889,"reserved":0,"last_update":"0001-01-01T00:00:00Z","name_a2s":"Uncletopia | Dallas | 1 | All Maps","protocol":17,"map":"pl_badwater","folder":"tf","game":"Team Fortress","app_id":440,"player_count":24,"max_players":24,"Bots":0,"server_type":"Dedicated","server_os":"Linux","password":true,"vac":true,"version":"7882260","steam_id":85568392924469986,"keywords":["nocrits","nodmgspread","payload","uncletopia"],"game_id":440,"stv_port":27016,"stv_name":"Uncletopia | Dallas | 1 | All Maps | STV","players":[{"user_id":463,"name":"Globglogabgalab","steam_id":76561199072597789,"connected_time":854000000000,"state":"active","ping":72},{"user_id":459,"name":"Zethalus","steam_id":76561197999613444,"connected_time":932000000000,"state":"active","ping":59},{"user_id":421,"name":"Little bridge goblin","steam_id":76561198272021214,"connected_time":3164000000000,"state":"active","ping":85},{"user_id":448,"name":"Rafl","steam_id":76561198055222756,"connected_time":1729000000000,"state":"active","ping":39},{"user_id":417,"name":"Op banana","steam_id":76561198303231451,"connected_time":3300000000000,"state":"active","ping":55},{"user_id":457,"name":"TF2TED","steam_id":76561199487712517,"connected_time":1035000000000,"state":"active","ping":91},{"user_id":452,"name":"bork","steam_id":76561198838334204,"connected_time":1397000000000,"state":"active","ping":45},{"user_id":469,"name":"sunny","steam_id":76561198069380992,"connected_time":595000000000,"state":"active","ping":55},{"user_id":473,"name":"barker bill","steam_id":76561198018451994,"connected_time":306000000000,"state":"active","ping":57},{"user_id":461,"name":"RockMan","steam_id":76561199228684720,"connected_time":897000000000,"state":"active","ping":59},{"user_id":438,"name":"Moomin","steam_id":76561198072726213,"connected_time":2669000000000,"state":"active","ping":80},{"user_id":462,"name":"the meat man","steam_id":76561198037921140,"connected_time":890000000000,"state":"active","ping":71},{"user_id":410,"name":"lost in spaaaaace","steam_id":76561199085974120,"connected_time":3562000000000,"state":"active","ping":92},{"user_id":471,"name":"Minlit","steam_id":76561198205832799,"connected_time":527000000000,"state":"active","ping":55},{"user_id":464,"name":"Toxic Medic Main (he/they)","steam_id":76561198009314845,"connected_time":782000000000,"state":"active","ping":103},{"user_id":436,"name":"bobby cigarette","steam_id":76561198059780866,"connected_time":2759000000000,"state":"active","ping":71},{"user_id":435,"name":"MithStyck","steam_id":76561198071538489,"connected_time":2820000000000,"state":"active","ping":38},{"user_id":446,"name":"deb","steam_id":76561198414336279,"connected_time":1805000000000,"state":"active","ping":59},{"user_id":466,"name":"Chunk Stuffer","steam_id":76561198856508573,"connected_time":667000000000,"state":"active","ping":49},{"user_id":444,"name":"Chimpish","steam_id":76561199263493270,"connected_time":2176000000000,"state":"active","ping":101},{"user_id":399,"name":"MINILEGOLAS","steam_id":76561198859362058,"connected_time":4473000000000,"state":"active","ping":80},{"user_id":454,"name":"Buddy Christ","steam_id":76561198068914701,"connected_time":1273000000000,"state":"active","ping":80},{"user_id":472,"name":"GenericName","steam_id":76561198104074968,"connected_time":520000000000,"state":"active","ping":70},{"user_id":373,"name":"CherriKat (she/her)","steam_id":76561198821297512,"connected_time":6237000000000,"state":"active","ping":84}]},{"server_id":108,"name":"Uncletopia | Dallas | 2 | All Maps","name_short":"dal-2","host":"dal-1.us.uncletopia.com","port":27025,"enabled":true,"region":"us-central","cc":"us","latitude":32.779167,"longitude":-96.80889,"reserved":0,"last_update":"0001-01-01T00:00:00Z","name_a2s":"Uncletopia | Dallas | 2 | All Maps","protocol":17,"map":"pl_pier","folder":"tf","game":"Team Fortress","app_id":440,"player_count":23,"max_players":24,"Bots":0,"server_type":"Dedicated","server_os":"Linux","password":true,"vac":true,"version":"7882260","steam_id":85568392924469988,"keywords":["nocrits","nodmgspread","payload","uncletopia"],"game_id":440,"stv_port":27026,"stv_name":"Uncletopia | Dallas | 2 | All Maps | STV","players":[{"user_id":222,"name":"Rhutebeer","steam_id":76561198018302761,"connected_time":1220000000000,"state":"active","ping":76},{"user_id":204,"name":"dolph","steam_id":76561198341304816,"connected_time":3011000000000,"state":"active","ping":98},{"user_id":224,"name":"Jaxout","steam_id":76561198126194361,"connected_time":1033000000000,"state":"active","ping":88},{"user_id":190,"name":"sumi squad","steam_id":76561198084849541,"connected_time":4271000000000,"state":"active","ping":51},{"user_id":211,"name":"Doctor Emerald(real)","steam_id":76561199123003872,"connected_time":2174000000000,"state":"active","ping":85},{"user_id":212,"name":"0x01FE","steam_id":76561198838881917,"connected_time":1462000000000,"state":"active","ping":60},{"user_id":219,"name":"Osrio","steam_id":76561198083428069,"connected_time":1391000000000,"state":"active","ping":101},{"user_id":205,"name":"cringe oomfie","steam_id":76561198000522179,"connected_time":2959000000000,"state":"active","ping":94},{"user_id":213,"name":"just a gamer","steam_id":76561199208833695,"connected_time":1459000000000,"state":"active","ping":94},{"user_id":227,"name":"cloaker","steam_id":76561199453618642,"connected_time":421000000000,"state":"active","ping":96},{"user_id":166,"name":"Punished \"Venom\" Snick","steam_id":76561198066566813,"connected_time":5494000000000,"state":"active","ping":106},{"user_id":215,"name":"Guardian","steam_id":76561199008367158,"connected_time":1456000000000,"state":"active","ping":95},{"user_id":216,"name":"TobyTurner32","steam_id":76561198018801418,"connected_time":1435000000000,"state":"active","ping":105},{"user_id":220,"name":"Frog","steam_id":76561198170199881,"connected_time":1377000000000,"state":"active","ping":74},{"user_id":210,"name":"AtomicSexMachine","steam_id":76561198886585159,"connected_time":2524000000000,"state":"active","ping":56},{"user_id":206,"name":"Crimson","steam_id":76561198129326627,"connected_time":2959000000000,"state":"active","ping":72},{"user_id":207,"name":"Jovo","steam_id":76561197993265970,"connected_time":2946000000000,"state":"active","ping":104},{"user_id":159,"name":"Mellou","steam_id":76561198212048740,"connected_time":6269000000000,"state":"active","ping":43},{"user_id":225,"name":"Elusion","steam_id":76561197998672043,"connected_time":1030000000000,"state":"active","ping":80},{"user_id":208,"name":"bass mongrel","steam_id":76561198081123470,"connected_time":2931000000000,"state":"active","ping":49},{"user_id":218,"name":"galacticdragonlord","steam_id":76561198119755801,"connected_time":1414000000000,"state":"active","ping":110},{"user_id":226,"name":"Landlord","steam_id":76561198987913057,"connected_time":442000000000,"state":"active","ping":96},{"user_id":228,"name":"Leifvs","steam_id":76561198255946142,"connected_time":264000000000,"state":"active","ping":128}]},{"server_id":5,"name":"Uncletopia | Frankfurt | 1 | All Maps","name_short":"frk-1","host":"frk-1.de.uncletopia.com","port":27015,"enabled":true,"region":"eu","cc":"de","latitude":50.110924,"longitude":8.682127,"reserved":0,"last_update":"0001-01-01T00:00:00Z","name_a2s":"Uncletopia | Frankfurt | 1 | All Maps","protocol":17,"map":"cp_dustbowl","folder":"tf","game":"Team Fortress","app_id":440,"player_count":4,"max_players":24,"Bots":0,"server_type":"Dedicated","server_os":"Linux","password":true,"vac":true,"version":"7882260","steam_id":85568392924469989,"keywords":["cp","nocrits","nodmgspread","uncletopia"],"game_id":440,"stv_port":27016,"stv_name":"Uncletopia | Frankfurt | 1 | All Maps | STV","players":[{"user_id":591,"name":"Urfangonultasadana","steam_id":76561199389286151,"connected_time":3276000000000,"state":"active","ping":102},{"user_id":606,"name":"the engineer","steam_id":76561198798516824,"connected_time":1683000000000,"state":"active","ping":69},{"user_id":607,"name":"Ink in veins","steam_id":76561199082262091,"connected_time":1250000000000,"state":"active","ping":70},{"user_id":604,"name":"—Ç–æ–ª—è","steam_id":76561199098518615,"connected_time":2244000000000,"state":"active","ping":73}]},{"server_id":110,"name":"Uncletopia | Frankfurt | 2 | All Maps","name_short":"frk-2","host":"frk-1.de.uncletopia.com","port":27025,"enabled":true,"region":"eu","cc":"de","latitude":50.110924,"longitude":8.682127,"reserved":0,"last_update":"0001-01-01T00:00:00Z","name_a2s":"Uncletopia | Frankfurt | 2 | All Maps","protocol":17,"map":"pl_enclosure_final","folder":"tf","game":"Team Fortress","app_id":440,"player_count":24,"max_players":24,"Bots":0,"server_type":"Dedicated","server_os":"Linux","password":true,"vac":true,"version":"7882260","steam_id":85568392924469990,"keywords":["nocrits","nodmgspread","payload","uncletopia"],"game_id":440,"stv_port":27026,"stv_name":"Uncletopia | Frankfurt | 2 | All Maps | STV","players":[{"user_id":546,"name":"Didele","steam_id":76561198140999154,"connected_time":2273000000000,"state":"active","ping":82},{"user_id":524,"name":"Bad Guy [‚áÑ] #SaveTF2","steam_id":76561199039772329,"connected_time":3570000000000,"state":"active","ping":118},{"user_id":405,"name":"finbar","steam_id":76561198056812396,"connected_time":10960000000000,"state":"active","ping":75},{"user_id":564,"name":"It's My Birthday!","steam_id":76561198406606196,"connected_time":587000000000,"state":"active","ping":72},{"user_id":498,"name":"Adib al-asfar","steam_id":76561198095691592,"connected_time":5451000000000,"state":"active","ping":58},{"user_id":552,"name":"meatsoupcube","steam_id":76561198276802249,"connected_time":1164000000000,"state":"active","ping":101},{"user_id":527,"name":"Whiff","steam_id":76561198086264411,"connected_time":3526000000000,"state":"active","ping":78},{"user_id":553,"name":"Llama","steam_id":76561198091973713,"connected_time":1145000000000,"state":"active","ping":75},{"user_id":573,"name":"Juiceydough","steam_id":76561197997323419,"connected_time":313000000000,"state":"active","ping":90},{"user_id":530,"name":"MAMMA","steam_id":76561198044963767,"connected_time":3460000000000,"state":"active","ping":77},{"user_id":542,"name":"‚ôø.","steam_id":76561199201751058,"connected_time":2875000000000,"state":"active","ping":91},{"user_id":570,"name":"ArikMor","steam_id":76561199124472513,"connected_time":387000000000,"state":"active","ping":118},{"user_id":549,"name":"Limonca","steam_id":76561198079029706,"connected_time":1663000000000,"state":"active","ping":49},{"user_id":550,"name":"Jitzera","steam_id":76561198259802012,"connected_time":1561000000000,"state":"active","ping":101},{"user_id":572,"name":"ScarredPixel123","steam_id":76561199165112703,"connected_time":353000000000,"state":"active","ping":69},{"user_id":568,"name":"Tonne","steam_id":76561197970856766,"connected_time":439000000000,"state":"active","ping":55},{"user_id":580,"name":"molderfaker","steam_id":76561199347900130,"connected_time":78000000000,"state":"active","ping":91},{"user_id":571,"name":"Flonne","steam_id":76561198080168182,"connected_time":376000000000,"state":"active","ping":76},{"user_id":559,"name":"Your local defective","steam_id":76561198072950522,"connected_time":894000000000,"state":"active","ping":74},{"user_id":574,"name":"TeslaVet","steam_id":76561198027201872,"connected_time":242000000000,"state":"active","ping":71},{"user_id":575,"name":"tone","steam_id":76561197975301462,"connected_time":222000000000,"state":"active","ping":132},{"user_id":576,"name":"smittenkittenmittens","steam_id":76561198130900442,"connected_time":172000000000,"state":"active","ping":181},{"user_id":581,"name":"beguilingfool","steam_id":76561199128745972,"connected_time":72000000000,"state":"active","ping":179},{"user_id":578,"name":"BooceMaster","steam_id":76561198148520318,"connected_time":157000000000,"state":"active","ping":156}]},{"server_id":308,"name":"Uncletopia | Frankfurt | 3 | All Maps","name_short":"frk-3","host":"frk-1.de.uncletopia.com","port":27035,"enabled":true,"region":"eu","cc":"de","latitude":50.110924,"longitude":8.682127,"reserved":0,"last_update":"0001-01-01T00:00:00Z","name_a2s":"Uncletopia | Frankfurt | 3 | All Maps","protocol":17,"map":"pl_badwater","folder":"tf","game":"Team Fortress","app_id":440,"player_count":24,"max_players":24,"Bots":0,"server_type":"Dedicated","server_os":"Linux","password":true,"vac":true,"version":"7882260","steam_id":85568392924504274,"keywords":["nocrits","nodmgspread","payload","uncletopia"],"game_id":440,"stv_port":27036,"stv_name":"Uncletopia | Frankfurt | 3 | All Maps | STV","players":[{"user_id":742,"name":"Sarah Obama Michella","steam_id":76561198078996559,"connected_time":1645000000000,"state":"active","ping":80},{"user_id":761,"name":"Gordon","steam_id":76561198303652059,"connected_time":789000000000,"state":"active","ping":71},{"user_id":754,"name":"Jonno","steam_id":76561198023443744,"connected_time":1154000000000,"state":"active","ping":66},{"user_id":760,"name":"DarkStar","steam_id":76561197987794808,"connected_time":824000000000,"state":"active","ping":75},{"user_id":734,"name":"_Samurai_","steam_id":76561198165937683,"connected_time":1926000000000,"state":"active","ping":57},{"user_id":719,"name":"Seail_M","steam_id":76561198002405605,"connected_time":2690000000000,"state":"active","ping":55},{"user_id":766,"name":"leminsc8","steam_id":76561198825084995,"connected_time":577000000000,"state":"active","ping":40},{"user_id":758,"name":"Jude!","steam_id":76561197983597798,"connected_time":857000000000,"state":"active","ping":47},{"user_id":767,"name":"TAFI03","steam_id":76561198213082089,"connected_time":455000000000,"state":"active","ping":55},{"user_id":763,"name":"r4s1","steam_id":76561198024034917,"connected_time":762000000000,"state":"active","ping":59},{"user_id":732,"name":"Murdoc","steam_id":76561198054293906,"connected_time":1938000000000,"state":"active","ping":72},{"user_id":724,"name":"MiniClemme","steam_id":76561198028264324,"connected_time":2369000000000,"state":"active","ping":60},{"user_id":764,"name":"earl","steam_id":76561198235739036,"connected_time":758000000000,"state":"active","ping":77},{"user_id":765,"name":"MEGOS","steam_id":76561198172740637,"connected_time":746000000000,"state":"active","ping":54},{"user_id":769,"name":"Clark","steam_id":76561197998520785,"connected_time":163000000000,"state":"active","ping":77},{"user_id":748,"name":"Foreskin Gamer","steam_id":76561198283106341,"connected_time":1342000000000,"state":"active","ping":48},{"user_id":749,"name":"Not A Fake Uncletopia Server","steam_id":76561198152871288,"connected_time":1303000000000,"state":"active","ping":57},{"user_id":756,"name":"Zero (Orbital Gear Mastermind)","steam_id":76561198017416816,"connected_time":1089000000000,"state":"active","ping":60},{"user_id":770,"name":"BD[PL]","steam_id":76561198115995871,"connected_time":98000000000,"state":"active","ping":75},{"user_id":755,"name":"Dominus Di Spiritus","steam_id":76561198200488383,"connected_time":1121000000000,"state":"active","ping":73},{"user_id":727,"name":"vadr","steam_id":76561198334528186,"connected_time":2235000000000,"state":"active","ping":58},{"user_id":759,"name":"Ë™∞„Åã„ÅåË¶ã„Å¶„ÅÑ„Çã","steam_id":76561198834913692,"connected_time":851000000000,"state":"active","ping":67},{"user_id":708,"name":"Baba Foss","steam_id":76561198002302019,"connected_time":3850000000000,"state":"active","ping":70},{"user_id":768,"name":"Mong","steam_id":76561198254497427,"connected_time":214000000000,"state":"active","ping":60}]},{"server_id":309,"name":"Uncletopia | Frankfurt | 4 | All Maps","name_short":"frk-4","host":"frk-1.de.uncletopia.com","port":27045,"enabled":true,"region":"eu","cc":"de","latitude":50.110924,"longitude":8.682127,"reserved":0,"last_update":"0001-01-01T00:00:00Z","name_a2s":"Uncletopia | Frankfurt | 4 | All Maps","protocol":17,"map":"pl_badwater","folder":"tf","game":"Team Fortress","app_id":440,"player_count":23,"max_players":24,"Bots":0,"server_type":"Dedicated","server_os":"Linux","password":true,"vac":true,"version":"7882260","steam_id":85568392924504275,"keywords":["nocrits","nodmgspread","payload","uncletopia"],"game_id":440,"stv_port":27046,"stv_name":"Uncletopia | Frankfurt | 4 | All Maps | STV","players":[{"user_id":495,"name":"Traylie","steam_id":76561198050797796,"connected_time":4706000000000,"state":"active","ping":70},{"user_id":517,"name":"Gimmick","steam_id":76561197979603871,"connected_time":2436000000000,"state":"active","ping":64},{"user_id":545,"name":"Dr.Nefario","steam_id":76561198874586020,"connected_time":424000000000,"state":"active","ping":63},{"user_id":498,"name":"galaxy","steam_id":76561198164819022,"connected_time":4635000000000,"state":"active","ping":55},{"user_id":548,"name":"peso enjoyer","steam_id":76561198798177799,"connected_time":88000000000,"state":"active","ping":76},{"user_id":531,"name":"Nyhde","steam_id":76561198012771416,"connected_time":1228000000000,"state":"active","ping":94},{"user_id":549,"name":"ducksattack","steam_id":76561198074706076,"connected_time":24000000000,"state":"active","ping":78},{"user_id":533,"name":"Mustm√§stern","steam_id":76561198413461887,"connected_time":1159000000000,"state":"active","ping":56},{"user_id":525,"name":"Finix","steam_id":76561198059608904,"connected_time":1794000000000,"state":"active","ping":56},{"user_id":536,"name":"ufomaster1111111","steam_id":76561198837347666,"connected_time":1038000000000,"state":"active","ping":67},{"user_id":550,"name":"Osmo","steam_id":76561199286764992,"connected_time":11000000000,"state":"spawning","ping":74},{"user_id":537,"name":"Ott","steam_id":76561198276464481,"connected_time":1022000000000,"state":"active","ping":70},{"user_id":542,"name":"NeiroüëΩ·ó©YY ·í™·ó∞·ó©O","steam_id":76561198046743985,"connected_time":733000000000,"state":"active","ping":64},{"user_id":543,"name":"Sabour","steam_id":76561197963965445,"connected_time":641000000000,"state":"active","ping":59},{"user_id":551,"name":"Portal79","steam_id":76561198095499584,"connected_time":11000000000,"state":"spawning","ping":109},{"user_id":552,"name":"The_Axe_Theory","steam_id":76561198424919706,"connected_time":4000000000,"state":"spawning","ping":52},{"user_id":546,"name":"Max Power","steam_id":76561198019269089,"connected_time":354000000000,"state":"active","ping":57},{"user_id":512,"name":"ero","steam_id":76561198394053600,"connected_time":3551000000000,"state":"active","ping":81},{"user_id":510,"name":"mitical uknown","steam_id":76561198844852761,"connected_time":3702000000000,"state":"active","ping":69},{"user_id":484,"name":"5tv^","steam_id":76561198063129586,"connected_time":5462000000000,"state":"active","ping":56},{"user_id":541,"name":"Misha12_05","steam_id":76561199097487701,"connected_time":944000000000,"state":"active","ping":95},{"user_id":544,"name":"ZerCroix","steam_id":76561198199523226,"connected_time":525000000000,"state":"active","ping":46},{"user_id":529,"name":"badrobot","steam_id":76561198322878356,"connected_time":1588000000000,"state":"active","ping":89}]},{"server_id":310,"name":"Uncletopia | Frankfurt | 5 | All Maps","name_short":"frk-5","host":"frk-1.de.uncletopia.com","port":27055,"enabled":true,"region":"eu","cc":"de","latitude":50.110924,"longitude":8.682127,"reserved":0,"last_update":"0001-01-01T00:00:00Z","name_a2s":"Uncletopia | Frankfurt | 5 | All Maps","protocol":17,"map":"cp_dustbowl","folder":"tf","game":"Team Fortress","app_id":440,"player_count":0,"max_players":24,"Bots":0,"server_type":"Dedicated","server_os":"Linux","password":true,"vac":true,"version":"7882260","steam_id":85568392924504277,"keywords":["cp","nocrits","nodmgspread","uncletopia"],"game_id":440,"stv_port":27056,"stv_name":"Uncletopia | Frankfurt | 5 | All Maps | STV","players":null},{"server_id":311,"name":"Uncletopia | Frankfurt | 6 | All Maps","name_short":"frk-6","host":"frk-1.de.uncletopia.com","port":27065,"enabled":true,"region":"eu","cc":"de","latitude":50.110924,"longitude":8.682127,"reserved":0,"last_update":"0001-01-01T00:00:00Z","name_a2s":"Uncletopia | Frankfurt | 6 | All Maps","protocol":17,"map":"pl_hoodoo_final","folder":"tf","game":"Team Fortress","app_id":440,"player_count":0,"max_players":24,"Bots":0,"server_type":"Dedicated","server_os":"Linux","password":true,"vac":true,"version":"7882260","steam_id":85568392924504278,"keywords":["nocrits","nodmgspread","payload","uncletopia"],"game_id":440,"stv_port":27066,"stv_name":"Uncletopia | Frankfurt | 6 | All Maps | STV","players":null},{"server_id":23,"name":"Uncletopia | Frankfurt | 7 | Stopwatch Beta","name_short":"frk-7","host":"frk-1.de.uncletopia.com","port":27075,"enabled":true,"region":"eu","cc":"de","latitude":50.110924,"longitude":8.682127,"reserved":0,"last_update":"0001-01-01T00:00:00Z","name_a2s":"Uncletopia | Frankfurt | 7 | Stopwatch Beta","protocol":17,"map":"pl_swiftwater_final1","folder":"tf","game":"Team Fortress","app_id":440,"player_count":0,"max_players":24,"Bots":0,"server_type":"Dedicated","server_os":"Linux","password":true,"vac":true,"version":"7882260","steam_id":85568392924742827,"keywords":["nocrits","nodmgspread","payload","uncletopia"],"game_id":440,"stv_port":27076,"stv_name":"Uncletopia | Frankfurt | 7 | Stopwatch Beta | STV","players":null},{"server_id":24,"name":"Uncletopia | Frankfurt | 8 | Community","name_short":"frk-8","host":"frk-1.de.uncletopia.com","port":27085,"enabled":true,"region":"eu","cc":"de","latitude":50.110924,"longitude":8.682127,"reserved":0,"last_update":"0001-01-01T00:00:00Z","name_a2s":"Uncletopia | Frankfurt | 8 | Community","protocol":17,"map":"workshop/koth_kemptown_rc1.ugc767410655","folder":"tf","game":"Team Fortress","app_id":440,"player_count":0,"max_players":24,"Bots":0,"server_type":"Dedicated","server_os":"Linux","password":true,"vac":true,"version":"7882260","steam_id":85568392924742828,"keywords":["cp","nocrits","nodmgspread","uncletopia"],"game_id":440,"stv_port":27086,"stv_name":"Uncletopia | Frankfurt | 8 | Community | STV","players":null},{"server_id":202,"name":"Uncletopia | Hong Kong | 1 | All Maps","name_short":"hgk-1","host":"hgk-1.hk.uncletopia.com","port":27015,"enabled":true,"region":"asia","cc":"hk","latitude":22.302711,"longitude":114.177216,"reserved":0,"last_update":"0001-01-01T00:00:00Z","name_a2s":"Uncletopia | Hong Kong | 1 | All Maps","protocol":17,"map":"koth_viaduct","folder":"tf","game":"Team Fortress","app_id":440,"player_count":0,"max_players":24,"Bots":0,"server_type":"Dedicated","server_os":"Linux","password":true,"vac":true,"version":"7882260","steam_id":85568392924494504,"keywords":["cp","nocrits","nodmgspread","uncletopia"],"game_id":440,"stv_port":27016,"stv_name":"Uncletopia | Hong Kong | 1 | All Maps | STV","players":null},{"server_id":1,"name":"Uncletopia | Los Angeles | 1 | All Maps","name_short":"lax-1","host":"lax-1.us.uncletopia.com","port":27015,"enabled":true,"region":"us-west","cc":"us","latitude":33.94279,"longitude":-118.41004,"reserved":0,"last_update":"0001-01-01T00:00:00Z","name_a2s":"Uncletopia | Los Angeles | 1 | All Maps","protocol":17,"map":"cp_dustbowl","folder":"tf","game":"Team Fortress","app_id":440,"player_count":24,"max_players":24,"Bots":0,"server_type":"Dedicated","server_os":"Linux","password":true,"vac":true,"version":"7882260","steam_id":85568392924469991,"keywords":["cp","nocrits","nodmgspread","uncletopia"],"game_id":440,"stv_port":27016,"stv_name":"Uncletopia | Los Angeles | 1 | All Maps | STV","players":[{"user_id":364,"name":"poob","steam_id":76561198406728732,"connected_time":2177000000000,"state":"active","ping":93},{"user_id":388,"name":"Kuwait Grips","steam_id":76561198292689973,"connected_time":15000000000,"state":"active","ping":97},{"user_id":369,"name":"An00bis","steam_id":76561198044084508,"connected_time":1783000000000,"state":"active","ping":45},{"user_id":365,"name":"Thomas Chavira Gaming","steam_id":76561198313671617,"connected_time":1945000000000,"state":"active","ping":69},{"user_id":386,"name":"a chicken","steam_id":76561198313121580,"connected_time":436000000000,"state":"active","ping":48},{"user_id":291,"name":"Why Me...","steam_id":76561199124019937,"connected_time":8585000000000,"state":"active","ping":68},{"user_id":371,"name":"the piss boiling machine","steam_id":76561198113716047,"connected_time":1618000000000,"state":"active","ping":110},{"user_id":344,"name":"tildae","steam_id":76561198067507938,"connected_time":3850000000000,"state":"active","ping":40},{"user_id":333,"name":"Appahandler","steam_id":76561198063850720,"connected_time":4887000000000,"state":"active","ping":58},{"user_id":350,"name":"Stolas \u003c3","steam_id":76561198835430280,"connected_time":3706000000000,"state":"active","ping":67},{"user_id":372,"name":"Lamination Sensation","steam_id":76561198362916241,"connected_time":1616000000000,"state":"active","ping":118},{"user_id":334,"name":"Mr Baseball","steam_id":76561198960521363,"connected_time":4865000000000,"state":"active","ping":73},{"user_id":370,"name":"solar","steam_id":76561199013226016,"connected_time":1772000000000,"state":"active","ping":69},{"user_id":387,"name":"Sloth Bear","steam_id":76561199229466711,"connected_time":84000000000,"state":"active","ping":245},{"user_id":339,"name":"Grim","steam_id":76561198016978310,"connected_time":4159000000000,"state":"active","ping":79},{"user_id":374,"name":"the fool","steam_id":76561198133933158,"connected_time":1596000000000,"state":"active","ping":52},{"user_id":375,"name":"ancientfunland","steam_id":76561199220174291,"connected_time":1596000000000,"state":"active","ping":121},{"user_id":381,"name":"Y'all are Garage","steam_id":76561198012829324,"connected_time":1287000000000,"state":"active","ping":68},{"user_id":385,"name":"BrockSpread","steam_id":76561198145924402,"connected_time":562000000000,"state":"active","ping":89},{"user_id":382,"name":"Jimmy","steam_id":76561198857959855,"connected_time":972000000000,"state":"active","ping":49},{"user_id":379,"name":"Heisenburg","steam_id":76561198126561438,"connected_time":1473000000000,"state":"active","ping":50},{"user_id":349,"name":"samvaluez","steam_id":76561199213743808,"connected_time":3727000000000,"state":"active","ping":74},{"user_id":383,"name":"VELOURIA","steam_id":76561198116550170,"connected_time":867000000000,"state":"active","ping":60},{"user_id":354,"name":"Dimmerswitch","steam_id":76561198034782177,"connected_time":3608000000000,"state":"active","ping":40}]},{"server_id":112,"name":"Uncletopia | Los Angeles | 2 | All Maps","name_short":"lax-2","host":"lax-1.us.uncletopia.com","port":27025,"enabled":true,"region":"us-west","cc":"us","latitude":33.94279,"longitude":-118.41004,"reserved":0,"last_update":"0001-01-01T00:00:00Z","name_a2s":"Uncletopia | Los Angeles | 2 | All Maps","protocol":17,"map":"pl_badwater","folder":"tf","game":"Team Fortress","app_id":440,"player_count":23,"max_players":24,"Bots":0,"server_type":"Dedicated","server_os":"Linux","password":true,"vac":true,"version":"7882260","steam_id":85568392924469992,"keywords":["nocrits","nodmgspread","payload","uncletopia"],"game_id":440,"stv_port":27026,"stv_name":"Uncletopia | Los Angeles | 2 | All Maps | STV","players":[{"user_id":106,"name":"the hunchback of gay paris","steam_id":76561197987056308,"connected_time":1316000000000,"state":"active","ping":50},{"user_id":114,"name":"BoomFiend","steam_id":76561199223831021,"connected_time":807000000000,"state":"active","ping":48},{"user_id":109,"name":"FlashofAsh","steam_id":76561198400422981,"connected_time":1207000000000,"state":"active","ping":75},{"user_id":95,"name":"Walrus","steam_id":76561198001799905,"connected_time":2170000000000,"state":"active","ping":46},{"user_id":82,"name":"Enforcer Enthusiast","steam_id":76561199124102271,"connected_time":3878000000000,"state":"active","ping":74},{"user_id":116,"name":"StaticusFinch","steam_id":76561198352499132,"connected_time":373000000000,"state":"active","ping":127},{"user_id":120,"name":"huh","steam_id":76561198272057200,"connected_time":341000000000,"state":"active","ping":55},{"user_id":107,"name":"The Dumptruck of Notre-Dame","steam_id":76561198004815026,"connected_time":1211000000000,"state":"active","ping":53},{"user_id":117,"name":"choi","steam_id":76561198053669887,"connected_time":365000000000,"state":"active","ping":59},{"user_id":99,"name":"MrManlet","steam_id":76561198148597989,"connected_time":1944000000000,"state":"active","ping":93},{"user_id":115,"name":"el wokismo","steam_id":76561198058617608,"connected_time":659000000000,"state":"active","ping":47},{"user_id":34,"name":"A UsedNom","steam_id":76561198402832756,"connected_time":7381000000000,"state":"active","ping":43},{"user_id":83,"name":"Fumohuxi Viriphyto","steam_id":76561198369395636,"connected_time":3877000000000,"state":"active","ping":137},{"user_id":113,"name":"June","steam_id":76561198141803658,"connected_time":889000000000,"state":"active","ping":44},{"user_id":70,"name":"Igrium","steam_id":76561198119549811,"connected_time":4648000000000,"state":"active","ping":67},{"user_id":91,"name":"Tohubohu","steam_id":76561198077838448,"connected_time":3241000000000,"state":"active","ping":61},{"user_id":96,"name":"Roosevelt Chadwick","steam_id":76561198278169311,"connected_time":2130000000000,"state":"active","ping":79},{"user_id":119,"name":"The Assistant Regional Manager","steam_id":76561199221484936,"connected_time":354000000000,"state":"active","ping":62},{"user_id":121,"name":"_cza","steam_id":76561198079793576,"connected_time":339000000000,"state":"active","ping":75},{"user_id":97,"name":"scamchez","steam_id":76561198447562701,"connected_time":2111000000000,"state":"active","ping":71},{"user_id":94,"name":"Ashes!","steam_id":76561197998475441,"connected_time":2175000000000,"state":"active","ping":125},{"user_id":112,"name":"bonehead","steam_id":76561199201489468,"connected_time":1186000000000,"state":"active","ping":74},{"user_id":67,"name":"SilentScott","steam_id":76561198236688652,"connected_time":5137000000000,"state":"active","ping":79}]},{"server_id":324,"name":"Uncletopia | Los Angeles | 3 | All Maps","name_short":"lax-3","host":"lax-1.us.uncletopia.com","port":27035,"enabled":true,"region":"us-west","cc":"us","latitude":33.94279,"longitude":-118.41004,"reserved":0,"last_update":"0001-01-01T00:00:00Z","name_a2s":"Uncletopia | Los Angeles | 3 | All Maps","protocol":17,"map":"pl_pier","folder":"tf","game":"Team Fortress","app_id":440,"player_count":0,"max_players":24,"Bots":0,"server_type":"Dedicated","server_os":"Linux","password":true,"vac":true,"version":"7882260","steam_id":85568392924510198,"keywords":["nocrits","nodmgspread","payload","uncletopia"],"game_id":440,"stv_port":27036,"stv_name":"Uncletopia | Los Angeles | 3 | All Maps | STV","players":null},{"server_id":25,"name":"Uncletopia | Los Angeles | 4 | Stopwatch Beta","name_short":"lax-4","host":"lax-1.us.uncletopia.com","port":27045,"enabled":true,"region":"us-west","cc":"us","latitude":33.94279,"longitude":-118.41004,"reserved":0,"last_update":"0001-01-01T00:00:00Z","name_a2s":"Uncletopia | Los Angeles | 4 | Stopwatch Beta","protocol":17,"map":"koth_viaduct","folder":"tf","game":"Team Fortress","app_id":440,"player_count":0,"max_players":24,"Bots":0,"server_type":"Dedicated","server_os":"Linux","password":true,"vac":true,"version":"7882260","steam_id":85568392924510199,"keywords":["cp","nocrits","nodmgspread","uncletopia"],"game_id":440,"stv_port":27046,"stv_name":"Uncletopia | Los Angeles | 4 | Stopwatch Beta | STV","players":null},{"server_id":11,"name":"Uncletopia | London | 1 | All Maps","name_short":"lon-1","host":"lon-1.uk.uncletopia.com","port":27015,"enabled":true,"region":"eu","cc":"gb","latitude":51.509865,"longitude":-0.118092,"reserved":0,"last_update":"0001-01-01T00:00:00Z","name_a2s":"Uncletopia | London | 1 | All Maps","protocol":17,"map":"cp_badlands","folder":"tf","game":"Team Fortress","app_id":440,"player_count":24,"max_players":24,"Bots":0,"server_type":"Dedicated","server_os":"Linux","password":true,"vac":true,"version":"7882260","steam_id":85568392924367362,"keywords":["cp","nocrits","nodmgspread","uncletopia"],"game_id":440,"stv_port":27016,"stv_name":"Uncletopia | London | 1 | All Maps | STV","players":[{"user_id":741,"name":"üòà COCKDESTROYER üòà","steam_id":76561198042846999,"connected_time":10722000000000,"state":"active","ping":75},{"user_id":847,"name":"Prome","steam_id":76561199050383942,"connected_time":2234000000000,"state":"active","ping":48},{"user_id":852,"name":"snowycoast","steam_id":76561198346638308,"connected_time":735000000000,"state":"active","ping":60},{"user_id":807,"name":"Aubribac","steam_id":76561198057689763,"connected_time":5368000000000,"state":"active","ping":45},{"user_id":855,"name":"harryhux","steam_id":76561198228052940,"connected_time":646000000000,"state":"active","ping":41},{"user_id":866,"name":"Herb","steam_id":76561198205266944,"connected_time":191000000000,"state":"active","ping":45},{"user_id":825,"name":"‚ô•aura‚ô•","steam_id":76561198066258544,"connected_time":4135000000000,"state":"active","ping":60},{"user_id":854,"name":"Purps","steam_id":76561198053886680,"connected_time":672000000000,"state":"active","ping":45},{"user_id":862,"name":"BreadBubbles","steam_id":76561198174332826,"connected_time":353000000000,"state":"active","ping":56},{"user_id":857,"name":"Wazz","steam_id":76561198042352948,"connected_time":608000000000,"state":"active","ping":61},{"user_id":858,"name":"rozen","steam_id":76561198119167317,"connected_time":606000000000,"state":"active","ping":51},{"user_id":841,"name":"Meddler","steam_id":76561198033001402,"connected_time":2825000000000,"state":"active","ping":44},{"user_id":848,"name":"teddy","steam_id":76561198007436837,"connected_time":1956000000000,"state":"active","ping":44},{"user_id":843,"name":"Lix","steam_id":76561198130779816,"connected_time":2783000000000,"state":"active","ping":56},{"user_id":828,"name":"jimmy bob","steam_id":76561198319583692,"connected_time":3605000000000,"state":"active","ping":58},{"user_id":834,"name":"Xiqui","steam_id":76561198818386611,"connected_time":3258000000000,"state":"active","ping":81},{"user_id":810,"name":"SOPHIIEE","steam_id":76561198443798981,"connected_time":4823000000000,"state":"active","ping":56},{"user_id":867,"name":"pablo.gonzales2007","steam_id":76561199371685870,"connected_time":167000000000,"state":"active","ping":133},{"user_id":827,"name":"Aroo","steam_id":76561198132601368,"connected_time":4012000000000,"state":"active","ping":80},{"user_id":850,"name":"i put rocks in your mattress","steam_id":76561198072892783,"connected_time":1398000000000,"state":"active","ping":60},{"user_id":861,"name":"The Lady","steam_id":76561198029895809,"connected_time":453000000000,"state":"active","ping":86},{"user_id":859,"name":"Rock..","steam_id":76561198004641963,"connected_time":567000000000,"state":"active","ping":81},{"user_id":860,"name":"gagalak","steam_id":76561198089979108,"connected_time":564000000000,"state":"active","ping":97},{"user_id":865,"name":"octojosh2","steam_id":76561199304269609,"connected_time":289000000000,"state":"active","ping":162}]},{"server_id":114,"name":"Uncletopia | London | 2 | All Maps","name_short":"lon-2","host":"lon-1.uk.uncletopia.com","port":27025,"enabled":true,"region":"eu","cc":"gb","latitude":51.509865,"longitude":-0.118092,"reserved":0,"last_update":"0001-01-01T00:00:00Z","name_a2s":"Uncletopia | London | 2 | All Maps","protocol":17,"map":"cp_snakewater_final1","folder":"tf","game":"Team Fortress","app_id":440,"player_count":24,"max_players":24,"Bots":0,"server_type":"Dedicated","server_os":"Linux","password":true,"vac":true,"version":"7882260","steam_id":85568392924470941,"keywords":["cp","nocrits","nodmgspread","uncletopia"],"game_id":440,"stv_port":27026,"stv_name":"Uncletopia | London | 2 | All Maps | STV","players":[{"user_id":208,"name":"Weebot00","steam_id":76561199479204459,"connected_time":476000000000,"state":"active","ping":58},{"user_id":149,"name":"jones","steam_id":76561198044434971,"connected_time":4117000000000,"state":"active","ping":68},{"user_id":145,"name":"Dirty Joe","steam_id":76561198142418870,"connected_time":4226000000000,"state":"active","ping":43},{"user_id":177,"name":"Charles Darwin","steam_id":76561197973496139,"connected_time":2817000000000,"state":"active","ping":60},{"user_id":130,"name":"Piquesque","steam_id":76561198286763046,"connected_time":5224000000000,"state":"active","ping":106},{"user_id":148,"name":"COW MANGLING UR MOM","steam_id":76561198062171002,"connected_time":4168000000000,"state":"active","ping":46},{"user_id":218,"name":"I may be stupid but","steam_id":76561198060638325,"connected_time":247000000000,"state":"active","ping":46},{"user_id":205,"name":"mossad sponsored intel backdoor","steam_id":76561198071882999,"connected_time":681000000000,"state":"active","ping":53},{"user_id":151,"name":"Mafew","steam_id":76561198119993886,"connected_time":4088000000000,"state":"active","ping":57},{"user_id":211,"name":"Schmuck","steam_id":76561197986743887,"connected_time":389000000000,"state":"active","ping":45},{"user_id":181,"name":"stuntz","steam_id":76561197974814348,"connected_time":2451000000000,"state":"active","ping":72},{"user_id":214,"name":"Wattoz","steam_id":76561198127779511,"connected_time":335000000000,"state":"active","ping":55},{"user_id":186,"name":"Rolloden","steam_id":76561198069414404,"connected_time":1830000000000,"state":"active","ping":68},{"user_id":215,"name":"big poo","steam_id":76561198129157178,"connected_time":333000000000,"state":"active","ping":98},{"user_id":175,"name":"the honey monster","steam_id":76561198012351808,"connected_time":2963000000000,"state":"active","ping":46},{"user_id":189,"name":"mer5277","steam_id":76561198192171041,"connected_time":1623000000000,"state":"active","ping":394},{"user_id":216,"name":"Tibalt Nyahuma","steam_id":76561198034779431,"connected_time":311000000000,"state":"active","ping":148},{"user_id":192,"name":"Emily (trans rights)","steam_id":76561198393596975,"connected_time":1376000000000,"state":"active","ping":51},{"user_id":185,"name":"FuncleDank","steam_id":76561198121683425,"connected_time":1954000000000,"state":"active","ping":60},{"user_id":220,"name":"Pai Greg√≥rio","steam_id":76561197998349793,"connected_time":206000000000,"state":"active","ping":62},{"user_id":219,"name":"THE MENACE","steam_id":76561198208740557,"connected_time":228000000000,"state":"active","ping":68},{"user_id":223,"name":"josh the fragger the killer","steam_id":76561198088367808,"connected_time":53000000000,"state":"active","ping":74},{"user_id":222,"name":"screenshot2020-25-09","steam_id":76561198255275650,"connected_time":178000000000,"state":"active","ping":56},{"user_id":200,"name":"cock","steam_id":76561198307522022,"connected_time":1098000000000,"state":"active","ping":57}]},{"server_id":320,"name":"Uncletopia | London | 3 | All Maps","name_short":"lon-3","host":"lon-1.uk.uncletopia.com","port":27035,"enabled":true,"region":"eu","cc":"gb","latitude":51.509865,"longitude":-0.118092,"reserved":0,"last_update":"0001-01-01T00:00:00Z","name_a2s":"Uncletopia | London | 3 | All Maps","protocol":17,"map":"pl_borneo","folder":"tf","game":"Team Fortress","app_id":440,"player_count":23,"max_players":24,"Bots":0,"server_type":"Dedicated","server_os":"Linux","password":true,"vac":true,"version":"7882260","steam_id":85568392924510192,"keywords":["nocrits","nodmgspread","payload","uncletopia"],"game_id":440,"stv_port":27036,"stv_name":"Uncletopia | London | 3 | All Maps | STV","players":[{"user_id":243,"name":"frank","steam_id":76561198214063660,"connected_time":1942000000000,"state":"active","ping":70},{"user_id":240,"name":"Nameless","steam_id":76561198084215731,"connected_time":2642000000000,"state":"active","ping":37},{"user_id":260,"name":"BuzzBees ‚ù§","steam_id":76561198101502273,"connected_time":36000000000,"state":"active","ping":59},{"user_id":256,"name":"deFaulty","steam_id":76561198106394179,"connected_time":498000000000,"state":"active","ping":84},{"user_id":185,"name":"LarsInABox","steam_id":76561198028329262,"connected_time":9535000000000,"state":"active","ping":65},{"user_id":123,"name":"Jon","steam_id":76561199380849468,"connected_time":14518000000000,"state":"active","ping":64},{"user_id":195,"name":"Tegnerud","steam_id":76561198214185612,"connected_time":8033000000000,"state":"active","ping":69},{"user_id":166,"name":"Son Goku","steam_id":76561199383437138,"connected_time":11085000000000,"state":"active","ping":121},{"user_id":257,"name":"KittyKate ‚ù§","steam_id":76561198116340817,"connected_time":461000000000,"state":"active","ping":62},{"user_id":258,"name":"john stick","steam_id":76561198165998678,"connected_time":371000000000,"state":"active","ping":62},{"user_id":230,"name":"OPUR \u003e:(","steam_id":76561197993123284,"connected_time":4138000000000,"state":"active","ping":77},{"user_id":204,"name":"Serton‚ôù","steam_id":76561198011061126,"connected_time":7356000000000,"state":"active","ping":74},{"user_id":246,"name":"Lethal","steam_id":76561198452042648,"connected_time":1762000000000,"state":"active","ping":68},{"user_id":248,"name":"slippin jimmy","steam_id":76561198090788590,"connected_time":1412000000000,"state":"active","ping":31},{"user_id":249,"name":"man in da club","steam_id":76561198090580368,"connected_time":1011000000000,"state":"active","ping":53},{"user_id":247,"name":"Giggen","steam_id":76561198070986689,"connected_time":1757000000000,"state":"active","ping":45},{"user_id":261,"name":"Buddy","steam_id":76561198050185582,"connected_time":23000000000,"state":"active","ping":58},{"user_id":255,"name":"Penis Contortionist","steam_id":76561198073663784,"connected_time":763000000000,"state":"active","ping":35},{"user_id":231,"name":"Xanshi","steam_id":76561198152392309,"connected_time":3986000000000,"state":"active","ping":45},{"user_id":213,"name":"Fat Pigeon","steam_id":76561198817940142,"connected_time":6300000000000,"state":"active","ping":45},{"user_id":259,"name":"Issei Hyoudou ÂÖµËó§ ‰∏ÄË™†","steam_id":76561198174088183,"connected_time":346000000000,"state":"active","ping":72},{"user_id":189,"name":"Lyncurion","steam_id":76561199260022725,"connected_time":9034000000000,"state":"active","ping":86},{"user_id":237,"name":"Bill Carr","steam_id":76561198110033943,"connected_time":3307000000000,"state":"active","ping":37}]},{"server_id":321,"name":"Uncletopia | London | 4 | All Maps","name_short":"lon-4","host":"lon-1.uk.uncletopia.com","port":27045,"enabled":true,"region":"eu","cc":"gb","latitude":51.509865,"longitude":-0.118092,"reserved":0,"last_update":"0001-01-01T00:00:00Z","name_a2s":"Uncletopia | London | 4 | All Maps","protocol":17,"map":"pl_goldrush","folder":"tf","game":"Team Fortress","app_id":440,"player_count":4,"max_players":24,"Bots":0,"server_type":"Dedicated","server_os":"Linux","password":true,"vac":true,"version":"7882260","steam_id":85568392924510193,"keywords":["nocrits","nodmgspread","payload","uncletopia"],"game_id":440,"stv_port":27046,"stv_name":"Uncletopia | London | 4 | All Maps | STV","players":[{"user_id":732,"name":"Holy Mackerel the Third","steam_id":76561198083235789,"connected_time":94000000000,"state":"active","ping":177},{"user_id":703,"name":"David Asura","steam_id":76561198017852330,"connected_time":2951000000000,"state":"active","ping":83},{"user_id":688,"name":"Toa LightMakuta","steam_id":76561198212178104,"connected_time":3359000000000,"state":"active","ping":50},{"user_id":724,"name":"Krzty","steam_id":76561198306160711,"connected_time":1484000000000,"state":"active","ping":65}]},{"server_id":21,"name":"Uncletopia | London | 5 | All Maps","name_short":"lon-5","host":"lon-1.uk.uncletopia.com","port":27055,"enabled":true,"region":"eu","cc":"gb","latitude":51.509865,"longitude":-0.118092,"reserved":0,"last_update":"0001-01-01T00:00:00Z","name_a2s":"Uncletopia | London | 5 | All Maps","protocol":17,"map":"cp_mountainlab","folder":"tf","game":"Team Fortress","app_id":440,"player_count":21,"max_players":24,"Bots":0,"server_type":"Dedicated","server_os":"Linux","password":true,"vac":true,"version":"7882260","steam_id":85568392924742829,"keywords":["cp","nocrits","nodmgspread","uncletopia"],"game_id":440,"stv_port":27056,"stv_name":"Uncletopia | London | 5 | All Maps | STV","players":[{"user_id":773,"name":"‚òÅ Lou1smeister ‚òÅ","steam_id":76561198004032968,"connected_time":826000000000,"state":"active","ping":61},{"user_id":796,"name":"Teacup","steam_id":76561198190654091,"connected_time":8000000000,"state":"spawning","ping":44},{"user_id":781,"name":"GTK474","steam_id":76561199352358166,"connected_time":520000000000,"state":"active","ping":61},{"user_id":782,"name":"Grillem Dafoe","steam_id":76561198306874574,"connected_time":481000000000,"state":"active","ping":73},{"user_id":775,"name":"1 toke 4 mars bars","steam_id":76561198056460000,"connected_time":755000000000,"state":"active","ping":46},{"user_id":791,"name":"whyamialive","steam_id":76561199070008862,"connected_time":69000000000,"state":"active","ping":35},{"user_id":778,"name":"rummy","steam_id":76561197997573379,"connected_time":685000000000,"state":"active","ping":45},{"user_id":784,"name":"C.H.E.R.E.P.","steam_id":76561198026938595,"connected_time":323000000000,"state":"active","ping":77},{"user_id":788,"name":"Munibe","steam_id":76561198107967904,"connected_time":141000000000,"state":"active","ping":77},{"user_id":786,"name":"fodderstompf","steam_id":76561198057157554,"connected_time":174000000000,"state":"active","ping":121},{"user_id":769,"name":"Bobo2037","steam_id":76561198037342489,"connected_time":1169000000000,"state":"active","ping":46},{"user_id":752,"name":"spyalex3","steam_id":76561198167527730,"connected_time":2079000000000,"state":"active","ping":72},{"user_id":787,"name":"8 Ball","steam_id":76561197960988736,"connected_time":161000000000,"state":"active","ping":43},{"user_id":790,"name":"Abusive Father","steam_id":76561199123118241,"connected_time":78000000000,"state":"active","ping":215},{"user_id":793,"name":"zdrdan","steam_id":76561198107905551,"connected_time":38000000000,"state":"active","ping":89},{"user_id":743,"name":"Sir Dong","steam_id":76561198137201972,"connected_time":2227000000000,"state":"active","ping":48},{"user_id":794,"name":"cruky","steam_id":76561199097185897,"connected_time":38000000000,"state":"spawning","ping":121},{"user_id":795,"name":"Jam","steam_id":76561198010277932,"connected_time":32000000000,"state":"active","ping":46},{"user_id":748,"name":"Sicko","steam_id":76561198065475799,"connected_time":2189000000000,"state":"active","ping":57},{"user_id":749,"name":"Mr Gnash","steam_id":76561198007410990,"connected_time":2188000000000,"state":"active","ping":70},{"user_id":766,"name":"RuneShine","steam_id":76561198007098323,"connected_time":1521000000000,"state":"active","ping":35}]},{"server_id":22,"name":"Uncletopia | London | 6 | All Maps","name_short":"lon-6","host":"lon-1.uk.uncletopia.com","port":27065,"enabled":true,"region":"eu","cc":"gb","latitude":51.509865,"longitude":-0.118092,"reserved":0,"last_update":"0001-01-01T00:00:00Z","name_a2s":"Uncletopia | London | 6 | All Maps","protocol":17,"map":"cp_sunshine","folder":"tf","game":"Team Fortress","app_id":440,"player_count":10,"max_players":24,"Bots":0,"server_type":"Dedicated","server_os":"Linux","password":true,"vac":true,"version":"7882260","steam_id":85568392924742830,"keywords":["cp","nocrits","nodmgspread","uncletopia"],"game_id":440,"stv_port":27066,"stv_name":"Uncletopia | London | 6 | All Maps | STV","players":[{"user_id":561,"name":"Donny","steam_id":76561198317950036,"connected_time":2491000000000,"state":"active","ping":85},{"user_id":574,"name":"Nintails","steam_id":76561198075157560,"connected_time":1481000000000,"state":"active","ping":45},{"user_id":534,"name":"Sippie","steam_id":76561198130393388,"connected_time":3928000000000,"state":"active","ping":58},{"user_id":529,"name":"Cataleptic","steam_id":76561197997966949,"connected_time":4090000000000,"state":"active","ping":62},{"user_id":588,"name":"nyanezt","steam_id":76561198253734265,"connected_time":290000000000,"state":"active","ping":115},{"user_id":575,"name":"Gnarville","steam_id":76561198006373329,"connected_time":1438000000000,"state":"active","ping":45},{"user_id":583,"name":"Harpenden, Harpenden, Harpenden","steam_id":76561198118138546,"connected_time":738000000000,"state":"active","ping":41},{"user_id":571,"name":"elio","steam_id":76561198142662131,"connected_time":2027000000000,"state":"active","ping":67},{"user_id":480,"name":"N.M.E","steam_id":76561198012351470,"connected_time":8057000000000,"state":"active","ping":44},{"user_id":551,"name":"mumbler","steam_id":76561197970641239,"connected_time":3051000000000,"state":"active","ping":52}]},{"server_id":40,"name":"Uncletopia | London | 7 | No Payload","name_short":"lon-7","host":"lon-1.uk.uncletopia.com","port":27075,"enabled":true,"region":"eu","cc":"gb","latitude":51.509865,"longitude":-0.118092,"reserved":0,"last_update":"0001-01-01T00:00:00Z","name_a2s":"Uncletopia | London | 7 | No Payload","protocol":17,"map":"cp_steel","folder":"tf","game":"Team Fortress","app_id":440,"player_count":11,"max_players":24,"Bots":0,"server_type":"Dedicated","server_os":"Linux","password":true,"vac":true,"version":"7882260","steam_id":85568392924964314,"keywords":["cp","nocrits","nodmgspread","uncletopia"],"game_id":440,"stv_port":27076,"stv_name":"Uncletopia | London | 7 | No Payload | STV","players":[{"user_id":494,"name":"Der Herr Doktor","steam_id":76561198119476089,"connected_time":3285000000000,"state":"active","ping":64},{"user_id":525,"name":"Painini","steam_id":76561198086673896,"connected_time":601000000000,"state":"active","ping":58},{"user_id":482,"name":"Celarvaa (cel-larva)","steam_id":76561198035024894,"connected_time":4272000000000,"state":"active","ping":68},{"user_id":527,"name":"Tx_madmash","steam_id":76561198924656512,"connected_time":147000000000,"state":"active","ping":98},{"user_id":522,"name":"‚ù§ Delta ‚ù§","steam_id":76561198296456996,"connected_time":999000000000,"state":"active","ping":80},{"user_id":513,"name":"AudioFall","steam_id":76561198208814216,"connected_time":2333000000000,"state":"active","ping":49},{"user_id":511,"name":"Envy","steam_id":76561198132723219,"connected_time":2464000000000,"state":"active","ping":100},{"user_id":489,"name":"EZTO","steam_id":76561198371606561,"connected_time":4180000000000,"state":"active","ping":74},{"user_id":487,"name":"Undeadronin 20","steam_id":76561199099455788,"connected_time":4210000000000,"state":"active","ping":68},{"user_id":488,"name":"Abel_","steam_id":76561198330227025,"connected_time":4209000000000,"state":"active","ping":55}]},{"server_id":41,"name":"Uncletopia | London | 8 | Community","name_short":"lon-8","host":"lon-1.uk.uncletopia.com","port":27085,"enabled":true,"region":"eu","cc":"gb","latitude":51.509865,"longitude":-0.118092,"reserved":0,"last_update":"0001-01-01T00:00:00Z","name_a2s":"Uncletopia | London | 8 | Community","protocol":17,"map":"workshop/koth_slaughter_rc1.ugc1712845210","folder":"tf","game":"Team Fortress","app_id":440,"player_count":0,"max_players":24,"Bots":0,"server_type":"Dedicated","server_os":"Linux","password":true,"vac":true,"version":"7882260","steam_id":85568392924964315,"keywords":["cp","nocrits","nodmgspread","uncletopia"],"game_id":440,"stv_port":27086,"stv_name":"Uncletopia | London | 8 | Community | STV","players":null},{"server_id":300,"name":"Uncletopia | Montr√©al | 1 | All Maps","name_short":"mtl-1","host":"mtl-1.ca.uncletopia.com","port":27015,"enabled":true,"region":"us-east","cc":"ca","latitude":45.50889,"longitude":-73.56167,"reserved":0,"last_update":"0001-01-01T00:00:00Z","name_a2s":"Uncletopia | Montr√©al | 1 | All Maps","protocol":17,"map":"pl_pier","folder":"tf","game":"Team Fortress","app_id":440,"player_count":24,"max_players":24,"Bots":0,"server_type":"Dedicated","server_os":"Linux","password":true,"vac":true,"version":"7882260","steam_id":85568392924500087,"keywords":["nocrits","nodmgspread","payload","uncletopia"],"game_id":440,"stv_port":27016,"stv_name":"Uncletopia | Montr√©al | 1 | All Maps | STV","players":[{"user_id":63,"name":"schnedwob","steam_id":76561197999146588,"connected_time":698000000000,"state":"active","ping":91},{"user_id":64,"name":"Matt","steam_id":76561198008108521,"connected_time":683000000000,"state":"active","ping":78},{"user_id":65,"name":"Tankless Water Heater","steam_id":76561198014574925,"connected_time":677000000000,"state":"active","ping":62},{"user_id":66,"name":"alex","steam_id":76561198095203229,"connected_time":651000000000,"state":"active","ping":58},{"user_id":67,"name":"‚òπ","steam_id":76561198804763186,"connected_time":649000000000,"state":"active","ping":47},{"user_id":68,"name":"Cat in Your Backyard","steam_id":76561197979078330,"connected_time":628000000000,"state":"active","ping":50},{"user_id":62,"name":"[DEEP] Roz257","steam_id":76561198842844532,"connected_time":853000000000,"state":"active","ping":56},{"user_id":45,"name":"HOOPLA","steam_id":76561198993451858,"connected_time":1950000000000,"state":"active","ping":57},{"user_id":69,"name":"Penis but it rhymes with Venice","steam_id":76561197986420836,"connected_time":585000000000,"state":"active","ping":58},{"user_id":53,"name":"you forgot the sauce","steam_id":76561198387016713,"connected_time":1575000000000,"state":"active","ping":50},{"user_id":70,"name":"dudescore","steam_id":76561199091453555,"connected_time":583000000000,"state":"active","ping":118},{"user_id":71,"name":"sad boi","steam_id":76561198395577807,"connected_time":503000000000,"state":"active","ping":51},{"user_id":49,"name":"VenANON","steam_id":76561198055676240,"connected_time":1874000000000,"state":"active","ping":54},{"user_id":51,"name":"ÎùºÎãà","steam_id":76561198399201495,"connected_time":1668000000000,"state":"active","ping":103},{"user_id":72,"name":"JTCR","steam_id":76561198128156322,"connected_time":474000000000,"state":"active","ping":54},{"user_id":36,"name":"Pootis Pie¬Æ","steam_id":76561199058049384,"connected_time":2140000000000,"state":"active","ping":76},{"user_id":37,"name":"Steve Greentop","steam_id":76561198119426892,"connected_time":2086000000000,"state":"active","ping":58},{"user_id":77,"name":"SrVibinn","steam_id":76561198308482400,"connected_time":60000000000,"state":"active","ping":94},{"user_id":61,"name":"Fuzzy Toast","steam_id":76561198028067781,"connected_time":1213000000000,"state":"active","ping":59},{"user_id":74,"name":"Feramansa","steam_id":76561198321286847,"connected_time":346000000000,"state":"active","ping":163},{"user_id":75,"name":"Rix FPV","steam_id":76561198299320893,"connected_time":341000000000,"state":"active","ping":83},{"user_id":46,"name":"Nooblord","steam_id":76561199105123730,"connected_time":1943000000000,"state":"active","ping":140},{"user_id":58,"name":"Cream Corn","steam_id":76561198043791586,"connected_time":1341000000000,"state":"active","ping":58},{"user_id":76,"name":"Bin","steam_id":76561198042557767,"connected_time":338000000000,"state":"active","ping":49}]},{"server_id":301,"name":"Uncletopia | Montr√©al | 2 | All Maps","name_short":"mtl-2","host":"mtl-1.ca.uncletopia.com","port":27025,"enabled":true,"region":"us-east","cc":"ca","latitude":45.50889,"longitude":-73.56167,"reserved":0,"last_update":"0001-01-01T00:00:00Z","name_a2s":"Uncletopia | Montr√©al | 2 | All Maps","protocol":17,"map":"cp_snakewater_final1","folder":"tf","game":"Team Fortress","app_id":440,"player_count":0,"max_players":24,"Bots":0,"server_type":"Dedicated","server_os":"Linux","password":true,"vac":true,"version":"7882260","steam_id":85568392924500088,"keywords":["cp","nocrits","nodmgspread","uncletopia"],"game_id":440,"stv_port":27026,"stv_name":"Uncletopia | Montr√©al | 2 | All Maps | STV","players":null},{"server_id":302,"name":"Uncletopia | Montr√©al | 3 | All Maps","name_short":"mtl-3","host":"mtl-1.ca.uncletopia.com","port":27035,"enabled":true,"region":"us-east","cc":"ca","latitude":45.50889,"longitude":-73.56167,"reserved":0,"last_update":"0001-01-01T00:00:00Z","name_a2s":"Uncletopia | Montr√©al | 3 | All Maps","protocol":17,"map":"koth_highpass","folder":"tf","game":"Team Fortress","app_id":440,"player_count":0,"max_players":24,"Bots":0,"server_type":"Dedicated","server_os":"Linux","password":true,"vac":true,"version":"7882260","steam_id":85568392924500089,"keywords":["cp","nocrits","nodmgspread","uncletopia"],"game_id":440,"stv_port":27036,"stv_name":"Uncletopia | Montr√©al | 3 | All Maps | STV","players":null},{"server_id":303,"name":"Uncletopia | Montr√©al | 4 | No Payload","name_short":"mtl-4","host":"mtl-1.ca.uncletopia.com","port":27045,"enabled":true,"region":"us-east","cc":"ca","latitude":45.50889,"longitude":-73.56167,"reserved":0,"last_update":"0001-01-01T00:00:00Z","name_a2s":"Uncletopia | Montr√©al | 4 | No Payload","protocol":17,"map":"koth_highpass","folder":"tf","game":"Team Fortress","app_id":440,"player_count":0,"max_players":24,"Bots":0,"server_type":"Dedicated","server_os":"Linux","password":true,"vac":true,"version":"7882260","steam_id":85568392924500090,"keywords":["cp","nocrits","nodmgspread","uncletopia"],"game_id":440,"stv_port":27046,"stv_name":"Uncletopia | Montr√©al | 4 | No Payload | STV","players":null},{"server_id":13,"name":"Uncletopia | New York City | 1 | All Maps","name_short":"nyc-1","host":"nyc-1.us.uncletopia.com","port":27015,"enabled":true,"region":"us-east","cc":"us","latitude":40.73061,"longitude":-73.93524,"reserved":0,"last_update":"0001-01-01T00:00:00Z","name_a2s":"Uncletopia | New York City | 1 | All Maps","protocol":17,"map":"cp_powerhouse","folder":"tf","game":"Team Fortress","app_id":440,"player_count":24,"max_players":24,"Bots":0,"server_type":"Dedicated","server_os":"Linux","password":true,"vac":true,"version":"7882260","steam_id":85568392924469993,"keywords":["cp","nocrits","nodmgspread","uncletopia"],"game_id":440,"stv_port":27016,"stv_name":"Uncletopia | New York City | 1 | All Maps | STV","players":[{"user_id":175,"name":"White Boy Freestyle #337","steam_id":76561198880396651,"connected_time":2924000000000,"state":"active","ping":87},{"user_id":188,"name":"toastman","steam_id":76561198207073088,"connected_time":1500000000000,"state":"active","ping":71},{"user_id":133,"name":"Yummy Kabobz","steam_id":76561198067661705,"connected_time":5727000000000,"state":"active","ping":51},{"user_id":208,"name":"INFINITE","steam_id":76561197971285557,"connected_time":136000000000,"state":"active","ping":58},{"user_id":207,"name":"Braamklauw","steam_id":76561198283287697,"connected_time":184000000000,"state":"active","ping":146},{"user_id":198,"name":"Hertz","steam_id":76561198310927351,"connected_time":1088000000000,"state":"active","ping":144},{"user_id":203,"name":"trobin120","steam_id":76561199122420273,"connected_time":622000000000,"state":"active","ping":49},{"user_id":189,"name":"James","steam_id":76561198081313916,"connected_time":1497000000000,"state":"active","ping":66},{"user_id":206,"name":"AreYouMyMummy?","steam_id":76561197995101745,"connected_time":318000000000,"state":"active","ping":69},{"user_id":192,"name":"Makina","steam_id":76561198057475567,"connected_time":1481000000000,"state":"active","ping":93},{"user_id":176,"name":"twix","steam_id":76561198040912048,"connected_time":2856000000000,"state":"active","ping":60},{"user_id":201,"name":"Bonk Boy Games","steam_id":76561198867985577,"connected_time":872000000000,"state":"active","ping":71},{"user_id":193,"name":"l4d2 marshall","steam_id":76561198042570322,"connected_time":1466000000000,"state":"active","ping":77},{"user_id":200,"name":"nhbiker","steam_id":76561198081277675,"connected_time":963000000000,"state":"active","ping":56},{"user_id":134,"name":"JD","steam_id":76561198202669250,"connected_time":5689000000000,"state":"active","ping":69},{"user_id":196,"name":"space mann","steam_id":76561198174447043,"connected_time":1224000000000,"state":"active","ping":40},{"user_id":205,"name":"Draco6257","steam_id":76561199147322448,"connected_time":475000000000,"state":"active","ping":30},{"user_id":177,"name":"ManLivingWithEDIn2003","steam_id":76561198313181232,"connected_time":2520000000000,"state":"active","ping":89},{"user_id":178,"name":"Naffty","steam_id":76561198119734981,"connected_time":2428000000000,"state":"active","ping":104},{"user_id":152,"name":"Periculosum PhD in Funny","steam_id":76561198123370914,"connected_time":4176000000000,"state":"active","ping":95},{"user_id":194,"name":"Pizza","steam_id":76561198118748364,"connected_time":1464000000000,"state":"active","ping":73},{"user_id":195,"name":"loaxy's 1# enemy","steam_id":76561199016057782,"connected_time":1418000000000,"state":"active","ping":82},{"user_id":172,"name":"FattSucc","steam_id":76561198009500503,"connected_time":3059000000000,"state":"active","ping":95},{"user_id":202,"name":"Sigiferd","steam_id":76561198148788110,"connected_time":706000000000,"state":"active","ping":135}]},{"server_id":14,"name":"Uncletopia | New York City | 2 | All Maps","name_short":"nyc-2","host":"nyc-1.us.uncletopia.com","port":27025,"enabled":true,"region":"us-east","cc":"us","latitude":40.73061,"longitude":-73.93524,"reserved":0,"last_update":"0001-01-01T00:00:00Z","name_a2s":"Uncletopia | New York City | 2 | All Maps","protocol":17,"map":"pl_goldrush","folder":"tf","game":"Team Fortress","app_id":440,"player_count":24,"max_players":24,"Bots":0,"server_type":"Dedicated","server_os":"Linux","password":true,"vac":true,"version":"7882260","steam_id":85568392924469994,"keywords":["nocrits","nodmgspread","payload","uncletopia"],"game_id":440,"stv_port":27026,"stv_name":"Uncletopia | New York City | 2 | All Maps | STV","players":[{"user_id":153,"name":"Butters495","steam_id":76561197998689042,"connected_time":2208000000000,"state":"active","ping":76},{"user_id":140,"name":"Terry Aki","steam_id":76561199212875471,"connected_time":3422000000000,"state":"active","ping":83},{"user_id":159,"name":"Squiliam","steam_id":76561198025278006,"connected_time":2074000000000,"state":"active","ping":74},{"user_id":94,"name":"all_classics","steam_id":76561198012738913,"connected_time":7184000000000,"state":"active","ping":67},{"user_id":158,"name":"evnobev","steam_id":76561198038966462,"connected_time":2108000000000,"state":"active","ping":39},{"user_id":131,"name":"bitch im coolin","steam_id":76561198203732449,"connected_time":3821000000000,"state":"active","ping":67},{"user_id":172,"name":"AudioMedic","steam_id":76561198333939032,"connected_time":727000000000,"state":"active","ping":39},{"user_id":165,"name":"Wang of Wall St","steam_id":76561198047460598,"connected_time":1215000000000,"state":"active","ping":60},{"user_id":177,"name":"BigNugs","steam_id":76561198056402610,"connected_time":6000000000,"state":"spawning","ping":75},{"user_id":160,"name":"jack","steam_id":76561198314104415,"connected_time":2050000000000,"state":"active","ping":74},{"user_id":122,"name":"Goomby","steam_id":76561198079416561,"connected_time":4777000000000,"state":"active","ping":75},{"user_id":134,"name":"Sim","steam_id":76561198119227922,"connected_time":3721000000000,"state":"active","ping":70},{"user_id":156,"name":"xXMLGDOODXx","steam_id":76561198080758365,"connected_time":2156000000000,"state":"active","ping":45},{"user_id":145,"name":"OneMisguidedSlyGuy","steam_id":76561198372243261,"connected_time":2758000000000,"state":"active","ping":106},{"user_id":148,"name":"uberslak","steam_id":76561198064715241,"connected_time":2436000000000,"state":"active","ping":109},{"user_id":174,"name":"glue sniffer","steam_id":76561198044689778,"connected_time":708000000000,"state":"active","ping":45},{"user_id":150,"name":"Dr.Holiday","steam_id":76561198353465692,"connected_time":2399000000000,"state":"active","ping":60},{"user_id":176,"name":"GravyPouch","steam_id":76561198067539038,"connected_time":370000000000,"state":"active","ping":70},{"user_id":175,"name":"Temujin","steam_id":76561198030936583,"connected_time":536000000000,"state":"active","ping":38},{"user_id":146,"name":"King Sans","steam_id":76561198294198517,"connected_time":2744000000000,"state":"active","ping":38},{"user_id":152,"name":"dieling","steam_id":76561198831902966,"connected_time":2252000000000,"state":"active","ping":64},{"user_id":164,"name":"tasty","steam_id":76561198083839061,"connected_time":1474000000000,"state":"active","ping":60},{"user_id":171,"name":"Chris P. Bacon","steam_id":76561198000851038,"connected_time":740000000000,"state":"active","ping":56},{"user_id":173,"name":"Cosmic sR","steam_id":76561198081738675,"connected_time":720000000000,"state":"active","ping":79}]},{"server_id":15,"name":"Uncletopia | New York City | 3 | Stopwatch Beta","name_short":"nyc-3","host":"nyc-1.us.uncletopia.com","port":27035,"enabled":true,"region":"us-east","cc":"us","latitude":40.73061,"longitude":-73.93524,"reserved":0,"last_update":"0001-01-01T00:00:00Z","name_a2s":"Uncletopia | New York City | 3 | Stopwatch Beta","protocol":17,"map":"pl_borneo","folder":"tf","game":"Team Fortress","app_id":440,"player_count":0,"max_players":24,"Bots":0,"server_type":"Dedicated","server_os":"Linux","password":true,"vac":true,"version":"7882260","steam_id":85568392924742820,"keywords":["nocrits","nodmgspread","payload","uncletopia"],"game_id":440,"stv_port":27036,"stv_name":"Uncletopia | New York City | 3 | Stopwatch Beta | STV","players":null},{"server_id":16,"name":"Uncletopia | New York City | 4 | Community","name_short":"nyc-4","host":"nyc-1.us.uncletopia.com","port":27045,"enabled":true,"region":"us-east","cc":"us","latitude":40.73061,"longitude":-73.93524,"reserved":0,"last_update":"0001-01-01T00:00:00Z","name_a2s":"Uncletopia | New York City | 4 | Community","protocol":17,"map":"workshop/koth_ashville_final.ugc2130459942","folder":"tf","game":"Team Fortress","app_id":440,"player_count":0,"max_players":24,"Bots":0,"server_type":"Dedicated","server_os":"Linux","password":true,"vac":true,"version":"7882260","steam_id":85568392924742821,"keywords":["cp","nocrits","nodmgspread","uncletopia"],"game_id":440,"stv_port":27046,"stv_name":"Uncletopia | New York City | 4 | Community | STV","players":null},{"server_id":142,"name":"Uncletopia | S√£o Paulo | 1 | All Maps","name_short":"sao-1","host":"sao-1.br.uncletopia.com","port":27015,"enabled":true,"region":"sa","cc":"br","latitude":-23.533773,"longitude":-46.62529,"reserved":0,"last_update":"0001-01-01T00:00:00Z","name_a2s":"Uncletopia | S√£o Paulo | 1 | All Maps","protocol":17,"map":"koth_cascade","folder":"tf","game":"Team Fortress","app_id":440,"player_count":0,"max_players":24,"Bots":0,"server_type":"Dedicated","server_os":"Linux","password":true,"vac":true,"version":"7882260","steam_id":85568392924469996,"keywords":["cp","nocrits","nodmgspread","uncletopia"],"game_id":440,"stv_port":27016,"stv_name":"Uncletopia | S√£o Paulo | 1 | All Maps | STV","players":null},{"server_id":143,"name":"Uncletopia | S√£o Paulo | 2 | All Maps","name_short":"sao-2","host":"sao-2.br.uncletopia.com","port":27015,"enabled":true,"region":"sa","cc":"br","latitude":-23.533773,"longitude":-46.62529,"reserved":0,"last_update":"0001-01-01T00:00:00Z","name_a2s":"Uncletopia | S√£o Paulo | 2 | All Maps","protocol":17,"map":"cp_altitude","folder":"tf","game":"Team Fortress","app_id":440,"player_count":21,"max_players":24,"Bots":0,"server_type":"Dedicated","server_os":"Linux","password":true,"vac":true,"version":"7882260","steam_id":85568392924485349,"keywords":["cp","nocrits","nodmgspread","uncletopia"],"game_id":440,"stv_port":27016,"stv_name":"Uncletopia | S√£o Paulo | 2 | All Maps | STV","players":[{"user_id":321,"name":"starm0nster","steam_id":76561199016975635,"connected_time":6698000000000,"state":"active","ping":44},{"user_id":407,"name":"Eggie","steam_id":76561199018655610,"connected_time":265000000000,"state":"active","ping":196},{"user_id":402,"name":"Cherry","steam_id":76561198970286784,"connected_time":640000000000,"state":"active","ping":34},{"user_id":384,"name":"jr_","steam_id":76561198313937899,"connected_time":2082000000000,"state":"active","ping":216},{"user_id":250,"name":"Tio KillerParty","steam_id":76561198067918814,"connected_time":12094000000000,"state":"active","ping":59},{"user_id":399,"name":"iko","steam_id":76561198965538287,"connected_time":719000000000,"state":"active","ping":47},{"user_id":393,"name":"SwearsGamers","steam_id":76561198985449294,"connected_time":1090000000000,"state":"active","ping":43},{"user_id":329,"name":"VIGBID","steam_id":76561198312467713,"connected_time":6295000000000,"state":"active","ping":46},{"user_id":333,"name":"Luxuria","steam_id":76561198832195686,"connected_time":6090000000000,"state":"active","ping":62},{"user_id":380,"name":"‚úìRodrigo_hamb√∫rguers‚úì","steam_id":76561199063941794,"connected_time":2499000000000,"state":"active","ping":33},{"user_id":396,"name":"Blue9Fairy","steam_id":76561198039942928,"connected_time":901000000000,"state":"active","ping":49},{"user_id":360,"name":"matheus_lanches","steam_id":76561199359501901,"connected_time":4417000000000,"state":"active","ping":43},{"user_id":388,"name":"hadinode","steam_id":76561198191475573,"connected_time":1717000000000,"state":"active","ping":60},{"user_id":405,"name":"teg","steam_id":76561198076003158,"connected_time":355000000000,"state":"active","ping":55},{"user_id":398,"name":"Tails","steam_id":76561198063743202,"connected_time":823000000000,"state":"active","ping":75},{"user_id":408,"name":"piwiie","steam_id":76561198056926688,"connected_time":195000000000,"state":"active","ping":47},{"user_id":410,"name":"Caiox2311","steam_id":76561198275086040,"connected_time":93000000000,"state":"active","ping":55},{"user_id":401,"name":"URSS","steam_id":76561198950413602,"connected_time":652000000000,"state":"active","ping":45},{"user_id":411,"name":"Stoopid","steam_id":76561198126485401,"connected_time":56000000000,"state":"active","ping":56},{"user_id":412,"name":"jema","steam_id":76561198276513608,"connected_time":52000000000,"state":"active","ping":42},{"user_id":413,"name":"shuroup","steam_id":76561198193745745,"connected_time":48000000000,"state":"active","ping":57}]},{"server_id":7,"name":"Uncletopia | Seattle | 1 | All Maps","name_short":"sea-1","host":"sea-1.us.uncletopia.com","port":27015,"enabled":true,"region":"us-west","cc":"us","latitude":47.608013,"longitude":-122.33517,"reserved":0,"last_update":"0001-01-01T00:00:00Z","name_a2s":"Uncletopia | Seattle | 1 | All Maps","protocol":17,"map":"pl_badwater","folder":"tf","game":"Team Fortress","app_id":440,"player_count":24,"max_players":24,"Bots":0,"server_type":"Dedicated","server_os":"Linux","password":true,"vac":true,"version":"7882260","steam_id":85568392924469997,"keywords":["nocrits","nodmgspread","payload","uncletopia"],"game_id":440,"stv_port":27016,"stv_name":"Uncletopia | Seattle | 1 | All Maps | STV","players":[{"user_id":259,"name":"lasky","steam_id":76561198017030029,"connected_time":3752000000000,"state":"active","ping":76},{"user_id":345,"name":"26O3 Ê•µÂÖâÈù¢Á¥ó","steam_id":76561198964074985,"connected_time":1986000000000,"state":"active","ping":65},{"user_id":474,"name":"Syrix","steam_id":76561198017328672,"connected_time":175000000000,"state":"active","ping":97},{"user_id":285,"name":"Kc","steam_id":76561198210734407,"connected_time":3138000000000,"state":"active","ping":120},{"user_id":471,"name":"Captain anus fiddle","steam_id":76561198100777371,"connected_time":225000000000,"state":"active","ping":120},{"user_id":473,"name":"roryd","steam_id":76561198871309236,"connected_time":211000000000,"state":"active","ping":124},{"user_id":475,"name":"The Super Mario Bros. Movie","steam_id":76561198871692156,"connected_time":166000000000,"state":"active","ping":52},{"user_id":107,"name":"ZEKKER","steam_id":76561197967968980,"connected_time":13484000000000,"state":"active","ping":52},{"user_id":476,"name":"Mediarch","steam_id":76561198050765729,"connected_time":158000000000,"state":"active","ping":49},{"user_id":297,"name":"Alltrex","steam_id":76561198202254225,"connected_time":2924000000000,"state":"active","ping":46},{"user_id":310,"name":"BlazedBunny","steam_id":76561198243610560,"connected_time":2559000000000,"state":"active","ping":82},{"user_id":419,"name":"jayeskae","steam_id":76561198144220801,"connected_time":982000000000,"state":"active","ping":47},{"user_id":309,"name":"Lukey Pookey | Ham Mafia |","steam_id":76561199095883827,"connected_time":2566000000000,"state":"active","ping":88},{"user_id":477,"name":"Peppy","steam_id":76561198866629645,"connected_time":146000000000,"state":"active","ping":59},{"user_id":421,"name":"hope","steam_id":76561198047813960,"connected_time":968000000000,"state":"active","ping":45},{"user_id":482,"name":"HeavyB1rd","steam_id":76561198966550815,"connected_time":33000000000,"state":"active","ping":97},{"user_id":478,"name":"CrazyKermitRubes","steam_id":76561198009065204,"connected_time":145000000000,"state":"active","ping":132},{"user_id":340,"name":"Pugzilla","steam_id":76561198108088960,"connected_time":2046000000000,"state":"active","ping":110},{"user_id":481,"name":"Fh","steam_id":76561198000903511,"connected_time":117000000000,"state":"active","ping":60},{"user_id":480,"name":"Meowcenary","steam_id":76561197998566857,"connected_time":122000000000,"state":"active","ping":76},{"user_id":316,"name":"Brain Issue","steam_id":76561198068324695,"connected_time":2415000000000,"state":"active","ping":62},{"user_id":366,"name":"Themasterman75","steam_id":76561199385573293,"connected_time":1704000000000,"state":"active","ping":76},{"user_id":430,"name":"Heinz-Harald Frentzen","steam_id":76561199002203593,"connected_time":819000000000,"state":"active","ping":102},{"user_id":167,"name":"forest (italian)","steam_id":76561198157960257,"connected_time":8274000000000,"state":"active","ping":40}]},{"server_id":119,"name":"Uncletopia | Seattle | 2 | All Maps","name_short":"sea-2","host":"sea-1.us.uncletopia.com","port":27025,"enabled":true,"region":"us-west","cc":"us","latitude":47.608013,"longitude":-122.33517,"reserved":0,"last_update":"0001-01-01T00:00:00Z","name_a2s":"Uncletopia | Seattle | 2 | All Maps","protocol":17,"map":"pl_enclosure_final","folder":"tf","game":"Team Fortress","app_id":440,"player_count":18,"max_players":24,"Bots":0,"server_type":"Dedicated","server_os":"Linux","password":true,"vac":true,"version":"7882260","steam_id":85568392924469998,"keywords":["nocrits","nodmgspread","payload","uncletopia"],"game_id":440,"stv_port":27026,"stv_name":"Uncletopia | Seattle | 2 | All Maps | STV","players":[{"user_id":31,"name":"spiderland","steam_id":76561198335992132,"connected_time":1696000000000,"state":"active","ping":53},{"user_id":62,"name":"Alabit","steam_id":76561198065578560,"connected_time":44000000000,"state":"active","ping":75},{"user_id":59,"name":"EngarDew","steam_id":76561198052648471,"connected_time":98000000000,"state":"active","ping":83},{"user_id":37,"name":"mrthugpug1732","steam_id":76561198881200768,"connected_time":1422000000000,"state":"active","ping":86},{"user_id":38,"name":"Petrivus","steam_id":76561198202152453,"connected_time":1415000000000,"state":"active","ping":50},{"user_id":53,"name":"Trainman222","steam_id":76561198079498265,"connected_time":429000000000,"state":"active","ping":117},{"user_id":42,"name":"SecurityCamera","steam_id":76561198117266792,"connected_time":1179000000000,"state":"active","ping":84},{"user_id":50,"name":"big fish","steam_id":76561198186479818,"connected_time":561000000000,"state":"active","ping":86},{"user_id":51,"name":"HudsyTheNormal","steam_id":76561198970643003,"connected_time":504000000000,"state":"active","ping":109},{"user_id":46,"name":"YahYeeterson","steam_id":76561198120480906,"connected_time":1029000000000,"state":"active","ping":61},{"user_id":55,"name":"Skippy Dinglechalk","steam_id":76561198426726484,"connected_time":361000000000,"state":"active","ping":100},{"user_id":54,"name":"GoGoX1","steam_id":76561198169591383,"connected_time":374000000000,"state":"active","ping":89},{"user_id":56,"name":"Perry the Platypus #savetf2","steam_id":76561198273045773,"connected_time":274000000000,"state":"active","ping":70},{"user_id":57,"name":"Chmiken","steam_id":76561199041966499,"connected_time":181000000000,"state":"active","ping":52},{"user_id":63,"name":"Sudsen","steam_id":76561198370603787,"connected_time":36000000000,"state":"active","ping":66},{"user_id":64,"name":"Coolbreadguy","steam_id":76561198139544202,"connected_time":36000000000,"state":"spawning","ping":69},{"user_id":65,"name":"moneymoneyganggang464","steam_id":76561199228490429,"connected_time":26000000000,"state":"active","ping":85},{"user_id":66,"name":"tinkerbell","steam_id":76561197978351201,"connected_time":4000000000,"state":"spawning","ping":115}]},{"server_id":406,"name":"Uncletopia | Seattle | 3 | Stopwatch Beta","name_short":"sea-3","host":"sea-1.us.uncletopia.com","port":27035,"enabled":true,"region":"us-west","cc":"us","latitude":47.608013,"longitude":-122.33517,"reserved":0,"last_update":"0001-01-01T00:00:00Z","name_a2s":"Uncletopia | Seattle | 3 | Stopwatch Beta","protocol":17,"map":"koth_viaduct","folder":"tf","game":"Team Fortress","app_id":440,"player_count":0,"max_players":24,"Bots":0,"server_type":"Dedicated","server_os":"Linux","password":true,"vac":true,"version":"7882260","steam_id":85568392924515217,"keywords":["cp","nocrits","nodmgspread","uncletopia"],"game_id":440,"stv_port":27036,"stv_name":"Uncletopia | Seattle | 3 | Stopwatch Beta | STV","players":null},{"server_id":17,"name":"Uncletopia | San Francisco | 1 | All Maps","name_short":"sfo-1","host":"sfo-1.us.uncletopia.com","port":27015,"enabled":true,"region":"us-west","cc":"us","latitude":37.77397,"longitude":-122.4313,"reserved":0,"last_update":"0001-01-01T00:00:00Z","name_a2s":"Uncletopia | San Francisco | 1 | All Maps","protocol":17,"map":"cp_sunshine","folder":"tf","game":"Team Fortress","app_id":440,"player_count":4,"max_players":24,"Bots":0,"server_type":"Dedicated","server_os":"Linux","password":true,"vac":true,"version":"7882260","steam_id":85568392924469999,"keywords":["cp","nocrits","nodmgspread","uncletopia"],"game_id":440,"stv_port":27016,"stv_name":"Uncletopia | San Francisco | 1 | All Maps | STV","players":[{"user_id":22,"name":"great1photo","steam_id":76561198085481933,"connected_time":1112000000000,"state":"active","ping":115},{"user_id":23,"name":"Karl","steam_id":76561198115714484,"connected_time":867000000000,"state":"active","ping":60},{"user_id":25,"name":"StarlightProphet","steam_id":76561199468985137,"connected_time":224000000000,"state":"active","ping":140},{"user_id":26,"name":"CrackedSanity","steam_id":76561198279841251,"connected_time":60000000000,"state":"active","ping":48}]},{"server_id":18,"name":"Uncletopia | San Francisco | 2 | All Maps","name_short":"sfo-2","host":"sfo-1.us.uncletopia.com","port":27025,"enabled":true,"region":"us-west","cc":"us","latitude":37.77397,"longitude":-122.4313,"reserved":0,"last_update":"0001-01-01T00:00:00Z","name_a2s":"Uncletopia | San Francisco | 2 | All Maps","protocol":17,"map":"koth_highpass","folder":"tf","game":"Team Fortress","app_id":440,"player_count":0,"max_players":24,"Bots":0,"server_type":"Dedicated","server_os":"Linux","password":true,"vac":true,"version":"7882260","steam_id":85568392924470000,"keywords":["cp","nocrits","nodmgspread","uncletopia"],"game_id":440,"stv_port":27026,"stv_name":"Uncletopia | San Francisco | 2 | All Maps | STV","players":null},{"server_id":19,"name":"Uncletopia | San Francisco | 3 | Stopwatch Beta","name_short":"sfo-3","host":"sfo-1.us.uncletopia.com","port":27035,"enabled":true,"region":"us-west","cc":"us","latitude":37.77397,"longitude":-122.4313,"reserved":0,"last_update":"0001-01-01T00:00:00Z","name_a2s":"Uncletopia | San Francisco | 3 | Stopwatch Beta","protocol":17,"map":"pl_snowycoast","folder":"tf","game":"Team Fortress","app_id":440,"player_count":0,"max_players":24,"Bots":0,"server_type":"Dedicated","server_os":"Linux","password":true,"vac":true,"version":"7882260","steam_id":85568392924742824,"keywords":["nocrits","nodmgspread","payload","uncletopia"],"game_id":440,"stv_port":27036,"stv_name":"Uncletopia | San Francisco | 3 | Stopwatch Beta | STV","players":null},{"server_id":20,"name":"Uncletopia | San Francisco | 4 | Community","name_short":"sfo-4","host":"sfo-1.us.uncletopia.com","port":27045,"enabled":true,"region":"us-west","cc":"us","latitude":37.77397,"longitude":-122.4313,"reserved":0,"last_update":"0001-01-01T00:00:00Z","name_a2s":"Uncletopia | San Francisco | 4 | Community","protocol":17,"map":"workshop/pl_eruption_b9a.ugc2807898013","folder":"tf","game":"Team Fortress","app_id":440,"player_count":21,"max_players":24,"Bots":0,"server_type":"Dedicated","server_os":"Linux","password":true,"vac":true,"version":"7882260","steam_id":85568392924742826,"keywords":["nocrits","nodmgspread","payload","uncletopia"],"game_id":440,"stv_port":27046,"stv_name":"Uncletopia | San Francisco | 4 | Community | STV","players":[{"user_id":211,"name":"Man Man","steam_id":76561199068338634,"connected_time":1935000000000,"state":"active","ping":82},{"user_id":228,"name":"Scud","steam_id":76561198079364693,"connected_time":1148000000000,"state":"active","ping":109},{"user_id":224,"name":"this","steam_id":76561198170195505,"connected_time":1237000000000,"state":"active","ping":35},{"user_id":161,"name":"Maid 'n' China","steam_id":76561198423392976,"connected_time":5451000000000,"state":"active","ping":63},{"user_id":235,"name":"CPTforever","steam_id":76561198237767198,"connected_time":41000000000,"state":"active","ping":45},{"user_id":230,"name":"Dynamo","steam_id":76561198057875639,"connected_time":757000000000,"state":"active","ping":60},{"user_id":163,"name":"BlindingLight","steam_id":76561198289560742,"connected_time":5354000000000,"state":"spawning","ping":283},{"user_id":182,"name":"Bea!!!!","steam_id":76561198042003086,"connected_time":3341000000000,"state":"spawning","ping":256},{"user_id":191,"name":"gold","steam_id":76561199085827238,"connected_time":2728000000000,"state":"active","ping":72},{"user_id":236,"name":"wis spy","steam_id":76561198094512992,"connected_time":7000000000,"state":"spawning","ping":89},{"user_id":197,"name":"Tom Cr√∫aich","steam_id":76561197999439911,"connected_time":2247000000000,"state":"active","ping":80},{"user_id":231,"name":"ark","steam_id":76561198041066271,"connected_time":442000000000,"state":"active","ping":75},{"user_id":232,"name":"SanitysEdge","steam_id":76561198130732813,"connected_time":355000000000,"state":"spawning","ping":112},{"user_id":138,"name":"Macro","steam_id":76561199442846226,"connected_time":6959000000000,"state":"active","ping":106},{"user_id":156,"name":"green bean","steam_id":76561198113099204,"connected_time":5583000000000,"state":"active","ping":37},{"user_id":204,"name":"Huh?","steam_id":76561198054866271,"connected_time":2085000000000,"state":"active","ping":45},{"user_id":225,"name":"machineclone","steam_id":76561198076320219,"connected_time":1193000000000,"state":"spawning","ping":163},{"user_id":124,"name":"miguelrodriguez2013","steam_id":76561198269253587,"connected_time":7960000000000,"state":"active","ping":44},{"user_id":218,"name":"Boysenberry Syrup","steam_id":76561198243582986,"connected_time":1854000000000,"state":"active","ping":75},{"user_id":226,"name":"Mico (Mico)","steam_id":76561198125462953,"connected_time":1190000000000,"state":"spawning","ping":151},{"user_id":234,"name":"TF2C | fac -AA-","steam_id":76561198009818412,"connected_time":52000000000,"state":"active","ping":85}]},{"server_id":141,"name":"Uncletopia | Sydney | 1 | All Maps","name_short":"syd-1","host":"syd-1.au.uncletopia.com","port":27015,"enabled":true,"region":"au","cc":"au","latitude":-33.865143,"longitude":151.2099,"reserved":0,"last_update":"0001-01-01T00:00:00Z","name_a2s":"Uncletopia | Sydney | 1 | All Maps","protocol":17,"map":"cp_altitude","folder":"tf","game":"Team Fortress","app_id":440,"player_count":0,"max_players":24,"Bots":0,"server_type":"Dedicated","server_os":"Linux","password":true,"vac":true,"version":"7882260","steam_id":85568392924470001,"keywords":["cp","nocrits","nodmgspread","uncletopia"],"game_id":440,"stv_port":27016,"stv_name":"Uncletopia | Sydney | 1 | All Maps | STV","players":null},{"server_id":123,"name":"Uncletopia | Sydney | 2 | All Maps","name_short":"syd-2","host":"syd-1.au.uncletopia.com","port":27025,"enabled":true,"region":"au","cc":"au","latitude":-33.865143,"longitude":151.2099,"reserved":0,"last_update":"0001-01-01T00:00:00Z","name_a2s":"Uncletopia | Sydney | 2 | All Maps","protocol":17,"map":"cp_snakewater_final1","folder":"tf","game":"Team Fortress","app_id":440,"player_count":0,"max_players":24,"Bots":0,"server_type":"Dedicated","server_os":"Linux","password":true,"vac":true,"version":"7882260","steam_id":85568392924470002,"keywords":["cp","nocrits","nodmgspread","uncletopia"],"game_id":440,"stv_port":27026,"stv_name":"Uncletopia | Sydney | 2 | All Maps | STV","players":null},{"server_id":395,"name":"Uncletopia | Sydney | 3 | All Maps","name_short":"syd-3","host":"syd-1.au.uncletopia.com","port":27035,"enabled":true,"region":"au","cc":"au","latitude":-33.865143,"longitude":151.2099,"reserved":0,"last_update":"0001-01-01T00:00:00Z","name_a2s":"Uncletopia | Sydney | 3 | All Maps","protocol":17,"map":"pl_badwater","folder":"tf","game":"Team Fortress","app_id":440,"player_count":0,"max_players":24,"Bots":0,"server_type":"Dedicated","server_os":"Linux","password":true,"vac":true,"version":"7882260","steam_id":85568392925194467,"keywords":["nocrits","nodmgspread","payload","uncletopia"],"game_id":440,"stv_port":27036,"stv_name":"Uncletopia | Sydney | 3 | All Maps | STV","players":null},{"server_id":396,"name":"Uncletopia | Sydney | 4 | All Maps","name_short":"syd-4","host":"syd-1.au.uncletopia.com","port":27045,"enabled":true,"region":"au","cc":"au","latitude":-33.865143,"longitude":151.2099,"reserved":0,"last_update":"0001-01-01T00:00:00Z","name_a2s":"Uncletopia | Sydney | 4 | All Maps","protocol":17,"map":"cp_altitude","folder":"tf","game":"Team Fortress","app_id":440,"player_count":0,"max_players":24,"Bots":0,"server_type":"Dedicated","server_os":"Linux","password":true,"vac":true,"version":"7882260","steam_id":85568392925397958,"keywords":["cp","nocrits","nodmgspread","uncletopia"],"game_id":440,"stv_port":27046,"stv_name":"Uncletopia | Sydney | 4 | All Maps | STV","players":null},{"server_id":58,"name":"Uncletopia | Sydney | 5 | Stopwatch Beta","name_short":"syd-5","host":"syd-1.au.uncletopia.com","port":27055,"enabled":true,"region":"au","cc":"au","latitude":-33.865143,"longitude":151.2099,"reserved":0,"last_update":"0001-01-01T00:00:00Z","name_a2s":"Uncletopia | Sydney | 5 | Stopwatch Beta","protocol":17,"map":"koth_viaduct","folder":"tf","game":"Team Fortress","app_id":440,"player_count":0,"max_players":24,"Bots":0,"server_type":"Dedicated","server_os":"Linux","password":true,"vac":true,"version":"7882260","steam_id":85568392925397959,"keywords":["cp","nocrits","nodmgspread","uncletopia"],"game_id":440,"stv_port":27056,"stv_name":"Uncletopia | Sydney | 5 | Stopwatch Beta | STV","players":null},{"server_id":59,"name":"Uncletopia | Sydney | 6 | Community","name_short":"syd-6","host":"syd-1.au.uncletopia.com","port":27065,"enabled":true,"region":"au","cc":"au","latitude":-33.865143,"longitude":151.2099,"reserved":0,"last_update":"0001-01-01T00:00:00Z","name_a2s":"Uncletopia | Sydney | 6 | Community","protocol":17,"map":"workshop/pl_divulgence_b4b.ugc2884808746","folder":"tf","game":"Team Fortress","app_id":440,"player_count":0,"max_players":24,"Bots":0,"server_type":"Dedicated","server_os":"Linux","password":true,"vac":true,"version":"7882260","steam_id":85568392925397960,"keywords":["nocrits","nodmgspread","payload","uncletopia"],"game_id":440,"stv_port":27066,"stv_name":"Uncletopia | Sydney | 6 | Community | STV","players":null},{"server_id":49,"name":"Uncletopia | Warsaw | 1 | All Maps","name_short":"waw-1","host":"waw-1.pl.uncletopia.com","port":27015,"enabled":true,"region":"eu","cc":"pl","latitude":52.2297,"longitude":21.017532,"reserved":0,"last_update":"0001-01-01T00:00:00Z","name_a2s":"","protocol":0,"map":"","folder":"","game":"","app_id":0,"player_count":0,"max_players":0,"Bots":0,"server_type":"","server_os":"","password":false,"vac":false,"version":"","steam_id":0,"keywords":null,"game_id":0,"stv_port":0,"stv_name":"","players":null},{"server_id":50,"name":"Uncletopia | Warsaw | 2 | All Maps","name_short":"waw-2","host":"waw-1.pl.uncletopia.com","port":27025,"enabled":true,"region":"eu","cc":"pl","latitude":52.2297,"longitude":21.017532,"reserved":0,"last_update":"0001-01-01T00:00:00Z","name_a2s":"Uncletopia | Warsaw | 2 | All Maps","protocol":17,"map":"koth_viaduct","folder":"tf","game":"Team Fortress","app_id":440,"player_count":0,"max_players":24,"Bots":0,"server_type":"Dedicated","server_os":"Linux","password":true,"vac":true,"version":"7882260","steam_id":85568392925397851,"keywords":["cp","nocrits","nodmgspread","uncletopia"],"game_id":440,"stv_port":27026,"stv_name":"Uncletopia | Warsaw | 2 | All Maps | STV","players":null},{"server_id":51,"name":"Uncletopia | Warsaw | 3 | All Maps","name_short":"waw-3","host":"waw-1.pl.uncletopia.com","port":27035,"enabled":true,"region":"eu","cc":"pl","latitude":52.2297,"longitude":21.017532,"reserved":0,"last_update":"0001-01-01T00:00:00Z","name_a2s":"Uncletopia | Warsaw | 3 | All Maps","protocol":17,"map":"pl_upward","folder":"tf","game":"Team Fortress","app_id":440,"player_count":0,"max_players":24,"Bots":0,"server_type":"Dedicated","server_os":"Linux","password":true,"vac":true,"version":"7882260","steam_id":85568392925397852,"keywords":["nocrits","nodmgspread","payload","uncletopia"],"game_id":440,"stv_port":27036,"stv_name":"Uncletopia | Warsaw | 3 | All Maps | STV","players":null},{"server_id":52,"name":"Uncletopia | Warsaw | 4 | All Maps","name_short":"waw-4","host":"waw-1.pl.uncletopia.com","port":27045,"enabled":true,"region":"eu","cc":"pl","latitude":52.2297,"longitude":21.017532,"reserved":0,"last_update":"0001-01-01T00:00:00Z","name_a2s":"Uncletopia | Warsaw | 4 | All Maps","protocol":17,"map":"koth_cascade","folder":"tf","game":"Team Fortress","app_id":440,"player_count":0,"max_players":24,"Bots":0,"server_type":"Dedicated","server_os":"Linux","password":true,"vac":true,"version":"7882260","steam_id":85568392925397853,"keywords":["cp","nocrits","nodmgspread","uncletopia"],"game_id":440,"stv_port":27046,"stv_name":"Uncletopia | Warsaw | 4 | All Maps | STV","players":null},{"server_id":53,"name":"Uncletopia | Warsaw | 5 | Stopwatch Beta","name_short":"waw-5","host":"waw-1.pl.uncletopia.com","port":27055,"enabled":true,"region":"eu","cc":"pl","latitude":52.2297,"longitude":21.017532,"reserved":0,"last_update":"0001-01-01T00:00:00Z","name_a2s":"Uncletopia | Warsaw | 5 | Stopwatch Beta","protocol":17,"map":"workshop/koth_ramjam_rc1.ugc459778887","folder":"tf","game":"Team Fortress","app_id":440,"player_count":0,"max_players":24,"Bots":0,"server_type":"Dedicated","server_os":"Linux","password":true,"vac":true,"version":"7882260","steam_id":85568392925397854,"keywords":["cp","nocrits","nodmgspread","uncletopia"],"game_id":440,"stv_port":27056,"stv_name":"Uncletopia | Warsaw | 5 | Stopwatch Beta | STV","players":null},{"server_id":54,"name":"Uncletopia | Warsaw | 6 | Community","name_short":"waw-6","host":"waw-1.pl.uncletopia.com","port":27065,"enabled":true,"region":"eu","cc":"pl","latitude":52.2297,"longitude":21.017532,"reserved":0,"last_update":"0001-01-01T00:00:00Z","name_a2s":"Uncletopia | Warsaw | 6 | Community","protocol":17,"map":"workshop/cp_reckoner_rc6.ugc674719999","folder":"tf","game":"Team Fortress","app_id":440,"player_count":0,"max_players":24,"Bots":0,"server_type":"Dedicated","server_os":"Linux","password":true,"vac":true,"version":"7882260","steam_id":85568392925397856,"keywords":["cp","nocrits","nodmgspread","uncletopia"],"game_id":440,"stv_port":27066,"stv_name":"Uncletopia | Warsaw | 6 | Community | STV","players":null}]}