{"status":true,"message":"","result":[{"server_id":9,"name":"Uncletopia | Atlanta | 1 | All Maps","name_short":"atl-1","host":"atl-1.us.uncletopia.com","port":27015,"enabled":true,"region":"us-east","cc":"us","latitude":33.753746,"longitude":-84.38633,"reserved":0,"last_update":"0001-01-01T00:00:00Z","name_a2s":"Uncletopia | Atlanta | 1 | All Maps","protocol":17,"map":"pl_frontier_final","folder":"tf","game":"Team Fortress","app_id":440,"player_count":24,"max_players":24,"Bots":0,"server_type":"Dedicated","server_os":"Linux","password":true,"vac":true,"version":"7882260","steam_id":85568392924469982,"keywords":["nocrits","nodmgspread","payload","uncletopia"],"game_id":440,"stv_port":27016,"stv_name":"Uncletopia | Atlanta | 1 | All Maps | STV","players":[{"user_id":278,"name":".jpeg","steam_id":76561198799978339,"connected_time":5109000000000,"state":"active","ping":110},{"user_id":322,"name":"Le4n!!!","steam_id":76561198045522596,"connected_time":368000000000,"state":"active","ping":67},{"user_id":316,"name":"nomad","steam_id":76561197998740399,"connected_time":1259000000000,"state":"active","ping":69},{"user_id":327,"name":"Albino Jellyfish","steam_id":76561198208561097,"connected_time":89000000000,"state":"active","ping":70},{"user_id":219,"name":"emily","steam_id":76561198148132163,"connected_time":9092000000000,"state":"active","ping":85},{"user_id":287,"name":"morphine","steam_id":76561198072124799,"connected_time":3842000000000,"state":"active","ping":95},{"user_id":325,"name":"boylover54","steam_id":76561199030726701,"connected_time":293000000000,"state":"active","ping":93},{"user_id":319,"name":"tux","steam_id":76561198167746330,"connected_time":1138000000000,"state":"active","ping":47},{"user_id":272,"name":"rose","steam_id":76561198048882285,"connected_time":5334000000000,"state":"active","ping":60},{"user_id":321,"name":"Pascal","steam_id":76561198902657591,"connected_time":470000000000,"state":"active","ping":50},{"user_id":300,"name":"lpk","steam_id":76561198025478698,"connected_time":2589000000000,"state":"active","ping":68},{"user_id":282,"name":"shaderoses","steam_id":76561198070800500,"connected_time":4998000000000,"state":"active","ping":63},{"user_id":311,"name":"joe","steam_id":76561198045781320,"connected_time":1785000000000,"state":"active","ping":62},{"user_id":301,"name":"RoboWarrior0410a","steam_id":76561199106531261,"connected_time":2488000000000,"state":"active","ping":54},{"user_id":320,"name":"starvin like marvin","steam_id":76561198347286009,"connected_time":526000000000,"state":"active","ping":73},{"user_id":303,"name":"Onyx","steam_id":76561198275349640,"connected_time":2078000000000,"state":"active","ping":119},{"user_id":318,"name":"Higgle Poggers","steam_id":76561198043960257,"connected_time":1201000000000,"state":"active","ping":86},{"user_id":312,"name":"Corbe","steam_id":76561198353893927,"connected_time":1733000000000,"state":"active","ping":57},{"user_id":323,"name":"Wan Shi Tong","steam_id":76561198076441225,"connected_time":351000000000,"state":"active","ping":67},{"user_id":298,"name":"Shy","steam_id":76561198394890836,"connected_time":2767000000000,"state":"active","ping":60},{"user_id":285,"name":"Jeffenthropus","steam_id":76561198134204248,"connected_time":4043000000000,"state":"active","ping":72},{"user_id":299,"name":"Major Woody","steam_id":76561198835541533,"connected_time":2705000000000,"state":"active","ping":74},{"user_id":313,"name":"bogginwater","steam_id":76561198155547142,"connected_time":1723000000000,"state":"active","ping":68},{"user_id":326,"name":"xX_HimboSwallower_Xx","steam_id":76561198016029965,"connected_time":291000000000,"state":"active","ping":56}]},{"server_id":104,"name":"Uncletopia | Atlanta | 2 | All Maps","name_short":"atl-2","host":"atl-1.us.uncletopia.com","port":27025,"enabled":true,"region":"us-east","cc":"us","latitude":33.753746,"longitude":-84.38633,"reserved":0,"last_update":"0001-01-01T00:00:00Z","name_a2s":"Uncletopia | Atlanta | 2 | All Maps","protocol":17,"map":"koth_highpass","folder":"tf","game":"Team Fortress","app_id":440,"player_count":24,"max_players":24,"Bots":0,"server_type":"Dedicated","server_os":"Linux","password":true,"vac":true,"version":"7882260","steam_id":85568392924469983,"keywords":["cp","nocrits","nodmgspread","uncletopia"],"game_id":440,"stv_port":27026,"stv_name":"Uncletopia | Atlanta | 2 | All Maps | STV","players":[{"user_id":236,"name":"King Col","steam_id":76561198033384990,"connected_time":1013000000000,"state":"active","ping":48},{"user_id":203,"name":"Fork","steam_id":76561198005149407,"connected_time":3818000000000,"state":"active","ping":85},{"user_id":239,"name":"Sh/7 Stain","steam_id":76561198408817739,"connected_time":978000000000,"state":"active","ping":51},{"user_id":225,"name":"BugferBrains","steam_id":76561198963206238,"connected_time":1838000000000,"state":"active","ping":81},{"user_id":223,"name":"Mikael_01","steam_id":76561199080253129,"connected_time":1870000000000,"state":"active","ping":180},{"user_id":235,"name":"The destroyer of foreskin","steam_id":76561198135275966,"connected_time":1154000000000,"state":"active","ping":52},{"user_id":243,"name":"Chirox","steam_id":76561198034516923,"connected_time":754000000000,"state":"active","ping":64},{"user_id":191,"name":"Bocchi the Cock","steam_id":76561198152455316,"connected_time":5374000000000,"state":"active","ping":94},{"user_id":226,"name":"Limbo","steam_id":76561198028148931,"connected_time":1827000000000,"state":"active","ping":65},{"user_id":240,"name":"tawb","steam_id":76561198024084982,"connected_time":832000000000,"state":"active","ping":81},{"user_id":247,"name":"Keyboard Warrior","steam_id":76561198152587680,"connected_time":150000000000,"state":"active","ping":71},{"user_id":241,"name":"Shame","steam_id":76561198100490994,"connected_time":829000000000,"state":"active","ping":58},{"user_id":205,"name":"Jules","steam_id":76561198114847962,"connected_time":3758000000000,"state":"active","ping":99},{"user_id":229,"name":"Fastest Spycrab in The West","steam_id":76561198345326844,"connected_time":1667000000000,"state":"active","ping":67},{"user_id":244,"name":"blue","steam_id":76561198342449098,"connected_time":739000000000,"state":"active","ping":69},{"user_id":222,"name":"EmotreX","steam_id":76561198366518989,"connected_time":1967000000000,"state":"active","ping":81},{"user_id":245,"name":"jinkies","steam_id":76561198199950729,"connected_time":624000000000,"state":"active","ping":106},{"user_id":242,"name":"Grunt420","steam_id":76561199407313140,"connected_time":799000000000,"state":"active","ping":159},{"user_id":215,"name":"Moofins","steam_id":76561198050291949,"connected_time":2565000000000,"state":"active","ping":100},{"user_id":211,"name":"BeeseChurger","steam_id":76561198437900239,"connected_time":3612000000000,"state":"active","ping":84},{"user_id":246,"name":"tesagi","steam_id":76561198026664629,"connected_time":214000000000,"state":"active","ping":60},{"user_id":234,"name":"Ratchet55","steam_id":76561198208655521,"connected_time":1483000000000,"state":"active","ping":112},{"user_id":231,"name":"SecondCarpet","steam_id":76561199008323078,"connected_time":1643000000000,"state":"active","ping":100},{"user_id":237,"name":"Gaiduk","steam_id":76561198112323877,"connected_time":1013000000000,"state":"active","ping":98}]},{"server_id":400,"name":"Uncletopia | Atlanta | 3 | Community","name_short":"atl-3","host":"atl-1.us.uncletopia.com","port":27035,"enabled":true,"region":"us-east","cc":"us","latitude":33.753746,"longitude":-84.38633,"reserved":0,"last_update":"0001-01-01T00:00:00Z","name_a2s":"Uncletopia | Atlanta | 3 | Community","protocol":17,"map":"workshop/cp_villa_b19.ugc2113052569","folder":"tf","game":"Team Fortress","app_id":440,"player_count":0,"max_players":24,"Bots":0,"server_type":"Dedicated","server_os":"Linux","password":true,"vac":true,"version":"7882260","steam_id":85568392924515187,"keywords":["cp","nocrits","nodmgspread","uncletopia"],"game_id":440,"stv_port":27036,"stv_name":"Uncletopia | Atlanta | 3 | Community | STV","players":null},{"server_id":401,"name":"Uncletopia | Atlanta | 4 | No Payload","name_short":"atl-4","host":"atl-1.us.uncletopia.com","port":27045,"enabled":true,"region":"us-east","cc":"us","latitude":33.753746,"longitude":-84.38633,"reserved":0,"last_update":"0001-01-01T00:00:00Z","name_a2s":"","protocol":0,"map":"","folder":"","game":"","app_id":0,"player_count":0,"max_players":0,"Bots":0,"server_type":"","server_os":"","password":false,"vac":false,"version":"","steam_id":0,"keywords":null,"game_id":0,"stv_port":0,"stv_name":"","players":null},{"server_id":2,"name":"Uncletopia | Chicago | 1 | All Maps","name_short":"chi-1","host":"chi-1.us.uncletopia.com","port":27015,"enabled":true,"region":"us-central","cc":"us","latitude":41.881832,"longitude":-87.62318,"reserved":0,"last_update":"0001-01-01T00:00:00Z","name_a2s":"Uncletopia | Chicago | 1 | All Maps","protocol":17,"map":"pl_upward","folder":"tf","game":"Team Fortress","app_id":440,"player_count":24,"max_players":24,"Bots":0,"server_type":"Dedicated","server_os":"Linux","password":true,"vac":true,"version":"7882260","steam_id":85568392924469984,"keywords":["nocrits","nodmgspread","payload","uncletopia"],"game_id":440,"stv_port":27016,"stv_name":"Uncletopia | Chicago | 1 | All Maps | STV","players":[{"user_id":430,"name":"kite","steam_id":76561198346516392,"connected_time":659000000000,"state":"active","ping":70},{"user_id":393,"name":"African Despot","steam_id":76561198169966346,"connected_time":2716000000000,"state":"active","ping":83},{"user_id":396,"name":"Zoot","steam_id":76561198121944243,"connected_time":2609000000000,"state":"active","ping":80},{"user_id":412,"name":"green bean","steam_id":76561198113099204,"connected_time":1974000000000,"state":"active","ping":95},{"user_id":401,"name":"hatsune miku‚ô°","steam_id":76561199445009981,"connected_time":2556000000000,"state":"active","ping":102},{"user_id":390,"name":"richard clock","steam_id":76561198048455671,"connected_time":3461000000000,"state":"active","ping":59},{"user_id":388,"name":"Adam (Cursed Confetti Creature)","steam_id":76561198317690197,"connected_time":3912000000000,"state":"active","ping":47},{"user_id":354,"name":"Jack The Racc","steam_id":76561198044762365,"connected_time":6991000000000,"state":"active","ping":50},{"user_id":439,"name":"ven the foreskin haver","steam_id":76561198880428283,"connected_time":122000000000,"state":"active","ping":75},{"user_id":424,"name":"jayhong","steam_id":76561198046772832,"connected_time":1160000000000,"state":"active","ping":43},{"user_id":413,"name":"Famelegion","steam_id":76561198958341424,"connected_time":1580000000000,"state":"active","ping":98},{"user_id":395,"name":"blob","steam_id":76561198122375328,"connected_time":2621000000000,"state":"active","ping":60},{"user_id":434,"name":"Rafl","steam_id":76561198055222756,"connected_time":494000000000,"state":"active","ping":85},{"user_id":429,"name":"Gabinator32","steam_id":76561198872467183,"connected_time":896000000000,"state":"active","ping":47},{"user_id":431,"name":"SirJellyRolls","steam_id":76561198119277244,"connected_time":522000000000,"state":"active","ping":79},{"user_id":427,"name":"Thundermonkey (SMOKE)","steam_id":76561198017631728,"connected_time":992000000000,"state":"active","ping":64},{"user_id":435,"name":"Spygie","steam_id":76561198218573049,"connected_time":427000000000,"state":"active","ping":56},{"user_id":436,"name":"Kiserino_SAMA!","steam_id":76561198327967967,"connected_time":383000000000,"state":"active","ping":71},{"user_id":428,"name":"flamingcookies","steam_id":76561198280864779,"connected_time":963000000000,"state":"active","ping":82},{"user_id":337,"name":"blossom","steam_id":76561198042735130,"connected_time":8871000000000,"state":"active","ping":108},{"user_id":438,"name":"Cottontail","steam_id":76561198213634567,"connected_time":313000000000,"state":"active","ping":101},{"user_id":420,"name":"AYAYA!!!","steam_id":76561198992102180,"connected_time":1326000000000,"state":"active","ping":51},{"user_id":433,"name":"üíõMercyüíõ","steam_id":76561198147095572,"connected_time":513000000000,"state":"active","ping":56},{"user_id":381,"name":"Quiet Lia","steam_id":76561198151569597,"connected_time":4445000000000,"state":"active","ping":136}]},{"server_id":106,"name":"Uncletopia | Chicago | 2 | All Maps","name_short":"chi-2","host":"chi-1.us.uncletopia.com","port":27025,"enabled":true,"region":"us-central","cc":"us","latitude":41.881832,"longitude":-87.62318,"reserved":0,"last_update":"0001-01-01T00:00:00Z","name_a2s":"Uncletopia | Chicago | 2 | All Maps","protocol":17,"map":"cp_dustbowl","folder":"tf","game":"Team Fortress","app_id":440,"player_count":24,"max_players":24,"Bots":0,"server_type":"Dedicated","server_os":"Linux","password":true,"vac":true,"version":"7882260","steam_id":85568392924469985,"keywords":["cp","nocrits","nodmgspread","uncletopia"],"game_id":440,"stv_port":27026,"stv_name":"Uncletopia | Chicago | 2 | All Maps | STV","players":[{"user_id":166,"name":"Anonymous Redneck","steam_id":76561198006140954,"connected_time":480000000000,"state":"active","ping":73},{"user_id":144,"name":"Amyxts36","steam_id":76561198872232094,"connected_time":2148000000000,"state":"active","ping":69},{"user_id":143,"name":"MikeLovesRabbit","steam_id":76561197997742625,"connected_time":2161000000000,"state":"active","ping":66},{"user_id":157,"name":"SKForm","steam_id":76561198381500437,"connected_time":1437000000000,"state":"active","ping":53},{"user_id":152,"name":"Isles","steam_id":76561198036162511,"connected_time":1784000000000,"state":"active","ping":48},{"user_id":138,"name":"AlexLovesYou","steam_id":76561199163263543,"connected_time":2707000000000,"state":"active","ping":100},{"user_id":147,"name":"Jill the Owl","steam_id":76561197999210583,"connected_time":2132000000000,"state":"active","ping":71},{"user_id":85,"name":"Michaelpc1","steam_id":76561198088365519,"connected_time":5001000000000,"state":"active","ping":75},{"user_id":83,"name":"Smug ¬¨‚Äø¬¨ Smug","steam_id":76561198325526945,"connected_time":5109000000000,"state":"active","ping":72},{"user_id":127,"name":"DarthEthanBoy","steam_id":76561198441643581,"connected_time":3325000000000,"state":"active","ping":65},{"user_id":165,"name":"TransWomanGaming","steam_id":76561198809645656,"connected_time":914000000000,"state":"active","ping":79},{"user_id":103,"name":"Alfonso Molestro","steam_id":76561197998677099,"connected_time":4495000000000,"state":"active","ping":72},{"user_id":84,"name":"dankman","steam_id":76561198977064186,"connected_time":5011000000000,"state":"active","ping":49},{"user_id":156,"name":"Horizon","steam_id":76561198088957930,"connected_time":1442000000000,"state":"active","ping":61},{"user_id":168,"name":"dahperson","steam_id":76561198067207467,"connected_time":90000000000,"state":"active","ping":57},{"user_id":162,"name":"KyonHB","steam_id":76561198050311904,"connected_time":1099000000000,"state":"active","ping":72},{"user_id":153,"name":"Brown_Dream","steam_id":76561198975766145,"connected_time":1776000000000,"state":"active","ping":84},{"user_id":119,"name":"Wubbie","steam_id":76561198089361674,"connected_time":3606000000000,"state":"active","ping":74},{"user_id":61,"name":"MAXIMUM OVERDRIVE","steam_id":76561198113992547,"connected_time":6089000000000,"state":"active","ping":81},{"user_id":149,"name":"Two-Ton Heavy Thing","steam_id":76561198201724274,"connected_time":2082000000000,"state":"active","ping":91},{"user_id":164,"name":"Aedaxe","steam_id":76561198036555143,"connected_time":1012000000000,"state":"active","ping":78},{"user_id":131,"name":"Scroobles","steam_id":76561199197646696,"connected_time":3304000000000,"state":"active","ping":69},{"user_id":155,"name":"scrotal recall","steam_id":76561198135945598,"connected_time":1638000000000,"state":"active","ping":75},{"user_id":111,"name":"Caoticaos","steam_id":76561198114800227,"connected_time":4283000000000,"state":"active","ping":145}]},{"server_id":402,"name":"Uncletopia | Chicago | 3 | All Maps","name_short":"chi-3","host":"chi-1.us.uncletopia.com","port":27035,"enabled":true,"region":"us-central","cc":"us","latitude":41.881832,"longitude":-87.62318,"reserved":0,"last_update":"0001-01-01T00:00:00Z","name_a2s":"Uncletopia | Chicago | 3 | All Maps","protocol":17,"map":"pl_swiftwater_final1","folder":"tf","game":"Team Fortress","app_id":440,"player_count":24,"max_players":24,"Bots":0,"server_type":"Dedicated","server_os":"Linux","password":true,"vac":true,"version":"7882260","steam_id":85568392924515191,"keywords":["cp","nocrits","nodmgspread","uncletopia"],"game_id":440,"stv_port":27036,"stv_name":"Uncletopia | Chicago | 3 | All Maps | STV","players":[{"user_id":116,"name":"dunce","steam_id":76561198042600523,"connected_time":1936000000000,"state":"connecting","ping":65},{"user_id":107,"name":"pel","steam_id":76561198021224745,"connected_time":2858000000000,"state":"connecting","ping":75},{"user_id":136,"name":"ilady","steam_id":76561198139802458,"connected_time":682000000000,"state":"connecting","ping":79},{"user_id":131,"name":"teafalopi","steam_id":76561198406252824,"connected_time":1083000000000,"state":"connecting","ping":132},{"user_id":142,"name":"picklejuice dealer","steam_id":76561198031675881,"connected_time":30000000000,"state":"connecting","ping":53},{"user_id":122,"name":"what","steam_id":76561198098781227,"connected_time":1599000000000,"state":"connecting","ping":98},{"user_id":117,"name":"viagra addict","steam_id":76561198017705248,"connected_time":1788000000000,"state":"connecting","ping":56},{"user_id":104,"name":"Elena Manetta","steam_id":76561197998344054,"connected_time":2921000000000,"state":"connecting","ping":75},{"user_id":143,"name":"oak","steam_id":76561198092135570,"connected_time":27000000000,"state":"connecting","ping":95},{"user_id":126,"name":"creeeeeee","steam_id":76561198392539722,"connected_time":1222000000000,"state":"connecting","ping":82},{"user_id":135,"name":"Liebestr√§ume","steam_id":76561198038862034,"connected_time":802000000000,"state":"connecting","ping":108},{"user_id":108,"name":"thepokeyen","steam_id":76561198236847572,"connected_time":2808000000000,"state":"connecting","ping":68},{"user_id":133,"name":"Sonicega the Medium","steam_id":76561198044362988,"connected_time":969000000000,"state":"connecting","ping":66},{"user_id":114,"name":"Fresh0c0","steam_id":76561198271933283,"connected_time":2225000000000,"state":"connecting","ping":78},{"user_id":127,"name":"Also Known As Assteeth","steam_id":76561198049837377,"connected_time":1205000000000,"state":"connecting","ping":58},{"user_id":140,"name":"the nuisance","steam_id":76561198396326793,"connected_time":360000000000,"state":"connecting","ping":91},{"user_id":110,"name":"Nikocado Avocado","steam_id":76561198293893486,"connected_time":2730000000000,"state":"connecting","ping":111},{"user_id":134,"name":"cody","steam_id":76561198847749278,"connected_time":814000000000,"state":"connecting","ping":79},{"user_id":85,"name":"Chaos","steam_id":76561199068325065,"connected_time":3920000000000,"state":"connecting","ping":98},{"user_id":105,"name":"minty","steam_id":76561198096347625,"connected_time":2911000000000,"state":"connecting","ping":98},{"user_id":138,"name":"tsaide","steam_id":76561198384120999,"connected_time":367000000000,"state":"connecting","ping":79},{"user_id":115,"name":"don't leave her waiting","steam_id":76561198103496593,"connected_time":2199000000000,"state":"connecting","ping":80},{"user_id":128,"name":"freyja","steam_id":76561198249206656,"connected_time":1190000000000,"state":"connecting","ping":80}]},{"server_id":403,"name":"Uncletopia | Chicago | 4 | All Maps","name_short":"chi-4","host":"chi-1.us.uncletopia.com","port":27045,"enabled":true,"region":"us-central","cc":"us","latitude":41.881832,"longitude":-87.62318,"reserved":0,"last_update":"0001-01-01T00:00:00Z","name_a2s":"Uncletopia | Chicago | 4 | All Maps","protocol":17,"map":"cp_dustbowl","folder":"tf","game":"Team Fortress","app_id":440,"player_count":24,"max_players":24,"Bots":0,"server_type":"Dedicated","server_os":"Linux","password":true,"vac":true,"version":"7882260","steam_id":85568392924515193,"keywords":["cp","nocrits","nodmgspread","uncletopia"],"game_id":440,"stv_port":27046,"stv_name":"Uncletopia | Chicago | 4 | All Maps | STV","players":[{"user_id":164,"name":"Propaniac Gaming ‚òë","steam_id":76561198133963270,"connected_time":3391000000000,"state":"active","ping":60},{"user_id":165,"name":"Sysadmin Stress Release","steam_id":76561197997326384,"connected_time":3372000000000,"state":"active","ping":76},{"user_id":199,"name":"Brumpo Tungus","steam_id":76561198054669779,"connected_time":788000000000,"state":"active","ping":59},{"user_id":179,"name":"10KO!","steam_id":76561199134895220,"connected_time":2874000000000,"state":"active","ping":73},{"user_id":168,"name":"Agent Q","steam_id":76561198830829003,"connected_time":3330000000000,"state":"active","ping":122},{"user_id":200,"name":"dabri88","steam_id":76561198103645497,"connected_time":783000000000,"state":"active","ping":63},{"user_id":182,"name":"hoos","steam_id":76561198045985910,"connected_time":2666000000000,"state":"active","ping":71},{"user_id":206,"name":"TJThomas","steam_id":76561198038292405,"connected_time":113000000000,"state":"active","ping":74},{"user_id":201,"name":"ThisDOT","steam_id":76561199011823773,"connected_time":778000000000,"state":"active","ping":75},{"user_id":151,"name":"good soup guy","steam_id":76561199210237835,"connected_time":4109000000000,"state":"active","ping":72},{"user_id":204,"name":"thecal","steam_id":76561198307893384,"connected_time":445000000000,"state":"active","ping":53},{"user_id":117,"name":"Lincs","steam_id":76561198049851872,"connected_time":6407000000000,"state":"active","ping":79},{"user_id":205,"name":"Dullahan","steam_id":76561198119668908,"connected_time":401000000000,"state":"active","ping":91},{"user_id":180,"name":"the pest","steam_id":76561198826298849,"connected_time":2856000000000,"state":"active","ping":92},{"user_id":95,"name":"‚òÜNebula-Belt‚òÜ","steam_id":76561198151250806,"connected_time":7856000000000,"state":"active","ping":73},{"user_id":193,"name":"NUt","steam_id":76561198031007966,"connected_time":1616000000000,"state":"active","ping":75},{"user_id":162,"name":"THE George Foreman","steam_id":76561198838953359,"connected_time":3417000000000,"state":"active","ping":60},{"user_id":185,"name":"YellerImp","steam_id":76561199221805167,"connected_time":2290000000000,"state":"active","ping":35},{"user_id":174,"name":"Frantic Slug","steam_id":76561197995607923,"connected_time":3217000000000,"state":"active","ping":69},{"user_id":203,"name":"run fast fall down","steam_id":76561198167207112,"connected_time":727000000000,"state":"active","ping":70},{"user_id":208,"name":"Noble","steam_id":76561199013705323,"connected_time":84000000000,"state":"active","ping":62},{"user_id":161,"name":"forkes","steam_id":76561198130478202,"connected_time":3534000000000,"state":"active","ping":43},{"user_id":125,"name":"Spazz","steam_id":76561198036167494,"connected_time":6043000000000,"state":"active","ping":39},{"user_id":190,"name":"crabapples","steam_id":76561198075818655,"connected_time":1949000000000,"state":"active","ping":56}]},{"server_id":36,"name":"Uncletopia | Chicago | 5 | All Maps","name_short":"chi-5","host":"chi-2.us.uncletopia.com","port":27015,"enabled":true,"region":"us-central","cc":"us","latitude":41.881832,"longitude":-87.62318,"reserved":0,"last_update":"0001-01-01T00:00:00Z","name_a2s":"Uncletopia | Chicago | 5 | All Maps","protocol":17,"map":"koth_lakeside_final","folder":"tf","game":"Team Fortress","app_id":440,"player_count":8,"max_players":24,"Bots":0,"server_type":"Dedicated","server_os":"Linux","password":true,"vac":true,"version":"7882260","steam_id":85568392924866362,"keywords":["cp","nocrits","nodmgspread","uncletopia"],"game_id":440,"stv_port":27016,"stv_name":"Uncletopia | Chicago | 5 | All Maps | STV","players":[{"user_id":9,"name":"(1)gucci gang","steam_id":76561198046650995,"connected_time":1092000000000,"state":"active","ping":84},{"user_id":10,"name":"Gucci Gang","steam_id":76561198044874072,"connected_time":1078000000000,"state":"active","ping":60},{"user_id":11,"name":"Data","steam_id":76561197996329548,"connected_time":963000000000,"state":"active","ping":61},{"user_id":19,"name":"„Éê„Çø„Éº","steam_id":76561198307596120,"connected_time":262000000000,"state":"active","ping":56},{"user_id":21,"name":"pee man","steam_id":76561199134435413,"connected_time":61000000000,"state":"active","ping":104},{"user_id":20,"name":"local f2p","steam_id":76561199117950754,"connected_time":150000000000,"state":"active","ping":245},{"user_id":22,"name":"Clearskies22","steam_id":76561198828488802,"connected_time":15000000000,"state":"spawning","ping":61},{"user_id":17,"name":"Clay Pot","steam_id":76561199030644557,"connected_time":549000000000,"state":"active","ping":85}]},{"server_id":37,"name":"Uncletopia | Chicago | 6 | All Maps","name_short":"chi-6","host":"chi-2.us.uncletopia.com","port":27025,"enabled":true,"region":"us-central","cc":"us","latitude":41.881832,"longitude":-87.62318,"reserved":0,"last_update":"0001-01-01T00:00:00Z","name_a2s":"Uncletopia | Chicago | 6 | All Maps","protocol":17,"map":"cp_sunshine","folder":"tf","game":"Team Fortress","app_id":440,"player_count":24,"max_players":24,"Bots":0,"server_type":"Dedicated","server_os":"Linux","password":true,"vac":true,"version":"7882260","steam_id":85568392924866363,"keywords":["cp","nocrits","nodmgspread","uncletopia"],"game_id":440,"stv_port":27026,"stv_name":"Uncletopia | Chicago | 6 | All Maps | STV","players":[{"user_id":603,"name":"Dougtherouge","steam_id":76561198211300573,"connected_time":487000000000,"state":"active","ping":64},{"user_id":608,"name":"Xx_PR3TTY_R4VE_G!R1_xX","steam_id":76561199059016425,"connected_time":302000000000,"state":"active","ping":54},{"user_id":580,"name":"aiming with drawing tablet","steam_id":76561198397662124,"connected_time":1904000000000,"state":"active","ping":88},{"user_id":578,"name":"Furious George","steam_id":76561198405111646,"connected_time":2008000000000,"state":"active","ping":100},{"user_id":569,"name":"PrinceGeser","steam_id":76561197973759697,"connected_time":2464000000000,"state":"active","ping":73},{"user_id":591,"name":"Orion","steam_id":76561198000418837,"connected_time":628000000000,"state":"active","ping":83},{"user_id":558,"name":"kiaan","steam_id":76561198060819695,"connected_time":3148000000000,"state":"active","ping":74},{"user_id":559,"name":"foxxo","steam_id":76561198451014982,"connected_time":3126000000000,"state":"active","ping":67},{"user_id":549,"name":"Voodo133","steam_id":76561198042670351,"connected_time":3416000000000,"state":"active","ping":90},{"user_id":600,"name":"1up","steam_id":76561198038080028,"connected_time":550000000000,"state":"active","ping":90},{"user_id":445,"name":"INeverFold","steam_id":76561198285482224,"connected_time":10788000000000,"state":"active","ping":67},{"user_id":585,"name":"Horse","steam_id":76561198004583631,"connected_time":1513000000000,"state":"active","ping":76},{"user_id":581,"name":"guac","steam_id":76561198070305720,"connected_time":1835000000000,"state":"active","ping":81},{"user_id":545,"name":"hellofreshesports","steam_id":76561198035535731,"connected_time":4012000000000,"state":"active","ping":79},{"user_id":607,"name":"herb","steam_id":76561198185980055,"connected_time":398000000000,"state":"active","ping":66},{"user_id":602,"name":"neet","steam_id":76561197968115168,"connected_time":508000000000,"state":"active","ping":59},{"user_id":592,"name":"Forever Enlightened.","steam_id":76561198286792807,"connected_time":626000000000,"state":"active","ping":70},{"user_id":606,"name":"Devlyn77","steam_id":76561198108965341,"connected_time":412000000000,"state":"active","ping":57},{"user_id":589,"name":"Samitch","steam_id":76561198038247982,"connected_time":651000000000,"state":"active","ping":60},{"user_id":595,"name":"feliser","steam_id":76561198084336096,"connected_time":609000000000,"state":"active","ping":55},{"user_id":604,"name":"T9 Raincool","steam_id":76561198042953645,"connected_time":466000000000,"state":"active","ping":75},{"user_id":572,"name":"PootisPowHAHA","steam_id":76561199023536209,"connected_time":2267000000000,"state":"active","ping":90},{"user_id":605,"name":"Piyono","steam_id":76561197962188504,"connected_time":465000000000,"state":"active","ping":79},{"user_id":609,"name":"LWebb","steam_id":76561199162936929,"connected_time":48000000000,"state":"active","ping":93}]},{"server_id":38,"name":"Uncletopia | Chicago | 7 | Stopwatch Beta","name_short":"chi-7","host":"chi-2.us.uncletopia.com","port":27035,"enabled":true,"region":"us-central","cc":"us","latitude":41.881832,"longitude":-87.62318,"reserved":0,"last_update":"0001-01-01T00:00:00Z","name_a2s":"Uncletopia | Chicago | 7 | Stopwatch Beta","protocol":17,"map":"pl_borneo","folder":"tf","game":"Team Fortress","app_id":440,"player_count":0,"max_players":24,"Bots":0,"server_type":"Dedicated","server_os":"Linux","password":true,"vac":true,"version":"7882260","steam_id":85568392924866364,"keywords":["nocrits","nodmgspread","payload","uncletopia"],"game_id":440,"stv_port":27036,"stv_name":"Uncletopia | Chicago | 7 | Stopwatch Beta | STV","players":null},{"server_id":39,"name":"Uncletopia | Chicago | 8 | Community","name_short":"chi-8","host":"chi-2.us.uncletopia.com","port":27045,"enabled":true,"region":"us-central","cc":"us","latitude":41.881832,"longitude":-87.62318,"reserved":0,"last_update":"0001-01-01T00:00:00Z","name_a2s":"Uncletopia | Chicago | 8 | Community","protocol":17,"map":"workshop/koth_ashville_final.ugc2130459942","folder":"tf","game":"Team Fortress","app_id":440,"player_count":0,"max_players":24,"Bots":0,"server_type":"Dedicated","server_os":"Linux","password":true,"vac":true,"version":"7882260","steam_id":85568392924866365,"keywords":["cp","nocrits","nodmgspread","uncletopia"],"game_id":440,"stv_port":27046,"stv_name":"Uncletopia | Chicago | 8 | Community | STV","players":null},{"server_id":8,"name":"Uncletopia | Dallas | 1 | All Maps","name_short":"dal-1","host":"dal-1.us.uncletopia.com","port":27015,"enabled":true,"region":"us-central","cc":"us","latitude":32.779167,"longitude":-96.80889,"reserved":0,"last_update":"0001-01-01T00:00:00Z","name_a2s":"Uncletopia | Dallas | 1 | All Maps","protocol":17,"map":"cp_sunshine","folder":"tf","game":"Team Fortress","app_id":440,"player_count":24,"max_players":24,"Bots":0,"server_type":"Dedicated","server_os":"Linux","password":true,"vac":true,"version":"7882260","steam_id":85568392924469986,"keywords":["cp","nocrits","nodmgspread","uncletopia"],"game_id":440,"stv_port":27016,"stv_name":"Uncletopia | Dallas | 1 | All Maps | STV","players":[{"user_id":229,"name":"K.A.R.M.A.","steam_id":76561198240750142,"connected_time":1713000000000,"state":"active","ping":78},{"user_id":240,"name":"Rhutebeer","steam_id":76561198018302761,"connected_time":475000000000,"state":"active","ping":80},{"user_id":200,"name":"Xeno808","steam_id":76561198103758081,"connected_time":2712000000000,"state":"active","ping":38},{"user_id":242,"name":"Daperlin","steam_id":76561198091299113,"connected_time":448000000000,"state":"active","ping":103},{"user_id":197,"name":"Ccpop123a","steam_id":76561198883889729,"connected_time":3800000000000,"state":"active","ping":65},{"user_id":228,"name":"Angry","steam_id":76561198862622760,"connected_time":1757000000000,"state":"active","ping":75},{"user_id":244,"name":"The Super Mario Bros. Movie","steam_id":76561198871692156,"connected_time":365000000000,"state":"active","ping":100},{"user_id":237,"name":"dak","steam_id":76561198076596506,"connected_time":488000000000,"state":"active","ping":103},{"user_id":243,"name":"IvanIsGreek","steam_id":76561199467716273,"connected_time":423000000000,"state":"active","ping":71},{"user_id":223,"name":"Kazmirl [Youtube]","steam_id":76561198116008410,"connected_time":1998000000000,"state":"active","ping":111},{"user_id":169,"name":"TI-83 Plus","steam_id":76561198316134443,"connected_time":6319000000000,"state":"active","ping":77},{"user_id":232,"name":"Mellou","steam_id":76561198212048740,"connected_time":1234000000000,"state":"active","ping":44},{"user_id":235,"name":"Bottom Ramen","steam_id":76561197970450546,"connected_time":946000000000,"state":"active","ping":112},{"user_id":234,"name":"Darling","steam_id":76561198127525888,"connected_time":1032000000000,"state":"active","ping":47},{"user_id":245,"name":"Boomer Gaming","steam_id":76561198037803087,"connected_time":358000000000,"state":"active","ping":65},{"user_id":227,"name":"Idiocy","steam_id":76561198100969674,"connected_time":1828000000000,"state":"active","ping":77},{"user_id":221,"name":"Fredrick","steam_id":76561197981419964,"connected_time":2041000000000,"state":"active","ping":86},{"user_id":236,"name":"St. Bobson Q Dugnutt III Esq Sr","steam_id":76561197993459985,"connected_time":779000000000,"state":"active","ping":93},{"user_id":213,"name":"Smug","steam_id":76561198448205229,"connected_time":2358000000000,"state":"active","ping":78},{"user_id":128,"name":"Mando","steam_id":76561198139662905,"connected_time":10188000000000,"state":"active","ping":62},{"user_id":214,"name":"CreativeUsername","steam_id":76561198186045503,"connected_time":2350000000000,"state":"active","ping":79},{"user_id":241,"name":"Blink","steam_id":76561197986181277,"connected_time":471000000000,"state":"active","ping":45},{"user_id":238,"name":"momb","steam_id":76561198142234038,"connected_time":486000000000,"state":"active","ping":91},{"user_id":162,"name":"HavocsHollyTree","steam_id":76561198982631429,"connected_time":6504000000000,"state":"active","ping":57}]},{"server_id":108,"name":"Uncletopia | Dallas | 2 | All Maps","name_short":"dal-2","host":"dal-1.us.uncletopia.com","port":27025,"enabled":true,"region":"us-central","cc":"us","latitude":32.779167,"longitude":-96.80889,"reserved":0,"last_update":"0001-01-01T00:00:00Z","name_a2s":"Uncletopia | Dallas | 2 | All Maps","protocol":17,"map":"koth_viaduct","folder":"tf","game":"Team Fortress","app_id":440,"player_count":24,"max_players":24,"Bots":0,"server_type":"Dedicated","server_os":"Linux","password":true,"vac":true,"version":"7882260","steam_id":85568392924469988,"keywords":["cp","nocrits","nodmgspread","uncletopia"],"game_id":440,"stv_port":27026,"stv_name":"Uncletopia | Dallas | 2 | All Maps | STV","players":[{"user_id":283,"name":"ultralisk52","steam_id":76561198051666604,"connected_time":1122000000000,"state":"active","ping":76},{"user_id":291,"name":"professional sink pisser","steam_id":76561198010370396,"connected_time":19000000000,"state":"active","ping":69},{"user_id":244,"name":"Mythius","steam_id":76561198401392472,"connected_time":3264000000000,"state":"active","ping":92},{"user_id":268,"name":"kat","steam_id":76561198121070295,"connected_time":1795000000000,"state":"active","ping":95},{"user_id":257,"name":"TechnoBear2099","steam_id":76561198238863596,"connected_time":2657000000000,"state":"active","ping":44},{"user_id":266,"name":"Aegis","steam_id":76561198272052750,"connected_time":1905000000000,"state":"active","ping":87},{"user_id":276,"name":"Ranger Plague","steam_id":76561198174647666,"connected_time":1709000000000,"state":"active","ping":123},{"user_id":281,"name":"professor penisfreak","steam_id":76561198435104989,"connected_time":1404000000000,"state":"active","ping":67},{"user_id":234,"name":"LizardBoyTailFrotting","steam_id":76561199169859135,"connected_time":4583000000000,"state":"active","ping":91},{"user_id":280,"name":"Turtle","steam_id":76561198821905297,"connected_time":1479000000000,"state":"active","ping":88},{"user_id":287,"name":"orionization","steam_id":76561198196185509,"connected_time":918000000000,"state":"active","ping":55},{"user_id":260,"name":"Crispy","steam_id":76561198037481161,"connected_time":2437000000000,"state":"active","ping":69},{"user_id":270,"name":"Ramblin' Man","steam_id":76561198149106374,"connected_time":1785000000000,"state":"active","ping":88},{"user_id":282,"name":"BLOOD !","steam_id":76561198004400850,"connected_time":1130000000000,"state":"active","ping":60},{"user_id":253,"name":"Hindmost","steam_id":76561199081837220,"connected_time":2857000000000,"state":"active","ping":69},{"user_id":271,"name":"Toxic","steam_id":76561198076889834,"connected_time":1774000000000,"state":"active","ping":96},{"user_id":292,"name":"Thunder","steam_id":76561198097721532,"connected_time":16000000000,"state":"spawning","ping":75},{"user_id":277,"name":"TofuCat","steam_id":76561198416746118,"connected_time":1685000000000,"state":"active","ping":44},{"user_id":265,"name":"Dumb Kid","steam_id":76561198304180941,"connected_time":1924000000000,"state":"active","ping":55},{"user_id":288,"name":"Alkimia","steam_id":76561198385763137,"connected_time":692000000000,"state":"active","ping":124},{"user_id":232,"name":"max poop retention","steam_id":76561199050461421,"connected_time":4707000000000,"state":"active","ping":82},{"user_id":275,"name":"Fragment Guy","steam_id":76561198178413086,"connected_time":1746000000000,"state":"active","ping":71},{"user_id":233,"name":"Monsta","steam_id":76561197971626425,"connected_time":4673000000000,"state":"active","ping":82},{"user_id":285,"name":"bucketslayer01","steam_id":76561198197543963,"connected_time":1088000000000,"state":"active","ping":62}]},{"server_id":5,"name":"Uncletopia | Frankfurt | 1 | All Maps","name_short":"frk-1","host":"frk-1.de.uncletopia.com","port":27015,"enabled":true,"region":"eu","cc":"de","latitude":50.110924,"longitude":8.682127,"reserved":0,"last_update":"0001-01-01T00:00:00Z","name_a2s":"Uncletopia | Frankfurt | 1 | All Maps","protocol":17,"map":"plr_hightower","folder":"tf","game":"Team Fortress","app_id":440,"player_count":0,"max_players":24,"Bots":0,"server_type":"Dedicated","server_os":"Linux","password":true,"vac":true,"version":"7882260","steam_id":85568392924469989,"keywords":["nocrits","nodmgspread","payload","uncletopia"],"game_id":440,"stv_port":27016,"stv_name":"Uncletopia | Frankfurt | 1 | All Maps | STV","players":null},{"server_id":110,"name":"Uncletopia | Frankfurt | 2 | All Maps","name_short":"frk-2","host":"frk-1.de.uncletopia.com","port":27025,"enabled":true,"region":"eu","cc":"de","latitude":50.110924,"longitude":8.682127,"reserved":0,"last_update":"0001-01-01T00:00:00Z","name_a2s":"Uncletopia | Frankfurt | 2 | All Maps","protocol":17,"map":"pl_pier","folder":"tf","game":"Team Fortress","app_id":440,"player_count":0,"max_players":24,"Bots":0,"server_type":"Dedicated","server_os":"Linux","password":true,"vac":true,"version":"7882260","steam_id":85568392924469990,"keywords":["nocrits","nodmgspread","payload","uncletopia"],"game_id":440,"stv_port":27026,"stv_name":"Uncletopia | Frankfurt | 2 | All Maps | STV","players":null},{"server_id":308,"name":"Uncletopia | Frankfurt | 3 | All Maps","name_short":"frk-3","host":"frk-1.de.uncletopia.com","port":27035,"enabled":true,"region":"eu","cc":"de","latitude":50.110924,"longitude":8.682127,"reserved":0,"last_update":"0001-01-01T00:00:00Z","name_a2s":"Uncletopia | Frankfurt | 3 | All Maps","protocol":17,"map":"pl_upward","folder":"tf","game":"Team Fortress","app_id":440,"player_count":0,"max_players":24,"Bots":0,"server_type":"Dedicated","server_os":"Linux","password":true,"vac":true,"version":"7882260","steam_id":85568392924504274,"keywords":["nocrits","nodmgspread","payload","uncletopia"],"game_id":440,"stv_port":27036,"stv_name":"Uncletopia | Frankfurt | 3 | All Maps | STV","players":null},{"server_id":309,"name":"Uncletopia | Frankfurt | 4 | All Maps","name_short":"frk-4","host":"frk-1.de.uncletopia.com","port":27045,"enabled":true,"region":"eu","cc":"de","latitude":50.110924,"longitude":8.682127,"reserved":0,"last_update":"0001-01-01T00:00:00Z","name_a2s":"Uncletopia | Frankfurt | 4 | All Maps","protocol":17,"map":"cp_process_final","folder":"tf","game":"Team Fortress","app_id":440,"player_count":24,"max_players":24,"Bots":0,"server_type":"Dedicated","server_os":"Linux","password":true,"vac":true,"version":"7882260","steam_id":85568392924504275,"keywords":["cp","nocrits","nodmgspread","uncletopia"],"game_id":440,"stv_port":27046,"stv_name":"Uncletopia | Frankfurt | 4 | All Maps | STV","players":[{"user_id":796,"name":"congo","steam_id":76561198236836866,"connected_time":114000000000,"state":"active","ping":76},{"user_id":778,"name":"The Bear from Total Drama","steam_id":76561198370445644,"connected_time":1420000000000,"state":"active","ping":57},{"user_id":780,"name":"MUTANT","steam_id":76561198010429091,"connected_time":1289000000000,"state":"active","ping":48},{"user_id":759,"name":"Milk","steam_id":76561198003981693,"connected_time":2270000000000,"state":"active","ping":49},{"user_id":749,"name":"Zerfesh","steam_id":76561198117534358,"connected_time":2818000000000,"state":"active","ping":94},{"user_id":794,"name":"Bobo","steam_id":76561198052308399,"connected_time":320000000000,"state":"active","ping":58},{"user_id":750,"name":"PIES","steam_id":76561198156025460,"connected_time":2699000000000,"state":"active","ping":80},{"user_id":726,"name":"Roos","steam_id":76561198390387929,"connected_time":4877000000000,"state":"active","ping":80},{"user_id":740,"name":"Lennox","steam_id":76561198069063554,"connected_time":3206000000000,"state":"active","ping":42},{"user_id":762,"name":"Doobie","steam_id":76561198257836694,"connected_time":1763000000000,"state":"active","ping":53},{"user_id":757,"name":"jones","steam_id":76561198044434971,"connected_time":2363000000000,"state":"active","ping":58},{"user_id":791,"name":"Mr.B","steam_id":76561199204478925,"connected_time":478000000000,"state":"active","ping":120},{"user_id":760,"name":"BLACKBIRD CLOSE [she/her]","steam_id":76561198262910410,"connected_time":1966000000000,"state":"active","ping":90},{"user_id":772,"name":"RVYZ","steam_id":76561198016993065,"connected_time":1552000000000,"state":"active","ping":84},{"user_id":797,"name":"0","steam_id":76561198045692488,"connected_time":113000000000,"state":"active","ping":77},{"user_id":776,"name":"GunGuy","steam_id":76561198124510978,"connected_time":1461000000000,"state":"active","ping":53},{"user_id":784,"name":"Sunshine","steam_id":76561199481134450,"connected_time":1173000000000,"state":"active","ping":141},{"user_id":766,"name":"John Fortress","steam_id":76561197984661199,"connected_time":1596000000000,"state":"active","ping":70},{"user_id":785,"name":"Pyro is my mommy","steam_id":76561198975667801,"connected_time":1118000000000,"state":"active","ping":67},{"user_id":798,"name":"professorx8813","steam_id":76561199246166931,"connected_time":56000000000,"state":"active","ping":180},{"user_id":745,"name":"Aaron","steam_id":76561198324775476,"connected_time":3050000000000,"state":"active","ping":73},{"user_id":788,"name":"Endo","steam_id":76561198058384245,"connected_time":596000000000,"state":"active","ping":92},{"user_id":779,"name":"skatie","steam_id":76561198169487380,"connected_time":1416000000000,"state":"active","ping":74},{"user_id":787,"name":"I'm not gonna sugarcoat it","steam_id":76561198144597089,"connected_time":795000000000,"state":"active","ping":46}]},{"server_id":310,"name":"Uncletopia | Frankfurt | 5 | All Maps","name_short":"frk-5","host":"frk-1.de.uncletopia.com","port":27055,"enabled":true,"region":"eu","cc":"de","latitude":50.110924,"longitude":8.682127,"reserved":0,"last_update":"0001-01-01T00:00:00Z","name_a2s":"Uncletopia | Frankfurt | 5 | All Maps","protocol":17,"map":"koth_harvest_final","folder":"tf","game":"Team Fortress","app_id":440,"player_count":0,"max_players":24,"Bots":0,"server_type":"Dedicated","server_os":"Linux","password":true,"vac":true,"version":"7882260","steam_id":85568392924504277,"keywords":["cp","nocrits","nodmgspread","uncletopia"],"game_id":440,"stv_port":27056,"stv_name":"Uncletopia | Frankfurt | 5 | All Maps | STV","players":null},{"server_id":311,"name":"Uncletopia | Frankfurt | 6 | All Maps","name_short":"frk-6","host":"frk-1.de.uncletopia.com","port":27065,"enabled":true,"region":"eu","cc":"de","latitude":50.110924,"longitude":8.682127,"reserved":0,"last_update":"0001-01-01T00:00:00Z","name_a2s":"Uncletopia | Frankfurt | 6 | All Maps","protocol":17,"map":"koth_lakeside_final","folder":"tf","game":"Team Fortress","app_id":440,"player_count":0,"max_players":24,"Bots":0,"server_type":"Dedicated","server_os":"Linux","password":true,"vac":true,"version":"7882260","steam_id":85568392924504278,"keywords":["cp","nocrits","nodmgspread","uncletopia"],"game_id":440,"stv_port":27066,"stv_name":"Uncletopia | Frankfurt | 6 | All Maps | STV","players":null},{"server_id":23,"name":"Uncletopia | Frankfurt | 7 | Stopwatch Beta","name_short":"frk-7","host":"frk-1.de.uncletopia.com","port":27075,"enabled":true,"region":"eu","cc":"de","latitude":50.110924,"longitude":8.682127,"reserved":0,"last_update":"0001-01-01T00:00:00Z","name_a2s":"Uncletopia | Frankfurt | 7 | Stopwatch Beta","protocol":17,"map":"workshop/koth_product_final.ugc454272353","folder":"tf","game":"Team Fortress","app_id":440,"player_count":0,"max_players":24,"Bots":0,"server_type":"Dedicated","server_os":"Linux","password":true,"vac":true,"version":"7882260","steam_id":85568392924742827,"keywords":["cp","nocrits","nodmgspread","uncletopia"],"game_id":440,"stv_port":27076,"stv_name":"Uncletopia | Frankfurt | 7 | Stopwatch Beta | STV","players":null},{"server_id":24,"name":"Uncletopia | Frankfurt | 8 | Community","name_short":"frk-8","host":"frk-1.de.uncletopia.com","port":27085,"enabled":true,"region":"eu","cc":"de","latitude":50.110924,"longitude":8.682127,"reserved":0,"last_update":"0001-01-01T00:00:00Z","name_a2s":"Uncletopia | Frankfurt | 8 | Community","protocol":17,"map":"workshop/pl_barnblitz_pro7.ugc582280235","folder":"tf","game":"Team Fortress","app_id":440,"player_count":0,"max_players":24,"Bots":0,"server_type":"Dedicated","server_os":"Linux","password":true,"vac":true,"version":"7882260","steam_id":85568392924742828,"keywords":["nocrits","nodmgspread","payload","uncletopia"],"game_id":440,"stv_port":27086,"stv_name":"Uncletopia | Frankfurt | 8 | Community | STV","players":null},{"server_id":202,"name":"Uncletopia | Hong Kong | 1 | All Maps","name_short":"hgk-1","host":"hgk-1.hk.uncletopia.com","port":27015,"enabled":true,"region":"asia","cc":"hk","latitude":22.302711,"longitude":114.177216,"reserved":0,"last_update":"0001-01-01T00:00:00Z","name_a2s":"Uncletopia | Hong Kong | 1 | All Maps","protocol":17,"map":"koth_cascade","folder":"tf","game":"Team Fortress","app_id":440,"player_count":0,"max_players":24,"Bots":0,"server_type":"Dedicated","server_os":"Linux","password":true,"vac":true,"version":"7882260","steam_id":85568392924494504,"keywords":["cp","nocrits","nodmgspread","uncletopia"],"game_id":440,"stv_port":27016,"stv_name":"Uncletopia | Hong Kong | 1 | All Maps | STV","players":null},{"server_id":1,"name":"Uncletopia | Los Angeles | 1 | All Maps","name_short":"lax-1","host":"lax-1.us.uncletopia.com","port":27015,"enabled":true,"region":"us-west","cc":"us","latitude":33.94279,"longitude":-118.41004,"reserved":0,"last_update":"0001-01-01T00:00:00Z","name_a2s":"Uncletopia | Los Angeles | 1 | All Maps","protocol":17,"map":"koth_lakeside_final","folder":"tf","game":"Team Fortress","app_id":440,"player_count":24,"max_players":24,"Bots":0,"server_type":"Dedicated","server_os":"Linux","password":true,"vac":true,"version":"7882260","steam_id":85568392924469991,"keywords":["cp","nocrits","nodmgspread","uncletopia"],"game_id":440,"stv_port":27016,"stv_name":"Uncletopia | Los Angeles | 1 | All Maps | STV","players":[{"user_id":141,"name":"Genderneutron","steam_id":76561199022773775,"connected_time":333000000000,"state":"active","ping":91},{"user_id":144,"name":"Hoss Delgado","steam_id":76561197995328504,"connected_time":261000000000,"state":"active","ping":91},{"user_id":122,"name":"fish gaming","steam_id":76561198067029049,"connected_time":2169000000000,"state":"active","ping":54},{"user_id":101,"name":"Grizzakk","steam_id":76561198115821923,"connected_time":3080000000000,"state":"active","ping":77},{"user_id":152,"name":"The Cyber Police","steam_id":76561198062763756,"connected_time":105000000000,"state":"active","ping":99},{"user_id":131,"name":"Gavial the Invincible","steam_id":76561198348354629,"connected_time":1510000000000,"state":"active","ping":30},{"user_id":143,"name":"shakoiwa","steam_id":76561199059441773,"connected_time":269000000000,"state":"active","ping":63},{"user_id":145,"name":"dogbit_","steam_id":76561198885231947,"connected_time":258000000000,"state":"active","ping":58},{"user_id":146,"name":"Tideflat","steam_id":76561198179850851,"connected_time":250000000000,"state":"active","ping":85},{"user_id":150,"name":"Dirtygoggles","steam_id":76561198079318755,"connected_time":143000000000,"state":"active","ping":104},{"user_id":134,"name":"Quon Grene for Vice Prez","steam_id":76561198127545817,"connected_time":1237000000000,"state":"active","ping":70},{"user_id":140,"name":"D.E.O","steam_id":76561198096992957,"connected_time":522000000000,"state":"active","ping":158},{"user_id":35,"name":"spherewithahat","steam_id":76561199122192660,"connected_time":7014000000000,"state":"active","ping":115},{"user_id":92,"name":"Cherry.C","steam_id":76561198962500536,"connected_time":3856000000000,"state":"active","ping":109},{"user_id":125,"name":"FI LO","steam_id":76561198976530881,"connected_time":2021000000000,"state":"active","ping":42},{"user_id":135,"name":"DioMagnus","steam_id":76561198299391327,"connected_time":1233000000000,"state":"active","ping":55},{"user_id":148,"name":"MattJettskie","steam_id":76561199229493583,"connected_time":226000000000,"state":"active","ping":117},{"user_id":149,"name":"LACTOSE","steam_id":76561198282604344,"connected_time":178000000000,"state":"active","ping":59},{"user_id":156,"name":"Adawnby","steam_id":76561198103057295,"connected_time":66000000000,"state":"active","ping":79},{"user_id":153,"name":"Suez","steam_id":76561198034642980,"connected_time":104000000000,"state":"active","ping":45},{"user_id":154,"name":"Shalom","steam_id":76561198410005222,"connected_time":94000000000,"state":"active","ping":79},{"user_id":126,"name":"Leaf","steam_id":76561198880728513,"connected_time":2014000000000,"state":"active","ping":90},{"user_id":157,"name":"chocky","steam_id":76561198057491296,"connected_time":27000000000,"state":"active","ping":73},{"user_id":158,"name":"Avscorcher","steam_id":76561198129048094,"connected_time":20000000000,"state":"active","ping":224}]},{"server_id":112,"name":"Uncletopia | Los Angeles | 2 | All Maps","name_short":"lax-2","host":"lax-1.us.uncletopia.com","port":27025,"enabled":true,"region":"us-west","cc":"us","latitude":33.94279,"longitude":-118.41004,"reserved":0,"last_update":"0001-01-01T00:00:00Z","name_a2s":"Uncletopia | Los Angeles | 2 | All Maps","protocol":17,"map":"pl_barnblitz","folder":"tf","game":"Team Fortress","app_id":440,"player_count":24,"max_players":24,"Bots":0,"server_type":"Dedicated","server_os":"Linux","password":true,"vac":true,"version":"7882260","steam_id":85568392924469992,"keywords":["nocrits","nodmgspread","payload","uncletopia"],"game_id":440,"stv_port":27026,"stv_name":"Uncletopia | Los Angeles | 2 | All Maps | STV","players":[{"user_id":39,"name":"Green_GarBear","steam_id":76561199468912415,"connected_time":344000000000,"state":"active","ping":62},{"user_id":18,"name":"Chirp","steam_id":76561198240780230,"connected_time":1308000000000,"state":"active","ping":45},{"user_id":19,"name":"mrthugpug1732","steam_id":76561198881200768,"connected_time":1257000000000,"state":"active","ping":64},{"user_id":20,"name":"Gnome Chompski","steam_id":76561198003130703,"connected_time":1201000000000,"state":"active","ping":97},{"user_id":21,"name":"LABRAT","steam_id":76561199226732110,"connected_time":1166000000000,"state":"active","ping":216},{"user_id":35,"name":"Professor Piper","steam_id":76561198156041205,"connected_time":488000000000,"state":"active","ping":99},{"user_id":40,"name":"Fred","steam_id":76561198965079927,"connected_time":298000000000,"state":"active","ping":126},{"user_id":37,"name":"Pyrolimited","steam_id":76561198195455657,"connected_time":427000000000,"state":"active","ping":70},{"user_id":26,"name":"Ellis Ladin","steam_id":76561198395020543,"connected_time":807000000000,"state":"active","ping":49},{"user_id":27,"name":"spacemonkey","steam_id":76561199245106074,"connected_time":755000000000,"state":"active","ping":57},{"user_id":34,"name":"beatrix","steam_id":76561199057103062,"connected_time":495000000000,"state":"active","ping":55},{"user_id":29,"name":"Ellis McKinney","steam_id":76561198254200924,"connected_time":663000000000,"state":"active","ping":116},{"user_id":36,"name":"Gamingwithbirdsbro","steam_id":76561199228259814,"connected_time":466000000000,"state":"active","ping":130},{"user_id":41,"name":"TastyWheat","steam_id":76561198855061918,"connected_time":274000000000,"state":"active","ping":85},{"user_id":52,"name":"Strangelove","steam_id":76561198353773611,"connected_time":76000000000,"state":"active","ping":133},{"user_id":43,"name":"Notation","steam_id":76561198119509319,"connected_time":260000000000,"state":"active","ping":92},{"user_id":44,"name":"Jacket","steam_id":76561198125415247,"connected_time":247000000000,"state":"active","ping":90},{"user_id":45,"name":"5'7\" Rat","steam_id":76561198017858916,"connected_time":228000000000,"state":"active","ping":130},{"user_id":46,"name":"Salt Syndrome","steam_id":76561198046584592,"connected_time":219000000000,"state":"active","ping":83},{"user_id":47,"name":"I. C. Wiener","steam_id":76561198062777610,"connected_time":214000000000,"state":"active","ping":51},{"user_id":48,"name":"Trash Rummager","steam_id":76561198085388962,"connected_time":210000000000,"state":"active","ping":104},{"user_id":49,"name":"1 cel","steam_id":76561198950243192,"connected_time":199000000000,"state":"spawning","ping":145},{"user_id":50,"name":"Fish Lambert","steam_id":76561198098279668,"connected_time":198000000000,"state":"active","ping":58},{"user_id":51,"name":"GKumo","steam_id":76561198023175868,"connected_time":196000000000,"state":"active","ping":64}]},{"server_id":324,"name":"Uncletopia | Los Angeles | 3 | All Maps","name_short":"lax-3","host":"lax-1.us.uncletopia.com","port":27035,"enabled":true,"region":"us-west","cc":"us","latitude":33.94279,"longitude":-118.41004,"reserved":0,"last_update":"0001-01-01T00:00:00Z","name_a2s":"Uncletopia | Los Angeles | 3 | All Maps","protocol":17,"map":"pl_snowycoast","folder":"tf","game":"Team Fortress","app_id":440,"player_count":24,"max_players":24,"Bots":0,"server_type":"Dedicated","server_os":"Linux","password":true,"vac":true,"version":"7882260","steam_id":85568392924510198,"keywords":["nocrits","nodmgspread","payload","uncletopia"],"game_id":440,"stv_port":27036,"stv_name":"Uncletopia | Los Angeles | 3 | All Maps | STV","players":[{"user_id":78,"name":"god's drunkest driver","steam_id":76561198212115640,"connected_time":1014000000000,"state":"active","ping":46},{"user_id":95,"name":"4 life","steam_id":76561198175961598,"connected_time":417000000000,"state":"active","ping":59},{"user_id":91,"name":"Michael Realman","steam_id":76561198040597934,"connected_time":683000000000,"state":"active","ping":56},{"user_id":79,"name":"Boone","steam_id":76561198398931575,"connected_time":1011000000000,"state":"active","ping":69},{"user_id":98,"name":"AWPtimist","steam_id":76561198073011368,"connected_time":145000000000,"state":"active","ping":70},{"user_id":72,"name":"big ol' buford","steam_id":76561198290675957,"connected_time":2448000000000,"state":"active","ping":67},{"user_id":99,"name":"unlikelycure","steam_id":76561199174450788,"connected_time":120000000000,"state":"active","ping":126},{"user_id":71,"name":"Az3my","steam_id":76561198112360117,"connected_time":2487000000000,"state":"active","ping":151},{"user_id":76,"name":"Riddle","steam_id":76561198892207399,"connected_time":1640000000000,"state":"active","ping":113},{"user_id":64,"name":"Superman123389","steam_id":76561198267472539,"connected_time":2655000000000,"state":"active","ping":88},{"user_id":86,"name":"Zebulon","steam_id":76561198025719753,"connected_time":920000000000,"state":"active","ping":60},{"user_id":67,"name":"Jellojiggler","steam_id":76561198094320477,"connected_time":2551000000000,"state":"active","ping":80},{"user_id":81,"name":"Sgt. Satire","steam_id":76561198104193483,"connected_time":1003000000000,"state":"active","ping":68},{"user_id":74,"name":"pandoRA","steam_id":76561198075490385,"connected_time":2147000000000,"state":"active","ping":52},{"user_id":82,"name":"motherfucker 2.0","steam_id":76561198141189209,"connected_time":1000000000000,"state":"active","ping":75},{"user_id":87,"name":"nav","steam_id":76561198872608266,"connected_time":898000000000,"state":"active","ping":121},{"user_id":77,"name":"Gabe","steam_id":76561198081153719,"connected_time":1251000000000,"state":"active","ping":64},{"user_id":88,"name":"1738 gecs","steam_id":76561198058617608,"connected_time":824000000000,"state":"active","ping":48},{"user_id":93,"name":"Elias","steam_id":76561198106431732,"connected_time":492000000000,"state":"active","ping":89},{"user_id":97,"name":"slafflow","steam_id":76561199381012350,"connected_time":230000000000,"state":"active","ping":109},{"user_id":48,"name":"BucketofIce","steam_id":76561199108563726,"connected_time":4033000000000,"state":"active","ping":53},{"user_id":49,"name":"dsmagic","steam_id":76561198038601542,"connected_time":4021000000000,"state":"active","ping":60},{"user_id":50,"name":"KaleScrooge","steam_id":76561199229442595,"connected_time":3982000000000,"state":"active","ping":177},{"user_id":90,"name":"Pocket Medic Girlfriend","steam_id":76561198378587138,"connected_time":783000000000,"state":"active","ping":60}]},{"server_id":25,"name":"Uncletopia | Los Angeles | 4 | Stopwatch Beta","name_short":"lax-4","host":"lax-1.us.uncletopia.com","port":27045,"enabled":true,"region":"us-west","cc":"us","latitude":33.94279,"longitude":-118.41004,"reserved":0,"last_update":"0001-01-01T00:00:00Z","name_a2s":"Uncletopia | Los Angeles | 4 | Stopwatch Beta","protocol":17,"map":"workshop/koth_ashville_final.ugc2130459942","folder":"tf","game":"Team Fortress","app_id":440,"player_count":0,"max_players":24,"Bots":0,"server_type":"Dedicated","server_os":"Linux","password":true,"vac":true,"version":"7882260","steam_id":85568392924510199,"keywords":["cp","nocrits","nodmgspread","uncletopia"],"game_id":440,"stv_port":27046,"stv_name":"Uncletopia | Los Angeles | 4 | Stopwatch Beta | STV","players":null},{"server_id":11,"name":"Uncletopia | London | 1 | All Maps","name_short":"lon-1","host":"lon-1.uk.uncletopia.com","port":27015,"enabled":true,"region":"eu","cc":"gb","latitude":51.509865,"longitude":-0.118092,"reserved":0,"last_update":"0001-01-01T00:00:00Z","name_a2s":"Uncletopia | London | 1 | All Maps","protocol":17,"map":"cp_process_final","folder":"tf","game":"Team Fortress","app_id":440,"player_count":17,"max_players":24,"Bots":0,"server_type":"Dedicated","server_os":"Linux","password":true,"vac":true,"version":"7882260","steam_id":85568392924367362,"keywords":["cp","nocrits","nodmgspread","uncletopia"],"game_id":440,"stv_port":27016,"stv_name":"Uncletopia | London | 1 | All Maps | STV","players":[{"user_id":944,"name":"Kestrel","steam_id":76561198144033005,"connected_time":25000000000,"state":"active","ping":47},{"user_id":925,"name":":P","steam_id":76561198106399430,"connected_time":1013000000000,"state":"active","ping":41},{"user_id":931,"name":"Titanium","steam_id":76561198279619771,"connected_time":735000000000,"state":"active","ping":66},{"user_id":934,"name":"bricked","steam_id":76561198123562445,"connected_time":365000000000,"state":"active","ping":39},{"user_id":924,"name":"deadbeat dad","steam_id":76561198380267081,"connected_time":1081000000000,"state":"active","ping":55},{"user_id":926,"name":"SinisterStar_","steam_id":76561198320832393,"connected_time":922000000000,"state":"active","ping":32},{"user_id":927,"name":"Tu-","steam_id":76561198347859104,"connected_time":922000000000,"state":"active","ping":37},{"user_id":928,"name":"SomeWeeabooTrash","steam_id":76561198199092050,"connected_time":911000000000,"state":"active","ping":82},{"user_id":929,"name":"Assmaster","steam_id":76561198386844311,"connected_time":876000000000,"state":"active","ping":48},{"user_id":932,"name":"Ze Epic Hashbrown","steam_id":76561198392319903,"connected_time":446000000000,"state":"active","ping":38},{"user_id":935,"name":"Kan0_","steam_id":76561198129596771,"connected_time":332000000000,"state":"active","ping":66},{"user_id":939,"name":"Sgreff","steam_id":76561198036304365,"connected_time":223000000000,"state":"active","ping":45},{"user_id":937,"name":"Darkmaen","steam_id":76561198060543390,"connected_time":259000000000,"state":"active","ping":56},{"user_id":938,"name":"moomin","steam_id":76561198200607926,"connected_time":250000000000,"state":"active","ping":89},{"user_id":940,"name":"ScampSixteen","steam_id":76561198021771000,"connected_time":167000000000,"state":"active","ping":49},{"user_id":942,"name":"Yelowchy","steam_id":76561198199416121,"connected_time":117000000000,"state":"active","ping":75},{"user_id":943,"name":"adrs999","steam_id":76561199075952964,"connected_time":51000000000,"state":"active","ping":74}]},{"server_id":114,"name":"Uncletopia | London | 2 | All Maps","name_short":"lon-2","host":"lon-1.uk.uncletopia.com","port":27025,"enabled":true,"region":"eu","cc":"gb","latitude":51.509865,"longitude":-0.118092,"reserved":0,"last_update":"0001-01-01T00:00:00Z","name_a2s":"Uncletopia | London | 2 | All Maps","protocol":17,"map":"koth_viaduct","folder":"tf","game":"Team Fortress","app_id":440,"player_count":0,"max_players":24,"Bots":0,"server_type":"Dedicated","server_os":"Linux","password":true,"vac":true,"version":"7882260","steam_id":85568392924470941,"keywords":["cp","nocrits","nodmgspread","uncletopia"],"game_id":440,"stv_port":27026,"stv_name":"Uncletopia | London | 2 | All Maps | STV","players":null},{"server_id":320,"name":"Uncletopia | London | 3 | All Maps","name_short":"lon-3","host":"lon-1.uk.uncletopia.com","port":27035,"enabled":true,"region":"eu","cc":"gb","latitude":51.509865,"longitude":-0.118092,"reserved":0,"last_update":"0001-01-01T00:00:00Z","name_a2s":"Uncletopia | London | 3 | All Maps","protocol":17,"map":"pl_barnblitz","folder":"tf","game":"Team Fortress","app_id":440,"player_count":24,"max_players":24,"Bots":0,"server_type":"Dedicated","server_os":"Linux","password":true,"vac":true,"version":"7882260","steam_id":85568392924510192,"keywords":["nocrits","nodmgspread","payload","uncletopia"],"game_id":440,"stv_port":27036,"stv_name":"Uncletopia | London | 3 | All Maps | STV","players":[{"user_id":345,"name":"(no monitor) ayylien","steam_id":76561198042127970,"connected_time":3146000000000,"state":"active","ping":133},{"user_id":334,"name":"Norfy","steam_id":76561197996469493,"connected_time":4103000000000,"state":"active","ping":92},{"user_id":346,"name":"bogan","steam_id":76561198121336735,"connected_time":3127000000000,"state":"active","ping":36},{"user_id":347,"name":"SPOOKY_","steam_id":76561198073395404,"connected_time":3115000000000,"state":"active","ping":71},{"user_id":363,"name":"Awesome Dinosaur","steam_id":76561199146847458,"connected_time":2628000000000,"state":"active","ping":104},{"user_id":348,"name":"Kobrakiddmeow","steam_id":76561198080696266,"connected_time":3107000000000,"state":"active","ping":160},{"user_id":338,"name":"DuskDragon911","steam_id":76561198996036702,"connected_time":3586000000000,"state":"active","ping":201},{"user_id":349,"name":"thanus","steam_id":76561199091889576,"connected_time":3100000000000,"state":"active","ping":48},{"user_id":378,"name":"etc","steam_id":76561197998394797,"connected_time":396000000000,"state":"active","ping":54},{"user_id":325,"name":"Melford","steam_id":76561198319650677,"connected_time":4729000000000,"state":"active","ping":148},{"user_id":330,"name":"froufrou","steam_id":76561198129110010,"connected_time":4421000000000,"state":"active","ping":75},{"user_id":383,"name":"Minimi","steam_id":76561198873850443,"connected_time":157000000000,"state":"active","ping":45},{"user_id":355,"name":"1 toke 4 mars bars","steam_id":76561198056460000,"connected_time":2877000000000,"state":"active","ping":47},{"user_id":377,"name":"dirty rascal","steam_id":76561198000871038,"connected_time":1020000000000,"state":"active","ping":45},{"user_id":366,"name":"Silent","steam_id":76561198344588858,"connected_time":2103000000000,"state":"active","ping":47},{"user_id":368,"name":"ack","steam_id":76561198139796077,"connected_time":1956000000000,"state":"active","ping":57},{"user_id":326,"name":"Kumquat","steam_id":76561198200490386,"connected_time":4509000000000,"state":"active","ping":73},{"user_id":332,"name":"Pootis.gov.uk","steam_id":76561197970114051,"connected_time":4214000000000,"state":"active","ping":44},{"user_id":369,"name":"Hyppy ja liipasin pohjaan :D","steam_id":76561198080669698,"connected_time":1954000000000,"state":"active","ping":95},{"user_id":375,"name":"JaminDamin","steam_id":76561199465916540,"connected_time":1376000000000,"state":"active","ping":168},{"user_id":380,"name":"Seethe","steam_id":76561198007891376,"connected_time":329000000000,"state":"active","ping":92},{"user_id":310,"name":"ufomaster1111111","steam_id":76561198837347666,"connected_time":6462000000000,"state":"active","ping":52},{"user_id":374,"name":"451 AIRU","steam_id":76561199099592506,"connected_time":1547000000000,"state":"active","ping":34},{"user_id":364,"name":"bowchika wowa #SlavaUkraine","steam_id":76561198159564550,"connected_time":2295000000000,"state":"active","ping":71}]},{"server_id":321,"name":"Uncletopia | London | 4 | All Maps","name_short":"lon-4","host":"lon-1.uk.uncletopia.com","port":27045,"enabled":true,"region":"eu","cc":"gb","latitude":51.509865,"longitude":-0.118092,"reserved":0,"last_update":"0001-01-01T00:00:00Z","name_a2s":"Uncletopia | London | 4 | All Maps","protocol":17,"map":"pl_goldrush","folder":"tf","game":"Team Fortress","app_id":440,"player_count":24,"max_players":24,"Bots":0,"server_type":"Dedicated","server_os":"Linux","password":true,"vac":true,"version":"7882260","steam_id":85568392924510193,"keywords":["nocrits","nodmgspread","payload","uncletopia"],"game_id":440,"stv_port":27046,"stv_name":"Uncletopia | London | 4 | All Maps | STV","players":[{"user_id":225,"name":"ArmedWithWings","steam_id":76561198154615474,"connected_time":5403000000000,"state":"active","ping":90},{"user_id":240,"name":"The Subway Scientist","steam_id":76561198193757646,"connected_time":4675000000000,"state":"active","ping":56},{"user_id":271,"name":"Archer","steam_id":76561198132860299,"connected_time":1635000000000,"state":"active","ping":79},{"user_id":287,"name":"Bill Carr","steam_id":76561198110033943,"connected_time":126000000000,"state":"active","ping":41},{"user_id":250,"name":"Purps","steam_id":76561198053886680,"connected_time":3380000000000,"state":"active","ping":40},{"user_id":227,"name":"Finn","steam_id":76561198179960193,"connected_time":5359000000000,"state":"active","ping":37},{"user_id":275,"name":"ChPerette","steam_id":76561198060004887,"connected_time":1411000000000,"state":"active","ping":42},{"user_id":261,"name":"Modern Slavery System","steam_id":76561198221391096,"connected_time":2073000000000,"state":"active","ping":57},{"user_id":228,"name":"Sarii","steam_id":76561199155102111,"connected_time":5347000000000,"state":"active","ping":73},{"user_id":212,"name":"H-say","steam_id":76561198177400362,"connected_time":6901000000000,"state":"active","ping":92},{"user_id":282,"name":"walkerarcher2","steam_id":76561199479691952,"connected_time":892000000000,"state":"active","ping":152},{"user_id":258,"name":"thyme","steam_id":76561198069054390,"connected_time":2313000000000,"state":"active","ping":67},{"user_id":280,"name":"install gentoo","steam_id":76561198185257982,"connected_time":1017000000000,"state":"active","ping":60},{"user_id":278,"name":"BLACK MAN FROM JOJO","steam_id":76561198272948471,"connected_time":1255000000000,"state":"active","ping":128},{"user_id":273,"name":"weetile","steam_id":76561198121352176,"connected_time":1445000000000,"state":"active","ping":40},{"user_id":260,"name":"The Meat Tank","steam_id":76561198012955043,"connected_time":2077000000000,"state":"active","ping":53},{"user_id":234,"name":"CumbustiblePunda","steam_id":76561197974274677,"connected_time":5289000000000,"state":"active","ping":60},{"user_id":286,"name":"teddy","steam_id":76561198007436837,"connected_time":187000000000,"state":"active","ping":30},{"user_id":262,"name":"Papal Gaming","steam_id":76561198084470380,"connected_time":2070000000000,"state":"active","ping":58},{"user_id":269,"name":"Royal","steam_id":76561198157621024,"connected_time":1906000000000,"state":"active","ping":36},{"user_id":283,"name":"LooLeZ","steam_id":76561198068812096,"connected_time":870000000000,"state":"active","ping":60},{"user_id":279,"name":"Leonic","steam_id":76561198067699203,"connected_time":1223000000000,"state":"active","ping":47},{"user_id":285,"name":"dlk","steam_id":76561198086660302,"connected_time":361000000000,"state":"active","ping":44},{"user_id":281,"name":"Gazza","steam_id":76561198090419732,"connected_time":940000000000,"state":"active","ping":43}]},{"server_id":21,"name":"Uncletopia | London | 5 | All Maps","name_short":"lon-5","host":"lon-1.uk.uncletopia.com","port":27055,"enabled":true,"region":"eu","cc":"gb","latitude":51.509865,"longitude":-0.118092,"reserved":0,"last_update":"0001-01-01T00:00:00Z","name_a2s":"Uncletopia | London | 5 | All Maps","protocol":17,"map":"pl_pier","folder":"tf","game":"Team Fortress","app_id":440,"player_count":22,"max_players":24,"Bots":0,"server_type":"Dedicated","server_os":"Linux","password":true,"vac":true,"version":"7882260","steam_id":85568392924742829,"keywords":["nocrits","nodmgspread","payload","uncletopia"],"game_id":440,"stv_port":27056,"stv_name":"Uncletopia | London | 5 | All Maps | STV","players":[{"user_id":440,"name":"Tsuruko","steam_id":76561198063618114,"connected_time":10000000000,"state":"spawning","ping":63},{"user_id":361,"name":"Pipp Petals2014","steam_id":76561198147668373,"connected_time":8066000000000,"state":"active","ping":60},{"user_id":439,"name":"Sviskonpaj","steam_id":76561198110941497,"connected_time":109000000000,"state":"active","ping":83},{"user_id":393,"name":"General Petrov","steam_id":76561198027204104,"connected_time":4266000000000,"state":"active","ping":79},{"user_id":422,"name":"fucnkinh","steam_id":76561199484000931,"connected_time":1409000000000,"state":"active","ping":128},{"user_id":423,"name":"gibb (official)","steam_id":76561198074097655,"connected_time":1408000000000,"state":"active","ping":44},{"user_id":438,"name":"–¢—Ä—É–ø –í–æ–ª–æ–¥—è","steam_id":76561198035718457,"connected_time":299000000000,"state":"active","ping":78},{"user_id":424,"name":"NoKippahOnGod","steam_id":76561198060473766,"connected_time":1399000000000,"state":"active","ping":127},{"user_id":402,"name":"tired","steam_id":76561198046838168,"connected_time":3668000000000,"state":"active","ping":58},{"user_id":406,"name":"senior pomidor","steam_id":76561198123659806,"connected_time":3506000000000,"state":"active","ping":86},{"user_id":427,"name":"Alex_Gaming208","steam_id":76561198057725524,"connected_time":1039000000000,"state":"active","ping":51},{"user_id":432,"name":"sloppy transgirl toppy","steam_id":76561198057092208,"connected_time":720000000000,"state":"active","ping":72},{"user_id":434,"name":"IEatFishLegs","steam_id":76561199079933178,"connected_time":547000000000,"state":"active","ping":54},{"user_id":429,"name":"‚ô° MÕ®uÕßfÕ≠fÕ§in ‚ô°","steam_id":76561198377242969,"connected_time":909000000000,"state":"active","ping":53},{"user_id":426,"name":"Dag!","steam_id":76561198030147941,"connected_time":1272000000000,"state":"active","ping":68},{"user_id":414,"name":"Hero8171","steam_id":76561199239824271,"connected_time":2274000000000,"state":"active","ping":149},{"user_id":420,"name":"Purple Bogey","steam_id":76561198997885594,"connected_time":1837000000000,"state":"active","ping":50},{"user_id":416,"name":"Ch4bby","steam_id":76561198058792875,"connected_time":2249000000000,"state":"active","ping":58},{"user_id":417,"name":"shreddies 750g","steam_id":76561198188642265,"connected_time":2195000000000,"state":"active","ping":62},{"user_id":433,"name":"‚ú™ qua ‚ú™","steam_id":76561198066408333,"connected_time":554000000000,"state":"active","ping":78},{"user_id":418,"name":"dools18","steam_id":76561198880768062,"connected_time":2192000000000,"state":"active","ping":57},{"user_id":398,"name":"Neco-arc Astolfo","steam_id":76561198989682540,"connected_time":3759000000000,"state":"active","ping":60}]},{"server_id":22,"name":"Uncletopia | London | 6 | All Maps","name_short":"lon-6","host":"lon-1.uk.uncletopia.com","port":27065,"enabled":true,"region":"eu","cc":"gb","latitude":51.509865,"longitude":-0.118092,"reserved":0,"last_update":"0001-01-01T00:00:00Z","name_a2s":"Uncletopia | London | 6 | All Maps","protocol":17,"map":"koth_highpass","folder":"tf","game":"Team Fortress","app_id":440,"player_count":0,"max_players":24,"Bots":0,"server_type":"Dedicated","server_os":"Linux","password":true,"vac":true,"version":"7882260","steam_id":85568392924742830,"keywords":["cp","nocrits","nodmgspread","uncletopia"],"game_id":440,"stv_port":27066,"stv_name":"Uncletopia | London | 6 | All Maps | STV","players":null},{"server_id":40,"name":"Uncletopia | London | 7 | No Payload","name_short":"lon-7","host":"lon-1.uk.uncletopia.com","port":27075,"enabled":true,"region":"eu","cc":"gb","latitude":51.509865,"longitude":-0.118092,"reserved":0,"last_update":"0001-01-01T00:00:00Z","name_a2s":"Uncletopia | London | 7 | No Payload","protocol":17,"map":"ctf_doublecross","folder":"tf","game":"Team Fortress","app_id":440,"player_count":0,"max_players":24,"Bots":0,"server_type":"Dedicated","server_os":"Linux","password":true,"vac":true,"version":"7882260","steam_id":85568392924964314,"keywords":["ctf","nocrits","nodmgspread","uncletopia"],"game_id":440,"stv_port":27076,"stv_name":"Uncletopia | London | 7 | No Payload | STV","players":null},{"server_id":41,"name":"Uncletopia | London | 8 | Community","name_short":"lon-8","host":"lon-1.uk.uncletopia.com","port":27085,"enabled":true,"region":"eu","cc":"gb","latitude":51.509865,"longitude":-0.118092,"reserved":0,"last_update":"0001-01-01T00:00:00Z","name_a2s":"Uncletopia | London | 8 | Community","protocol":17,"map":"workshop/pl_emerge_rc2.ugc888027758","folder":"tf","game":"Team Fortress","app_id":440,"player_count":0,"max_players":24,"Bots":0,"server_type":"Dedicated","server_os":"Linux","password":true,"vac":true,"version":"7882260","steam_id":85568392924964315,"keywords":["nocrits","nodmgspread","payload","uncletopia"],"game_id":440,"stv_port":27086,"stv_name":"Uncletopia | London | 8 | Community | STV","players":null},{"server_id":300,"name":"Uncletopia | Montr√©al | 1 | All Maps","name_short":"mtl-1","host":"mtl-1.ca.uncletopia.com","port":27015,"enabled":true,"region":"us-east","cc":"ca","latitude":45.50889,"longitude":-73.56167,"reserved":0,"last_update":"0001-01-01T00:00:00Z","name_a2s":"Uncletopia | Montr√©al | 1 | All Maps","protocol":17,"map":"pl_thundermountain","folder":"tf","game":"Team Fortress","app_id":440,"player_count":24,"max_players":24,"Bots":0,"server_type":"Dedicated","server_os":"Linux","password":true,"vac":true,"version":"7882260","steam_id":85568392924500087,"keywords":["nocrits","nodmgspread","payload","uncletopia"],"game_id":440,"stv_port":27016,"stv_name":"Uncletopia | Montr√©al | 1 | All Maps | STV","players":[{"user_id":320,"name":"Sensitive Shooter","steam_id":76561198041439581,"connected_time":4103000000000,"state":"active","ping":68},{"user_id":402,"name":"gravid baby","steam_id":76561198318646867,"connected_time":1171000000000,"state":"active","ping":44},{"user_id":432,"name":"bingus","steam_id":76561198041977097,"connected_time":816000000000,"state":"active","ping":59},{"user_id":446,"name":"Pig master","steam_id":76561199388075545,"connected_time":376000000000,"state":"active","ping":134},{"user_id":458,"name":"ayecodex","steam_id":76561199477598858,"connected_time":18000000000,"state":"spawning","ping":57},{"user_id":410,"name":"bobbymcbobington","steam_id":76561199089411172,"connected_time":1055000000000,"state":"active","ping":162},{"user_id":420,"name":"Amogus","steam_id":76561198047018842,"connected_time":912000000000,"state":"active","ping":70},{"user_id":351,"name":"Token","steam_id":76561198067814426,"connected_time":2043000000000,"state":"active","ping":96},{"user_id":427,"name":"SomeFuckingGuy #SAVETF2","steam_id":76561199239165015,"connected_time":846000000000,"state":"active","ping":104},{"user_id":385,"name":"UNIT 220","steam_id":76561198042243497,"connected_time":1360000000000,"state":"active","ping":80},{"user_id":322,"name":"MildlyHistorical","steam_id":76561198210544333,"connected_time":4004000000000,"state":"active","ping":69},{"user_id":354,"name":"PurpOwl","steam_id":76561198979416718,"connected_time":1969000000000,"state":"active","ping":96},{"user_id":360,"name":"weird flavor","steam_id":76561198032259680,"connected_time":1815000000000,"state":"active","ping":73},{"user_id":340,"name":"abcdefghijklmnopqrstuvwxyz","steam_id":76561198175741741,"connected_time":2921000000000,"state":"active","ping":90},{"user_id":434,"name":"monsterkill4567","steam_id":76561198272986367,"connected_time":719000000000,"state":"active","ping":132},{"user_id":346,"name":"Lichy","steam_id":76561198310682841,"connected_time":2390000000000,"state":"active","ping":44},{"user_id":342,"name":"Reza The Cool","steam_id":76561198372285506,"connected_time":2833000000000,"state":"active","ping":60},{"user_id":389,"name":"Haver of Thicc Goth GF","steam_id":76561199038566105,"connected_time":1280000000000,"state":"active","ping":115},{"user_id":297,"name":"an inebriated newt fancier","steam_id":76561197985428155,"connected_time":5466000000000,"state":"active","ping":60},{"user_id":361,"name":"D(b) Hell","steam_id":76561198067869016,"connected_time":1812000000000,"state":"active","ping":60},{"user_id":317,"name":"Pastel","steam_id":76561198147847673,"connected_time":4345000000000,"state":"active","ping":124},{"user_id":429,"name":"Lonely Friendless Gamer","steam_id":76561198046728155,"connected_time":838000000000,"state":"active","ping":60},{"user_id":347,"name":"Coinclever","steam_id":76561198099972692,"connected_time":2187000000000,"state":"active","ping":74},{"user_id":362,"name":"Shuu","steam_id":76561199199180558,"connected_time":1794000000000,"state":"active","ping":66}]},{"server_id":301,"name":"Uncletopia | Montr√©al | 2 | All Maps","name_short":"mtl-2","host":"mtl-1.ca.uncletopia.com","port":27025,"enabled":true,"region":"us-east","cc":"ca","latitude":45.50889,"longitude":-73.56167,"reserved":0,"last_update":"0001-01-01T00:00:00Z","name_a2s":"Uncletopia | Montr√©al | 2 | All Maps","protocol":17,"map":"pl_frontier_final","folder":"tf","game":"Team Fortress","app_id":440,"player_count":0,"max_players":24,"Bots":0,"server_type":"Dedicated","server_os":"Linux","password":true,"vac":true,"version":"7882260","steam_id":85568392924500088,"keywords":["nocrits","nodmgspread","payload","uncletopia"],"game_id":440,"stv_port":27026,"stv_name":"Uncletopia | Montr√©al | 2 | All Maps | STV","players":null},{"server_id":302,"name":"Uncletopia | Montr√©al | 3 | All Maps","name_short":"mtl-3","host":"mtl-1.ca.uncletopia.com","port":27035,"enabled":true,"region":"us-east","cc":"ca","latitude":45.50889,"longitude":-73.56167,"reserved":0,"last_update":"0001-01-01T00:00:00Z","name_a2s":"Uncletopia | Montr√©al | 3 | All Maps","protocol":17,"map":"koth_viaduct","folder":"tf","game":"Team Fortress","app_id":440,"player_count":0,"max_players":24,"Bots":0,"server_type":"Dedicated","server_os":"Linux","password":true,"vac":true,"version":"7882260","steam_id":85568392924500089,"keywords":["cp","nocrits","nodmgspread","uncletopia"],"game_id":440,"stv_port":27036,"stv_name":"Uncletopia | Montr√©al | 3 | All Maps | STV","players":null},{"server_id":303,"name":"Uncletopia | Montr√©al | 4 | No Payload","name_short":"mtl-4","host":"mtl-1.ca.uncletopia.com","port":27045,"enabled":true,"region":"us-east","cc":"ca","latitude":45.50889,"longitude":-73.56167,"reserved":0,"last_update":"0001-01-01T00:00:00Z","name_a2s":"Uncletopia | Montr√©al | 4 | No Payload","protocol":17,"map":"plr_pipeline","folder":"tf","game":"Team Fortress","app_id":440,"player_count":0,"max_players":24,"Bots":0,"server_type":"Dedicated","server_os":"Linux","password":true,"vac":true,"version":"7882260","steam_id":85568392924500090,"keywords":["nocrits","nodmgspread","payload","uncletopia"],"game_id":440,"stv_port":27046,"stv_name":"Uncletopia | Montr√©al | 4 | No Payload | STV","players":null},{"server_id":13,"name":"Uncletopia | New York City | 1 | All Maps","name_short":"nyc-1","host":"nyc-1.us.uncletopia.com","port":27015,"enabled":true,"region":"us-east","cc":"us","latitude":40.73061,"longitude":-73.93524,"reserved":0,"last_update":"0001-01-01T00:00:00Z","name_a2s":"Uncletopia | New York City | 1 | All Maps","protocol":17,"map":"pl_swiftwater_final1","folder":"tf","game":"Team Fortress","app_id":440,"player_count":24,"max_players":24,"Bots":0,"server_type":"Dedicated","server_os":"Linux","password":true,"vac":true,"version":"7882260","steam_id":85568392924469993,"keywords":["nocrits","nodmgspread","payload","uncletopia"],"game_id":440,"stv_port":27016,"stv_name":"Uncletopia | New York City | 1 | All Maps | STV","players":[{"user_id":381,"name":"The magic doo bus","steam_id":76561198243387974,"connected_time":3033000000000,"state":"active","ping":53},{"user_id":285,"name":"Brandcommand","steam_id":76561198047758422,"connected_time":9916000000000,"state":"active","ping":104},{"user_id":406,"name":"boombox","steam_id":76561198237013798,"connected_time":1367000000000,"state":"active","ping":76},{"user_id":397,"name":"Womp","steam_id":76561198245103000,"connected_time":2017000000000,"state":"active","ping":53},{"user_id":399,"name":"Jaydyn","steam_id":76561198140326797,"connected_time":1950000000000,"state":"active","ping":62},{"user_id":426,"name":"Zig","steam_id":76561198176048801,"connected_time":180000000000,"state":"active","ping":69},{"user_id":408,"name":"Ghost","steam_id":76561198110914180,"connected_time":1067000000000,"state":"active","ping":154},{"user_id":425,"name":"the man","steam_id":76561199103120314,"connected_time":298000000000,"state":"active","ping":128},{"user_id":422,"name":"Sniper","steam_id":76561199482262282,"connected_time":399000000000,"state":"active","ping":69},{"user_id":409,"name":"Professor Crack","steam_id":76561198053726350,"connected_time":861000000000,"state":"active","ping":205},{"user_id":286,"name":"Squiggly","steam_id":76561198003183167,"connected_time":9907000000000,"state":"active","ping":127},{"user_id":423,"name":"GamingDC51","steam_id":76561198255089520,"connected_time":397000000000,"state":"active","ping":45},{"user_id":403,"name":"cave johnson","steam_id":76561199389283507,"connected_time":1617000000000,"state":"active","ping":68},{"user_id":389,"name":"Graybard","steam_id":76561198045100497,"connected_time":2640000000000,"state":"active","ping":75},{"user_id":415,"name":"Rix FPV","steam_id":76561198299320893,"connected_time":635000000000,"state":"active","ping":90},{"user_id":367,"name":"Ghost Modern Warfare 2 (2022)","steam_id":76561198116295334,"connected_time":4007000000000,"state":"active","ping":60},{"user_id":383,"name":"‡ºò ‚ãÜÀöüéßCaffeine‚òï*Àñ¬∞","steam_id":76561199259309294,"connected_time":3013000000000,"state":"active","ping":88},{"user_id":378,"name":"IlikeChowMien","steam_id":76561199466131782,"connected_time":3103000000000,"state":"active","ping":68},{"user_id":404,"name":"kree","steam_id":76561197979960008,"connected_time":1615000000000,"state":"active","ping":46},{"user_id":424,"name":"A Shiny Meat Bicycle","steam_id":76561198358757709,"connected_time":396000000000,"state":"active","ping":87},{"user_id":411,"name":"Œõrmalion","steam_id":76561198012927113,"connected_time":812000000000,"state":"active","ping":103},{"user_id":396,"name":"sex","steam_id":76561198198787713,"connected_time":2023000000000,"state":"active","ping":53},{"user_id":421,"name":"cactus eater","steam_id":76561199107499844,"connected_time":413000000000,"state":"active","ping":129},{"user_id":417,"name":"Doctor Meth","steam_id":76561198044071443,"connected_time":575000000000,"state":"active","ping":115}]},{"server_id":14,"name":"Uncletopia | New York City | 2 | All Maps","name_short":"nyc-2","host":"nyc-1.us.uncletopia.com","port":27025,"enabled":true,"region":"us-east","cc":"us","latitude":40.73061,"longitude":-73.93524,"reserved":0,"last_update":"0001-01-01T00:00:00Z","name_a2s":"Uncletopia | New York City | 2 | All Maps","protocol":17,"map":"cp_5gorge","folder":"tf","game":"Team Fortress","app_id":440,"player_count":24,"max_players":24,"Bots":0,"server_type":"Dedicated","server_os":"Linux","password":true,"vac":true,"version":"7882260","steam_id":85568392924469994,"keywords":["cp","nocrits","nodmgspread","uncletopia"],"game_id":440,"stv_port":27026,"stv_name":"Uncletopia | New York City | 2 | All Maps | STV","players":[{"user_id":226,"name":"Rukh","steam_id":76561197999361315,"connected_time":6845000000000,"state":"active","ping":101},{"user_id":300,"name":"DaybreakerYa","steam_id":76561199013632613,"connected_time":2431000000000,"state":"active","ping":89},{"user_id":294,"name":"Carson","steam_id":76561198076771071,"connected_time":2833000000000,"state":"active","ping":60},{"user_id":322,"name":"AudioMedic","steam_id":76561198333939032,"connected_time":813000000000,"state":"active","ping":46},{"user_id":336,"name":"DiscoTraveler","steam_id":76561199240168088,"connected_time":146000000000,"state":"active","ping":34},{"user_id":337,"name":"AshMouse","steam_id":76561198151145819,"connected_time":36000000000,"state":"active","ping":90},{"user_id":323,"name":"I EAT DRYWALL","steam_id":76561198370925029,"connected_time":809000000000,"state":"active","ping":83},{"user_id":335,"name":"Dr. drippenstein","steam_id":76561198209380493,"connected_time":184000000000,"state":"active","ping":43},{"user_id":333,"name":"Teleporter  (Entrance, Level 3)","steam_id":76561198316927664,"connected_time":372000000000,"state":"active","ping":61},{"user_id":247,"name":"Gnome Tank","steam_id":76561198984179092,"connected_time":6318000000000,"state":"active","ping":75},{"user_id":328,"name":"Vortiger","steam_id":76561198275813176,"connected_time":680000000000,"state":"active","ping":125},{"user_id":325,"name":"Swifgz","steam_id":76561198162875756,"connected_time":709000000000,"state":"active","ping":45},{"user_id":326,"name":"Takyon","steam_id":76561198240014196,"connected_time":700000000000,"state":"active","ping":119},{"user_id":281,"name":"psonday","steam_id":76561198064270963,"connected_time":3805000000000,"state":"active","ping":85},{"user_id":290,"name":"Bad Rollout","steam_id":76561197971948876,"connected_time":3386000000000,"state":"active","ping":92},{"user_id":331,"name":"Goober Gaming","steam_id":76561198095550617,"connected_time":626000000000,"state":"active","ping":91},{"user_id":284,"name":"I Eat Your Pancakes","steam_id":76561198031796615,"connected_time":3788000000000,"state":"active","ping":85},{"user_id":298,"name":"LW | [wrd]HaloLagann","steam_id":76561198047561568,"connected_time":2590000000000,"state":"active","ping":47},{"user_id":318,"name":"uhooter","steam_id":76561198007829078,"connected_time":1388000000000,"state":"active","ping":58},{"user_id":327,"name":"CrunchCisco","steam_id":76561199162724832,"connected_time":687000000000,"state":"active","ping":89},{"user_id":329,"name":"The Don","steam_id":76561198016807790,"connected_time":676000000000,"state":"active","ping":53},{"user_id":312,"name":"jemma‚öß‚ò≠","steam_id":76561198031709913,"connected_time":1599000000000,"state":"active","ping":74},{"user_id":330,"name":"clammy egg","steam_id":76561198151876384,"connected_time":666000000000,"state":"active","ping":130},{"user_id":332,"name":"Stiffy Magnum","steam_id":76561198000036722,"connected_time":434000000000,"state":"active","ping":111}]},{"server_id":15,"name":"Uncletopia | New York City | 3 | Stopwatch Beta","name_short":"nyc-3","host":"nyc-1.us.uncletopia.com","port":27035,"enabled":true,"region":"us-east","cc":"us","latitude":40.73061,"longitude":-73.93524,"reserved":0,"last_update":"0001-01-01T00:00:00Z","name_a2s":"Uncletopia | New York City | 3 | Stopwatch Beta","protocol":17,"map":"workshop/koth_product_final.ugc454272353","folder":"tf","game":"Team Fortress","app_id":440,"player_count":0,"max_players":24,"Bots":0,"server_type":"Dedicated","server_os":"Linux","password":true,"vac":true,"version":"7882260","steam_id":85568392924742820,"keywords":["cp","nocrits","nodmgspread","uncletopia"],"game_id":440,"stv_port":27036,"stv_name":"Uncletopia | New York City | 3 | Stopwatch Beta | STV","players":null},{"server_id":16,"name":"Uncletopia | New York City | 4 | Community","name_short":"nyc-4","host":"nyc-1.us.uncletopia.com","port":27045,"enabled":true,"region":"us-east","cc":"us","latitude":40.73061,"longitude":-73.93524,"reserved":0,"last_update":"0001-01-01T00:00:00Z","name_a2s":"Uncletopia | New York City | 4 | Community","protocol":17,"map":"workshop/pl_fifthcurve_rc1.ugc648227046","folder":"tf","game":"Team Fortress","app_id":440,"player_count":0,"max_players":24,"Bots":0,"server_type":"Dedicated","server_os":"Linux","password":true,"vac":true,"version":"7882260","steam_id":85568392924742821,"keywords":["nocrits","nodmgspread","payload","uncletopia"],"game_id":440,"stv_port":27046,"stv_name":"Uncletopia | New York City | 4 | Community | STV","players":null},{"server_id":142,"name":"Uncletopia | S√£o Paulo | 1 | All Maps","name_short":"sao-1","host":"sao-1.br.uncletopia.com","port":27015,"enabled":true,"region":"sa","cc":"br","latitude":-23.533773,"longitude":-46.62529,"reserved":0,"last_update":"0001-01-01T00:00:00Z","name_a2s":"Uncletopia | S√£o Paulo | 1 | All Maps","protocol":17,"map":"koth_highpass","folder":"tf","game":"Team Fortress","app_id":440,"player_count":0,"max_players":24,"Bots":0,"server_type":"Dedicated","server_os":"Linux","password":true,"vac":true,"version":"7882260","steam_id":85568392924469996,"keywords":["cp","nocrits","nodmgspread","uncletopia"],"game_id":440,"stv_port":27016,"stv_name":"Uncletopia | S√£o Paulo | 1 | All Maps | STV","players":null},{"server_id":143,"name":"Uncletopia | S√£o Paulo | 2 | All Maps","name_short":"sao-2","host":"sao-2.br.uncletopia.com","port":27015,"enabled":true,"region":"sa","cc":"br","latitude":-23.533773,"longitude":-46.62529,"reserved":0,"last_update":"0001-01-01T00:00:00Z","name_a2s":"Uncletopia | S√£o Paulo | 2 | All Maps","protocol":17,"map":"koth_lakeside_final","folder":"tf","game":"Team Fortress","app_id":440,"player_count":0,"max_players":24,"Bots":0,"server_type":"Dedicated","server_os":"Linux","password":true,"vac":true,"version":"7882260","steam_id":85568392924485349,"keywords":["cp","nocrits","nodmgspread","uncletopia"],"game_id":440,"stv_port":27016,"stv_name":"Uncletopia | S√£o Paulo | 2 | All Maps | STV","players":null},{"server_id":7,"name":"Uncletopia | Seattle | 1 | All Maps","name_short":"sea-1","host":"sea-1.us.uncletopia.com","port":27015,"enabled":true,"region":"us-west","cc":"us","latitude":47.608013,"longitude":-122.33517,"reserved":0,"last_update":"0001-01-01T00:00:00Z","name_a2s":"Uncletopia | Seattle | 1 | All Maps","protocol":17,"map":"pl_upward","folder":"tf","game":"Team Fortress","app_id":440,"player_count":24,"max_players":24,"Bots":0,"server_type":"Dedicated","server_os":"Linux","password":true,"vac":true,"version":"7882260","steam_id":85568392924469997,"keywords":["nocrits","nodmgspread","payload","uncletopia"],"game_id":440,"stv_port":27016,"stv_name":"Uncletopia | Seattle | 1 | All Maps | STV","players":[{"user_id":475,"name":"[CTC] Kit","steam_id":76561198210734407,"connected_time":5373000000000,"state":"active","ping":116},{"user_id":517,"name":"Username","steam_id":76561198855586261,"connected_time":2027000000000,"state":"active","ping":61},{"user_id":535,"name":"Dob Bole","steam_id":76561198056367220,"connected_time":954000000000,"state":"active","ping":68},{"user_id":537,"name":"mike, freshly circed","steam_id":76561198225411004,"connected_time":952000000000,"state":"active","ping":72},{"user_id":536,"name":"Baked Beans","steam_id":76561198090419068,"connected_time":953000000000,"state":"active","ping":67},{"user_id":538,"name":"JonBoy","steam_id":76561198082052480,"connected_time":931000000000,"state":"active","ping":63},{"user_id":465,"name":"HellaCopter","steam_id":76561198062313698,"connected_time":6243000000000,"state":"active","ping":58},{"user_id":528,"name":"[TrC] Dackstrus","steam_id":76561197973518509,"connected_time":1353000000000,"state":"active","ping":57},{"user_id":522,"name":"Vincent Van Bro","steam_id":76561197966919802,"connected_time":1661000000000,"state":"active","ping":55},{"user_id":484,"name":"SibilantSerpent","steam_id":76561198154488754,"connected_time":4989000000000,"state":"active","ping":55},{"user_id":487,"name":"dust | she/it","steam_id":76561198045218909,"connected_time":4912000000000,"state":"active","ping":44},{"user_id":481,"name":"O","steam_id":76561198450073779,"connected_time":5198000000000,"state":"active","ping":59},{"user_id":494,"name":"toes","steam_id":76561198221151676,"connected_time":4162000000000,"state":"active","ping":59},{"user_id":507,"name":"grey","steam_id":76561198050618142,"connected_time":3204000000000,"state":"active","ping":49},{"user_id":541,"name":"Balls Insurance","steam_id":76561198005860388,"connected_time":474000000000,"state":"active","ping":73},{"user_id":526,"name":"viciousbeatmaker","steam_id":76561198086876652,"connected_time":1357000000000,"state":"active","ping":76},{"user_id":542,"name":"Oakus Maximus","steam_id":76561198317179010,"connected_time":458000000000,"state":"active","ping":65},{"user_id":543,"name":"‚ô• President Shitfart ‚ô•","steam_id":76561198141819053,"connected_time":339000000000,"state":"active","ping":66},{"user_id":527,"name":"Noxitril_Enjoyer","steam_id":76561198870649125,"connected_time":1356000000000,"state":"active","ping":84},{"user_id":520,"name":"[TrC] Nosy","steam_id":76561197978859310,"connected_time":1711000000000,"state":"active","ping":57},{"user_id":529,"name":"jayeskae","steam_id":76561198144220801,"connected_time":1340000000000,"state":"active","ping":55},{"user_id":521,"name":"Tungsten","steam_id":76561198312854342,"connected_time":1710000000000,"state":"active","ping":56},{"user_id":545,"name":"Sudsen","steam_id":76561198370603787,"connected_time":90000000000,"state":"active","ping":74},{"user_id":546,"name":"C.A.S.S.I.E (real)","steam_id":76561199040892651,"connected_time":57000000000,"state":"active","ping":94}]},{"server_id":119,"name":"Uncletopia | Seattle | 2 | All Maps","name_short":"sea-2","host":"sea-1.us.uncletopia.com","port":27025,"enabled":true,"region":"us-west","cc":"us","latitude":47.608013,"longitude":-122.33517,"reserved":0,"last_update":"0001-01-01T00:00:00Z","name_a2s":"Uncletopia | Seattle | 2 | All Maps","protocol":17,"map":"pl_thundermountain","folder":"tf","game":"Team Fortress","app_id":440,"player_count":24,"max_players":24,"Bots":0,"server_type":"Dedicated","server_os":"Linux","password":true,"vac":true,"version":"7882260","steam_id":85568392924469998,"keywords":["nocrits","nodmgspread","payload","uncletopia"],"game_id":440,"stv_port":27026,"stv_name":"Uncletopia | Seattle | 2 | All Maps | STV","players":[{"user_id":452,"name":"exephur","steam_id":76561198135763234,"connected_time":176000000000,"state":"active","ping":60},{"user_id":412,"name":"It's Over!","steam_id":76561198104086771,"connected_time":3401000000000,"state":"active","ping":69},{"user_id":449,"name":"BuncusBeffer","steam_id":76561198285936616,"connected_time":489000000000,"state":"active","ping":72},{"user_id":439,"name":"QwQ#savetf2","steam_id":76561198432226673,"connected_time":1330000000000,"state":"active","ping":87},{"user_id":418,"name":"Acto","steam_id":76561198043025164,"connected_time":2727000000000,"state":"active","ping":55},{"user_id":453,"name":"KingKata","steam_id":76561198289610011,"connected_time":98000000000,"state":"active","ping":70},{"user_id":402,"name":"YahYeeterson","steam_id":76561198120480906,"connected_time":3834000000000,"state":"active","ping":62},{"user_id":441,"name":"cielael","steam_id":76561198043971956,"connected_time":1289000000000,"state":"active","ping":80},{"user_id":309,"name":"Floaty","steam_id":76561198100029503,"connected_time":10785000000000,"state":"active","ping":58},{"user_id":454,"name":"Arizona Killer","steam_id":76561198110345484,"connected_time":19000000000,"state":"spawning","ping":46},{"user_id":419,"name":"Victrok","steam_id":76561199441398791,"connected_time":2714000000000,"state":"active","ping":109},{"user_id":393,"name":"War-thog125","steam_id":76561198139383220,"connected_time":4426000000000,"state":"active","ping":114},{"user_id":423,"name":"Heinz-Harald Hopeless","steam_id":76561199002203593,"connected_time":2601000000000,"state":"active","ping":88},{"user_id":414,"name":"salad","steam_id":76561198022225618,"connected_time":2891000000000,"state":"active","ping":84},{"user_id":446,"name":"samantha","steam_id":76561198049258493,"connected_time":740000000000,"state":"active","ping":45},{"user_id":415,"name":"Bikeway Naros","steam_id":76561198086676786,"connected_time":2861000000000,"state":"active","ping":66},{"user_id":431,"name":"What are you doing?!","steam_id":76561198405248691,"connected_time":1650000000000,"state":"active","ping":79},{"user_id":429,"name":"Stev the Prurient Oxymoron","steam_id":76561197999442625,"connected_time":2063000000000,"state":"active","ping":65},{"user_id":451,"name":"Cringe Nae Nae Baby","steam_id":76561198942358541,"connected_time":413000000000,"state":"active","ping":104},{"user_id":440,"name":"Buswolley","steam_id":76561197995205571,"connected_time":1327000000000,"state":"active","ping":70},{"user_id":433,"name":"Greskrendtregk","steam_id":76561197969553142,"connected_time":1399000000000,"state":"active","ping":58},{"user_id":422,"name":"KonJac","steam_id":76561198027812652,"connected_time":2677000000000,"state":"active","ping":75},{"user_id":445,"name":"Guppy","steam_id":76561198094512992,"connected_time":1105000000000,"state":"active","ping":104},{"user_id":434,"name":"greens beans","steam_id":76561198153611491,"connected_time":1399000000000,"state":"active","ping":42}]},{"server_id":406,"name":"Uncletopia | Seattle | 3 | Stopwatch Beta","name_short":"sea-3","host":"sea-1.us.uncletopia.com","port":27035,"enabled":true,"region":"us-west","cc":"us","latitude":47.608013,"longitude":-122.33517,"reserved":0,"last_update":"0001-01-01T00:00:00Z","name_a2s":"Uncletopia | Seattle | 3 | Stopwatch Beta","protocol":17,"map":"workshop/pl_summercoast_rc8e.ugc1761528829","folder":"tf","game":"Team Fortress","app_id":440,"player_count":1,"max_players":24,"Bots":0,"server_type":"Dedicated","server_os":"Linux","password":true,"vac":true,"version":"7882260","steam_id":85568392924515217,"keywords":["nocrits","nodmgspread","payload","uncletopia"],"game_id":440,"stv_port":27036,"stv_name":"Uncletopia | Seattle | 3 | Stopwatch Beta | STV","players":[{"user_id":23,"name":"BDMango","steam_id":76561199323225729,"connected_time":34000000000,"state":"active","ping":97}]},{"server_id":17,"name":"Uncletopia | San Francisco | 1 | All Maps","name_short":"sfo-1","host":"sfo-1.us.uncletopia.com","port":27015,"enabled":true,"region":"us-west","cc":"us","latitude":37.77397,"longitude":-122.4313,"reserved":0,"last_update":"0001-01-01T00:00:00Z","name_a2s":"Uncletopia | San Francisco | 1 | All Maps","protocol":17,"map":"cp_process_final","folder":"tf","game":"Team Fortress","app_id":440,"player_count":0,"max_players":24,"Bots":0,"server_type":"Dedicated","server_os":"Linux","password":true,"vac":true,"version":"7757534","steam_id":85568392924469999,"keywords":["cp","nocrits","nodmgspread","uncletopia"],"game_id":440,"stv_port":27016,"stv_name":"Uncletopia | San Francisco | 1 | All Maps | STV","players":null},{"server_id":18,"name":"Uncletopia | San Francisco | 2 | All Maps","name_short":"sfo-2","host":"sfo-1.us.uncletopia.com","port":27025,"enabled":true,"region":"us-west","cc":"us","latitude":37.77397,"longitude":-122.4313,"reserved":0,"last_update":"0001-01-01T00:00:00Z","name_a2s":"Uncletopia | San Francisco | 2 | All Maps","protocol":17,"map":"koth_highpass","folder":"tf","game":"Team Fortress","app_id":440,"player_count":0,"max_players":24,"Bots":0,"server_type":"Dedicated","server_os":"Linux","password":true,"vac":true,"version":"7757534","steam_id":85568392924470000,"keywords":["cp","nocrits","nodmgspread","uncletopia"],"game_id":440,"stv_port":27026,"stv_name":"Uncletopia | San Francisco | 2 | All Maps | STV","players":null},{"server_id":19,"name":"Uncletopia | San Francisco | 3 | Stopwatch Beta","name_short":"sfo-3","host":"sfo-1.us.uncletopia.com","port":27035,"enabled":true,"region":"us-west","cc":"us","latitude":37.77397,"longitude":-122.4313,"reserved":0,"last_update":"0001-01-01T00:00:00Z","name_a2s":"Uncletopia | San Francisco | 3 | Stopwatch Beta","protocol":17,"map":"koth_lakeside_final","folder":"tf","game":"Team Fortress","app_id":440,"player_count":0,"max_players":24,"Bots":0,"server_type":"Dedicated","server_os":"Linux","password":true,"vac":true,"version":"7757534","steam_id":85568392924742824,"keywords":["cp","nocrits","nodmgspread","uncletopia"],"game_id":440,"stv_port":27036,"stv_name":"Uncletopia | San Francisco | 3 | Stopwatch Beta | STV","players":null},{"server_id":20,"name":"Uncletopia | San Francisco | 4 | Community","name_short":"sfo-4","host":"sfo-1.us.uncletopia.com","port":27045,"enabled":true,"region":"us-west","cc":"us","latitude":37.77397,"longitude":-122.4313,"reserved":0,"last_update":"0001-01-01T00:00:00Z","name_a2s":"Uncletopia | San Francisco | 4 | Community","protocol":17,"map":"cp_altitude","folder":"tf","game":"Team Fortress","app_id":440,"player_count":0,"max_players":24,"Bots":0,"server_type":"Dedicated","server_os":"Linux","password":true,"vac":true,"version":"7757534","steam_id":85568392924742826,"keywords":["cp","nocrits","nodmgspread","uncletopia"],"game_id":440,"stv_port":27046,"stv_name":"Uncletopia | San Francisco | 4 | Community | STV","players":null},{"server_id":141,"name":"Uncletopia | Sydney | 1 | All Maps","name_short":"syd-1","host":"syd-1.au.uncletopia.com","port":27015,"enabled":true,"region":"au","cc":"au","latitude":-33.865143,"longitude":151.2099,"reserved":0,"last_update":"0001-01-01T00:00:00Z","name_a2s":"Uncletopia | Sydney | 1 | All Maps","protocol":17,"map":"pl_barnblitz","folder":"tf","game":"Team Fortress","app_id":440,"player_count":0,"max_players":24,"Bots":0,"server_type":"Dedicated","server_os":"Linux","password":true,"vac":true,"version":"7882260","steam_id":85568392924470001,"keywords":["nocrits","nodmgspread","payload","uncletopia"],"game_id":440,"stv_port":27016,"stv_name":"Uncletopia | Sydney | 1 | All Maps | STV","players":null},{"server_id":123,"name":"Uncletopia | Sydney | 2 | All Maps","name_short":"syd-2","host":"syd-1.au.uncletopia.com","port":27025,"enabled":true,"region":"au","cc":"au","latitude":-33.865143,"longitude":151.2099,"reserved":0,"last_update":"0001-01-01T00:00:00Z","name_a2s":"Uncletopia | Sydney | 2 | All Maps","protocol":17,"map":"cp_snakewater_final1","folder":"tf","game":"Team Fortress","app_id":440,"player_count":0,"max_players":24,"Bots":0,"server_type":"Dedicated","server_os":"Linux","password":true,"vac":true,"version":"7882260","steam_id":85568392924470002,"keywords":["cp","nocrits","nodmgspread","uncletopia"],"game_id":440,"stv_port":27026,"stv_name":"Uncletopia | Sydney | 2 | All Maps | STV","players":null},{"server_id":395,"name":"Uncletopia | Sydney | 3 | All Maps","name_short":"syd-3","host":"syd-1.au.uncletopia.com","port":27035,"enabled":true,"region":"au","cc":"au","latitude":-33.865143,"longitude":151.2099,"reserved":0,"last_update":"0001-01-01T00:00:00Z","name_a2s":"Uncletopia | Sydney | 3 | All Maps","protocol":17,"map":"pl_frontier_final","folder":"tf","game":"Team Fortress","app_id":440,"player_count":0,"max_players":24,"Bots":0,"server_type":"Dedicated","server_os":"Linux","password":true,"vac":true,"version":"7882260","steam_id":85568392925194467,"keywords":["nocrits","nodmgspread","payload","uncletopia"],"game_id":440,"stv_port":27036,"stv_name":"Uncletopia | Sydney | 3 | All Maps | STV","players":null},{"server_id":396,"name":"Uncletopia | Sydney | 4 | All Maps","name_short":"syd-4","host":"syd-1.au.uncletopia.com","port":27045,"enabled":true,"region":"au","cc":"au","latitude":-33.865143,"longitude":151.2099,"reserved":0,"last_update":"0001-01-01T00:00:00Z","name_a2s":"Uncletopia | Sydney | 4 | All Maps","protocol":17,"map":"koth_cascade","folder":"tf","game":"Team Fortress","app_id":440,"player_count":0,"max_players":24,"Bots":0,"server_type":"Dedicated","server_os":"Linux","password":true,"vac":true,"version":"7882260","steam_id":85568392925397958,"keywords":["cp","nocrits","nodmgspread","uncletopia"],"game_id":440,"stv_port":27046,"stv_name":"Uncletopia | Sydney | 4 | All Maps | STV","players":null},{"server_id":58,"name":"Uncletopia | Sydney | 5 | Stopwatch Beta","name_short":"syd-5","host":"syd-1.au.uncletopia.com","port":27055,"enabled":true,"region":"au","cc":"au","latitude":-33.865143,"longitude":151.2099,"reserved":0,"last_update":"0001-01-01T00:00:00Z","name_a2s":"Uncletopia | Sydney | 5 | Stopwatch Beta","protocol":17,"map":"pl_swiftwater_final1","folder":"tf","game":"Team Fortress","app_id":440,"player_count":0,"max_players":24,"Bots":0,"server_type":"Dedicated","server_os":"Linux","password":true,"vac":true,"version":"7882260","steam_id":85568392925397959,"keywords":["nocrits","nodmgspread","payload","uncletopia"],"game_id":440,"stv_port":27056,"stv_name":"Uncletopia | Sydney | 5 | Stopwatch Beta | STV","players":null},{"server_id":59,"name":"Uncletopia | Sydney | 6 | Community","name_short":"syd-6","host":"syd-1.au.uncletopia.com","port":27065,"enabled":true,"region":"au","cc":"au","latitude":-33.865143,"longitude":151.2099,"reserved":0,"last_update":"0001-01-01T00:00:00Z","name_a2s":"Uncletopia | Sydney | 6 | Community","protocol":17,"map":"pl_snowycoast","folder":"tf","game":"Team Fortress","app_id":440,"player_count":0,"max_players":24,"Bots":0,"server_type":"Dedicated","server_os":"Linux","password":true,"vac":true,"version":"7882260","steam_id":85568392925397960,"keywords":["nocrits","nodmgspread","payload","uncletopia"],"game_id":440,"stv_port":27066,"stv_name":"Uncletopia | Sydney | 6 | Community | STV","players":null},{"server_id":49,"name":"Uncletopia | Warsaw | 1 | All Maps","name_short":"waw-1","host":"waw-1.pl.uncletopia.com","port":27015,"enabled":true,"region":"eu","cc":"pl","latitude":52.2297,"longitude":21.017532,"reserved":0,"last_update":"0001-01-01T00:00:00Z","name_a2s":"","protocol":0,"map":"","folder":"","game":"","app_id":0,"player_count":0,"max_players":0,"Bots":0,"server_type":"","server_os":"","password":false,"vac":false,"version":"","steam_id":0,"keywords":null,"game_id":0,"stv_port":0,"stv_name":"","players":null},{"server_id":50,"name":"Uncletopia | Warsaw | 2 | All Maps","name_short":"waw-2","host":"waw-1.pl.uncletopia.com","port":27025,"enabled":true,"region":"eu","cc":"pl","latitude":52.2297,"longitude":21.017532,"reserved":0,"last_update":"0001-01-01T00:00:00Z","name_a2s":"Uncletopia | Warsaw | 2 | All Maps","protocol":17,"map":"koth_cascade","folder":"tf","game":"Team Fortress","app_id":440,"player_count":0,"max_players":24,"Bots":0,"server_type":"Dedicated","server_os":"Linux","password":true,"vac":true,"version":"7882260","steam_id":85568392925397851,"keywords":["cp","nocrits","nodmgspread","uncletopia"],"game_id":440,"stv_port":27026,"stv_name":"Uncletopia | Warsaw | 2 | All Maps | STV","players":null},{"server_id":51,"name":"Uncletopia | Warsaw | 3 | All Maps","name_short":"waw-3","host":"waw-1.pl.uncletopia.com","port":27035,"enabled":true,"region":"eu","cc":"pl","latitude":52.2297,"longitude":21.017532,"reserved":0,"last_update":"0001-01-01T00:00:00Z","name_a2s":"Uncletopia | Warsaw | 3 | All Maps","protocol":17,"map":"koth_highpass","folder":"tf","game":"Team Fortress","app_id":440,"player_count":0,"max_players":24,"Bots":0,"server_type":"Dedicated","server_os":"Linux","password":true,"vac":true,"version":"7882260","steam_id":85568392925397852,"keywords":["cp","nocrits","nodmgspread","uncletopia"],"game_id":440,"stv_port":27036,"stv_name":"Uncletopia | Warsaw | 3 | All Maps | STV","players":null},{"server_id":52,"name":"Uncletopia | Warsaw | 4 | All Maps","name_short":"waw-4","host":"waw-1.pl.uncletopia.com","port":27045,"enabled":true,"region":"eu","cc":"pl","latitude":52.2297,"longitude":21.017532,"reserved":0,"last_update":"0001-01-01T00:00:00Z","name_a2s":"Uncletopia | Warsaw | 4 | All Maps","protocol":17,"map":"koth_highpass","folder":"tf","game":"Team Fortress","app_id":440,"player_count":0,"max_players":24,"Bots":0,"server_type":"Dedicated","server_os":"Linux","password":true,"vac":true,"version":"7882260","steam_id":85568392925397853,"keywords":["cp","nocrits","nodmgspread","uncletopia"],"game_id":440,"stv_port":27046,"stv_name":"Uncletopia | Warsaw | 4 | All Maps | STV","players":null},{"server_id":53,"name":"Uncletopia | Warsaw | 5 | Stopwatch Beta","name_short":"waw-5","host":"waw-1.pl.uncletopia.com","port":27055,"enabled":true,"region":"eu","cc":"pl","latitude":52.2297,"longitude":21.017532,"reserved":0,"last_update":"0001-01-01T00:00:00Z","name_a2s":"Uncletopia | Warsaw | 5 | Stopwatch Beta","protocol":17,"map":"cp_mountainlab","folder":"tf","game":"Team Fortress","app_id":440,"player_count":0,"max_players":24,"Bots":0,"server_type":"Dedicated","server_os":"Linux","password":true,"vac":true,"version":"7882260","steam_id":85568392925397854,"keywords":["cp","nocrits","nodmgspread","uncletopia"],"game_id":440,"stv_port":27056,"stv_name":"Uncletopia | Warsaw | 5 | Stopwatch Beta | STV","players":null},{"server_id":54,"name":"Uncletopia | Warsaw | 6 | Community","name_short":"waw-6","host":"waw-1.pl.uncletopia.com","port":27065,"enabled":true,"region":"eu","cc":"pl","latitude":52.2297,"longitude":21.017532,"reserved":0,"last_update":"0001-01-01T00:00:00Z","name_a2s":"Uncletopia | Warsaw | 6 | Community","protocol":17,"map":"workshop/cp_indulge.ugc528106646","folder":"tf","game":"Team Fortress","app_id":440,"player_count":0,"max_players":24,"Bots":0,"server_type":"Dedicated","server_os":"Linux","password":true,"vac":true,"version":"7882260","steam_id":85568392925397856,"keywords":["cp","nocrits","nodmgspread","uncletopia"],"game_id":440,"stv_port":27066,"stv_name":"Uncletopia | Warsaw | 6 | Community | STV","players":null}]}