{"status":true,"message":"","result":[{"server_id":9,"name":"Uncletopia | Atlanta | 1 | All Maps","name_short":"atl-1","host":"atl-1.us.uncletopia.com","port":27015,"enabled":true,"region":"us-east","cc":"us","latitude":33.753746,"longitude":-84.38633,"reserved":0,"last_update":"0001-01-01T00:00:00Z","name_a2s":"Uncletopia | Atlanta | 1 | All Maps","protocol":17,"map":"pl_snowycoast","folder":"tf","game":"Team Fortress","app_id":440,"player_count":0,"max_players":24,"Bots":0,"server_type":"Dedicated","server_os":"Linux","password":true,"vac":true,"version":"7932396","steam_id":85568392924469982,"keywords":["nocrits","nodmgspread","payload","uncletopia"],"game_id":440,"stv_port":27016,"stv_name":"Uncletopia | Atlanta | 1 | All Maps | STV","players":null},{"server_id":104,"name":"Uncletopia | Atlanta | 2 | All Maps","name_short":"atl-2","host":"atl-1.us.uncletopia.com","port":27025,"enabled":true,"region":"us-east","cc":"us","latitude":33.753746,"longitude":-84.38633,"reserved":0,"last_update":"0001-01-01T00:00:00Z","name_a2s":"Uncletopia | Atlanta | 2 | All Maps","protocol":17,"map":"cp_process_final","folder":"tf","game":"Team Fortress","app_id":440,"player_count":0,"max_players":24,"Bots":0,"server_type":"Dedicated","server_os":"Linux","password":true,"vac":true,"version":"7932396","steam_id":85568392924469983,"keywords":["cp","nocrits","nodmgspread","uncletopia"],"game_id":440,"stv_port":27026,"stv_name":"Uncletopia | Atlanta | 2 | All Maps | STV","players":null},{"server_id":400,"name":"Uncletopia | Atlanta | 3 | Community","name_short":"atl-3","host":"atl-1.us.uncletopia.com","port":27035,"enabled":true,"region":"us-east","cc":"us","latitude":33.753746,"longitude":-84.38633,"reserved":0,"last_update":"0001-01-01T00:00:00Z","name_a2s":"Uncletopia | Atlanta | 3 | Community","protocol":17,"map":"workshop/pl_fifthcurve_rc1.ugc648227046","folder":"tf","game":"Team Fortress","app_id":440,"player_count":0,"max_players":24,"Bots":0,"server_type":"Dedicated","server_os":"Linux","password":true,"vac":true,"version":"7932396","steam_id":85568392924515187,"keywords":["nocrits","nodmgspread","payload","uncletopia"],"game_id":440,"stv_port":27036,"stv_name":"Uncletopia | Atlanta | 3 | Community | STV","players":null},{"server_id":401,"name":"Uncletopia | Atlanta | 4 | No Payload","name_short":"atl-4","host":"atl-1.us.uncletopia.com","port":27045,"enabled":true,"region":"us-east","cc":"us","latitude":33.753746,"longitude":-84.38633,"reserved":0,"last_update":"0001-01-01T00:00:00Z","name_a2s":"","protocol":0,"map":"","folder":"","game":"","app_id":0,"player_count":0,"max_players":0,"Bots":0,"server_type":"","server_os":"","password":false,"vac":false,"version":"","steam_id":0,"keywords":null,"game_id":0,"stv_port":0,"stv_name":"","players":null},{"server_id":2,"name":"Uncletopia | Chicago | 1 | All Maps","name_short":"chi-1","host":"chi-1.us.uncletopia.com","port":27015,"enabled":true,"region":"us-central","cc":"us","latitude":41.881832,"longitude":-87.62318,"reserved":0,"last_update":"0001-01-01T00:00:00Z","name_a2s":"Uncletopia | Chicago | 1 | All Maps","protocol":17,"map":"koth_lakeside_final","folder":"tf","game":"Team Fortress","app_id":440,"player_count":0,"max_players":24,"Bots":0,"server_type":"Dedicated","server_os":"Linux","password":true,"vac":true,"version":"7932396","steam_id":85568392924469984,"keywords":["cp","nocrits","nodmgspread","uncletopia"],"game_id":440,"stv_port":27016,"stv_name":"Uncletopia | Chicago | 1 | All Maps | STV","players":null},{"server_id":106,"name":"Uncletopia | Chicago | 2 | All Maps","name_short":"chi-2","host":"chi-1.us.uncletopia.com","port":27025,"enabled":true,"region":"us-central","cc":"us","latitude":41.881832,"longitude":-87.62318,"reserved":0,"last_update":"0001-01-01T00:00:00Z","name_a2s":"Uncletopia | Chicago | 2 | All Maps","protocol":17,"map":"cp_mountainlab","folder":"tf","game":"Team Fortress","app_id":440,"player_count":24,"max_players":24,"Bots":0,"server_type":"Dedicated","server_os":"Linux","password":true,"vac":true,"version":"7932396","steam_id":85568392924469985,"keywords":["cp","nocrits","nodmgspread","uncletopia"],"game_id":440,"stv_port":27026,"stv_name":"Uncletopia | Chicago | 2 | All Maps | STV","players":[{"user_id":75,"name":"The Man that ruined the UK","steam_id":76561198005816193,"connected_time":2997000000000,"state":"active","ping":78},{"user_id":73,"name":"carrot cake","steam_id":76561198055174915,"connected_time":3113000000000,"state":"active","ping":70},{"user_id":96,"name":"PAYLOAD STEVE","steam_id":76561198063475894,"connected_time":1041000000000,"state":"active","ping":65},{"user_id":90,"name":"Lovedaddy","steam_id":76561198006569710,"connected_time":1786000000000,"state":"active","ping":80},{"user_id":97,"name":"Sneetch [sRb]","steam_id":76561197996693506,"connected_time":1038000000000,"state":"active","ping":86},{"user_id":71,"name":"broken sound toys","steam_id":76561198236166288,"connected_time":3220000000000,"state":"active","ping":78},{"user_id":91,"name":"KaleScrooge","steam_id":76561199229442595,"connected_time":1778000000000,"state":"active","ping":159},{"user_id":98,"name":"God","steam_id":76561198131089513,"connected_time":1014000000000,"state":"active","ping":56},{"user_id":101,"name":"exeg","steam_id":76561199086055951,"connected_time":669000000000,"state":"active","ping":75},{"user_id":46,"name":"Brown_Dream","steam_id":76561198975766145,"connected_time":5318000000000,"state":"active","ping":80},{"user_id":87,"name":"Mank","steam_id":76561198189421005,"connected_time":2083000000000,"state":"active","ping":50},{"user_id":83,"name":"IAmAProfesonal","steam_id":76561199171858953,"connected_time":2350000000000,"state":"active","ping":50},{"user_id":86,"name":"Lost","steam_id":76561198093713427,"connected_time":2310000000000,"state":"active","ping":58},{"user_id":56,"name":"bogus binted","steam_id":76561198203329842,"connected_time":4676000000000,"state":"active","ping":83},{"user_id":102,"name":"mikey","steam_id":76561198095803763,"connected_time":639000000000,"state":"active","ping":76},{"user_id":79,"name":"blobb","steam_id":76561198950448488,"connected_time":2535000000000,"state":"active","ping":50},{"user_id":100,"name":"nullptr","steam_id":76561198111790388,"connected_time":958000000000,"state":"active","ping":82},{"user_id":65,"name":"Engideer","steam_id":76561198145733164,"connected_time":3459000000000,"state":"active","ping":74},{"user_id":77,"name":"·∂ú·µÉ·∂ú·µÉÀ¢·µñ ∏","steam_id":76561198140946476,"connected_time":2613000000000,"state":"active","ping":85},{"user_id":106,"name":"Xiphor","steam_id":76561199236537212,"connected_time":50000000000,"state":"active","ping":67},{"user_id":107,"name":"Al Cabone","steam_id":76561198956823243,"connected_time":44000000000,"state":"active","ping":76},{"user_id":104,"name":"Questor","steam_id":76561198034859665,"connected_time":85000000000,"state":"spawning","ping":75},{"user_id":108,"name":"Deathpill","steam_id":76561197994404793,"connected_time":38000000000,"state":"active","ping":72},{"user_id":109,"name":"CHAIRMAN MAO GAMING","steam_id":76561198066018972,"connected_time":38000000000,"state":"spawning","ping":79}]},{"server_id":402,"name":"Uncletopia | Chicago | 3 | All Maps","name_short":"chi-3","host":"chi-1.us.uncletopia.com","port":27035,"enabled":true,"region":"us-central","cc":"us","latitude":41.881832,"longitude":-87.62318,"reserved":0,"last_update":"0001-01-01T00:00:00Z","name_a2s":"Uncletopia | Chicago | 3 | All Maps","protocol":17,"map":"pl_pier","folder":"tf","game":"Team Fortress","app_id":440,"player_count":0,"max_players":24,"Bots":0,"server_type":"Dedicated","server_os":"Linux","password":true,"vac":true,"version":"7932396","steam_id":85568392924515191,"keywords":["nocrits","nodmgspread","payload","uncletopia"],"game_id":440,"stv_port":27036,"stv_name":"Uncletopia | Chicago | 3 | All Maps | STV","players":null},{"server_id":403,"name":"Uncletopia | Chicago | 4 | All Maps","name_short":"chi-4","host":"chi-1.us.uncletopia.com","port":27045,"enabled":true,"region":"us-central","cc":"us","latitude":41.881832,"longitude":-87.62318,"reserved":0,"last_update":"0001-01-01T00:00:00Z","name_a2s":"Uncletopia | Chicago | 4 | All Maps","protocol":17,"map":"pl_snowycoast","folder":"tf","game":"Team Fortress","app_id":440,"player_count":24,"max_players":24,"Bots":0,"server_type":"Dedicated","server_os":"Linux","password":true,"vac":true,"version":"7932396","steam_id":85568392924515193,"keywords":["nocrits","nodmgspread","payload","uncletopia"],"game_id":440,"stv_port":27046,"stv_name":"Uncletopia | Chicago | 4 | All Maps | STV","players":[{"user_id":71,"name":"Yummy Kabobz","steam_id":76561198067661705,"connected_time":4048000000000,"state":"active","ping":61},{"user_id":113,"name":"Gotta Move That Gear Up","steam_id":76561197993467034,"connected_time":1085000000000,"state":"active","ping":49},{"user_id":123,"name":"Raptortastic","steam_id":76561198105613110,"connected_time":215000000000,"state":"active","ping":50},{"user_id":6,"name":"daemon","steam_id":76561198001541433,"connected_time":10306000000000,"state":"active","ping":52},{"user_id":79,"name":"‚ô• Femboy‚ô•Ventily ‚ô•","steam_id":76561198157260335,"connected_time":3542000000000,"state":"active","ping":49},{"user_id":87,"name":"shadowking","steam_id":76561199284698401,"connected_time":2438000000000,"state":"active","ping":92},{"user_id":103,"name":"jan kili","steam_id":76561198289894834,"connected_time":2044000000000,"state":"active","ping":67},{"user_id":114,"name":"beta central","steam_id":76561198301876831,"connected_time":1078000000000,"state":"active","ping":57},{"user_id":80,"name":"mkl","steam_id":76561197986401685,"connected_time":3036000000000,"state":"active","ping":76},{"user_id":111,"name":"B.","steam_id":76561198040445907,"connected_time":1324000000000,"state":"active","ping":76},{"user_id":112,"name":"phantom","steam_id":76561197963860777,"connected_time":1211000000000,"state":"active","ping":93},{"user_id":109,"name":"amanofboys91","steam_id":76561199474653798,"connected_time":1822000000000,"state":"active","ping":134},{"user_id":124,"name":"Ground Beef Popsicle","steam_id":76561198045499333,"connected_time":33000000000,"state":"active","ping":66},{"user_id":107,"name":"scared","steam_id":76561198050220225,"connected_time":1943000000000,"state":"active","ping":67},{"user_id":78,"name":"Pluto","steam_id":76561197979253518,"connected_time":3564000000000,"state":"active","ping":83},{"user_id":117,"name":"Fribas","steam_id":76561198138502813,"connected_time":953000000000,"state":"active","ping":75},{"user_id":118,"name":"Wire  Bash","steam_id":76561198033268371,"connected_time":756000000000,"state":"active","ping":155},{"user_id":121,"name":"B‚àûp | ‚ù§Fasto‚ù§","steam_id":76561198118298527,"connected_time":684000000000,"state":"active","ping":164},{"user_id":122,"name":"GooniOoni","steam_id":76561198102154561,"connected_time":684000000000,"state":"active","ping":44},{"user_id":97,"name":"Senator Red","steam_id":76561198039298427,"connected_time":2271000000000,"state":"active","ping":92},{"user_id":98,"name":"ThatOnePotato","steam_id":76561199045781941,"connected_time":2255000000000,"state":"active","ping":71},{"user_id":116,"name":"Epifiny","steam_id":76561198027958086,"connected_time":1076000000000,"state":"active","ping":71},{"user_id":63,"name":"Ôº£Ôº®Ôº°Ôº≠Ôº∞Ôº©ÔºØÔºÆ","steam_id":76561198883157736,"connected_time":5891000000000,"state":"active","ping":114},{"user_id":102,"name":"goon squad","steam_id":76561198402168146,"connected_time":2085000000000,"state":"active","ping":59}]},{"server_id":36,"name":"Uncletopia | Chicago | 5 | All Maps","name_short":"chi-5","host":"chi-2.us.uncletopia.com","port":27015,"enabled":true,"region":"us-central","cc":"us","latitude":41.881832,"longitude":-87.62318,"reserved":0,"last_update":"0001-01-01T00:00:00Z","name_a2s":"Uncletopia | Chicago | 5 | All Maps","protocol":17,"map":"cp_dustbowl","folder":"tf","game":"Team Fortress","app_id":440,"player_count":0,"max_players":24,"Bots":0,"server_type":"Dedicated","server_os":"Linux","password":true,"vac":true,"version":"7932396","steam_id":85568392924866362,"keywords":["cp","nocrits","nodmgspread","uncletopia"],"game_id":440,"stv_port":27016,"stv_name":"Uncletopia | Chicago | 5 | All Maps | STV","players":null},{"server_id":37,"name":"Uncletopia | Chicago | 6 | All Maps","name_short":"chi-6","host":"chi-2.us.uncletopia.com","port":27025,"enabled":true,"region":"us-central","cc":"us","latitude":41.881832,"longitude":-87.62318,"reserved":0,"last_update":"0001-01-01T00:00:00Z","name_a2s":"Uncletopia | Chicago | 6 | All Maps","protocol":17,"map":"koth_viaduct","folder":"tf","game":"Team Fortress","app_id":440,"player_count":0,"max_players":24,"Bots":0,"server_type":"Dedicated","server_os":"Linux","password":true,"vac":true,"version":"7932396","steam_id":85568392924866363,"keywords":["cp","nocrits","nodmgspread","uncletopia"],"game_id":440,"stv_port":27026,"stv_name":"Uncletopia | Chicago | 6 | All Maps | STV","players":null},{"server_id":38,"name":"Uncletopia | Chicago | 7 | Stopwatch Beta","name_short":"chi-7","host":"chi-2.us.uncletopia.com","port":27035,"enabled":true,"region":"us-central","cc":"us","latitude":41.881832,"longitude":-87.62318,"reserved":0,"last_update":"0001-01-01T00:00:00Z","name_a2s":"Uncletopia | Chicago | 7 | Stopwatch Beta","protocol":17,"map":"pl_borneo","folder":"tf","game":"Team Fortress","app_id":440,"player_count":0,"max_players":24,"Bots":0,"server_type":"Dedicated","server_os":"Linux","password":true,"vac":true,"version":"7932396","steam_id":85568392924866364,"keywords":["nocrits","nodmgspread","payload","uncletopia"],"game_id":440,"stv_port":27036,"stv_name":"Uncletopia | Chicago | 7 | Stopwatch Beta | STV","players":null},{"server_id":39,"name":"Uncletopia | Chicago | 8 | Community","name_short":"chi-8","host":"chi-2.us.uncletopia.com","port":27045,"enabled":true,"region":"us-central","cc":"us","latitude":41.881832,"longitude":-87.62318,"reserved":0,"last_update":"0001-01-01T00:00:00Z","name_a2s":"Uncletopia | Chicago | 8 | Community","protocol":17,"map":"koth_viaduct","folder":"tf","game":"Team Fortress","app_id":440,"player_count":0,"max_players":24,"Bots":0,"server_type":"Dedicated","server_os":"Linux","password":true,"vac":true,"version":"7932396","steam_id":85568392924866365,"keywords":["cp","nocrits","nodmgspread","uncletopia"],"game_id":440,"stv_port":27046,"stv_name":"Uncletopia | Chicago | 8 | Community | STV","players":null},{"server_id":8,"name":"Uncletopia | Dallas | 1 | All Maps","name_short":"dal-1","host":"dal-1.us.uncletopia.com","port":27015,"enabled":true,"region":"us-central","cc":"us","latitude":32.779167,"longitude":-96.80889,"reserved":0,"last_update":"0001-01-01T00:00:00Z","name_a2s":"Uncletopia | Dallas | 1 | All Maps","protocol":17,"map":"koth_harvest_final","folder":"tf","game":"Team Fortress","app_id":440,"player_count":11,"max_players":24,"Bots":0,"server_type":"Dedicated","server_os":"Linux","password":true,"vac":true,"version":"7932396","steam_id":85568392924469986,"keywords":["cp","nocrits","nodmgspread","uncletopia"],"game_id":440,"stv_port":27016,"stv_name":"Uncletopia | Dallas | 1 | All Maps | STV","players":[{"user_id":6,"name":"Shisho","steam_id":76561198800199201,"connected_time":1492000000000,"state":"active","ping":56},{"user_id":17,"name":"shoxidizer","steam_id":76561198981983698,"connected_time":124000000000,"state":"active","ping":96},{"user_id":8,"name":"joe","steam_id":76561199389283507,"connected_time":777000000000,"state":"active","ping":84},{"user_id":10,"name":"penis scout","steam_id":76561199105479508,"connected_time":604000000000,"state":"active","ping":79},{"user_id":11,"name":"cypherzero","steam_id":76561199182960322,"connected_time":537000000000,"state":"active","ping":47},{"user_id":12,"name":"sir camara32","steam_id":76561199473344099,"connected_time":525000000000,"state":"active","ping":170},{"user_id":14,"name":"tophatter","steam_id":76561199487676443,"connected_time":443000000000,"state":"active","ping":69},{"user_id":15,"name":"SentPie","steam_id":76561198796459932,"connected_time":408000000000,"state":"active","ping":46},{"user_id":16,"name":"Jerk Tryhard (roleplay)","steam_id":76561199470538309,"connected_time":319000000000,"state":"active","ping":73},{"user_id":18,"name":"DMM","steam_id":76561198065426171,"connected_time":84000000000,"state":"active","ping":47},{"user_id":19,"name":"feenman","steam_id":76561199383834799,"connected_time":45000000000,"state":"active","ping":69}]},{"server_id":108,"name":"Uncletopia | Dallas | 2 | All Maps","name_short":"dal-2","host":"dal-1.us.uncletopia.com","port":27025,"enabled":true,"region":"us-central","cc":"us","latitude":32.779167,"longitude":-96.80889,"reserved":0,"last_update":"0001-01-01T00:00:00Z","name_a2s":"Uncletopia | Dallas | 2 | All Maps","protocol":17,"map":"cp_process_final","folder":"tf","game":"Team Fortress","app_id":440,"player_count":0,"max_players":24,"Bots":0,"server_type":"Dedicated","server_os":"Linux","password":true,"vac":true,"version":"7932396","steam_id":85568392924469988,"keywords":["cp","nocrits","nodmgspread","uncletopia"],"game_id":440,"stv_port":27026,"stv_name":"Uncletopia | Dallas | 2 | All Maps | STV","players":null},{"server_id":5,"name":"Uncletopia | Frankfurt | 1 | All Maps","name_short":"frk-1","host":"frk-1.de.uncletopia.com","port":27015,"enabled":true,"region":"eu","cc":"de","latitude":50.110924,"longitude":8.682127,"reserved":0,"last_update":"0001-01-01T00:00:00Z","name_a2s":"Uncletopia | Frankfurt | 1 | All Maps","protocol":17,"map":"pl_badwater","folder":"tf","game":"Team Fortress","app_id":440,"player_count":23,"max_players":24,"Bots":0,"server_type":"Dedicated","server_os":"Linux","password":true,"vac":true,"version":"7932396","steam_id":85568392924469989,"keywords":["nocrits","nodmgspread","payload","uncletopia"],"game_id":440,"stv_port":27016,"stv_name":"Uncletopia | Frankfurt | 1 | All Maps | STV","players":[{"user_id":16,"name":"wyro","steam_id":76561199176835169,"connected_time":2149000000000,"state":"active","ping":66},{"user_id":17,"name":"cosmetical","steam_id":76561198444036574,"connected_time":2063000000000,"state":"active","ping":68},{"user_id":20,"name":"https","steam_id":76561199109670796,"connected_time":1284000000000,"state":"active","ping":51},{"user_id":21,"name":"The_Kokot","steam_id":76561198875838549,"connected_time":1257000000000,"state":"active","ping":61},{"user_id":27,"name":"The Third Degree collector","steam_id":76561199165355017,"connected_time":545000000000,"state":"active","ping":105},{"user_id":29,"name":"Huns","steam_id":76561198990302889,"connected_time":461000000000,"state":"active","ping":171},{"user_id":25,"name":"hoddie_GUY152","steam_id":76561199222164769,"connected_time":955000000000,"state":"active","ping":63},{"user_id":30,"name":"Montrose","steam_id":76561198338911736,"connected_time":458000000000,"state":"active","ping":164},{"user_id":31,"name":"Nome","steam_id":76561198867982828,"connected_time":402000000000,"state":"active","ping":113},{"user_id":32,"name":"Kristall_54","steam_id":76561199405759756,"connected_time":327000000000,"state":"active","ping":582},{"user_id":33,"name":"Jeerven","steam_id":76561198259189841,"connected_time":318000000000,"state":"active","ping":60},{"user_id":38,"name":"radiation","steam_id":76561198001157602,"connected_time":216000000000,"state":"active","ping":155},{"user_id":35,"name":"Rare bulldog owner","steam_id":76561199407941086,"connected_time":251000000000,"state":"active","ping":65},{"user_id":50,"name":"Veir≈´ Viseris","steam_id":76561197989857176,"connected_time":54000000000,"state":"spawning","ping":69},{"user_id":40,"name":"Glenn Quagmire","steam_id":76561199348527880,"connected_time":143000000000,"state":"active","ping":92},{"user_id":39,"name":"beurgeur","steam_id":76561198872426314,"connected_time":180000000000,"state":"active","ping":45},{"user_id":43,"name":"Bahador","steam_id":76561198897378461,"connected_time":125000000000,"state":"active","ping":75},{"user_id":42,"name":"Very Original Name","steam_id":76561199159833013,"connected_time":136000000000,"state":"active","ping":59},{"user_id":44,"name":"smell_my_cheese","steam_id":76561198008517427,"connected_time":104000000000,"state":"active","ping":86},{"user_id":45,"name":"Platform666","steam_id":76561198314266851,"connected_time":101000000000,"state":"active","ping":110},{"user_id":47,"name":"loko","steam_id":76561198258675383,"connected_time":86000000000,"state":"active","ping":76},{"user_id":48,"name":"Icarus300","steam_id":76561198015125766,"connected_time":85000000000,"state":"active","ping":82},{"user_id":49,"name":"Puddsta","steam_id":76561198326711568,"connected_time":82000000000,"state":"active","ping":55}]},{"server_id":110,"name":"Uncletopia | Frankfurt | 2 | All Maps","name_short":"frk-2","host":"frk-1.de.uncletopia.com","port":27025,"enabled":true,"region":"eu","cc":"de","latitude":50.110924,"longitude":8.682127,"reserved":0,"last_update":"0001-01-01T00:00:00Z","name_a2s":"Uncletopia | Frankfurt | 2 | All Maps","protocol":17,"map":"pl_pier","folder":"tf","game":"Team Fortress","app_id":440,"player_count":20,"max_players":24,"Bots":0,"server_type":"Dedicated","server_os":"Linux","password":true,"vac":true,"version":"7932396","steam_id":85568392924469990,"keywords":["nocrits","nodmgspread","payload","uncletopia"],"game_id":440,"stv_port":27026,"stv_name":"Uncletopia | Frankfurt | 2 | All Maps | STV","players":[{"user_id":221,"name":"CacoDemon","steam_id":76561199122784612,"connected_time":1309000000000,"state":"active","ping":103},{"user_id":263,"name":"Emanuel","steam_id":76561199021895204,"connected_time":120000000000,"state":"active","ping":127},{"user_id":252,"name":"Stuid","steam_id":76561199427506542,"connected_time":449000000000,"state":"active","ping":77},{"user_id":264,"name":"WATANG!","steam_id":76561198040478926,"connected_time":116000000000,"state":"active","ping":63},{"user_id":266,"name":"Flared","steam_id":76561198018673136,"connected_time":58000000000,"state":"active","ping":78},{"user_id":267,"name":"nyanezt","steam_id":76561198253734265,"connected_time":54000000000,"state":"active","ping":102},{"user_id":165,"name":"MOST VALUABLE PLAYER","steam_id":76561198058656179,"connected_time":3283000000000,"state":"active","ping":52},{"user_id":190,"name":"Klifton","steam_id":76561198803743443,"connected_time":1886000000000,"state":"active","ping":62},{"user_id":207,"name":"QR code 78","steam_id":76561198073749509,"connected_time":1784000000000,"state":"active","ping":68},{"user_id":179,"name":"Mischail","steam_id":76561198016127010,"connected_time":2686000000000,"state":"active","ping":65},{"user_id":248,"name":"Jude!","steam_id":76561197983597798,"connected_time":543000000000,"state":"active","ping":53},{"user_id":185,"name":"Maythorn","steam_id":76561198049709072,"connected_time":2173000000000,"state":"active","ping":135},{"user_id":196,"name":"Spirito","steam_id":76561198044736913,"connected_time":1805000000000,"state":"active","ping":82},{"user_id":251,"name":"Goga11","steam_id":76561198451145010,"connected_time":474000000000,"state":"active","ping":107},{"user_id":155,"name":"avenje","steam_id":76561198155824845,"connected_time":3744000000000,"state":"active","ping":68},{"user_id":258,"name":"murderwow","steam_id":76561198024566944,"connected_time":245000000000,"state":"active","ping":92},{"user_id":262,"name":"B19-PP","steam_id":76561198057733920,"connected_time":167000000000,"state":"active","ping":119},{"user_id":191,"name":"Mac Bean","steam_id":76561198133782205,"connected_time":1832000000000,"state":"active","ping":119},{"user_id":168,"name":"vurtun","steam_id":76561198857395274,"connected_time":3081000000000,"state":"active","ping":55},{"user_id":206,"name":"nedilya","steam_id":76561198039692077,"connected_time":1790000000000,"state":"active","ping":58}]},{"server_id":308,"name":"Uncletopia | Frankfurt | 3 | All Maps","name_short":"frk-3","host":"frk-1.de.uncletopia.com","port":27035,"enabled":true,"region":"eu","cc":"de","latitude":50.110924,"longitude":8.682127,"reserved":0,"last_update":"0001-01-01T00:00:00Z","name_a2s":"Uncletopia | Frankfurt | 3 | All Maps","protocol":17,"map":"pl_badwater","folder":"tf","game":"Team Fortress","app_id":440,"player_count":24,"max_players":24,"Bots":0,"server_type":"Dedicated","server_os":"Linux","password":true,"vac":true,"version":"7932396","steam_id":85568392924504274,"keywords":["nocrits","nodmgspread","payload","uncletopia"],"game_id":440,"stv_port":27036,"stv_name":"Uncletopia | Frankfurt | 3 | All Maps | STV","players":[{"user_id":133,"name":"REN","steam_id":76561198000596385,"connected_time":3331000000000,"state":"active","ping":70},{"user_id":142,"name":"Fallen Dog","steam_id":76561198851387188,"connected_time":2757000000000,"state":"active","ping":61},{"user_id":160,"name":"nemelex","steam_id":76561198958005865,"connected_time":2163000000000,"state":"active","ping":60},{"user_id":173,"name":"YOU ARE SHITTING YOUR SELF","steam_id":76561198371719058,"connected_time":681000000000,"state":"active","ping":71},{"user_id":144,"name":"Michal jordan","steam_id":76561199106262610,"connected_time":2716000000000,"state":"active","ping":67},{"user_id":168,"name":"Based Vrillionaire Trapstar","steam_id":76561198324813535,"connected_time":1262000000000,"state":"active","ping":92},{"user_id":84,"name":"Covetousix","steam_id":76561198293936824,"connected_time":6151000000000,"state":"active","ping":73},{"user_id":161,"name":"MeBandae","steam_id":76561198910770432,"connected_time":2010000000000,"state":"active","ping":94},{"user_id":155,"name":"RXQ","steam_id":76561199423258992,"connected_time":2518000000000,"state":"active","ping":159},{"user_id":146,"name":"Nonhuman","steam_id":76561198062002340,"connected_time":2656000000000,"state":"active","ping":78},{"user_id":164,"name":"Snail","steam_id":76561198883228947,"connected_time":1613000000000,"state":"active","ping":135},{"user_id":127,"name":"Greenmaker","steam_id":76561198060466591,"connected_time":3712000000000,"state":"active","ping":82},{"user_id":167,"name":"nevim","steam_id":76561199120843402,"connected_time":1299000000000,"state":"active","ping":58},{"user_id":136,"name":"red guy in melancholic pain","steam_id":76561198031573426,"connected_time":3104000000000,"state":"active","ping":70},{"user_id":169,"name":"Scatter","steam_id":76561198258085271,"connected_time":1212000000000,"state":"active","ping":87},{"user_id":157,"name":"Skuld","steam_id":76561198064734905,"connected_time":2400000000000,"state":"active","ping":93},{"user_id":165,"name":"axl#pizdaaim","steam_id":76561198991661832,"connected_time":1485000000000,"state":"active","ping":66},{"user_id":170,"name":"YuraGreek","steam_id":76561198050182252,"connected_time":1199000000000,"state":"active","ping":75},{"user_id":150,"name":"A stripper","steam_id":76561198034865891,"connected_time":2618000000000,"state":"active","ping":61},{"user_id":162,"name":"guiseppe","steam_id":76561198046129681,"connected_time":2001000000000,"state":"active","ping":103},{"user_id":159,"name":"Tout Petit Cerveau","steam_id":76561198120837915,"connected_time":2302000000000,"state":"active","ping":45},{"user_id":171,"name":"LivEssense","steam_id":76561198052476979,"connected_time":1195000000000,"state":"active","ping":75},{"user_id":172,"name":"Qestes","steam_id":76561198172417590,"connected_time":988000000000,"state":"active","ping":70},{"user_id":137,"name":"Barak93","steam_id":76561198044585705,"connected_time":3083000000000,"state":"active","ping":61}]},{"server_id":309,"name":"Uncletopia | Frankfurt | 4 | All Maps","name_short":"frk-4","host":"frk-1.de.uncletopia.com","port":27045,"enabled":true,"region":"eu","cc":"de","latitude":50.110924,"longitude":8.682127,"reserved":0,"last_update":"0001-01-01T00:00:00Z","name_a2s":"Uncletopia | Frankfurt | 4 | All Maps","protocol":17,"map":"plr_hightower","folder":"tf","game":"Team Fortress","app_id":440,"player_count":21,"max_players":24,"Bots":0,"server_type":"Dedicated","server_os":"Linux","password":true,"vac":true,"version":"7932396","steam_id":85568392924504275,"keywords":["nocrits","nodmgspread","payload","uncletopia"],"game_id":440,"stv_port":27046,"stv_name":"Uncletopia | Frankfurt | 4 | All Maps | STV","players":[{"user_id":264,"name":"NotChloe","steam_id":76561198080658092,"connected_time":924000000000,"state":"active","ping":74},{"user_id":270,"name":"Majami","steam_id":76561198054365738,"connected_time":299000000000,"state":"active","ping":74},{"user_id":257,"name":"oi space man","steam_id":76561198161824724,"connected_time":1491000000000,"state":"active","ping":149},{"user_id":255,"name":"AdThGu","steam_id":76561198259308832,"connected_time":1518000000000,"state":"active","ping":81},{"user_id":271,"name":"Flying skyhigh","steam_id":76561198372971096,"connected_time":298000000000,"state":"active","ping":82},{"user_id":265,"name":"BeanGuyMagnus","steam_id":76561198299123355,"connected_time":804000000000,"state":"active","ping":68},{"user_id":235,"name":"Gregor","steam_id":76561199474923376,"connected_time":3087000000000,"state":"active","ping":84},{"user_id":208,"name":"lmao6103","steam_id":76561199229130456,"connected_time":3918000000000,"state":"active","ping":104},{"user_id":258,"name":"Bobbeldibob","steam_id":76561198256796473,"connected_time":1483000000000,"state":"active","ping":61},{"user_id":272,"name":"veto vuyisio","steam_id":76561199101145470,"connected_time":98000000000,"state":"active","ping":74},{"user_id":267,"name":"big poo","steam_id":76561198129157178,"connected_time":561000000000,"state":"active","ping":83},{"user_id":215,"name":"Dr. sex","steam_id":76561199174677820,"connected_time":3779000000000,"state":"active","ping":132},{"user_id":252,"name":"‚ô• Your Medic Boyfriend ‚ô•","steam_id":76561199202438796,"connected_time":1625000000000,"state":"active","ping":43},{"user_id":260,"name":"Nekramite","steam_id":76561198166617261,"connected_time":1394000000000,"state":"active","ping":54},{"user_id":216,"name":"Chief Executive Officer of Sex","steam_id":76561198385989487,"connected_time":3768000000000,"state":"active","ping":104},{"user_id":238,"name":"FUKAYU","steam_id":76561198380484033,"connected_time":2901000000000,"state":"active","ping":53},{"user_id":261,"name":"Foreskin Washing Advisory Board","steam_id":76561198051685232,"connected_time":1358000000000,"state":"active","ping":45},{"user_id":250,"name":"papaja","steam_id":76561199216208960,"connected_time":1995000000000,"state":"active","ping":78},{"user_id":225,"name":"Operunter","steam_id":76561198059937616,"connected_time":3594000000000,"state":"active","ping":68},{"user_id":262,"name":"Devinloper","steam_id":76561198098420735,"connected_time":1303000000000,"state":"active","ping":61},{"user_id":186,"name":"Furno","steam_id":76561197999723047,"connected_time":6203000000000,"state":"active","ping":51}]},{"server_id":310,"name":"Uncletopia | Frankfurt | 5 | All Maps","name_short":"frk-5","host":"frk-1.de.uncletopia.com","port":27055,"enabled":true,"region":"eu","cc":"de","latitude":50.110924,"longitude":8.682127,"reserved":0,"last_update":"0001-01-01T00:00:00Z","name_a2s":"Uncletopia | Frankfurt | 5 | All Maps","protocol":17,"map":"cp_process_final","folder":"tf","game":"Team Fortress","app_id":440,"player_count":24,"max_players":24,"Bots":0,"server_type":"Dedicated","server_os":"Linux","password":true,"vac":true,"version":"7932396","steam_id":85568392924504277,"keywords":["cp","nocrits","nodmgspread","uncletopia"],"game_id":440,"stv_port":27056,"stv_name":"Uncletopia | Frankfurt | 5 | All Maps | STV","players":[{"user_id":235,"name":"Tequila","steam_id":76561198046161044,"connected_time":8362000000000,"state":"active","ping":57},{"user_id":338,"name":"tetris_fox","steam_id":76561198866921918,"connected_time":826000000000,"state":"active","ping":68},{"user_id":330,"name":"JC","steam_id":76561198029213352,"connected_time":1212000000000,"state":"active","ping":45},{"user_id":339,"name":"KmK","steam_id":76561197999641889,"connected_time":805000000000,"state":"active","ping":59},{"user_id":347,"name":"Salih","steam_id":76561198287934839,"connected_time":385000000000,"state":"active","ping":58},{"user_id":344,"name":"THE CLUELESS CLOWN","steam_id":76561198246990590,"connected_time":603000000000,"state":"active","ping":48},{"user_id":346,"name":"Fats","steam_id":76561198044120644,"connected_time":586000000000,"state":"active","ping":77},{"user_id":302,"name":"Hollow_Rat","steam_id":76561199383063492,"connected_time":3526000000000,"state":"active","ping":57},{"user_id":248,"name":"sunshine (she/her)","steam_id":76561198084597975,"connected_time":7568000000000,"state":"active","ping":67},{"user_id":322,"name":"That Phlog mfer","steam_id":76561198050416948,"connected_time":1647000000000,"state":"active","ping":59},{"user_id":341,"name":"sHIFTINGvORTEX","steam_id":76561198231648332,"connected_time":693000000000,"state":"active","ping":75},{"user_id":335,"name":"Virtual Turtle","steam_id":76561198056255236,"connected_time":1051000000000,"state":"active","ping":49},{"user_id":327,"name":"KingofCubes","steam_id":76561198258037513,"connected_time":1609000000000,"state":"active","ping":75},{"user_id":348,"name":"Numernabis","steam_id":76561198152548272,"connected_time":370000000000,"state":"active","ping":88},{"user_id":349,"name":"HarMala","steam_id":76561198055298143,"connected_time":140000000000,"state":"active","ping":90},{"user_id":326,"name":"joachym","steam_id":76561198428579761,"connected_time":1613000000000,"state":"active","ping":63},{"user_id":345,"name":"bonour74","steam_id":76561199089910337,"connected_time":597000000000,"state":"active","ping":170},{"user_id":350,"name":"timvs5","steam_id":76561198136646312,"connected_time":131000000000,"state":"active","ping":71},{"user_id":329,"name":"Fridge","steam_id":76561198071665589,"connected_time":1287000000000,"state":"active","ping":110},{"user_id":314,"name":"_420_StopItDudeCmon","steam_id":76561197997146481,"connected_time":2697000000000,"state":"active","ping":59},{"user_id":246,"name":"Poggito","steam_id":76561198838001276,"connected_time":7758000000000,"state":"active","ping":55},{"user_id":343,"name":"skille","steam_id":76561198005794325,"connected_time":672000000000,"state":"active","ping":55},{"user_id":227,"name":"Stefos","steam_id":76561198121601141,"connected_time":8857000000000,"state":"active","ping":72},{"user_id":297,"name":"Silvestro","steam_id":76561198021660066,"connected_time":3983000000000,"state":"active","ping":75}]},{"server_id":311,"name":"Uncletopia | Frankfurt | 6 | All Maps","name_short":"frk-6","host":"frk-1.de.uncletopia.com","port":27065,"enabled":true,"region":"eu","cc":"de","latitude":50.110924,"longitude":8.682127,"reserved":0,"last_update":"0001-01-01T00:00:00Z","name_a2s":"Uncletopia | Frankfurt | 6 | All Maps","protocol":17,"map":"pl_snowycoast","folder":"tf","game":"Team Fortress","app_id":440,"player_count":0,"max_players":24,"Bots":0,"server_type":"Dedicated","server_os":"Linux","password":true,"vac":true,"version":"7932396","steam_id":85568392924504278,"keywords":["nocrits","nodmgspread","payload","uncletopia"],"game_id":440,"stv_port":27066,"stv_name":"Uncletopia | Frankfurt | 6 | All Maps | STV","players":null},{"server_id":23,"name":"Uncletopia | Frankfurt | 7 | Stopwatch Beta","name_short":"frk-7","host":"frk-1.de.uncletopia.com","port":27075,"enabled":true,"region":"eu","cc":"de","latitude":50.110924,"longitude":8.682127,"reserved":0,"last_update":"0001-01-01T00:00:00Z","name_a2s":"Uncletopia | Frankfurt | 7 | Stopwatch Beta","protocol":17,"map":"pl_snowycoast","folder":"tf","game":"Team Fortress","app_id":440,"player_count":0,"max_players":24,"Bots":0,"server_type":"Dedicated","server_os":"Linux","password":true,"vac":true,"version":"7932396","steam_id":85568392924742827,"keywords":["nocrits","nodmgspread","payload","uncletopia"],"game_id":440,"stv_port":27076,"stv_name":"Uncletopia | Frankfurt | 7 | Stopwatch Beta | STV","players":null},{"server_id":24,"name":"Uncletopia | Frankfurt | 8 | Community","name_short":"frk-8","host":"frk-1.de.uncletopia.com","port":27085,"enabled":true,"region":"eu","cc":"de","latitude":50.110924,"longitude":8.682127,"reserved":0,"last_update":"0001-01-01T00:00:00Z","name_a2s":"Uncletopia | Frankfurt | 8 | Community","protocol":17,"map":"workshop/cp_fulgur_rc2a.ugc2068252300","folder":"tf","game":"Team Fortress","app_id":440,"player_count":0,"max_players":24,"Bots":0,"server_type":"Dedicated","server_os":"Linux","password":true,"vac":true,"version":"7932396","steam_id":85568392924742828,"keywords":["cp","nocrits","nodmgspread","uncletopia"],"game_id":440,"stv_port":27086,"stv_name":"Uncletopia | Frankfurt | 8 | Community | STV","players":null},{"server_id":202,"name":"Uncletopia | Hong Kong | 1 | All Maps","name_short":"hgk-1","host":"hgk-1.hk.uncletopia.com","port":27015,"enabled":true,"region":"asia","cc":"hk","latitude":22.302711,"longitude":114.177216,"reserved":0,"last_update":"0001-01-01T00:00:00Z","name_a2s":"Uncletopia | Hong Kong | 1 | All Maps","protocol":17,"map":"cp_steel","folder":"tf","game":"Team Fortress","app_id":440,"player_count":24,"max_players":24,"Bots":0,"server_type":"Dedicated","server_os":"Linux","password":true,"vac":true,"version":"7932396","steam_id":85568392924494504,"keywords":["cp","nocrits","nodmgspread","uncletopia"],"game_id":440,"stv_port":27016,"stv_name":"Uncletopia | Hong Kong | 1 | All Maps | STV","players":[{"user_id":739,"name":"tiden2000","steam_id":76561198092969425,"connected_time":48000000000,"state":"active","ping":104},{"user_id":603,"name":"SunShine","steam_id":76561198323642446,"connected_time":3768000000000,"state":"active","ping":95},{"user_id":730,"name":"Kurtie","steam_id":76561198144737876,"connected_time":574000000000,"state":"active","ping":71},{"user_id":726,"name":"TomCat","steam_id":76561198133744053,"connected_time":691000000000,"state":"active","ping":109},{"user_id":738,"name":"Shibe009 (F2P)","steam_id":76561199118649916,"connected_time":147000000000,"state":"active","ping":165},{"user_id":725,"name":"Mystery cheese üßÄ","steam_id":76561198304002409,"connected_time":806000000000,"state":"active","ping":132},{"user_id":740,"name":"3rwynM","steam_id":76561198288311270,"connected_time":16000000000,"state":"active","ping":63},{"user_id":705,"name":"Duck with a knife (what he gonn","steam_id":76561199092409364,"connected_time":2190000000000,"state":"active","ping":116},{"user_id":377,"name":"UltraFat","steam_id":76561198253918132,"connected_time":9166000000000,"state":"active","ping":93},{"user_id":695,"name":"oppai of the bocchi","steam_id":76561198008307645,"connected_time":2706000000000,"state":"active","ping":130},{"user_id":615,"name":"Dead? That's 500.","steam_id":76561198152588681,"connected_time":3536000000000,"state":"active","ping":82},{"user_id":729,"name":"Âç°Á®±ËëõË≥Ω","steam_id":76561198079374449,"connected_time":648000000000,"state":"active","ping":101},{"user_id":728,"name":"In(e)","steam_id":76561198362097007,"connected_time":674000000000,"state":"active","ping":64},{"user_id":736,"name":"ÊØç„ÅÆËÇâÂõ£Â≠ê@hao123.com","steam_id":76561198069561896,"connected_time":207000000000,"state":"active","ping":44},{"user_id":741,"name":"r/sinkpissers","steam_id":76561198413116920,"connected_time":1000000000,"state":"spawning","ping":58},{"user_id":519,"name":"Dokutah, Husband of W","steam_id":76561199273390091,"connected_time":5536000000000,"state":"active","ping":72},{"user_id":720,"name":"ramenjoestar","steam_id":76561199113456910,"connected_time":1848000000000,"state":"active","ping":99},{"user_id":719,"name":"23rd","steam_id":76561199014675406,"connected_time":1859000000000,"state":"active","ping":129},{"user_id":704,"name":"blobeye","steam_id":76561198420018387,"connected_time":2387000000000,"state":"active","ping":42},{"user_id":723,"name":"Drutzhfer","steam_id":76561198299948446,"connected_time":886000000000,"state":"active","ping":102},{"user_id":489,"name":"6win1","steam_id":76561198045905768,"connected_time":6139000000000,"state":"active","ping":90},{"user_id":278,"name":"the NYN mass producer","steam_id":76561198214192048,"connected_time":14779000000000,"state":"active","ping":86},{"user_id":733,"name":"Beef Wellington","steam_id":76561197995635241,"connected_time":237000000000,"state":"active","ping":123},{"user_id":734,"name":"something malicious is brewing ","steam_id":76561198074339034,"connected_time":237000000000,"state":"active","ping":74}]},{"server_id":1,"name":"Uncletopia | Los Angeles | 1 | All Maps","name_short":"lax-1","host":"lax-1.us.uncletopia.com","port":27015,"enabled":true,"region":"us-west","cc":"us","latitude":33.94279,"longitude":-118.41004,"reserved":0,"last_update":"0001-01-01T00:00:00Z","name_a2s":"Uncletopia | Los Angeles | 1 | All Maps","protocol":17,"map":"cp_badlands","folder":"tf","game":"Team Fortress","app_id":440,"player_count":12,"max_players":24,"Bots":0,"server_type":"Dedicated","server_os":"Linux","password":true,"vac":true,"version":"7932396","steam_id":85568392924469991,"keywords":["cp","nocrits","nodmgspread","uncletopia"],"game_id":440,"stv_port":27016,"stv_name":"Uncletopia | Los Angeles | 1 | All Maps | STV","players":[{"user_id":3,"name":"you of the dark","steam_id":76561198798667624,"connected_time":3149000000000,"state":"active","ping":74},{"user_id":7,"name":"tacofever","steam_id":76561198010966507,"connected_time":3123000000000,"state":"active","ping":44},{"user_id":25,"name":"CoffeeZombee","steam_id":76561198172708053,"connected_time":1579000000000,"state":"active","ping":114},{"user_id":9,"name":"DededeMain | trade.tf","steam_id":76561198310951632,"connected_time":2898000000000,"state":"active","ping":114},{"user_id":39,"name":"Mr. Dread","steam_id":76561199075977031,"connected_time":513000000000,"state":"active","ping":100},{"user_id":12,"name":"Toffee Klim","steam_id":76561198156412200,"connected_time":2755000000000,"state":"active","ping":61},{"user_id":22,"name":"TrashBoat","steam_id":76561199089671432,"connected_time":1789000000000,"state":"active","ping":125},{"user_id":42,"name":"‚òÜ(stephano)pootis CO.‚òÜ","steam_id":76561199084131361,"connected_time":179000000000,"state":"active","ping":114},{"user_id":40,"name":"rpclickva","steam_id":76561199213880216,"connected_time":329000000000,"state":"active","ping":113},{"user_id":37,"name":"Ekohtwo","steam_id":76561198067994868,"connected_time":667000000000,"state":"active","ping":116},{"user_id":32,"name":"Portal2Player","steam_id":76561198062870114,"connected_time":923000000000,"state":"active","ping":128},{"user_id":34,"name":"Fred","steam_id":76561197983870604,"connected_time":725000000000,"state":"active","ping":52}]},{"server_id":112,"name":"Uncletopia | Los Angeles | 2 | All Maps","name_short":"lax-2","host":"lax-1.us.uncletopia.com","port":27025,"enabled":true,"region":"us-west","cc":"us","latitude":33.94279,"longitude":-118.41004,"reserved":0,"last_update":"0001-01-01T00:00:00Z","name_a2s":"Uncletopia | Los Angeles | 2 | All Maps","protocol":17,"map":"pl_borneo","folder":"tf","game":"Team Fortress","app_id":440,"player_count":0,"max_players":24,"Bots":0,"server_type":"Dedicated","server_os":"Linux","password":true,"vac":true,"version":"7932396","steam_id":85568392924469992,"keywords":["nocrits","nodmgspread","payload","uncletopia"],"game_id":440,"stv_port":27026,"stv_name":"Uncletopia | Los Angeles | 2 | All Maps | STV","players":null},{"server_id":324,"name":"Uncletopia | Los Angeles | 3 | All Maps","name_short":"lax-3","host":"lax-1.us.uncletopia.com","port":27035,"enabled":true,"region":"us-west","cc":"us","latitude":33.94279,"longitude":-118.41004,"reserved":0,"last_update":"0001-01-01T00:00:00Z","name_a2s":"Uncletopia | Los Angeles | 3 | All Maps","protocol":17,"map":"pl_borneo","folder":"tf","game":"Team Fortress","app_id":440,"player_count":0,"max_players":24,"Bots":0,"server_type":"Dedicated","server_os":"Linux","password":true,"vac":true,"version":"7932396","steam_id":85568392924510198,"keywords":["nocrits","nodmgspread","payload","uncletopia"],"game_id":440,"stv_port":27036,"stv_name":"Uncletopia | Los Angeles | 3 | All Maps | STV","players":null},{"server_id":25,"name":"Uncletopia | Los Angeles | 4 | Stopwatch Beta","name_short":"lax-4","host":"lax-1.us.uncletopia.com","port":27045,"enabled":true,"region":"us-west","cc":"us","latitude":33.94279,"longitude":-118.41004,"reserved":0,"last_update":"0001-01-01T00:00:00Z","name_a2s":"Uncletopia | Los Angeles | 4 | Stopwatch Beta","protocol":17,"map":"cp_altitude","folder":"tf","game":"Team Fortress","app_id":440,"player_count":0,"max_players":24,"Bots":0,"server_type":"Dedicated","server_os":"Linux","password":true,"vac":true,"version":"7932396","steam_id":85568392924510199,"keywords":["cp","nocrits","nodmgspread","uncletopia"],"game_id":440,"stv_port":27046,"stv_name":"Uncletopia | Los Angeles | 4 | Stopwatch Beta | STV","players":null},{"server_id":11,"name":"Uncletopia | London | 1 | All Maps","name_short":"lon-1","host":"lon-1.uk.uncletopia.com","port":27015,"enabled":true,"region":"eu","cc":"gb","latitude":51.509865,"longitude":-0.118092,"reserved":0,"last_update":"0001-01-01T00:00:00Z","name_a2s":"Uncletopia | London | 1 | All Maps","protocol":17,"map":"pl_upward","folder":"tf","game":"Team Fortress","app_id":440,"player_count":24,"max_players":24,"Bots":0,"server_type":"Dedicated","server_os":"Linux","password":true,"vac":true,"version":"7932396","steam_id":85568392924367362,"keywords":["nocrits","nodmgspread","payload","uncletopia"],"game_id":440,"stv_port":27016,"stv_name":"Uncletopia | London | 1 | All Maps | STV","players":[{"user_id":317,"name":"unconditional love","steam_id":76561199026097466,"connected_time":4449000000000,"state":"active","ping":73},{"user_id":340,"name":"good luck aaron","steam_id":76561198388750592,"connected_time":2495000000000,"state":"active","ping":70},{"user_id":345,"name":"bull","steam_id":76561199233979726,"connected_time":2082000000000,"state":"active","ping":90},{"user_id":318,"name":"Girlboy Theenie","steam_id":76561198029025500,"connected_time":4424000000000,"state":"active","ping":56},{"user_id":273,"name":"SuperBob103","steam_id":76561199175360012,"connected_time":8367000000000,"state":"active","ping":60},{"user_id":328,"name":"Prome","steam_id":76561199050383942,"connected_time":3608000000000,"state":"active","ping":55},{"user_id":312,"name":"aminoxsos","steam_id":76561198839741609,"connected_time":5725000000000,"state":"active","ping":77},{"user_id":349,"name":"princess dvs","steam_id":76561198012901314,"connected_time":821000000000,"state":"active","ping":98},{"user_id":348,"name":"LegoBoy","steam_id":76561197983095579,"connected_time":873000000000,"state":"active","ping":90},{"user_id":351,"name":"Mircoxi","steam_id":76561199407632710,"connected_time":649000000000,"state":"active","ping":69},{"user_id":311,"name":"drained crusty cum sock","steam_id":76561198401649231,"connected_time":5861000000000,"state":"active","ping":89},{"user_id":324,"name":"sokige","steam_id":76561198167112371,"connected_time":3947000000000,"state":"active","ping":103},{"user_id":353,"name":"philk [Angelbeats] x_0","steam_id":76561197978732023,"connected_time":503000000000,"state":"active","ping":48},{"user_id":347,"name":"whimsy.","steam_id":76561198878171763,"connected_time":1042000000000,"state":"active","ping":53},{"user_id":352,"name":"‚ô•aura‚ô•","steam_id":76561198066258544,"connected_time":586000000000,"state":"active","ping":95},{"user_id":354,"name":"eon","steam_id":76561197971360276,"connected_time":260000000000,"state":"active","ping":67},{"user_id":346,"name":"Sunshine","steam_id":76561198885528098,"connected_time":1154000000000,"state":"active","ping":118},{"user_id":325,"name":"TheKees301","steam_id":76561198827506371,"connected_time":3910000000000,"state":"active","ping":65},{"user_id":355,"name":"Vermin","steam_id":76561198045527771,"connected_time":229000000000,"state":"active","ping":58},{"user_id":314,"name":"Maveth","steam_id":76561198315021197,"connected_time":4687000000000,"state":"active","ping":138},{"user_id":322,"name":"Season Veteran","steam_id":76561198088619665,"connected_time":4317000000000,"state":"active","ping":166},{"user_id":323,"name":"Fwebbie","steam_id":76561199006875621,"connected_time":4120000000000,"state":"active","ping":51},{"user_id":316,"name":"Saucci","steam_id":76561198093495637,"connected_time":4542000000000,"state":"active","ping":76},{"user_id":339,"name":"I Cant Aim","steam_id":76561199241354828,"connected_time":2825000000000,"state":"active","ping":135}]},{"server_id":114,"name":"Uncletopia | London | 2 | All Maps","name_short":"lon-2","host":"lon-1.uk.uncletopia.com","port":27025,"enabled":true,"region":"eu","cc":"gb","latitude":51.509865,"longitude":-0.118092,"reserved":0,"last_update":"0001-01-01T00:00:00Z","name_a2s":"Uncletopia | London | 2 | All Maps","protocol":17,"map":"pl_swiftwater_final1","folder":"tf","game":"Team Fortress","app_id":440,"player_count":24,"max_players":24,"Bots":0,"server_type":"Dedicated","server_os":"Linux","password":true,"vac":true,"version":"7932396","steam_id":85568392924470941,"keywords":["nocrits","nodmgspread","payload","uncletopia"],"game_id":440,"stv_port":27026,"stv_name":"Uncletopia | London | 2 | All Maps | STV","players":[{"user_id":110,"name":"Day 10","steam_id":76561198024438352,"connected_time":9779000000000,"state":"active","ping":36},{"user_id":144,"name":"Mr-Fluf","steam_id":76561198115101757,"connected_time":7262000000000,"state":"active","ping":90},{"user_id":162,"name":"state your intentions","steam_id":76561198043873119,"connected_time":5141000000000,"state":"active","ping":123},{"user_id":206,"name":"Mega Saturn","steam_id":76561198024750500,"connected_time":1303000000000,"state":"active","ping":76},{"user_id":220,"name":"A e s t h e t i c s","steam_id":76561198002099276,"connected_time":24000000000,"state":"active","ping":54},{"user_id":178,"name":"GunGuy","steam_id":76561198124510978,"connected_time":4437000000000,"state":"active","ping":41},{"user_id":209,"name":"Townsend And Sons","steam_id":76561199072698153,"connected_time":1168000000000,"state":"active","ping":73},{"user_id":193,"name":"wouris","steam_id":76561198876188003,"connected_time":2802000000000,"state":"active","ping":70},{"user_id":160,"name":"ly_dee","steam_id":76561198074956732,"connected_time":5567000000000,"state":"active","ping":55},{"user_id":211,"name":"KsawiDemon","steam_id":76561198855789287,"connected_time":803000000000,"state":"active","ping":115},{"user_id":215,"name":"Kylute","steam_id":76561198447504417,"connected_time":611000000000,"state":"active","ping":42},{"user_id":212,"name":"Fenty","steam_id":76561198044991858,"connected_time":792000000000,"state":"active","ping":69},{"user_id":207,"name":"M2rtRa","steam_id":76561198111036466,"connected_time":1295000000000,"state":"active","ping":79},{"user_id":192,"name":"Mi Manchi","steam_id":76561198171573129,"connected_time":3212000000000,"state":"active","ping":74},{"user_id":202,"name":"Sarahtonin","steam_id":76561197992144115,"connected_time":1389000000000,"state":"active","ping":73},{"user_id":208,"name":"jaime8D","steam_id":76561197980590671,"connected_time":1234000000000,"state":"active","ping":89},{"user_id":216,"name":"Mono","steam_id":76561198114569493,"connected_time":486000000000,"state":"active","ping":43},{"user_id":221,"name":"$t@lker_Tim","steam_id":76561198963658042,"connected_time":17000000000,"state":"spawning","ping":126},{"user_id":186,"name":"Redkiller","steam_id":76561199453655288,"connected_time":4097000000000,"state":"active","ping":125},{"user_id":189,"name":"VEH-DEH-VEH","steam_id":76561198010978989,"connected_time":3394000000000,"state":"active","ping":72},{"user_id":219,"name":"Mr.killer","steam_id":76561198290584189,"connected_time":258000000000,"state":"active","ping":97},{"user_id":173,"name":"Pilaarius","steam_id":76561198120273212,"connected_time":4797000000000,"state":"active","ping":105},{"user_id":174,"name":"Bajas","steam_id":76561198179339326,"connected_time":4788000000000,"state":"active","ping":75},{"user_id":205,"name":"zebulon","steam_id":76561198384683504,"connected_time":1343000000000,"state":"active","ping":54}]},{"server_id":320,"name":"Uncletopia | London | 3 | All Maps","name_short":"lon-3","host":"lon-1.uk.uncletopia.com","port":27035,"enabled":true,"region":"eu","cc":"gb","latitude":51.509865,"longitude":-0.118092,"reserved":0,"last_update":"0001-01-01T00:00:00Z","name_a2s":"Uncletopia | London | 3 | All Maps","protocol":17,"map":"cp_snakewater_final1","folder":"tf","game":"Team Fortress","app_id":440,"player_count":22,"max_players":24,"Bots":0,"server_type":"Dedicated","server_os":"Linux","password":true,"vac":true,"version":"7932396","steam_id":85568392924510192,"keywords":["cp","nocrits","nodmgspread","uncletopia"],"game_id":440,"stv_port":27036,"stv_name":"Uncletopia | London | 3 | All Maps | STV","players":[{"user_id":113,"name":"cryptidTD","steam_id":76561199094314945,"connected_time":450000000000,"state":"spawning","ping":62},{"user_id":115,"name":"i forgor","steam_id":76561199120622265,"connected_time":324000000000,"state":"spawning","ping":160},{"user_id":81,"name":"DelaNo","steam_id":76561199125086655,"connected_time":3030000000000,"state":"spawning","ping":70},{"user_id":92,"name":"Flare","steam_id":76561198039098320,"connected_time":2084000000000,"state":"spawning","ping":68},{"user_id":119,"name":"Chlorine","steam_id":76561198995993972,"connected_time":283000000000,"state":"spawning","ping":55},{"user_id":116,"name":"OPUR","steam_id":76561197993123284,"connected_time":302000000000,"state":"spawning","ping":96},{"user_id":101,"name":"Caught Lackin'","steam_id":76561198122181176,"connected_time":1188000000000,"state":"spawning","ping":60},{"user_id":105,"name":"A3517","steam_id":76561198346434027,"connected_time":973000000000,"state":"spawning","ping":160},{"user_id":97,"name":"NoobfromHell","steam_id":76561198394221491,"connected_time":1565000000000,"state":"spawning","ping":92},{"user_id":88,"name":"God's Goofiest Goober","steam_id":76561198103175187,"connected_time":2665000000000,"state":"spawning","ping":64},{"user_id":90,"name":"Lag","steam_id":76561198159360376,"connected_time":2429000000000,"state":"spawning","ping":65},{"user_id":109,"name":"WolfmanCZ","steam_id":76561199157141414,"connected_time":666000000000,"state":"spawning","ping":102},{"user_id":38,"name":"I have aids","steam_id":76561198860347851,"connected_time":5057000000000,"state":"spawning","ping":132},{"user_id":118,"name":"LuckLuster","steam_id":76561198092986647,"connected_time":296000000000,"state":"spawning","ping":108},{"user_id":83,"name":"Satirinm","steam_id":76561198068956102,"connected_time":2936000000000,"state":"spawning","ping":83},{"user_id":89,"name":"TekkiShodanPL","steam_id":76561198047064015,"connected_time":2524000000000,"state":"spawning","ping":75},{"user_id":54,"name":"NLSAM","steam_id":76561199111154916,"connected_time":4608000000000,"state":"spawning","ping":58},{"user_id":63,"name":"hmscole09","steam_id":76561198811362788,"connected_time":4296000000000,"state":"spawning","ping":54},{"user_id":102,"name":"wasp factory","steam_id":76561197980736364,"connected_time":1106000000000,"state":"spawning","ping":108},{"user_id":74,"name":"James","steam_id":76561198168882012,"connected_time":3690000000000,"state":"spawning","ping":33},{"user_id":84,"name":"Lorenzo Lovers","steam_id":76561198073973581,"connected_time":2906000000000,"state":"spawning","ping":119},{"user_id":110,"name":"hammertime","steam_id":76561199097714393,"connected_time":634000000000,"state":"spawning","ping":172}]},{"server_id":321,"name":"Uncletopia | London | 4 | All Maps","name_short":"lon-4","host":"lon-1.uk.uncletopia.com","port":27045,"enabled":true,"region":"eu","cc":"gb","latitude":51.509865,"longitude":-0.118092,"reserved":0,"last_update":"0001-01-01T00:00:00Z","name_a2s":"Uncletopia | London | 4 | All Maps","protocol":17,"map":"koth_viaduct","folder":"tf","game":"Team Fortress","app_id":440,"player_count":0,"max_players":24,"Bots":0,"server_type":"Dedicated","server_os":"Linux","password":true,"vac":true,"version":"7932396","steam_id":85568392924510193,"keywords":["cp","nocrits","nodmgspread","uncletopia"],"game_id":440,"stv_port":27046,"stv_name":"Uncletopia | London | 4 | All Maps | STV","players":null},{"server_id":21,"name":"Uncletopia | London | 5 | All Maps","name_short":"lon-5","host":"lon-1.uk.uncletopia.com","port":27055,"enabled":true,"region":"eu","cc":"gb","latitude":51.509865,"longitude":-0.118092,"reserved":0,"last_update":"0001-01-01T00:00:00Z","name_a2s":"Uncletopia | London | 5 | All Maps","protocol":17,"map":"koth_harvest_final","folder":"tf","game":"Team Fortress","app_id":440,"player_count":24,"max_players":24,"Bots":0,"server_type":"Dedicated","server_os":"Linux","password":true,"vac":true,"version":"7932396","steam_id":85568392924742829,"keywords":["cp","nocrits","nodmgspread","uncletopia"],"game_id":440,"stv_port":27056,"stv_name":"Uncletopia | London | 5 | All Maps | STV","players":[{"user_id":166,"name":"gabagool","steam_id":76561198307111838,"connected_time":2939000000000,"state":"active","ping":27},{"user_id":203,"name":"asko","steam_id":76561198081966620,"connected_time":330000000000,"state":"active","ping":90},{"user_id":183,"name":"Marmew","steam_id":76561198014969237,"connected_time":1304000000000,"state":"active","ping":45},{"user_id":179,"name":"Dreyfus","steam_id":76561198366687805,"connected_time":1640000000000,"state":"active","ping":61},{"user_id":204,"name":"Dolcelatte","steam_id":76561198038501770,"connected_time":291000000000,"state":"active","ping":60},{"user_id":200,"name":"XPullaHiiri","steam_id":76561198031652375,"connected_time":615000000000,"state":"active","ping":90},{"user_id":189,"name":"‚ô•ImWithMilk","steam_id":76561198269577569,"connected_time":960000000000,"state":"active","ping":49},{"user_id":205,"name":"TPC","steam_id":76561198127380768,"connected_time":127000000000,"state":"active","ping":134},{"user_id":127,"name":"Ja","steam_id":76561198396340174,"connected_time":5187000000000,"state":"active","ping":129},{"user_id":190,"name":"Patchwork","steam_id":76561198030693033,"connected_time":948000000000,"state":"active","ping":57},{"user_id":191,"name":"JUST","steam_id":76561198069064885,"connected_time":945000000000,"state":"active","ping":59},{"user_id":173,"name":"Mka Kitty","steam_id":76561198070128785,"connected_time":2085000000000,"state":"active","ping":88},{"user_id":192,"name":"cof","steam_id":76561199128417805,"connected_time":928000000000,"state":"active","ping":56},{"user_id":193,"name":"Momovsky","steam_id":76561198005738407,"connected_time":920000000000,"state":"active","ping":90},{"user_id":184,"name":"ScudFXX","steam_id":76561198136603848,"connected_time":1271000000000,"state":"active","ping":66},{"user_id":154,"name":"eva.","steam_id":76561198054474684,"connected_time":3624000000000,"state":"active","ping":83},{"user_id":199,"name":"Xanshi","steam_id":76561198152392309,"connected_time":661000000000,"state":"active","ping":45},{"user_id":201,"name":"Mike","steam_id":76561198228455736,"connected_time":577000000000,"state":"active","ping":48},{"user_id":150,"name":"generic alias","steam_id":76561198271607226,"connected_time":3852000000000,"state":"active","ping":83},{"user_id":164,"name":"Spliffendor","steam_id":76561198144020209,"connected_time":3093000000000,"state":"active","ping":51},{"user_id":196,"name":"sushii","steam_id":76561198297987372,"connected_time":846000000000,"state":"active","ping":71},{"user_id":180,"name":"aww yeah","steam_id":76561197992978878,"connected_time":1634000000000,"state":"active","ping":76},{"user_id":197,"name":"Hansi","steam_id":76561198035577047,"connected_time":794000000000,"state":"active","ping":71},{"user_id":202,"name":"ofri30","steam_id":76561198809151509,"connected_time":575000000000,"state":"active","ping":112}]},{"server_id":22,"name":"Uncletopia | London | 6 | All Maps","name_short":"lon-6","host":"lon-1.uk.uncletopia.com","port":27065,"enabled":true,"region":"eu","cc":"gb","latitude":51.509865,"longitude":-0.118092,"reserved":0,"last_update":"0001-01-01T00:00:00Z","name_a2s":"Uncletopia | London | 6 | All Maps","protocol":17,"map":"koth_highpass","folder":"tf","game":"Team Fortress","app_id":440,"player_count":4,"max_players":24,"Bots":0,"server_type":"Dedicated","server_os":"Linux","password":true,"vac":true,"version":"7932396","steam_id":85568392924742830,"keywords":["cp","nocrits","nodmgspread","uncletopia"],"game_id":440,"stv_port":27066,"stv_name":"Uncletopia | London | 6 | All Maps | STV","players":[{"user_id":20,"name":"Electro","steam_id":76561198891588213,"connected_time":556000000000,"state":"active","ping":45},{"user_id":21,"name":"Mateo","steam_id":76561198236125360,"connected_time":37000000000,"state":"active","ping":79},{"user_id":10,"name":"Bucket","steam_id":76561199165494885,"connected_time":1923000000000,"state":"active","ping":115},{"user_id":18,"name":"Cursed","steam_id":76561198381491880,"connected_time":1435000000000,"state":"active","ping":94}]},{"server_id":40,"name":"Uncletopia | London | 7 | No Payload","name_short":"lon-7","host":"lon-1.uk.uncletopia.com","port":27075,"enabled":true,"region":"eu","cc":"gb","latitude":51.509865,"longitude":-0.118092,"reserved":0,"last_update":"0001-01-01T00:00:00Z","name_a2s":"Uncletopia | London | 7 | No Payload","protocol":17,"map":"plr_nightfall_final","folder":"tf","game":"Team Fortress","app_id":440,"player_count":0,"max_players":24,"Bots":0,"server_type":"Dedicated","server_os":"Linux","password":true,"vac":true,"version":"7932396","steam_id":85568392924964314,"keywords":["nocrits","nodmgspread","payload","uncletopia"],"game_id":440,"stv_port":27076,"stv_name":"Uncletopia | London | 7 | No Payload | STV","players":null},{"server_id":41,"name":"Uncletopia | London | 8 | Community","name_short":"lon-8","host":"lon-1.uk.uncletopia.com","port":27085,"enabled":true,"region":"eu","cc":"gb","latitude":51.509865,"longitude":-0.118092,"reserved":0,"last_update":"0001-01-01T00:00:00Z","name_a2s":"Uncletopia | London | 8 | Community","protocol":17,"map":"workshop/koth_slaughter_rc1.ugc1712845210","folder":"tf","game":"Team Fortress","app_id":440,"player_count":0,"max_players":24,"Bots":0,"server_type":"Dedicated","server_os":"Linux","password":true,"vac":true,"version":"7932396","steam_id":85568392924964315,"keywords":["cp","nocrits","nodmgspread","uncletopia"],"game_id":440,"stv_port":27086,"stv_name":"Uncletopia | London | 8 | Community | STV","players":null},{"server_id":300,"name":"Uncletopia | Montr√©al | 1 | All Maps","name_short":"mtl-1","host":"mtl-1.ca.uncletopia.com","port":27015,"enabled":true,"region":"us-east","cc":"ca","latitude":45.50889,"longitude":-73.56167,"reserved":0,"last_update":"0001-01-01T00:00:00Z","name_a2s":"Uncletopia | Montr√©al | 1 | All Maps","protocol":17,"map":"koth_cascade","folder":"tf","game":"Team Fortress","app_id":440,"player_count":0,"max_players":24,"Bots":0,"server_type":"Dedicated","server_os":"Linux","password":true,"vac":true,"version":"7932396","steam_id":85568392924500087,"keywords":["cp","nocrits","nodmgspread","uncletopia"],"game_id":440,"stv_port":27016,"stv_name":"Uncletopia | Montr√©al | 1 | All Maps | STV","players":null},{"server_id":301,"name":"Uncletopia | Montr√©al | 2 | All Maps","name_short":"mtl-2","host":"mtl-1.ca.uncletopia.com","port":27025,"enabled":true,"region":"us-east","cc":"ca","latitude":45.50889,"longitude":-73.56167,"reserved":0,"last_update":"0001-01-01T00:00:00Z","name_a2s":"Uncletopia | Montr√©al | 2 | All Maps","protocol":17,"map":"koth_lakeside_final","folder":"tf","game":"Team Fortress","app_id":440,"player_count":0,"max_players":24,"Bots":0,"server_type":"Dedicated","server_os":"Linux","password":true,"vac":true,"version":"7932396","steam_id":85568392924500088,"keywords":["cp","nocrits","nodmgspread","uncletopia"],"game_id":440,"stv_port":27026,"stv_name":"Uncletopia | Montr√©al | 2 | All Maps | STV","players":null},{"server_id":302,"name":"Uncletopia | Montr√©al | 3 | All Maps","name_short":"mtl-3","host":"mtl-1.ca.uncletopia.com","port":27035,"enabled":true,"region":"us-east","cc":"ca","latitude":45.50889,"longitude":-73.56167,"reserved":0,"last_update":"0001-01-01T00:00:00Z","name_a2s":"Uncletopia | Montr√©al | 3 | All Maps","protocol":17,"map":"cp_process_final","folder":"tf","game":"Team Fortress","app_id":440,"player_count":0,"max_players":24,"Bots":0,"server_type":"Dedicated","server_os":"Linux","password":true,"vac":true,"version":"7932396","steam_id":85568392924500089,"keywords":["cp","nocrits","nodmgspread","uncletopia"],"game_id":440,"stv_port":27036,"stv_name":"Uncletopia | Montr√©al | 3 | All Maps | STV","players":null},{"server_id":303,"name":"Uncletopia | Montr√©al | 4 | No Payload","name_short":"mtl-4","host":"mtl-1.ca.uncletopia.com","port":27045,"enabled":true,"region":"us-east","cc":"ca","latitude":45.50889,"longitude":-73.56167,"reserved":0,"last_update":"0001-01-01T00:00:00Z","name_a2s":"Uncletopia | Montr√©al | 4 | No Payload","protocol":17,"map":"cp_snakewater_final1","folder":"tf","game":"Team Fortress","app_id":440,"player_count":0,"max_players":24,"Bots":0,"server_type":"Dedicated","server_os":"Linux","password":true,"vac":true,"version":"7932396","steam_id":85568392924500090,"keywords":["cp","nocrits","nodmgspread","uncletopia"],"game_id":440,"stv_port":27046,"stv_name":"Uncletopia | Montr√©al | 4 | No Payload | STV","players":null},{"server_id":13,"name":"Uncletopia | New York City | 1 | All Maps","name_short":"nyc-1","host":"nyc-1.us.uncletopia.com","port":27015,"enabled":true,"region":"us-east","cc":"us","latitude":40.73061,"longitude":-73.93524,"reserved":0,"last_update":"0001-01-01T00:00:00Z","name_a2s":"Uncletopia | New York City | 1 | All Maps","protocol":17,"map":"cp_altitude","folder":"tf","game":"Team Fortress","app_id":440,"player_count":0,"max_players":24,"Bots":0,"server_type":"Dedicated","server_os":"Linux","password":true,"vac":true,"version":"7932396","steam_id":85568392924469993,"keywords":["cp","nocrits","nodmgspread","uncletopia"],"game_id":440,"stv_port":27016,"stv_name":"Uncletopia | New York City | 1 | All Maps | STV","players":null},{"server_id":14,"name":"Uncletopia | New York City | 2 | All Maps","name_short":"nyc-2","host":"nyc-1.us.uncletopia.com","port":27025,"enabled":true,"region":"us-east","cc":"us","latitude":40.73061,"longitude":-73.93524,"reserved":0,"last_update":"0001-01-01T00:00:00Z","name_a2s":"Uncletopia | New York City | 2 | All Maps","protocol":17,"map":"koth_viaduct","folder":"tf","game":"Team Fortress","app_id":440,"player_count":24,"max_players":24,"Bots":0,"server_type":"Dedicated","server_os":"Linux","password":true,"vac":true,"version":"7932396","steam_id":85568392924469994,"keywords":["cp","nocrits","nodmgspread","uncletopia"],"game_id":440,"stv_port":27026,"stv_name":"Uncletopia | New York City | 2 | All Maps | STV","players":[{"user_id":4,"name":"The Gremlin","steam_id":76561198419066993,"connected_time":2384000000000,"state":"active","ping":129},{"user_id":5,"name":"pyroknight tf2","steam_id":76561198805375543,"connected_time":2380000000000,"state":"active","ping":112},{"user_id":21,"name":"CapoCannoli","steam_id":76561199092143255,"connected_time":1277000000000,"state":"active","ping":120},{"user_id":34,"name":"Sigiferd","steam_id":76561198148788110,"connected_time":948000000000,"state":"active","ping":119},{"user_id":8,"name":"Teepawt","steam_id":76561198383835469,"connected_time":1974000000000,"state":"active","ping":73},{"user_id":9,"name":"4ling","steam_id":76561197994398381,"connected_time":1812000000000,"state":"active","ping":56},{"user_id":10,"name":"Crustaceanfrustration","steam_id":76561198245251036,"connected_time":1791000000000,"state":"active","ping":52},{"user_id":35,"name":"Elias","steam_id":76561198106431732,"connected_time":943000000000,"state":"active","ping":67},{"user_id":12,"name":"AudioMedic","steam_id":76561198333939032,"connected_time":1513000000000,"state":"active","ping":58},{"user_id":25,"name":"Flippityflop","steam_id":76561198086692908,"connected_time":1208000000000,"state":"active","ping":64},{"user_id":41,"name":"walrus","steam_id":76561198057853319,"connected_time":647000000000,"state":"active","ping":56},{"user_id":42,"name":"Abaddon","steam_id":76561198030992243,"connected_time":586000000000,"state":"active","ping":51},{"user_id":16,"name":"superduperswag2008","steam_id":76561199243489976,"connected_time":1453000000000,"state":"active","ping":129},{"user_id":17,"name":"Devinish","steam_id":76561198024927243,"connected_time":1404000000000,"state":"active","ping":80},{"user_id":32,"name":"cruky","steam_id":76561199097185897,"connected_time":1111000000000,"state":"active","ping":68},{"user_id":36,"name":"Some Octopus Wizard","steam_id":76561198005470354,"connected_time":887000000000,"state":"active","ping":81},{"user_id":47,"name":"saturn","steam_id":76561198348918232,"connected_time":186000000000,"state":"active","ping":97},{"user_id":22,"name":"wearing my sunday pants","steam_id":76561198834106533,"connected_time":1271000000000,"state":"active","ping":62},{"user_id":23,"name":"tasty","steam_id":76561198083839061,"connected_time":1269000000000,"state":"active","ping":61},{"user_id":46,"name":"jozthebob","steam_id":76561199476198856,"connected_time":356000000000,"state":"active","ping":106},{"user_id":31,"name":"totally nuts","steam_id":76561198072856511,"connected_time":1118000000000,"state":"active","ping":62},{"user_id":33,"name":"Node‚ãÑ","steam_id":76561198219359475,"connected_time":1094000000000,"state":"active","ping":57},{"user_id":37,"name":"your fwiend","steam_id":76561198154773643,"connected_time":877000000000,"state":"active","ping":61},{"user_id":39,"name":"crittr","steam_id":76561198014302068,"connected_time":845000000000,"state":"active","ping":60}]},{"server_id":15,"name":"Uncletopia | New York City | 3 | Stopwatch Beta","name_short":"nyc-3","host":"nyc-1.us.uncletopia.com","port":27035,"enabled":true,"region":"us-east","cc":"us","latitude":40.73061,"longitude":-73.93524,"reserved":0,"last_update":"0001-01-01T00:00:00Z","name_a2s":"Uncletopia | New York City | 3 | Stopwatch Beta","protocol":17,"map":"cp_sunshine","folder":"tf","game":"Team Fortress","app_id":440,"player_count":0,"max_players":24,"Bots":0,"server_type":"Dedicated","server_os":"Linux","password":true,"vac":true,"version":"7932396","steam_id":85568392924742820,"keywords":["cp","nocrits","nodmgspread","uncletopia"],"game_id":440,"stv_port":27036,"stv_name":"Uncletopia | New York City | 3 | Stopwatch Beta | STV","players":null},{"server_id":16,"name":"Uncletopia | New York City | 4 | Community","name_short":"nyc-4","host":"nyc-1.us.uncletopia.com","port":27045,"enabled":true,"region":"us-east","cc":"us","latitude":40.73061,"longitude":-73.93524,"reserved":0,"last_update":"0001-01-01T00:00:00Z","name_a2s":"Uncletopia | New York City | 4 | Community","protocol":17,"map":"pl_barnblitz","folder":"tf","game":"Team Fortress","app_id":440,"player_count":0,"max_players":24,"Bots":0,"server_type":"Dedicated","server_os":"Linux","password":true,"vac":true,"version":"7932396","steam_id":85568392924742821,"keywords":["nocrits","nodmgspread","payload","uncletopia"],"game_id":440,"stv_port":27046,"stv_name":"Uncletopia | New York City | 4 | Community | STV","players":null},{"server_id":142,"name":"Uncletopia | S√£o Paulo | 1 | All Maps","name_short":"sao-1","host":"sao-1.br.uncletopia.com","port":27015,"enabled":true,"region":"sa","cc":"br","latitude":-23.533773,"longitude":-46.62529,"reserved":0,"last_update":"0001-01-01T00:00:00Z","name_a2s":"Uncletopia | S√£o Paulo | 1 | All Maps","protocol":17,"map":"pl_snowycoast","folder":"tf","game":"Team Fortress","app_id":440,"player_count":0,"max_players":24,"Bots":0,"server_type":"Dedicated","server_os":"Linux","password":true,"vac":true,"version":"7932396","steam_id":85568392924469996,"keywords":["nocrits","nodmgspread","payload","uncletopia"],"game_id":440,"stv_port":27016,"stv_name":"Uncletopia | S√£o Paulo | 1 | All Maps | STV","players":null},{"server_id":143,"name":"Uncletopia | S√£o Paulo | 2 | All Maps","name_short":"sao-2","host":"sao-2.br.uncletopia.com","port":27015,"enabled":true,"region":"sa","cc":"br","latitude":-23.533773,"longitude":-46.62529,"reserved":0,"last_update":"0001-01-01T00:00:00Z","name_a2s":"Uncletopia | S√£o Paulo | 2 | All Maps","protocol":17,"map":"pl_swiftwater_final1","folder":"tf","game":"Team Fortress","app_id":440,"player_count":6,"max_players":24,"Bots":0,"server_type":"Dedicated","server_os":"Linux","password":true,"vac":true,"version":"7932396","steam_id":85568392924485349,"keywords":["nocrits","nodmgspread","payload","uncletopia"],"game_id":440,"stv_port":27016,"stv_name":"Uncletopia | S√£o Paulo | 2 | All Maps | STV","players":[{"user_id":3,"name":"guarda-chuva","steam_id":76561198078694330,"connected_time":560000000000,"state":"active","ping":56},{"user_id":4,"name":"Tert_14","steam_id":76561198185952289,"connected_time":543000000000,"state":"active","ping":78},{"user_id":5,"name":"massie ‚ô•","steam_id":76561198409331049,"connected_time":538000000000,"state":"active","ping":102},{"user_id":9,"name":"Lulpe","steam_id":76561199019106246,"connected_time":42000000000,"state":"spawning","ping":103},{"user_id":7,"name":"Obsessive Compulsive Gamer","steam_id":76561199038370433,"connected_time":368000000000,"state":"active","ping":33},{"user_id":8,"name":"SubOlek","steam_id":76561199248137436,"connected_time":277000000000,"state":"active","ping":68}]},{"server_id":7,"name":"Uncletopia | Seattle | 1 | All Maps","name_short":"sea-1","host":"sea-1.us.uncletopia.com","port":27015,"enabled":true,"region":"us-west","cc":"us","latitude":47.608013,"longitude":-122.33517,"reserved":0,"last_update":"0001-01-01T00:00:00Z","name_a2s":"Uncletopia | Seattle | 1 | All Maps","protocol":17,"map":"pl_upward","folder":"tf","game":"Team Fortress","app_id":440,"player_count":0,"max_players":24,"Bots":0,"server_type":"Dedicated","server_os":"Linux","password":true,"vac":true,"version":"7932396","steam_id":85568392924469997,"keywords":["nocrits","nodmgspread","payload","uncletopia"],"game_id":440,"stv_port":27016,"stv_name":"Uncletopia | Seattle | 1 | All Maps | STV","players":null},{"server_id":119,"name":"Uncletopia | Seattle | 2 | All Maps","name_short":"sea-2","host":"sea-1.us.uncletopia.com","port":27025,"enabled":true,"region":"us-west","cc":"us","latitude":47.608013,"longitude":-122.33517,"reserved":0,"last_update":"0001-01-01T00:00:00Z","name_a2s":"Uncletopia | Seattle | 2 | All Maps","protocol":17,"map":"cp_dustbowl","folder":"tf","game":"Team Fortress","app_id":440,"player_count":4,"max_players":24,"Bots":0,"server_type":"Dedicated","server_os":"Linux","password":true,"vac":true,"version":"7932396","steam_id":85568392924469998,"keywords":["cp","nocrits","nodmgspread","uncletopia"],"game_id":440,"stv_port":27026,"stv_name":"Uncletopia | Seattle | 2 | All Maps | STV","players":[{"user_id":6,"name":"KeithStone","steam_id":76561197986083582,"connected_time":1773000000000,"state":"active","ping":137},{"user_id":7,"name":"noel","steam_id":76561198128280883,"connected_time":1527000000000,"state":"active","ping":120},{"user_id":8,"name":"Banzai","steam_id":76561198196503877,"connected_time":1078000000000,"state":"active","ping":37},{"user_id":10,"name":"Meadow","steam_id":76561198027636044,"connected_time":108000000000,"state":"active","ping":210}]},{"server_id":406,"name":"Uncletopia | Seattle | 3 | Stopwatch Beta","name_short":"sea-3","host":"sea-1.us.uncletopia.com","port":27035,"enabled":true,"region":"us-west","cc":"us","latitude":47.608013,"longitude":-122.33517,"reserved":0,"last_update":"0001-01-01T00:00:00Z","name_a2s":"Uncletopia | Seattle | 3 | Stopwatch Beta","protocol":17,"map":"cp_mountainlab","folder":"tf","game":"Team Fortress","app_id":440,"player_count":0,"max_players":24,"Bots":0,"server_type":"Dedicated","server_os":"Linux","password":true,"vac":true,"version":"7932396","steam_id":85568392924515217,"keywords":["cp","nocrits","nodmgspread","uncletopia"],"game_id":440,"stv_port":27036,"stv_name":"Uncletopia | Seattle | 3 | Stopwatch Beta | STV","players":null},{"server_id":17,"name":"Uncletopia | San Francisco | 1 | All Maps","name_short":"sfo-1","host":"sfo-1.us.uncletopia.com","port":27015,"enabled":true,"region":"us-west","cc":"us","latitude":37.77397,"longitude":-122.4313,"reserved":0,"last_update":"0001-01-01T00:00:00Z","name_a2s":"Uncletopia | San Francisco | 1 | All Maps","protocol":17,"map":"pl_frontier_final","folder":"tf","game":"Team Fortress","app_id":440,"player_count":0,"max_players":24,"Bots":0,"server_type":"Dedicated","server_os":"Linux","password":true,"vac":true,"version":"7932396","steam_id":85568392924469999,"keywords":["nocrits","nodmgspread","payload","uncletopia"],"game_id":440,"stv_port":27016,"stv_name":"Uncletopia | San Francisco | 1 | All Maps | STV","players":null},{"server_id":18,"name":"Uncletopia | San Francisco | 2 | All Maps","name_short":"sfo-2","host":"sfo-1.us.uncletopia.com","port":27025,"enabled":true,"region":"us-west","cc":"us","latitude":37.77397,"longitude":-122.4313,"reserved":0,"last_update":"0001-01-01T00:00:00Z","name_a2s":"Uncletopia | San Francisco | 2 | All Maps","protocol":17,"map":"cp_snakewater_final1","folder":"tf","game":"Team Fortress","app_id":440,"player_count":0,"max_players":24,"Bots":0,"server_type":"Dedicated","server_os":"Linux","password":true,"vac":true,"version":"7932396","steam_id":85568392924470000,"keywords":["cp","nocrits","nodmgspread","uncletopia"],"game_id":440,"stv_port":27026,"stv_name":"Uncletopia | San Francisco | 2 | All Maps | STV","players":null},{"server_id":19,"name":"Uncletopia | San Francisco | 3 | Stopwatch Beta","name_short":"sfo-3","host":"sfo-1.us.uncletopia.com","port":27035,"enabled":true,"region":"us-west","cc":"us","latitude":37.77397,"longitude":-122.4313,"reserved":0,"last_update":"0001-01-01T00:00:00Z","name_a2s":"Uncletopia | San Francisco | 3 | Stopwatch Beta","protocol":17,"map":"koth_lakeside_final","folder":"tf","game":"Team Fortress","app_id":440,"player_count":0,"max_players":24,"Bots":0,"server_type":"Dedicated","server_os":"Linux","password":true,"vac":true,"version":"7932396","steam_id":85568392924742824,"keywords":["cp","nocrits","nodmgspread","uncletopia"],"game_id":440,"stv_port":27036,"stv_name":"Uncletopia | San Francisco | 3 | Stopwatch Beta | STV","players":null},{"server_id":20,"name":"Uncletopia | San Francisco | 4 | Community","name_short":"sfo-4","host":"sfo-1.us.uncletopia.com","port":27045,"enabled":true,"region":"us-west","cc":"us","latitude":37.77397,"longitude":-122.4313,"reserved":0,"last_update":"0001-01-01T00:00:00Z","name_a2s":"Uncletopia | San Francisco | 4 | Community","protocol":17,"map":"pl_borneo","folder":"tf","game":"Team Fortress","app_id":440,"player_count":0,"max_players":24,"Bots":0,"server_type":"Dedicated","server_os":"Linux","password":true,"vac":true,"version":"7932396","steam_id":85568392924742826,"keywords":["nocrits","nodmgspread","payload","uncletopia"],"game_id":440,"stv_port":27046,"stv_name":"Uncletopia | San Francisco | 4 | Community | STV","players":null},{"server_id":141,"name":"Uncletopia | Sydney | 1 | All Maps","name_short":"syd-1","host":"syd-1.au.uncletopia.com","port":27015,"enabled":true,"region":"au","cc":"au","latitude":-33.865143,"longitude":151.2099,"reserved":0,"last_update":"0001-01-01T00:00:00Z","name_a2s":"Uncletopia | Sydney | 1 | All Maps","protocol":17,"map":"pl_swiftwater_final1","folder":"tf","game":"Team Fortress","app_id":440,"player_count":24,"max_players":24,"Bots":0,"server_type":"Dedicated","server_os":"Linux","password":true,"vac":true,"version":"7932396","steam_id":85568392924470001,"keywords":["nocrits","nodmgspread","payload","uncletopia"],"game_id":440,"stv_port":27016,"stv_name":"Uncletopia | Sydney | 1 | All Maps | STV","players":[{"user_id":246,"name":"Atlas","steam_id":76561198069332870,"connected_time":1359000000000,"state":"active","ping":58},{"user_id":249,"name":"Mooty","steam_id":76561198301293435,"connected_time":867000000000,"state":"active","ping":56},{"user_id":239,"name":"¬øeTheRealMe?","steam_id":76561198033297147,"connected_time":2213000000000,"state":"active","ping":93},{"user_id":256,"name":"Donovan","steam_id":76561199052329168,"connected_time":549000000000,"state":"active","ping":60},{"user_id":252,"name":"electricwalrus","steam_id":76561197994346012,"connected_time":567000000000,"state":"active","ping":66},{"user_id":218,"name":"Revetron","steam_id":76561198108592373,"connected_time":4163000000000,"state":"active","ping":43},{"user_id":214,"name":"Bay Goy","steam_id":76561197989541221,"connected_time":4999000000000,"state":"active","ping":63},{"user_id":161,"name":"kisses you","steam_id":76561198288970258,"connected_time":7426000000000,"state":"active","ping":46},{"user_id":227,"name":"wackel","steam_id":76561198091003826,"connected_time":3487000000000,"state":"active","ping":60},{"user_id":103,"name":"Fleetfoot","steam_id":76561198072845816,"connected_time":12016000000000,"state":"active","ping":52},{"user_id":244,"name":"Dart","steam_id":76561198288698038,"connected_time":1940000000000,"state":"active","ping":55},{"user_id":255,"name":"MoistNipple","steam_id":76561198180956833,"connected_time":552000000000,"state":"active","ping":68},{"user_id":257,"name":"timboe","steam_id":76561198003442007,"connected_time":512000000000,"state":"active","ping":60},{"user_id":234,"name":"Max","steam_id":76561198088406066,"connected_time":2401000000000,"state":"active","ping":117},{"user_id":258,"name":"terrablade_master","steam_id":76561198997249192,"connected_time":396000000000,"state":"active","ping":64},{"user_id":141,"name":"actions speak louder than Merv","steam_id":76561198301282416,"connected_time":9018000000000,"state":"active","ping":52},{"user_id":228,"name":"Pompadouraus","steam_id":76561198327530525,"connected_time":3013000000000,"state":"active","ping":78},{"user_id":145,"name":"horrid webbon ·òõ‚ÅêÃ§·ïê·ê∑","steam_id":76561198061998379,"connected_time":8777000000000,"state":"active","ping":46},{"user_id":243,"name":"Abraham Lincoln","steam_id":76561198095292515,"connected_time":2056000000000,"state":"active","ping":67},{"user_id":117,"name":"covenofbats","steam_id":76561198152117315,"connected_time":10731000000000,"state":"active","ping":44},{"user_id":245,"name":"Team Fartress Poo","steam_id":76561198139598106,"connected_time":1474000000000,"state":"active","ping":59},{"user_id":223,"name":"pissmaster","steam_id":76561197990537324,"connected_time":3745000000000,"state":"active","ping":115},{"user_id":251,"name":"THE ZU TITAN RETURNS","steam_id":76561198067978287,"connected_time":854000000000,"state":"active","ping":96},{"user_id":169,"name":"Zeraki","steam_id":76561198004276062,"connected_time":6437000000000,"state":"active","ping":61}]},{"server_id":123,"name":"Uncletopia | Sydney | 2 | All Maps","name_short":"syd-2","host":"syd-1.au.uncletopia.com","port":27025,"enabled":true,"region":"au","cc":"au","latitude":-33.865143,"longitude":151.2099,"reserved":0,"last_update":"0001-01-01T00:00:00Z","name_a2s":"Uncletopia | Sydney | 2 | All Maps","protocol":17,"map":"ctf_2fort","folder":"tf","game":"Team Fortress","app_id":440,"player_count":8,"max_players":24,"Bots":0,"server_type":"Dedicated","server_os":"Linux","password":true,"vac":true,"version":"7932396","steam_id":85568392924470002,"keywords":["ctf","nocrits","nodmgspread","uncletopia"],"game_id":440,"stv_port":27026,"stv_name":"Uncletopia | Sydney | 2 | All Maps | STV","players":[{"user_id":796,"name":"Bouncer Of Hightower","steam_id":76561198275597077,"connected_time":1009000000000,"state":"active","ping":55},{"user_id":799,"name":"laughsalot05","steam_id":76561198985540548,"connected_time":832000000000,"state":"active","ping":54},{"user_id":798,"name":"man","steam_id":76561198866399918,"connected_time":934000000000,"state":"active","ping":57},{"user_id":800,"name":"durcy","steam_id":76561198049037327,"connected_time":747000000000,"state":"active","ping":103},{"user_id":801,"name":"treeemen85","steam_id":76561199083645515,"connected_time":661000000000,"state":"active","ping":59},{"user_id":802,"name":"maksym.purski","steam_id":76561199381038035,"connected_time":580000000000,"state":"active","ping":311},{"user_id":809,"name":"Kobold","steam_id":76561198054201896,"connected_time":29000000000,"state":"active","ping":299},{"user_id":806,"name":"boris","steam_id":76561199021338592,"connected_time":363000000000,"state":"active","ping":97}]},{"server_id":395,"name":"Uncletopia | Sydney | 3 | All Maps","name_short":"syd-3","host":"syd-1.au.uncletopia.com","port":27035,"enabled":true,"region":"au","cc":"au","latitude":-33.865143,"longitude":151.2099,"reserved":0,"last_update":"0001-01-01T00:00:00Z","name_a2s":"Uncletopia | Sydney | 3 | All Maps","protocol":17,"map":"koth_cascade","folder":"tf","game":"Team Fortress","app_id":440,"player_count":0,"max_players":24,"Bots":0,"server_type":"Dedicated","server_os":"Linux","password":true,"vac":true,"version":"7932396","steam_id":85568392925194467,"keywords":["cp","nocrits","nodmgspread","uncletopia"],"game_id":440,"stv_port":27036,"stv_name":"Uncletopia | Sydney | 3 | All Maps | STV","players":null},{"server_id":396,"name":"Uncletopia | Sydney | 4 | All Maps","name_short":"syd-4","host":"syd-1.au.uncletopia.com","port":27045,"enabled":true,"region":"au","cc":"au","latitude":-33.865143,"longitude":151.2099,"reserved":0,"last_update":"0001-01-01T00:00:00Z","name_a2s":"Uncletopia | Sydney | 4 | All Maps","protocol":17,"map":"koth_lakeside_final","folder":"tf","game":"Team Fortress","app_id":440,"player_count":0,"max_players":24,"Bots":0,"server_type":"Dedicated","server_os":"Linux","password":true,"vac":true,"version":"7932396","steam_id":85568392925397958,"keywords":["cp","nocrits","nodmgspread","uncletopia"],"game_id":440,"stv_port":27046,"stv_name":"Uncletopia | Sydney | 4 | All Maps | STV","players":null},{"server_id":58,"name":"Uncletopia | Sydney | 5 | Stopwatch Beta","name_short":"syd-5","host":"syd-1.au.uncletopia.com","port":27055,"enabled":true,"region":"au","cc":"au","latitude":-33.865143,"longitude":151.2099,"reserved":0,"last_update":"0001-01-01T00:00:00Z","name_a2s":"Uncletopia | Sydney | 5 | Stopwatch Beta","protocol":17,"map":"pl_borneo","folder":"tf","game":"Team Fortress","app_id":440,"player_count":0,"max_players":24,"Bots":0,"server_type":"Dedicated","server_os":"Linux","password":true,"vac":true,"version":"7932396","steam_id":85568392925397959,"keywords":["nocrits","nodmgspread","payload","uncletopia"],"game_id":440,"stv_port":27056,"stv_name":"Uncletopia | Sydney | 5 | Stopwatch Beta | STV","players":null},{"server_id":59,"name":"Uncletopia | Sydney | 6 | Community","name_short":"syd-6","host":"syd-1.au.uncletopia.com","port":27065,"enabled":true,"region":"au","cc":"au","latitude":-33.865143,"longitude":151.2099,"reserved":0,"last_update":"0001-01-01T00:00:00Z","name_a2s":"Uncletopia | Sydney | 6 | Community","protocol":17,"map":"workshop/koth_product_final.ugc454272353","folder":"tf","game":"Team Fortress","app_id":440,"player_count":0,"max_players":24,"Bots":0,"server_type":"Dedicated","server_os":"Linux","password":true,"vac":true,"version":"7932396","steam_id":85568392925397960,"keywords":["cp","nocrits","nodmgspread","uncletopia"],"game_id":440,"stv_port":27066,"stv_name":"Uncletopia | Sydney | 6 | Community | STV","players":null},{"server_id":49,"name":"Uncletopia | Warsaw | 1 | All Maps","name_short":"waw-1","host":"waw-1.pl.uncletopia.com","port":27015,"enabled":true,"region":"eu","cc":"pl","latitude":52.2297,"longitude":21.017532,"reserved":0,"last_update":"0001-01-01T00:00:00Z","name_a2s":"","protocol":0,"map":"","folder":"","game":"","app_id":0,"player_count":0,"max_players":0,"Bots":0,"server_type":"","server_os":"","password":false,"vac":false,"version":"","steam_id":0,"keywords":null,"game_id":0,"stv_port":0,"stv_name":"","players":null},{"server_id":50,"name":"Uncletopia | Warsaw | 2 | All Maps","name_short":"waw-2","host":"waw-1.pl.uncletopia.com","port":27025,"enabled":true,"region":"eu","cc":"pl","latitude":52.2297,"longitude":21.017532,"reserved":0,"last_update":"0001-01-01T00:00:00Z","name_a2s":"Uncletopia | Warsaw | 2 | All Maps","protocol":17,"map":"pl_badwater","folder":"tf","game":"Team Fortress","app_id":440,"player_count":0,"max_players":24,"Bots":0,"server_type":"Dedicated","server_os":"Linux","password":true,"vac":true,"version":"7932396","steam_id":85568392925397851,"keywords":["nocrits","nodmgspread","payload","uncletopia"],"game_id":440,"stv_port":27026,"stv_name":"Uncletopia | Warsaw | 2 | All Maps | STV","players":null},{"server_id":51,"name":"Uncletopia | Warsaw | 3 | All Maps","name_short":"waw-3","host":"waw-1.pl.uncletopia.com","port":27035,"enabled":true,"region":"eu","cc":"pl","latitude":52.2297,"longitude":21.017532,"reserved":0,"last_update":"0001-01-01T00:00:00Z","name_a2s":"Uncletopia | Warsaw | 3 | All Maps","protocol":17,"map":"koth_lakeside_final","folder":"tf","game":"Team Fortress","app_id":440,"player_count":0,"max_players":24,"Bots":0,"server_type":"Dedicated","server_os":"Linux","password":true,"vac":true,"version":"7932396","steam_id":85568392925397852,"keywords":["cp","nocrits","nodmgspread","uncletopia"],"game_id":440,"stv_port":27036,"stv_name":"Uncletopia | Warsaw | 3 | All Maps | STV","players":null},{"server_id":52,"name":"Uncletopia | Warsaw | 4 | All Maps","name_short":"waw-4","host":"waw-1.pl.uncletopia.com","port":27045,"enabled":true,"region":"eu","cc":"pl","latitude":52.2297,"longitude":21.017532,"reserved":0,"last_update":"0001-01-01T00:00:00Z","name_a2s":"Uncletopia | Warsaw | 4 | All Maps","protocol":17,"map":"pl_swiftwater_final1","folder":"tf","game":"Team Fortress","app_id":440,"player_count":0,"max_players":24,"Bots":0,"server_type":"Dedicated","server_os":"Linux","password":true,"vac":true,"version":"7932396","steam_id":85568392925397853,"keywords":["nocrits","nodmgspread","payload","uncletopia"],"game_id":440,"stv_port":27046,"stv_name":"Uncletopia | Warsaw | 4 | All Maps | STV","players":null},{"server_id":53,"name":"Uncletopia | Warsaw | 5 | Stopwatch Beta","name_short":"waw-5","host":"waw-1.pl.uncletopia.com","port":27055,"enabled":true,"region":"eu","cc":"pl","latitude":52.2297,"longitude":21.017532,"reserved":0,"last_update":"0001-01-01T00:00:00Z","name_a2s":"Uncletopia | Warsaw | 5 | Stopwatch Beta","protocol":17,"map":"koth_lakeside_final","folder":"tf","game":"Team Fortress","app_id":440,"player_count":0,"max_players":24,"Bots":0,"server_type":"Dedicated","server_os":"Linux","password":true,"vac":true,"version":"7932396","steam_id":85568392925397854,"keywords":["cp","nocrits","nodmgspread","uncletopia"],"game_id":440,"stv_port":27056,"stv_name":"Uncletopia | Warsaw | 5 | Stopwatch Beta | STV","players":null},{"server_id":54,"name":"Uncletopia | Warsaw | 6 | Community","name_short":"waw-6","host":"waw-1.pl.uncletopia.com","port":27065,"enabled":true,"region":"eu","cc":"pl","latitude":52.2297,"longitude":21.017532,"reserved":0,"last_update":"0001-01-01T00:00:00Z","name_a2s":"Uncletopia | Warsaw | 6 | Community","protocol":17,"map":"workshop/koth_ramjam_rc1.ugc459778887","folder":"tf","game":"Team Fortress","app_id":440,"player_count":0,"max_players":24,"Bots":0,"server_type":"Dedicated","server_os":"Linux","password":true,"vac":true,"version":"7932396","steam_id":85568392925397856,"keywords":["cp","nocrits","nodmgspread","uncletopia"],"game_id":440,"stv_port":27066,"stv_name":"Uncletopia | Warsaw | 6 | Community | STV","players":null}]}