{"status":true,"message":"","result":[{"server_id":9,"name":"Uncletopia | Atlanta | 1 | All Maps","name_short":"atl-1","host":"atl-1.us.uncletopia.com","port":27015,"enabled":true,"region":"us-east","cc":"us","latitude":33.753746,"longitude":-84.38633,"reserved":0,"last_update":"0001-01-01T00:00:00Z","name_a2s":"Uncletopia | Atlanta | 1 | All Maps","protocol":17,"map":"koth_highpass","folder":"tf","game":"Team Fortress","app_id":440,"player_count":23,"max_players":24,"Bots":0,"server_type":"Dedicated","server_os":"Linux","password":true,"vac":true,"version":"7961495","steam_id":85568392924469982,"keywords":["cp","nocrits","nodmgspread","uncletopia"],"game_id":440,"stv_port":27016,"stv_name":"Uncletopia | Atlanta | 1 | All Maps | STV","players":[{"user_id":559,"name":"Lylith!!!","steam_id":76561198386687546,"connected_time":1285000000000,"state":"active","ping":55},{"user_id":564,"name":"HARRY B HOLE","steam_id":76561198842067238,"connected_time":330000000000,"state":"active","ping":66},{"user_id":566,"name":"-œÄ- BakaD","steam_id":76561197960559169,"connected_time":324000000000,"state":"active","ping":52},{"user_id":561,"name":"tgirl swag","steam_id":76561198128164970,"connected_time":1115000000000,"state":"active","ping":101},{"user_id":567,"name":"MinimanC","steam_id":76561198071475084,"connected_time":318000000000,"state":"active","ping":75},{"user_id":568,"name":"melancholy","steam_id":76561198024301465,"connected_time":308000000000,"state":"active","ping":44},{"user_id":570,"name":"ash","steam_id":76561198127890645,"connected_time":65000000000,"state":"active","ping":61},{"user_id":562,"name":"No More What Ifs","steam_id":76561198410957728,"connected_time":1026000000000,"state":"active","ping":69},{"user_id":545,"name":"Qwerty","steam_id":76561198023525894,"connected_time":2459000000000,"state":"active","ping":177},{"user_id":522,"name":"Lori T-Fem","steam_id":76561198964321336,"connected_time":4056000000000,"state":"active","ping":55},{"user_id":554,"name":"Team Fartpiss Poo","steam_id":76561199163591880,"connected_time":1565000000000,"state":"active","ping":74},{"user_id":516,"name":"ATL1 | cola","steam_id":76561198374390458,"connected_time":4200000000000,"state":"active","ping":60},{"user_id":569,"name":"Le4n!!!","steam_id":76561198045522596,"connected_time":262000000000,"state":"active","ping":73},{"user_id":538,"name":"knotsofunny","steam_id":76561198071336304,"connected_time":3024000000000,"state":"active","ping":72},{"user_id":514,"name":"ATL1 | on my hunting trip","steam_id":76561198315341646,"connected_time":4328000000000,"state":"active","ping":75},{"user_id":555,"name":"Novu","steam_id":76561198886997024,"connected_time":1562000000000,"state":"active","ping":103},{"user_id":444,"name":"Okpar","steam_id":76561199221067945,"connected_time":7688000000000,"state":"active","ping":83},{"user_id":548,"name":"Dreszerg","steam_id":76561198838757422,"connected_time":1762000000000,"state":"active","ping":82},{"user_id":563,"name":"Ghost","steam_id":76561198110914180,"connected_time":388000000000,"state":"active","ping":175},{"user_id":560,"name":"Toxic Medic Main (he/they)","steam_id":76561198009314845,"connected_time":1285000000000,"state":"active","ping":131},{"user_id":546,"name":"Albino Jellyfish","steam_id":76561198208561097,"connected_time":2176000000000,"state":"active","ping":57},{"user_id":556,"name":"Dr.Inkmix(femboy medic!)","steam_id":76561198854070384,"connected_time":1562000000000,"state":"active","ping":121},{"user_id":540,"name":"Possibly Distraught Llama","steam_id":76561199044340547,"connected_time":2923000000000,"state":"active","ping":98}]},{"server_id":104,"name":"Uncletopia | Atlanta | 2 | All Maps","name_short":"atl-2","host":"atl-1.us.uncletopia.com","port":27025,"enabled":true,"region":"us-east","cc":"us","latitude":33.753746,"longitude":-84.38633,"reserved":0,"last_update":"0001-01-01T00:00:00Z","name_a2s":"Uncletopia | Atlanta | 2 | All Maps","protocol":17,"map":"pl_barnblitz","folder":"tf","game":"Team Fortress","app_id":440,"player_count":24,"max_players":24,"Bots":0,"server_type":"Dedicated","server_os":"Linux","password":true,"vac":true,"version":"7961495","steam_id":85568392924469983,"keywords":["nocrits","nodmgspread","payload","uncletopia"],"game_id":440,"stv_port":27026,"stv_name":"Uncletopia | Atlanta | 2 | All Maps | STV","players":[{"user_id":390,"name":"Kuwait Grips","steam_id":76561198292689973,"connected_time":837000000000,"state":"active","ping":66},{"user_id":430,"name":"IGOR","steam_id":76561199128786637,"connected_time":124000000000,"state":"active","ping":85},{"user_id":387,"name":"Nooblord","steam_id":76561199105123730,"connected_time":866000000000,"state":"active","ping":160},{"user_id":393,"name":"Rhutebeer","steam_id":76561198018302761,"connected_time":812000000000,"state":"active","ping":86},{"user_id":370,"name":"Ya viene...ü•µ","steam_id":76561198298364415,"connected_time":1831000000000,"state":"active","ping":103},{"user_id":372,"name":"Joe Rogan (real)","steam_id":76561198359511515,"connected_time":1320000000000,"state":"active","ping":66},{"user_id":394,"name":"CartierYT","steam_id":76561199119485917,"connected_time":797000000000,"state":"active","ping":69},{"user_id":386,"name":"Oxygen User","steam_id":76561199111975528,"connected_time":923000000000,"state":"active","ping":67},{"user_id":389,"name":"NavysealDemoman","steam_id":76561199048625312,"connected_time":863000000000,"state":"active","ping":74},{"user_id":348,"name":"Nebula64","steam_id":76561198312493316,"connected_time":3755000000000,"state":"active","ping":59},{"user_id":317,"name":"V","steam_id":76561199223266577,"connected_time":5085000000000,"state":"active","ping":103},{"user_id":395,"name":" ï‚Ä¢·¥•‚Ä¢ î the bear","steam_id":76561197989591976,"connected_time":785000000000,"state":"active","ping":86},{"user_id":321,"name":"Hedless","steam_id":76561197992723400,"connected_time":4865000000000,"state":"active","ping":107},{"user_id":329,"name":"_cza","steam_id":76561198079793576,"connected_time":4555000000000,"state":"active","ping":107},{"user_id":140,"name":"Tang","steam_id":76561198121340574,"connected_time":15989000000000,"state":"active","ping":118},{"user_id":400,"name":"Vietnam","steam_id":76561198065381038,"connected_time":695000000000,"state":"active","ping":79},{"user_id":397,"name":"Sgt. Pepper","steam_id":76561198063674627,"connected_time":769000000000,"state":"active","ping":64},{"user_id":359,"name":"Olifont","steam_id":76561198141162919,"connected_time":2745000000000,"state":"active","ping":89},{"user_id":261,"name":"tac","steam_id":76561198408477421,"connected_time":9193000000000,"state":"active","ping":86},{"user_id":362,"name":"simply","steam_id":76561198215728721,"connected_time":2336000000000,"state":"active","ping":56},{"user_id":332,"name":"seesawbutter11037","steam_id":76561199068428840,"connected_time":4490000000000,"state":"active","ping":90},{"user_id":334,"name":"God's Drunkest Driver","steam_id":76561199174579733,"connected_time":4466000000000,"state":"active","ping":73},{"user_id":381,"name":"OHGODBEES!","steam_id":76561198000653374,"connected_time":1133000000000,"state":"active","ping":118},{"user_id":314,"name":"Hipster_Giraffe","steam_id":76561198069701092,"connected_time":5329000000000,"state":"active","ping":98}]},{"server_id":400,"name":"Uncletopia | Atlanta | 3 | Stopwatch","name_short":"atl-3","host":"atl-1.us.uncletopia.com","port":27035,"enabled":true,"region":"us-east","cc":"us","latitude":33.753746,"longitude":-84.38633,"reserved":0,"last_update":"0001-01-01T00:00:00Z","name_a2s":"Uncletopia | Atlanta | 3 | Stopwatch","protocol":17,"map":"cp_metalworks","folder":"tf","game":"Team Fortress","app_id":440,"player_count":23,"max_players":24,"Bots":0,"server_type":"Dedicated","server_os":"Linux","password":true,"vac":true,"version":"7961495","steam_id":85568392924515187,"keywords":["cp","nocrits","nodmgspread","uncletopia"],"game_id":440,"stv_port":27036,"stv_name":"Uncletopia | Atlanta | 3 | Stopwatch | STV","players":[{"user_id":132,"name":"amity‚úø","steam_id":76561198039506482,"connected_time":905000000000,"state":"active","ping":56},{"user_id":51,"name":"Soldier","steam_id":76561199078537280,"connected_time":3236000000000,"state":"active","ping":42},{"user_id":129,"name":"‚òº money sittin tall yao ming","steam_id":76561198074180953,"connected_time":1018000000000,"state":"active","ping":60},{"user_id":115,"name":"Neformdot","steam_id":76561198065384925,"connected_time":1444000000000,"state":"active","ping":67},{"user_id":120,"name":"Dark","steam_id":76561198004855334,"connected_time":1254000000000,"state":"active","ping":72},{"user_id":92,"name":"Yoshimelon","steam_id":76561198253054325,"connected_time":1976000000000,"state":"active","ping":68},{"user_id":142,"name":"Gordon Ramsay","steam_id":76561198123893900,"connected_time":54000000000,"state":"active","ping":89},{"user_id":133,"name":"Nicopico","steam_id":76561198080371321,"connected_time":899000000000,"state":"active","ping":76},{"user_id":143,"name":"boo_thefeared","steam_id":76561198127967685,"connected_time":38000000000,"state":"active","ping":135},{"user_id":131,"name":"√ëeekawoo","steam_id":76561199111109052,"connected_time":970000000000,"state":"active","ping":136},{"user_id":122,"name":"Pyrogaming","steam_id":76561199486286233,"connected_time":1181000000000,"state":"active","ping":140},{"user_id":112,"name":"moe","steam_id":76561198929586245,"connected_time":1542000000000,"state":"active","ping":87},{"user_id":136,"name":"oopsboom24","steam_id":76561199105248648,"connected_time":789000000000,"state":"active","ping":65},{"user_id":140,"name":"King Rat","steam_id":76561198083835128,"connected_time":352000000000,"state":"active","ping":70},{"user_id":119,"name":"dave :3","steam_id":76561198135961731,"connected_time":1332000000000,"state":"active","ping":79},{"user_id":137,"name":"neet","steam_id":76561197968115168,"connected_time":675000000000,"state":"active","ping":53},{"user_id":101,"name":"starter pack","steam_id":76561199082345474,"connected_time":1747000000000,"state":"active","ping":70},{"user_id":103,"name":"‚ô• memegamer23123 ‚ô•","steam_id":76561198048478450,"connected_time":1730000000000,"state":"active","ping":70},{"user_id":104,"name":"noel","steam_id":76561198128280883,"connected_time":1728000000000,"state":"active","ping":85},{"user_id":141,"name":"Sigiferd","steam_id":76561198148788110,"connected_time":313000000000,"state":"active","ping":101},{"user_id":126,"name":"bonnicatheshipp","steam_id":76561198842233638,"connected_time":1059000000000,"state":"active","ping":176},{"user_id":139,"name":"Rumble","steam_id":76561199170926322,"connected_time":552000000000,"state":"active","ping":94},{"user_id":109,"name":"illious","steam_id":76561198169925494,"connected_time":1645000000000,"state":"active","ping":62}]},{"server_id":401,"name":"Uncletopia | Atlanta | 4 | Community","name_short":"atl-4","host":"atl-1.us.uncletopia.com","port":27045,"enabled":true,"region":"us-east","cc":"us","latitude":33.753746,"longitude":-84.38633,"reserved":0,"last_update":"0001-01-01T00:00:00Z","name_a2s":"Uncletopia | Atlanta | 4 | Community","protocol":17,"map":"workshop/pl_highwood_b13.ugc1769496557","folder":"tf","game":"Team Fortress","app_id":440,"player_count":0,"max_players":24,"Bots":0,"server_type":"Dedicated","server_os":"Linux","password":true,"vac":true,"version":"7961495","steam_id":85568392924515188,"keywords":["nocrits","nodmgspread","payload","uncletopia"],"game_id":440,"stv_port":27046,"stv_name":"Uncletopia | Atlanta | 4 | Community | STV","players":null},{"server_id":2,"name":"Uncletopia | Chicago | 1 | All Maps","name_short":"chi-1","host":"chi-1.us.uncletopia.com","port":27015,"enabled":true,"region":"us-central","cc":"us","latitude":41.881832,"longitude":-87.62318,"reserved":0,"last_update":"0001-01-01T00:00:00Z","name_a2s":"Uncletopia | Chicago | 1 | All Maps","protocol":17,"map":"pl_badwater","folder":"tf","game":"Team Fortress","app_id":440,"player_count":24,"max_players":24,"Bots":0,"server_type":"Dedicated","server_os":"Linux","password":true,"vac":true,"version":"7961495","steam_id":85568392924469984,"keywords":["nocrits","nodmgspread","payload","uncletopia"],"game_id":440,"stv_port":27016,"stv_name":"Uncletopia | Chicago | 1 | All Maps | STV","players":[{"user_id":576,"name":"msay","steam_id":76561198170888029,"connected_time":1345000000000,"state":"active","ping":101},{"user_id":562,"name":"Melody","steam_id":76561198407789232,"connected_time":2864000000000,"state":"active","ping":116},{"user_id":595,"name":"Discourse","steam_id":76561198984286678,"connected_time":342000000000,"state":"active","ping":56},{"user_id":594,"name":"fresco","steam_id":76561199101199477,"connected_time":348000000000,"state":"active","ping":68},{"user_id":583,"name":"Beef Wellington","steam_id":76561198049837377,"connected_time":766000000000,"state":"active","ping":46},{"user_id":584,"name":"IRS MOST WANTED","steam_id":76561198337692867,"connected_time":762000000000,"state":"active","ping":72},{"user_id":578,"name":"Oli B\u003eQS/BP/Bulk w/ 1.5k+ keys","steam_id":76561198140316312,"connected_time":1289000000000,"state":"active","ping":57},{"user_id":593,"name":"Sentry Gun (American)","steam_id":76561198313770809,"connected_time":496000000000,"state":"active","ping":60},{"user_id":586,"name":"At","steam_id":76561198381841894,"connected_time":742000000000,"state":"active","ping":60},{"user_id":588,"name":"Goober","steam_id":76561198105930089,"connected_time":689000000000,"state":"active","ping":70},{"user_id":575,"name":"Volkan, Pervert Extraordinaire","steam_id":76561198004569575,"connected_time":1463000000000,"state":"active","ping":73},{"user_id":571,"name":"Greaseball","steam_id":76561198240220178,"connected_time":1665000000000,"state":"active","ping":72},{"user_id":579,"name":"Stomp","steam_id":76561198167765748,"connected_time":1287000000000,"state":"active","ping":45},{"user_id":580,"name":"2.5 Oz of Paprika","steam_id":76561198174647666,"connected_time":1053000000000,"state":"active","ping":84},{"user_id":589,"name":"Theory-WiFi","steam_id":76561198116419931,"connected_time":662000000000,"state":"active","ping":112},{"user_id":581,"name":"Missing Minus","steam_id":76561198120822928,"connected_time":1025000000000,"state":"active","ping":61},{"user_id":536,"name":"JOOOOOOOOOOOOO!!!!!!","steam_id":76561199101638460,"connected_time":4096000000000,"state":"active","ping":75},{"user_id":577,"name":"Axelonemillion15","steam_id":76561198421342282,"connected_time":1304000000000,"state":"active","ping":121},{"user_id":568,"name":"HOMIE","steam_id":76561198057325155,"connected_time":1688000000000,"state":"active","ping":59},{"user_id":517,"name":"Praise_to_the_Flashlight!","steam_id":76561199001728789,"connected_time":5286000000000,"state":"active","ping":64},{"user_id":590,"name":"W+M1 NOOB","steam_id":76561199273253124,"connected_time":659000000000,"state":"active","ping":62},{"user_id":591,"name":"DethSQRL","steam_id":76561199149628610,"connected_time":624000000000,"state":"active","ping":79},{"user_id":592,"name":"Big Bill Haywood","steam_id":76561198142290733,"connected_time":570000000000,"state":"active","ping":74},{"user_id":560,"name":"Sickduck Mcgee","steam_id":76561198028577159,"connected_time":2890000000000,"state":"active","ping":80}]},{"server_id":106,"name":"Uncletopia | Chicago | 2 | All Maps","name_short":"chi-2","host":"chi-1.us.uncletopia.com","port":27025,"enabled":true,"region":"us-central","cc":"us","latitude":41.881832,"longitude":-87.62318,"reserved":0,"last_update":"0001-01-01T00:00:00Z","name_a2s":"Uncletopia | Chicago | 2 | All Maps","protocol":17,"map":"pl_barnblitz","folder":"tf","game":"Team Fortress","app_id":440,"player_count":24,"max_players":24,"Bots":0,"server_type":"Dedicated","server_os":"Linux","password":true,"vac":true,"version":"7961495","steam_id":85568392924469985,"keywords":["nocrits","nodmgspread","payload","uncletopia"],"game_id":440,"stv_port":27026,"stv_name":"Uncletopia | Chicago | 2 | All Maps | STV","players":[{"user_id":513,"name":"Sicko Mode (Chris Pratt Cover)","steam_id":76561198315786174,"connected_time":485000000000,"state":"active","ping":67},{"user_id":494,"name":"og biden pack cart","steam_id":76561198253731826,"connected_time":1858000000000,"state":"active","ping":60},{"user_id":514,"name":"Sawbez","steam_id":76561198394863729,"connected_time":475000000000,"state":"active","ping":97},{"user_id":521,"name":"Huta","steam_id":76561198104053784,"connected_time":299000000000,"state":"active","ping":103},{"user_id":512,"name":"CheekiBreeki","steam_id":76561198008596138,"connected_time":597000000000,"state":"active","ping":87},{"user_id":508,"name":"red orb","steam_id":76561199090224667,"connected_time":802000000000,"state":"active","ping":69},{"user_id":515,"name":"Randumb","steam_id":76561199083286636,"connected_time":398000000000,"state":"active","ping":57},{"user_id":476,"name":"Pockets","steam_id":76561198001742296,"connected_time":2362000000000,"state":"active","ping":63},{"user_id":505,"name":"Spade1345","steam_id":76561199480247255,"connected_time":1143000000000,"state":"active","ping":91},{"user_id":492,"name":"ùïäùï†ùï¶ùï°ü•£GO·ó™","steam_id":76561198015230837,"connected_time":1995000000000,"state":"active","ping":77},{"user_id":487,"name":"PandaStick","steam_id":76561198005613207,"connected_time":2180000000000,"state":"active","ping":81},{"user_id":484,"name":"Kthulu Mike","steam_id":76561198014026963,"connected_time":2209000000000,"state":"active","ping":81},{"user_id":510,"name":"Swag of the boreal valley","steam_id":76561198880163891,"connected_time":763000000000,"state":"active","ping":101},{"user_id":465,"name":"Grundle Thunder","steam_id":76561197960790338,"connected_time":3573000000000,"state":"active","ping":79},{"user_id":482,"name":"Mug Moment Gaming","steam_id":76561198233098136,"connected_time":2237000000000,"state":"active","ping":52},{"user_id":517,"name":"SoldMyKidneyForCollege","steam_id":76561198096329559,"connected_time":374000000000,"state":"active","ping":98},{"user_id":523,"name":"TechnoBear2099","steam_id":76561198238863596,"connected_time":63000000000,"state":"active","ping":68},{"user_id":447,"name":"RatSlurpee","steam_id":76561198322146556,"connected_time":5195000000000,"state":"active","ping":66},{"user_id":491,"name":"Trapilicious","steam_id":76561198061430457,"connected_time":2117000000000,"state":"active","ping":75},{"user_id":509,"name":"shpungle","steam_id":76561198140320233,"connected_time":782000000000,"state":"active","ping":70},{"user_id":519,"name":"The local hobo","steam_id":76561198289650060,"connected_time":369000000000,"state":"active","ping":96},{"user_id":489,"name":"Unfancy","steam_id":76561198367663877,"connected_time":2161000000000,"state":"active","ping":78},{"user_id":381,"name":"J The Jounin","steam_id":76561198034583622,"connected_time":9868000000000,"state":"active","ping":75},{"user_id":520,"name":"really hot pocket","steam_id":76561198239297686,"connected_time":360000000000,"state":"active","ping":72}]},{"server_id":402,"name":"Uncletopia | Chicago | 3 | All Maps","name_short":"chi-3","host":"chi-1.us.uncletopia.com","port":27035,"enabled":true,"region":"us-central","cc":"us","latitude":41.881832,"longitude":-87.62318,"reserved":0,"last_update":"0001-01-01T00:00:00Z","name_a2s":"Uncletopia | Chicago | 3 | All Maps","protocol":17,"map":"cp_snakewater_final1","folder":"tf","game":"Team Fortress","app_id":440,"player_count":20,"max_players":24,"Bots":0,"server_type":"Dedicated","server_os":"Linux","password":true,"vac":true,"version":"7961495","steam_id":85568392924515191,"keywords":["cp","nocrits","nodmgspread","uncletopia"],"game_id":440,"stv_port":27036,"stv_name":"Uncletopia | Chicago | 3 | All Maps | STV","players":[{"user_id":449,"name":"Engie","steam_id":76561198025417008,"connected_time":887000000000,"state":"active","ping":85},{"user_id":352,"name":"Erebus","steam_id":76561199061956673,"connected_time":7414000000000,"state":"active","ping":72},{"user_id":447,"name":"Thighdeology","steam_id":76561198452211467,"connected_time":1043000000000,"state":"active","ping":97},{"user_id":448,"name":"The Sneakiest Spy","steam_id":76561198060563434,"connected_time":908000000000,"state":"active","ping":82},{"user_id":445,"name":"Les Savy Raz","steam_id":76561198078594872,"connected_time":1100000000000,"state":"active","ping":79},{"user_id":450,"name":"OlympicChamp_12","steam_id":76561198830574526,"connected_time":669000000000,"state":"active","ping":101},{"user_id":452,"name":"‚ù§Breadshot (She)‚ù§","steam_id":76561199005756738,"connected_time":526000000000,"state":"active","ping":56},{"user_id":453,"name":"J76_","steam_id":76561199224457967,"connected_time":514000000000,"state":"active","ping":137},{"user_id":454,"name":"guac","steam_id":76561198025481672,"connected_time":501000000000,"state":"active","ping":69},{"user_id":455,"name":"whosaysnototoes","steam_id":76561199372572556,"connected_time":497000000000,"state":"active","ping":117},{"user_id":460,"name":"Calvin?","steam_id":76561198034069587,"connected_time":190000000000,"state":"active","ping":71},{"user_id":458,"name":"idiot cat","steam_id":76561198245602912,"connected_time":240000000000,"state":"active","ping":101},{"user_id":459,"name":"Dongus","steam_id":76561197979056451,"connected_time":213000000000,"state":"active","ping":92},{"user_id":434,"name":"Cliffigriff","steam_id":76561198121924499,"connected_time":1696000000000,"state":"active","ping":71},{"user_id":464,"name":"Class-D","steam_id":76561198016290546,"connected_time":115000000000,"state":"active","ping":73},{"user_id":470,"name":"hamilton","steam_id":76561198034096096,"connected_time":37000000000,"state":"spawning","ping":92},{"user_id":463,"name":"bob_killed_you","steam_id":76561199049501312,"connected_time":155000000000,"state":"active","ping":65},{"user_id":465,"name":"toritora","steam_id":76561198023859737,"connected_time":88000000000,"state":"active","ping":62},{"user_id":467,"name":"Dave Davidson","steam_id":76561198010802812,"connected_time":62000000000,"state":"active","ping":60},{"user_id":471,"name":"AbbyRoads","steam_id":76561198868564212,"connected_time":35000000000,"state":"active","ping":85}]},{"server_id":403,"name":"Uncletopia | Chicago | 4 | All Maps","name_short":"chi-4","host":"chi-1.us.uncletopia.com","port":27045,"enabled":true,"region":"us-central","cc":"us","latitude":41.881832,"longitude":-87.62318,"reserved":0,"last_update":"0001-01-01T00:00:00Z","name_a2s":"Uncletopia | Chicago | 4 | All Maps","protocol":17,"map":"pl_goldrush","folder":"tf","game":"Team Fortress","app_id":440,"player_count":20,"max_players":24,"Bots":0,"server_type":"Dedicated","server_os":"Linux","password":true,"vac":true,"version":"7961495","steam_id":85568392924515193,"keywords":["nocrits","nodmgspread","payload","uncletopia"],"game_id":440,"stv_port":27046,"stv_name":"Uncletopia | Chicago | 4 | All Maps | STV","players":[{"user_id":571,"name":"Jamie Hyneman","steam_id":76561199196036481,"connected_time":554000000000,"state":"active","ping":83},{"user_id":579,"name":"King","steam_id":76561198123927752,"connected_time":186000000000,"state":"active","ping":47},{"user_id":558,"name":"FormagDrung","steam_id":76561199013618328,"connected_time":1497000000000,"state":"active","ping":65},{"user_id":557,"name":"nhbiker","steam_id":76561198081277675,"connected_time":1511000000000,"state":"active","ping":50},{"user_id":465,"name":"zpalmtree","steam_id":76561198134307620,"connected_time":6959000000000,"state":"active","ping":55},{"user_id":519,"name":"NUt","steam_id":76561198031007966,"connected_time":4043000000000,"state":"active","ping":50},{"user_id":553,"name":"Dieu-Sama","steam_id":76561198002075862,"connected_time":1619000000000,"state":"active","ping":74},{"user_id":573,"name":"AlFury1003","steam_id":76561198219881904,"connected_time":343000000000,"state":"active","ping":81},{"user_id":536,"name":"chok","steam_id":76561198242016100,"connected_time":2564000000000,"state":"active","ping":76},{"user_id":574,"name":"CamWtheDestroyer","steam_id":76561198950777742,"connected_time":337000000000,"state":"active","ping":150},{"user_id":560,"name":"*****setget","steam_id":76561198118824188,"connected_time":1485000000000,"state":"active","ping":116},{"user_id":572,"name":"party pooper","steam_id":76561198068760559,"connected_time":467000000000,"state":"active","ping":62},{"user_id":577,"name":"FROYO donovin","steam_id":76561198045679387,"connected_time":298000000000,"state":"active","ping":45},{"user_id":576,"name":"StretchySnail59","steam_id":76561198073535005,"connected_time":317000000000,"state":"active","ping":48},{"user_id":541,"name":"Rick Astley Is A F2P?","steam_id":76561199258805660,"connected_time":2395000000000,"state":"active","ping":72},{"user_id":497,"name":"Nightman","steam_id":76561198089513762,"connected_time":5106000000000,"state":"active","ping":84},{"user_id":567,"name":"Flueve","steam_id":76561198136300736,"connected_time":1310000000000,"state":"active","ping":86},{"user_id":495,"name":"Mufalito","steam_id":76561198951889482,"connected_time":5275000000000,"state":"active","ping":132},{"user_id":543,"name":"Lazy Broadcasts","steam_id":76561198132871394,"connected_time":2305000000000,"state":"active","ping":106},{"user_id":569,"name":"redmorelikered","steam_id":76561198857532054,"connected_time":1051000000000,"state":"active","ping":96}]},{"server_id":36,"name":"Uncletopia | Chicago | 5 | All Maps","name_short":"chi-5","host":"chi-2.us.uncletopia.com","port":27015,"enabled":true,"region":"us-central","cc":"us","latitude":41.881832,"longitude":-87.62318,"reserved":0,"last_update":"0001-01-01T00:00:00Z","name_a2s":"Uncletopia | Chicago | 5 | All Maps","protocol":17,"map":"pl_enclosure_final","folder":"tf","game":"Team Fortress","app_id":440,"player_count":24,"max_players":24,"Bots":0,"server_type":"Dedicated","server_os":"Linux","password":true,"vac":true,"version":"7961495","steam_id":85568392924866362,"keywords":["nocrits","nodmgspread","payload","uncletopia"],"game_id":440,"stv_port":27016,"stv_name":"Uncletopia | Chicago | 5 | All Maps | STV","players":[{"user_id":356,"name":"chiswola","steam_id":76561198046920142,"connected_time":3386000000000,"state":"active","ping":73},{"user_id":460,"name":"Fran√ßois Vi√®te","steam_id":76561198072975518,"connected_time":60000000000,"state":"active","ping":75},{"user_id":455,"name":"RectalExam","steam_id":76561197970502312,"connected_time":232000000000,"state":"active","ping":97},{"user_id":452,"name":"smokr","steam_id":76561198066566813,"connected_time":288000000000,"state":"active","ping":124},{"user_id":434,"name":"al.vasiglev","steam_id":76561198307359545,"connected_time":1198000000000,"state":"active","ping":113},{"user_id":365,"name":"wckid","steam_id":76561198044856349,"connected_time":2925000000000,"state":"active","ping":57},{"user_id":398,"name":"Nessie is my Waifu","steam_id":76561198076021620,"connected_time":2087000000000,"state":"active","ping":81},{"user_id":372,"name":"SpongedSocks","steam_id":76561198374009086,"connected_time":2767000000000,"state":"active","ping":69},{"user_id":369,"name":"Crazy Cane","steam_id":76561198993941174,"connected_time":2838000000000,"state":"active","ping":70},{"user_id":453,"name":"locsa","steam_id":76561199065232977,"connected_time":282000000000,"state":"active","ping":60},{"user_id":371,"name":"Nexusuxen","steam_id":76561198117547131,"connected_time":2786000000000,"state":"active","ping":74},{"user_id":373,"name":"Overduecat","steam_id":76561198092452824,"connected_time":2649000000000,"state":"active","ping":71},{"user_id":456,"name":"Jack Celliers","steam_id":76561198060983357,"connected_time":227000000000,"state":"active","ping":60},{"user_id":454,"name":"TheLazySquid","steam_id":76561199088088348,"connected_time":281000000000,"state":"active","ping":91},{"user_id":458,"name":"kr15p","steam_id":76561198331951104,"connected_time":95000000000,"state":"active","ping":65},{"user_id":435,"name":"TheGreythreat","steam_id":76561198021995538,"connected_time":1162000000000,"state":"active","ping":69},{"user_id":378,"name":"Nova Kitty","steam_id":76561198029417791,"connected_time":2494000000000,"state":"active","ping":46},{"user_id":439,"name":"NUKE RADIO","steam_id":76561198979277948,"connected_time":1059000000000,"state":"active","ping":89},{"user_id":382,"name":"[PH60] Mista White","steam_id":76561198896032630,"connected_time":2473000000000,"state":"active","ping":82},{"user_id":383,"name":"Ser Weebsalot","steam_id":76561198038926861,"connected_time":2473000000000,"state":"active","ping":135},{"user_id":459,"name":"imng","steam_id":76561198014988031,"connected_time":66000000000,"state":"active","ping":68},{"user_id":385,"name":"Yeddi","steam_id":76561198065251542,"connected_time":2433000000000,"state":"active","ping":88},{"user_id":386,"name":"Kuma bear","steam_id":76561198140493109,"connected_time":2430000000000,"state":"active","ping":129},{"user_id":461,"name":"rf","steam_id":76561198195359229,"connected_time":54000000000,"state":"active","ping":92}]},{"server_id":37,"name":"Uncletopia | Chicago | 6 | All Maps","name_short":"chi-6","host":"chi-2.us.uncletopia.com","port":27025,"enabled":true,"region":"us-central","cc":"us","latitude":41.881832,"longitude":-87.62318,"reserved":0,"last_update":"0001-01-01T00:00:00Z","name_a2s":"Uncletopia | Chicago | 6 | All Maps","protocol":17,"map":"pl_badwater","folder":"tf","game":"Team Fortress","app_id":440,"player_count":24,"max_players":24,"Bots":0,"server_type":"Dedicated","server_os":"Linux","password":true,"vac":true,"version":"7961495","steam_id":85568392924866363,"keywords":["nocrits","nodmgspread","payload","uncletopia"],"game_id":440,"stv_port":27026,"stv_name":"Uncletopia | Chicago | 6 | All Maps | STV","players":[{"user_id":290,"name":"Large Hardon Collider","steam_id":76561198023896605,"connected_time":757000000000,"state":"active","ping":71},{"user_id":277,"name":"onionaid","steam_id":76561198065266282,"connected_time":1329000000000,"state":"active","ping":71},{"user_id":273,"name":"GreatTimBones","steam_id":76561198409145748,"connected_time":1349000000000,"state":"active","ping":83},{"user_id":300,"name":"Œª T O M I C S P E E D FT","steam_id":76561198378581038,"connected_time":124000000000,"state":"active","ping":65},{"user_id":297,"name":"Owl Pacino","steam_id":76561197979970666,"connected_time":174000000000,"state":"active","ping":55},{"user_id":264,"name":"yes","steam_id":76561199094011002,"connected_time":1567000000000,"state":"active","ping":59},{"user_id":267,"name":"Cacodemon","steam_id":76561198121797960,"connected_time":1536000000000,"state":"active","ping":71},{"user_id":251,"name":"eipi","steam_id":76561199084492097,"connected_time":3057000000000,"state":"active","ping":763},{"user_id":286,"name":"Pocket Arg","steam_id":76561198133316799,"connected_time":1017000000000,"state":"active","ping":93},{"user_id":252,"name":"Swag","steam_id":76561198835483242,"connected_time":3057000000000,"state":"active","ping":76},{"user_id":295,"name":"Reisalin Stout","steam_id":76561198272955205,"connected_time":216000000000,"state":"active","ping":85},{"user_id":282,"name":"leeroy","steam_id":76561198226418600,"connected_time":1195000000000,"state":"active","ping":86},{"user_id":291,"name":"wahooka","steam_id":76561197981211922,"connected_time":624000000000,"state":"active","ping":80},{"user_id":268,"name":"immeasurable dps loss","steam_id":76561198408747483,"connected_time":1418000000000,"state":"active","ping":75},{"user_id":213,"name":"Frog Finance Gutter Justice","steam_id":76561198067247951,"connected_time":6652000000000,"state":"active","ping":60},{"user_id":296,"name":"ATL1_Lav4ie_She/They","steam_id":76561198825997674,"connected_time":199000000000,"state":"active","ping":77},{"user_id":284,"name":"the cart is not movin lads","steam_id":76561199184578185,"connected_time":1078000000000,"state":"active","ping":166},{"user_id":292,"name":"1989 Mazda RX-7 FC3S","steam_id":76561198436383373,"connected_time":624000000000,"state":"active","ping":113},{"user_id":298,"name":"Erectnophobia","steam_id":76561198053743602,"connected_time":162000000000,"state":"active","ping":54},{"user_id":299,"name":"UzedPickle","steam_id":76561198005513760,"connected_time":131000000000,"state":"active","ping":86},{"user_id":293,"name":"Anamm","steam_id":76561198328762510,"connected_time":618000000000,"state":"active","ping":65},{"user_id":301,"name":"Marisa","steam_id":76561198133416904,"connected_time":123000000000,"state":"active","ping":86},{"user_id":275,"name":"KazmirlYT","steam_id":76561198116008410,"connected_time":1338000000000,"state":"active","ping":108},{"user_id":289,"name":"tmaelo","steam_id":76561198866040128,"connected_time":982000000000,"state":"active","ping":95}]},{"server_id":38,"name":"Uncletopia | Chicago | 7 | Stopwatch","name_short":"chi-7","host":"chi-2.us.uncletopia.com","port":27035,"enabled":true,"region":"us-central","cc":"us","latitude":41.881832,"longitude":-87.62318,"reserved":0,"last_update":"0001-01-01T00:00:00Z","name_a2s":"Uncletopia | Chicago | 7 | Stopwatch","protocol":17,"map":"pl_swiftwater_final1","folder":"tf","game":"Team Fortress","app_id":440,"player_count":23,"max_players":24,"Bots":0,"server_type":"Dedicated","server_os":"Linux","password":true,"vac":true,"version":"7961495","steam_id":85568392924866364,"keywords":["nocrits","nodmgspread","payload","uncletopia"],"game_id":440,"stv_port":27036,"stv_name":"Uncletopia | Chicago | 7 | Stopwatch | STV","players":[{"user_id":39,"name":"jarheaddevildog","steam_id":76561198060492517,"connected_time":3211000000000,"state":"active","ping":92},{"user_id":78,"name":"creamgravy573","steam_id":76561198093308746,"connected_time":1745000000000,"state":"active","ping":77},{"user_id":102,"name":"retror","steam_id":76561198846863157,"connected_time":341000000000,"state":"active","ping":48},{"user_id":83,"name":"Iron Bomper","steam_id":76561198216600608,"connected_time":1429000000000,"state":"active","ping":75},{"user_id":98,"name":"y0","steam_id":76561198143894333,"connected_time":776000000000,"state":"active","ping":49},{"user_id":40,"name":"oweax","steam_id":76561198823272266,"connected_time":3208000000000,"state":"active","ping":94},{"user_id":84,"name":"dilfbot","steam_id":76561198099988165,"connected_time":1411000000000,"state":"active","ping":85},{"user_id":41,"name":"Cringy Crip","steam_id":76561198826769461,"connected_time":3170000000000,"state":"active","ping":120},{"user_id":85,"name":"chunk","steam_id":76561198134775401,"connected_time":1403000000000,"state":"active","ping":61},{"user_id":97,"name":"Brendan","steam_id":76561198041079914,"connected_time":1047000000000,"state":"active","ping":72},{"user_id":87,"name":"Hydra","steam_id":76561197983856163,"connected_time":1396000000000,"state":"active","ping":94},{"user_id":51,"name":"Inevitable","steam_id":76561198210050169,"connected_time":2709000000000,"state":"active","ping":69},{"user_id":100,"name":"Amtyk","steam_id":76561197979130554,"connected_time":457000000000,"state":"active","ping":64},{"user_id":88,"name":"Zero","steam_id":76561198033384990,"connected_time":1395000000000,"state":"active","ping":68},{"user_id":104,"name":"MeDerp","steam_id":76561198334037284,"connected_time":335000000000,"state":"active","ping":56},{"user_id":99,"name":"kennedy family reunion","steam_id":76561198143826450,"connected_time":483000000000,"state":"active","ping":45},{"user_id":72,"name":"Dr. Sax","steam_id":76561198197695699,"connected_time":1984000000000,"state":"active","ping":67},{"user_id":59,"name":"Erchius","steam_id":76561198256892300,"connected_time":2425000000000,"state":"active","ping":74},{"user_id":89,"name":"Peepster","steam_id":76561198297854733,"connected_time":1392000000000,"state":"active","ping":74},{"user_id":91,"name":"bath","steam_id":76561197969993352,"connected_time":1387000000000,"state":"active","ping":65},{"user_id":65,"name":"Steven","steam_id":76561198360946437,"connected_time":2270000000000,"state":"active","ping":67},{"user_id":96,"name":"Sayoribuns","steam_id":76561198062842439,"connected_time":1128000000000,"state":"active","ping":84},{"user_id":108,"name":"Assquatch Nutter Butter","steam_id":76561198321297485,"connected_time":181000000000,"state":"active","ping":58}]},{"server_id":39,"name":"Uncletopia | Chicago | 8 | Community","name_short":"chi-8","host":"chi-2.us.uncletopia.com","port":27045,"enabled":true,"region":"us-central","cc":"us","latitude":41.881832,"longitude":-87.62318,"reserved":0,"last_update":"0001-01-01T00:00:00Z","name_a2s":"Uncletopia | Chicago | 8 | Community","protocol":17,"map":"pl_pier","folder":"tf","game":"Team Fortress","app_id":440,"player_count":0,"max_players":24,"Bots":0,"server_type":"Dedicated","server_os":"Linux","password":true,"vac":true,"version":"7961495","steam_id":85568392924866365,"keywords":["nocrits","nodmgspread","payload","uncletopia"],"game_id":440,"stv_port":27046,"stv_name":"Uncletopia | Chicago | 8 | Community | STV","players":null},{"server_id":8,"name":"Uncletopia | Dallas | 1 | All Maps","name_short":"dal-1","host":"dal-1.us.uncletopia.com","port":27015,"enabled":true,"region":"us-central","cc":"us","latitude":32.779167,"longitude":-96.80889,"reserved":0,"last_update":"0001-01-01T00:00:00Z","name_a2s":"Uncletopia | Dallas | 1 | All Maps","protocol":17,"map":"pl_rumford_event","folder":"tf","game":"Team Fortress","app_id":440,"player_count":18,"max_players":24,"Bots":0,"server_type":"Dedicated","server_os":"Linux","password":true,"vac":true,"version":"7961495","steam_id":85568392924469986,"keywords":["nocrits","nodmgspread","payload","uncletopia"],"game_id":440,"stv_port":27016,"stv_name":"Uncletopia | Dallas | 1 | All Maps | STV","players":[{"user_id":513,"name":"Fargo","steam_id":76561198044703931,"connected_time":63000000000,"state":"active","ping":72},{"user_id":474,"name":"misdemeanor shaboingery charges","steam_id":76561199068981957,"connected_time":2269000000000,"state":"active","ping":75},{"user_id":468,"name":"OddSlaush","steam_id":76561198043898488,"connected_time":2922000000000,"state":"active","ping":61},{"user_id":470,"name":"Ojen","steam_id":76561197998414482,"connected_time":2901000000000,"state":"active","ping":81},{"user_id":496,"name":"TheAsianMeatball","steam_id":76561198336926133,"connected_time":1286000000000,"state":"active","ping":67},{"user_id":475,"name":"mkl","steam_id":76561197986401685,"connected_time":2256000000000,"state":"active","ping":60},{"user_id":514,"name":"Addicted2TheShindig","steam_id":76561198062459671,"connected_time":5000000000,"state":"spawning","ping":74},{"user_id":452,"name":"King Cotton","steam_id":76561198292444376,"connected_time":4986000000000,"state":"active","ping":62},{"user_id":492,"name":"little bear cub ||-IWNL-||","steam_id":76561198044006334,"connected_time":1333000000000,"state":"active","ping":100},{"user_id":512,"name":"kazoo2","steam_id":76561198260473504,"connected_time":79000000000,"state":"active","ping":83},{"user_id":493,"name":"Darling","steam_id":76561198127525888,"connected_time":1332000000000,"state":"active","ping":46},{"user_id":509,"name":"banana gaming","steam_id":76561198334907218,"connected_time":310000000000,"state":"active","ping":65},{"user_id":473,"name":"i need u","steam_id":76561198030625151,"connected_time":2468000000000,"state":"active","ping":81},{"user_id":503,"name":"artichoke","steam_id":76561198980994364,"connected_time":997000000000,"state":"active","ping":95},{"user_id":504,"name":"Wick","steam_id":76561198062996360,"connected_time":775000000000,"state":"active","ping":83},{"user_id":489,"name":"Scuba Steve","steam_id":76561198313018251,"connected_time":1819000000000,"state":"active","ping":91},{"user_id":467,"name":"Top-G Man","steam_id":76561199122152458,"connected_time":3277000000000,"state":"active","ping":65},{"user_id":469,"name":"Monke :)","steam_id":76561198307271591,"connected_time":2922000000000,"state":"active","ping":88}]},{"server_id":108,"name":"Uncletopia | Dallas | 2 | All Maps","name_short":"dal-2","host":"dal-1.us.uncletopia.com","port":27025,"enabled":true,"region":"us-central","cc":"us","latitude":32.779167,"longitude":-96.80889,"reserved":0,"last_update":"0001-01-01T00:00:00Z","name_a2s":"Uncletopia | Dallas | 2 | All Maps","protocol":17,"map":"plr_hightower","folder":"tf","game":"Team Fortress","app_id":440,"player_count":24,"max_players":24,"Bots":0,"server_type":"Dedicated","server_os":"Linux","password":true,"vac":true,"version":"7961495","steam_id":85568392924469988,"keywords":["nocrits","nodmgspread","payload","uncletopia"],"game_id":440,"stv_port":27026,"stv_name":"Uncletopia | Dallas | 2 | All Maps | STV","players":[{"user_id":503,"name":"NETTASTINI","steam_id":76561199135904313,"connected_time":41000000000,"state":"active","ping":57},{"user_id":479,"name":"LordDinkus","steam_id":76561199229746441,"connected_time":640000000000,"state":"active","ping":88},{"user_id":499,"name":"thuck","steam_id":76561198858474714,"connected_time":258000000000,"state":"active","ping":104},{"user_id":464,"name":"MONKEY | videogamer1002","steam_id":76561198157110599,"connected_time":1068000000000,"state":"active","ping":121},{"user_id":485,"name":"Your best nightmare","steam_id":76561198400182447,"connected_time":579000000000,"state":"active","ping":72},{"user_id":480,"name":"OldRavensFan","steam_id":76561198043919562,"connected_time":630000000000,"state":"active","ping":79},{"user_id":474,"name":"stellatheknave","steam_id":76561198264327844,"connected_time":865000000000,"state":"active","ping":109},{"user_id":481,"name":"shitass (Reaping and Sowing)","steam_id":76561198210572481,"connected_time":612000000000,"state":"active","ping":60},{"user_id":498,"name":"cris patt (real)","steam_id":76561199362872879,"connected_time":282000000000,"state":"active","ping":67},{"user_id":444,"name":"Rob","steam_id":76561199187786660,"connected_time":3003000000000,"state":"active","ping":53},{"user_id":502,"name":"Im not your Uncle","steam_id":76561198101366032,"connected_time":135000000000,"state":"active","ping":71},{"user_id":483,"name":"Dan","steam_id":76561199236719411,"connected_time":585000000000,"state":"active","ping":91},{"user_id":475,"name":"Randy \"the Man\" Johnson","steam_id":76561198039124445,"connected_time":859000000000,"state":"active","ping":120},{"user_id":500,"name":"Gary Busey","steam_id":76561197970096950,"connected_time":226000000000,"state":"active","ping":43},{"user_id":477,"name":"Pissless Pissmass Pissman","steam_id":76561198409907417,"connected_time":764000000000,"state":"active","ping":90},{"user_id":487,"name":"Ricky Dicky Doo Dah Grimes","steam_id":76561198868839264,"connected_time":557000000000,"state":"active","ping":53},{"user_id":470,"name":"kimchiking82","steam_id":76561198008423339,"connected_time":969000000000,"state":"active","ping":74},{"user_id":471,"name":"gulch","steam_id":76561199227946025,"connected_time":968000000000,"state":"active","ping":71},{"user_id":496,"name":"Bouncy Bear","steam_id":76561197998028019,"connected_time":347000000000,"state":"active","ping":80},{"user_id":491,"name":"Spooks","steam_id":76561198360959776,"connected_time":457000000000,"state":"active","ping":103},{"user_id":440,"name":"Queuetimeevent","steam_id":76561198079438423,"connected_time":3799000000000,"state":"active","ping":54},{"user_id":492,"name":"Elementary my dear Watson","steam_id":76561198028123939,"connected_time":454000000000,"state":"active","ping":140},{"user_id":493,"name":"Therapy Goth","steam_id":76561198048448497,"connected_time":450000000000,"state":"active","ping":84}]},{"server_id":404,"name":"Uncletopia | Dallas | 3 | All Maps","name_short":"dal-3","host":"dal-1.us.uncletopia.com","port":27035,"enabled":true,"region":"us-central","cc":"us","latitude":32.779167,"longitude":-96.80889,"reserved":0,"last_update":"0001-01-01T00:00:00Z","name_a2s":"Uncletopia | Dallas | 3 | All Maps","protocol":17,"map":"pl_upward","folder":"tf","game":"Team Fortress","app_id":440,"player_count":24,"max_players":24,"Bots":0,"server_type":"Dedicated","server_os":"Linux","password":true,"vac":true,"version":"7961495","steam_id":85568392924515219,"keywords":["nocrits","nodmgspread","payload","uncletopia"],"game_id":440,"stv_port":27036,"stv_name":"Uncletopia | Dallas | 3 | All Maps | STV","players":[{"user_id":326,"name":"Vas","steam_id":76561199105386998,"connected_time":154000000000,"state":"active","ping":56},{"user_id":320,"name":"StompArtist","steam_id":76561198056247405,"connected_time":637000000000,"state":"active","ping":59},{"user_id":329,"name":"‚ù§ Ashley ‚ù§","steam_id":76561198056428303,"connected_time":64000000000,"state":"active","ping":80},{"user_id":271,"name":"Leftovers","steam_id":76561198046041079,"connected_time":2899000000000,"state":"active","ping":113},{"user_id":323,"name":"FangAlien","steam_id":76561198302694893,"connected_time":350000000000,"state":"active","ping":60},{"user_id":327,"name":"mbell1199","steam_id":76561198827517736,"connected_time":147000000000,"state":"active","ping":74},{"user_id":264,"name":"DeckofDragons","steam_id":76561198057398213,"connected_time":3072000000000,"state":"active","ping":68},{"user_id":318,"name":"robertseinfeld","steam_id":76561198826799375,"connected_time":751000000000,"state":"active","ping":67},{"user_id":310,"name":"Tuvok Shakur","steam_id":76561198018875334,"connected_time":1063000000000,"state":"active","ping":64},{"user_id":328,"name":"Emma","steam_id":76561198318093783,"connected_time":97000000000,"state":"active","ping":63},{"user_id":311,"name":"Spaace!","steam_id":76561198835300972,"connected_time":1044000000000,"state":"active","ping":50},{"user_id":315,"name":"Yu Plush","steam_id":76561198800891125,"connected_time":786000000000,"state":"active","ping":89},{"user_id":307,"name":"SixFlabs","steam_id":76561198169754882,"connected_time":1087000000000,"state":"active","ping":86},{"user_id":321,"name":"Jeramosa","steam_id":76561198811000094,"connected_time":554000000000,"state":"active","ping":75},{"user_id":322,"name":"Drewno","steam_id":76561197960653930,"connected_time":472000000000,"state":"active","ping":61},{"user_id":200,"name":"PxE","steam_id":76561198038034899,"connected_time":8855000000000,"state":"active","ping":167},{"user_id":303,"name":"tail slap +36 (4d12+18)","steam_id":76561198040425096,"connected_time":1212000000000,"state":"active","ping":71},{"user_id":312,"name":"Green Mario","steam_id":76561198094325997,"connected_time":1044000000000,"state":"active","ping":69},{"user_id":313,"name":"Severeburrito16","steam_id":76561198353155991,"connected_time":1039000000000,"state":"active","ping":85},{"user_id":237,"name":"Ockulus","steam_id":76561199069638460,"connected_time":5390000000000,"state":"active","ping":76},{"user_id":324,"name":"Majestic-A","steam_id":76561198988062101,"connected_time":220000000000,"state":"active","ping":95},{"user_id":299,"name":"momus","steam_id":76561198966979196,"connected_time":1496000000000,"state":"active","ping":86},{"user_id":284,"name":"blue duck the 2nd","steam_id":76561198263142765,"connected_time":2610000000000,"state":"active","ping":150},{"user_id":285,"name":"Unlicensed Therapist","steam_id":76561199207814518,"connected_time":2563000000000,"state":"active","ping":86}]},{"server_id":405,"name":"Uncletopia | Dallas | 4 | Community","name_short":"dal-4","host":"dal-1.us.uncletopia.com","port":27045,"enabled":true,"region":"us-central","cc":"us","latitude":32.779167,"longitude":-96.80889,"reserved":0,"last_update":"0001-01-01T00:00:00Z","name_a2s":"Uncletopia | Dallas | 4 | Community","protocol":17,"map":"workshop/koth_ramjam_rc1.ugc459778887","folder":"tf","game":"Team Fortress","app_id":440,"player_count":0,"max_players":24,"Bots":0,"server_type":"Dedicated","server_os":"Linux","password":true,"vac":true,"version":"7961495","steam_id":85568392924515220,"keywords":["cp","nocrits","nodmgspread","uncletopia"],"game_id":440,"stv_port":27046,"stv_name":"Uncletopia | Dallas | 4 | Community | STV","players":null},{"server_id":5,"name":"Uncletopia | Frankfurt | 1 | All Maps","name_short":"frk-1","host":"frk-1.de.uncletopia.com","port":27015,"enabled":true,"region":"eu","cc":"de","latitude":50.110924,"longitude":8.682127,"reserved":0,"last_update":"0001-01-01T00:00:00Z","name_a2s":"Uncletopia | Frankfurt | 1 | All Maps","protocol":17,"map":"pl_frontier_final","folder":"tf","game":"Team Fortress","app_id":440,"player_count":21,"max_players":24,"Bots":0,"server_type":"Dedicated","server_os":"Linux","password":true,"vac":true,"version":"7961495","steam_id":85568392924469989,"keywords":["nocrits","nodmgspread","payload","uncletopia"],"game_id":440,"stv_port":27016,"stv_name":"Uncletopia | Frankfurt | 1 | All Maps | STV","players":[{"user_id":860,"name":"BonK","steam_id":76561198876012417,"connected_time":1933000000000,"state":"active","ping":62},{"user_id":874,"name":"Dr.Disrespect","steam_id":76561198043820228,"connected_time":1082000000000,"state":"active","ping":44},{"user_id":879,"name":"[HOL] Solringen","steam_id":76561198003584681,"connected_time":252000000000,"state":"active","ping":63},{"user_id":870,"name":"slime rancher sex","steam_id":76561198799908669,"connected_time":1647000000000,"state":"active","ping":73},{"user_id":729,"name":"Snowy","steam_id":76561198169992461,"connected_time":9159000000000,"state":"active","ping":49},{"user_id":871,"name":"Greg","steam_id":76561198014131702,"connected_time":1260000000000,"state":"active","ping":113},{"user_id":831,"name":"Chucky.","steam_id":76561197969361063,"connected_time":3120000000000,"state":"active","ping":88},{"user_id":861,"name":"Hex Reflect","steam_id":76561197972572841,"connected_time":1880000000000,"state":"active","ping":69},{"user_id":877,"name":"Hand Samitizer","steam_id":76561198354682764,"connected_time":1005000000000,"state":"active","ping":71},{"user_id":754,"name":"Suetolog","steam_id":76561199053090212,"connected_time":7993000000000,"state":"active","ping":47},{"user_id":770,"name":"‚ù§Speedbump‚ù§","steam_id":76561198388690313,"connected_time":6314000000000,"state":"active","ping":55},{"user_id":858,"name":"AhYesItsLarry","steam_id":76561198113895325,"connected_time":2116000000000,"state":"active","ping":71},{"user_id":850,"name":"lili's boy","steam_id":76561198162873354,"connected_time":2414000000000,"state":"active","ping":91},{"user_id":790,"name":"GGlut","steam_id":76561198034281473,"connected_time":5196000000000,"state":"active","ping":34},{"user_id":863,"name":"HardScope Henry","steam_id":76561198846784757,"connected_time":1843000000000,"state":"active","ping":69},{"user_id":875,"name":"Romultra","steam_id":76561198354105082,"connected_time":1072000000000,"state":"active","ping":44},{"user_id":873,"name":"Economic crisis","steam_id":76561198063562843,"connected_time":1206000000000,"state":"active","ping":51},{"user_id":878,"name":"Bobirulez","steam_id":76561198009125458,"connected_time":627000000000,"state":"active","ping":74},{"user_id":808,"name":"Khvicha Kvaraskhelia","steam_id":76561198985309519,"connected_time":3871000000000,"state":"active","ping":75},{"user_id":876,"name":"Ch4bby","steam_id":76561198058792875,"connected_time":1048000000000,"state":"active","ping":52}]},{"server_id":110,"name":"Uncletopia | Frankfurt | 2 | All Maps","name_short":"frk-2","host":"frk-1.de.uncletopia.com","port":27025,"enabled":true,"region":"eu","cc":"de","latitude":50.110924,"longitude":8.682127,"reserved":0,"last_update":"0001-01-01T00:00:00Z","name_a2s":"Uncletopia | Frankfurt | 2 | All Maps","protocol":17,"map":"pl_swiftwater_final1","folder":"tf","game":"Team Fortress","app_id":440,"player_count":1,"max_players":24,"Bots":0,"server_type":"Dedicated","server_os":"Linux","password":true,"vac":true,"version":"7961495","steam_id":85568392924469990,"keywords":["nocrits","nodmgspread","payload","uncletopia"],"game_id":440,"stv_port":27026,"stv_name":"Uncletopia | Frankfurt | 2 | All Maps | STV","players":[{"user_id":755,"name":"Tomatipea29","steam_id":76561198136687652,"connected_time":131000000000,"state":"active","ping":61}]},{"server_id":308,"name":"Uncletopia | Frankfurt | 3 | All Maps","name_short":"frk-3","host":"frk-1.de.uncletopia.com","port":27035,"enabled":true,"region":"eu","cc":"de","latitude":50.110924,"longitude":8.682127,"reserved":0,"last_update":"0001-01-01T00:00:00Z","name_a2s":"Uncletopia | Frankfurt | 3 | All Maps","protocol":17,"map":"cp_dustbowl","folder":"tf","game":"Team Fortress","app_id":440,"player_count":0,"max_players":24,"Bots":0,"server_type":"Dedicated","server_os":"Linux","password":true,"vac":true,"version":"7961495","steam_id":85568392924504274,"keywords":["cp","nocrits","nodmgspread","uncletopia"],"game_id":440,"stv_port":27036,"stv_name":"Uncletopia | Frankfurt | 3 | All Maps | STV","players":null},{"server_id":309,"name":"Uncletopia | Frankfurt | 4 | All Maps","name_short":"frk-4","host":"frk-1.de.uncletopia.com","port":27045,"enabled":true,"region":"eu","cc":"de","latitude":50.110924,"longitude":8.682127,"reserved":0,"last_update":"0001-01-01T00:00:00Z","name_a2s":"Uncletopia | Frankfurt | 4 | All Maps","protocol":17,"map":"cp_altitude","folder":"tf","game":"Team Fortress","app_id":440,"player_count":0,"max_players":24,"Bots":0,"server_type":"Dedicated","server_os":"Linux","password":true,"vac":true,"version":"7961495","steam_id":85568392924504275,"keywords":["cp","nocrits","nodmgspread","uncletopia"],"game_id":440,"stv_port":27046,"stv_name":"Uncletopia | Frankfurt | 4 | All Maps | STV","players":null},{"server_id":310,"name":"Uncletopia | Frankfurt | 5 | All Maps","name_short":"frk-5","host":"frk-1.de.uncletopia.com","port":27055,"enabled":true,"region":"eu","cc":"de","latitude":50.110924,"longitude":8.682127,"reserved":0,"last_update":"0001-01-01T00:00:00Z","name_a2s":"Uncletopia | Frankfurt | 5 | All Maps","protocol":17,"map":"pl_pier","folder":"tf","game":"Team Fortress","app_id":440,"player_count":0,"max_players":24,"Bots":0,"server_type":"Dedicated","server_os":"Linux","password":true,"vac":true,"version":"7961495","steam_id":85568392924504277,"keywords":["nocrits","nodmgspread","payload","uncletopia"],"game_id":440,"stv_port":27056,"stv_name":"Uncletopia | Frankfurt | 5 | All Maps | STV","players":null},{"server_id":311,"name":"Uncletopia | Frankfurt | 6 | All Maps","name_short":"frk-6","host":"frk-1.de.uncletopia.com","port":27065,"enabled":true,"region":"eu","cc":"de","latitude":50.110924,"longitude":8.682127,"reserved":0,"last_update":"0001-01-01T00:00:00Z","name_a2s":"Uncletopia | Frankfurt | 6 | All Maps","protocol":17,"map":"koth_cascade","folder":"tf","game":"Team Fortress","app_id":440,"player_count":0,"max_players":24,"Bots":0,"server_type":"Dedicated","server_os":"Linux","password":true,"vac":true,"version":"7961495","steam_id":85568392924504278,"keywords":["cp","nocrits","nodmgspread","uncletopia"],"game_id":440,"stv_port":27066,"stv_name":"Uncletopia | Frankfurt | 6 | All Maps | STV","players":null},{"server_id":23,"name":"Uncletopia | Frankfurt | 7 | Stopwatch","name_short":"frk-7","host":"frk-1.de.uncletopia.com","port":27075,"enabled":true,"region":"eu","cc":"de","latitude":50.110924,"longitude":8.682127,"reserved":0,"last_update":"0001-01-01T00:00:00Z","name_a2s":"Uncletopia | Frankfurt | 7 | Stopwatch","protocol":17,"map":"pl_borneo","folder":"tf","game":"Team Fortress","app_id":440,"player_count":0,"max_players":24,"Bots":0,"server_type":"Dedicated","server_os":"Linux","password":true,"vac":true,"version":"7961495","steam_id":85568392924742827,"keywords":["nocrits","nodmgspread","payload","uncletopia"],"game_id":440,"stv_port":27076,"stv_name":"Uncletopia | Frankfurt | 7 | Stopwatch | STV","players":null},{"server_id":24,"name":"Uncletopia | Frankfurt | 8 | Community","name_short":"frk-8","host":"frk-1.de.uncletopia.com","port":27085,"enabled":true,"region":"eu","cc":"de","latitude":50.110924,"longitude":8.682127,"reserved":0,"last_update":"0001-01-01T00:00:00Z","name_a2s":"Uncletopia | Frankfurt | 8 | Community","protocol":17,"map":"workshop/cp_fulgur_rc2a.ugc2068252300","folder":"tf","game":"Team Fortress","app_id":440,"player_count":0,"max_players":24,"Bots":0,"server_type":"Dedicated","server_os":"Linux","password":true,"vac":true,"version":"7961495","steam_id":85568392924742828,"keywords":["cp","nocrits","nodmgspread","uncletopia"],"game_id":440,"stv_port":27086,"stv_name":"Uncletopia | Frankfurt | 8 | Community | STV","players":null},{"server_id":202,"name":"Uncletopia | Hong Kong | 1 | All Maps","name_short":"hgk-1","host":"hgk-1.hk.uncletopia.com","port":27015,"enabled":true,"region":"asia","cc":"hk","latitude":22.302711,"longitude":114.177216,"reserved":0,"last_update":"0001-01-01T00:00:00Z","name_a2s":"Uncletopia | Hong Kong | 1 | All Maps","protocol":17,"map":"pl_pier","folder":"tf","game":"Team Fortress","app_id":440,"player_count":5,"max_players":24,"Bots":0,"server_type":"Dedicated","server_os":"Linux","password":true,"vac":true,"version":"7961495","steam_id":85568392924494504,"keywords":["nocrits","nodmgspread","payload","uncletopia"],"game_id":440,"stv_port":27016,"stv_name":"Uncletopia | Hong Kong | 1 | All Maps | STV","players":[{"user_id":5,"name":"sniper monke AFK","steam_id":76561199388444096,"connected_time":1151000000000,"state":"active","ping":67},{"user_id":6,"name":"washed noob","steam_id":76561199095596042,"connected_time":916000000000,"state":"active","ping":92},{"user_id":7,"name":"Crimsyn","steam_id":76561198170554543,"connected_time":460000000000,"state":"active","ping":108},{"user_id":8,"name":"Unan_baho","steam_id":76561199214357948,"connected_time":435000000000,"state":"active","ping":78},{"user_id":10,"name":"Gefin","steam_id":76561198944317181,"connected_time":415000000000,"state":"active","ping":69}]},{"server_id":1,"name":"Uncletopia | Los Angeles | 1 | All Maps","name_short":"lax-1","host":"lax-1.us.uncletopia.com","port":27015,"enabled":true,"region":"us-west","cc":"us","latitude":33.94279,"longitude":-118.41004,"reserved":0,"last_update":"0001-01-01T00:00:00Z","name_a2s":"Uncletopia | Los Angeles | 1 | All Maps","protocol":17,"map":"koth_lakeside_final","folder":"tf","game":"Team Fortress","app_id":440,"player_count":0,"max_players":24,"Bots":0,"server_type":"Dedicated","server_os":"Linux","password":true,"vac":true,"version":"7961495","steam_id":85568392924469991,"keywords":["cp","nocrits","nodmgspread","uncletopia"],"game_id":440,"stv_port":27016,"stv_name":"Uncletopia | Los Angeles | 1 | All Maps | STV","players":null},{"server_id":112,"name":"Uncletopia | Los Angeles | 2 | All Maps","name_short":"lax-2","host":"lax-1.us.uncletopia.com","port":27025,"enabled":true,"region":"us-west","cc":"us","latitude":33.94279,"longitude":-118.41004,"reserved":0,"last_update":"0001-01-01T00:00:00Z","name_a2s":"Uncletopia | Los Angeles | 2 | All Maps","protocol":17,"map":"koth_highpass","folder":"tf","game":"Team Fortress","app_id":440,"player_count":0,"max_players":24,"Bots":0,"server_type":"Dedicated","server_os":"Linux","password":true,"vac":true,"version":"7961495","steam_id":85568392924469992,"keywords":["cp","nocrits","nodmgspread","uncletopia"],"game_id":440,"stv_port":27026,"stv_name":"Uncletopia | Los Angeles | 2 | All Maps | STV","players":null},{"server_id":324,"name":"Uncletopia | Los Angeles | 3 | All Maps","name_short":"lax-3","host":"lax-1.us.uncletopia.com","port":27035,"enabled":true,"region":"us-west","cc":"us","latitude":33.94279,"longitude":-118.41004,"reserved":0,"last_update":"0001-01-01T00:00:00Z","name_a2s":"Uncletopia | Los Angeles | 3 | All Maps","protocol":17,"map":"pl_swiftwater_final1","folder":"tf","game":"Team Fortress","app_id":440,"player_count":24,"max_players":24,"Bots":0,"server_type":"Dedicated","server_os":"Linux","password":true,"vac":true,"version":"7961495","steam_id":85568392924510198,"keywords":["nocrits","nodmgspread","payload","uncletopia"],"game_id":440,"stv_port":27036,"stv_name":"Uncletopia | Los Angeles | 3 | All Maps | STV","players":[{"user_id":213,"name":"Loafus","steam_id":76561198154561111,"connected_time":864000000000,"state":"active","ping":115},{"user_id":223,"name":"k'ouft","steam_id":76561198080207021,"connected_time":350000000000,"state":"active","ping":46},{"user_id":216,"name":"S.N.A.F.U.","steam_id":76561197980128424,"connected_time":837000000000,"state":"active","ping":102},{"user_id":187,"name":"Sonny","steam_id":76561198042243689,"connected_time":2937000000000,"state":"active","ping":54},{"user_id":201,"name":"aldwych","steam_id":76561198318126190,"connected_time":1875000000000,"state":"active","ping":158},{"user_id":206,"name":"minerkid2004","steam_id":76561198044262827,"connected_time":1207000000000,"state":"active","ping":58},{"user_id":165,"name":"noceof","steam_id":76561198043656816,"connected_time":4354000000000,"state":"active","ping":165},{"user_id":222,"name":"a chicken","steam_id":76561198313121580,"connected_time":536000000000,"state":"active","ping":47},{"user_id":207,"name":"BreadGod","steam_id":76561198050665205,"connected_time":1071000000000,"state":"active","ping":131},{"user_id":224,"name":"Schnitz","steam_id":76561198265484253,"connected_time":330000000000,"state":"active","ping":58},{"user_id":225,"name":"Word To Your Mothership","steam_id":76561198034329138,"connected_time":305000000000,"state":"active","ping":64},{"user_id":227,"name":"Mike Bean Burritos","steam_id":76561198173430607,"connected_time":275000000000,"state":"active","ping":82},{"user_id":208,"name":"Ok then","steam_id":76561198891914787,"connected_time":1034000000000,"state":"active","ping":64},{"user_id":198,"name":"jdm","steam_id":76561199497603020,"connected_time":2156000000000,"state":"active","ping":45},{"user_id":217,"name":"uzr","steam_id":76561198799343084,"connected_time":822000000000,"state":"active","ping":54},{"user_id":209,"name":"Western_dragon","steam_id":76561198130456105,"connected_time":995000000000,"state":"active","ping":58},{"user_id":200,"name":"Yoyos","steam_id":76561198061035695,"connected_time":1903000000000,"state":"active","ping":47},{"user_id":228,"name":"Norriss","steam_id":76561198920296293,"connected_time":241000000000,"state":"active","ping":75},{"user_id":210,"name":"DoctorDucky","steam_id":76561198356434380,"connected_time":975000000000,"state":"active","ping":48},{"user_id":219,"name":"npc energy","steam_id":76561198035342207,"connected_time":810000000000,"state":"active","ping":96},{"user_id":164,"name":"Subby Wubby Boi 0w0","steam_id":76561198297585031,"connected_time":4366000000000,"state":"active","ping":72},{"user_id":191,"name":"Rode hard, put away wet","steam_id":76561198062764039,"connected_time":2896000000000,"state":"active","ping":105},{"user_id":199,"name":"monkey squirts","steam_id":76561197983101644,"connected_time":2076000000000,"state":"active","ping":45},{"user_id":221,"name":"hot doge","steam_id":76561198095584192,"connected_time":593000000000,"state":"active","ping":143}]},{"server_id":25,"name":"Uncletopia | Los Angeles | 4 | Stopwatch","name_short":"lax-4","host":"lax-1.us.uncletopia.com","port":27045,"enabled":true,"region":"us-west","cc":"us","latitude":33.94279,"longitude":-118.41004,"reserved":0,"last_update":"0001-01-01T00:00:00Z","name_a2s":"Uncletopia | Los Angeles | 4 | Stopwatch","protocol":17,"map":"workshop/koth_ashville_final.ugc2130459942","folder":"tf","game":"Team Fortress","app_id":440,"player_count":0,"max_players":24,"Bots":0,"server_type":"Dedicated","server_os":"Linux","password":true,"vac":true,"version":"7961495","steam_id":85568392924510199,"keywords":["cp","nocrits","nodmgspread","uncletopia"],"game_id":440,"stv_port":27046,"stv_name":"Uncletopia | Los Angeles | 4 | Stopwatch | STV","players":null},{"server_id":11,"name":"Uncletopia | London | 1 | All Maps","name_short":"lon-1","host":"lon-1.uk.uncletopia.com","port":27015,"enabled":true,"region":"eu","cc":"gb","latitude":51.509865,"longitude":-0.118092,"reserved":0,"last_update":"0001-01-01T00:00:00Z","name_a2s":"Uncletopia | London | 1 | All Maps","protocol":17,"map":"ctf_2fort","folder":"tf","game":"Team Fortress","app_id":440,"player_count":20,"max_players":24,"Bots":0,"server_type":"Dedicated","server_os":"Linux","password":true,"vac":true,"version":"7961495","steam_id":85568392924367362,"keywords":["ctf","nocrits","nodmgspread","uncletopia"],"game_id":440,"stv_port":27016,"stv_name":"Uncletopia | London | 1 | All Maps | STV","players":[{"user_id":540,"name":"R A S M U S","steam_id":76561198279799226,"connected_time":3979000000000,"state":"active","ping":73},{"user_id":594,"name":"swine flu","steam_id":76561198010220400,"connected_time":193000000000,"state":"active","ping":47},{"user_id":595,"name":"Shadowmann","steam_id":76561198158608309,"connected_time":86000000000,"state":"active","ping":46},{"user_id":504,"name":"gibb (official)","steam_id":76561198074097655,"connected_time":6811000000000,"state":"active","ping":61},{"user_id":569,"name":"sticks","steam_id":76561198127099299,"connected_time":1624000000000,"state":"active","ping":36},{"user_id":586,"name":"Ineluctable Sex Predator","steam_id":76561197995971061,"connected_time":599000000000,"state":"active","ping":95},{"user_id":593,"name":"Carling Quality Control","steam_id":76561198989725750,"connected_time":326000000000,"state":"active","ping":45},{"user_id":559,"name":"Arthur","steam_id":76561198066109166,"connected_time":2386000000000,"state":"active","ping":75},{"user_id":588,"name":"odran","steam_id":76561199122931272,"connected_time":536000000000,"state":"active","ping":59},{"user_id":584,"name":"craig","steam_id":76561198907428350,"connected_time":689000000000,"state":"active","ping":50},{"user_id":592,"name":"Joe","steam_id":76561198145639903,"connected_time":360000000000,"state":"active","ping":89},{"user_id":570,"name":"milk.","steam_id":76561198475060900,"connected_time":1612000000000,"state":"active","ping":153},{"user_id":479,"name":"shooer!","steam_id":76561198110531281,"connected_time":10888000000000,"state":"active","ping":72},{"user_id":563,"name":"Black Tom","steam_id":76561198335730273,"connected_time":1808000000000,"state":"active","ping":59},{"user_id":558,"name":"SKY_","steam_id":76561198080980508,"connected_time":2409000000000,"state":"active","ping":70},{"user_id":542,"name":"Phlog Enthusiast","steam_id":76561198051685232,"connected_time":3622000000000,"state":"active","ping":44},{"user_id":582,"name":"Prestige","steam_id":76561198162353751,"connected_time":757000000000,"state":"active","ping":57},{"user_id":576,"name":"f","steam_id":76561198382509396,"connected_time":1513000000000,"state":"active","ping":55},{"user_id":591,"name":"ChickenP√¶ng","steam_id":76561198072939903,"connected_time":500000000000,"state":"active","ping":97},{"user_id":517,"name":"Taste","steam_id":76561197994506978,"connected_time":5793000000000,"state":"active","ping":57}]},{"server_id":114,"name":"Uncletopia | London | 2 | All Maps","name_short":"lon-2","host":"lon-1.uk.uncletopia.com","port":27025,"enabled":true,"region":"eu","cc":"gb","latitude":51.509865,"longitude":-0.118092,"reserved":0,"last_update":"0001-01-01T00:00:00Z","name_a2s":"Uncletopia | London | 2 | All Maps","protocol":17,"map":"koth_cascade","folder":"tf","game":"Team Fortress","app_id":440,"player_count":0,"max_players":24,"Bots":0,"server_type":"Dedicated","server_os":"Linux","password":true,"vac":true,"version":"7961495","steam_id":85568392924470941,"keywords":["cp","nocrits","nodmgspread","uncletopia"],"game_id":440,"stv_port":27026,"stv_name":"Uncletopia | London | 2 | All Maps | STV","players":null},{"server_id":320,"name":"Uncletopia | London | 3 | All Maps","name_short":"lon-3","host":"lon-1.uk.uncletopia.com","port":27035,"enabled":true,"region":"eu","cc":"gb","latitude":51.509865,"longitude":-0.118092,"reserved":0,"last_update":"0001-01-01T00:00:00Z","name_a2s":"Uncletopia | London | 3 | All Maps","protocol":17,"map":"pl_badwater","folder":"tf","game":"Team Fortress","app_id":440,"player_count":0,"max_players":24,"Bots":0,"server_type":"Dedicated","server_os":"Linux","password":true,"vac":true,"version":"7961495","steam_id":85568392924510192,"keywords":["nocrits","nodmgspread","payload","uncletopia"],"game_id":440,"stv_port":27036,"stv_name":"Uncletopia | London | 3 | All Maps | STV","players":null},{"server_id":321,"name":"Uncletopia | London | 4 | All Maps","name_short":"lon-4","host":"lon-1.uk.uncletopia.com","port":27045,"enabled":true,"region":"eu","cc":"gb","latitude":51.509865,"longitude":-0.118092,"reserved":0,"last_update":"0001-01-01T00:00:00Z","name_a2s":"Uncletopia | London | 4 | All Maps","protocol":17,"map":"pl_upward","folder":"tf","game":"Team Fortress","app_id":440,"player_count":17,"max_players":24,"Bots":0,"server_type":"Dedicated","server_os":"Linux","password":true,"vac":true,"version":"7961495","steam_id":85568392924510193,"keywords":["nocrits","nodmgspread","payload","uncletopia"],"game_id":440,"stv_port":27046,"stv_name":"Uncletopia | London | 4 | All Maps | STV","players":[{"user_id":585,"name":"Sputnik","steam_id":76561198138660241,"connected_time":351000000000,"state":"active","ping":59},{"user_id":568,"name":"yuno appreciator","steam_id":76561198083286511,"connected_time":814000000000,"state":"active","ping":45},{"user_id":582,"name":"WinterBucket","steam_id":76561198381313801,"connected_time":522000000000,"state":"active","ping":66},{"user_id":527,"name":"ROX","steam_id":76561198272289320,"connected_time":3259000000000,"state":"active","ping":62},{"user_id":586,"name":"cat dreams","steam_id":76561198204313248,"connected_time":347000000000,"state":"active","ping":59},{"user_id":537,"name":"FoxHound","steam_id":76561198019029467,"connected_time":2832000000000,"state":"active","ping":44},{"user_id":588,"name":"Infantile Pillock","steam_id":76561198283851362,"connected_time":124000000000,"state":"active","ping":60},{"user_id":589,"name":"scout freeman","steam_id":76561199212139618,"connected_time":114000000000,"state":"active","ping":116},{"user_id":565,"name":"h1tlex","steam_id":76561198129781465,"connected_time":858000000000,"state":"active","ping":50},{"user_id":545,"name":"Gagiclunk","steam_id":76561199194862650,"connected_time":2670000000000,"state":"active","ping":35},{"user_id":572,"name":"Shkeeee","steam_id":76561198055372905,"connected_time":757000000000,"state":"active","ping":30},{"user_id":574,"name":"void","steam_id":76561199502212503,"connected_time":738000000000,"state":"active","ping":53},{"user_id":577,"name":"Atrix","steam_id":76561198364012823,"connected_time":665000000000,"state":"active","ping":56},{"user_id":578,"name":"Duke Fishlord","steam_id":76561198079928327,"connected_time":659000000000,"state":"active","ping":68},{"user_id":579,"name":"BaTTLe","steam_id":76561198003936517,"connected_time":637000000000,"state":"active","ping":47},{"user_id":549,"name":"Doughy","steam_id":76561198044084210,"connected_time":2321000000000,"state":"active","ping":88},{"user_id":581,"name":"Xforp","steam_id":76561198074201325,"connected_time":603000000000,"state":"active","ping":29}]},{"server_id":21,"name":"Uncletopia | London | 5 | All Maps","name_short":"lon-5","host":"lon-1.uk.uncletopia.com","port":27055,"enabled":true,"region":"eu","cc":"gb","latitude":51.509865,"longitude":-0.118092,"reserved":0,"last_update":"0001-01-01T00:00:00Z","name_a2s":"Uncletopia | London | 5 | All Maps","protocol":17,"map":"koth_lakeside_final","folder":"tf","game":"Team Fortress","app_id":440,"player_count":0,"max_players":24,"Bots":0,"server_type":"Dedicated","server_os":"Linux","password":true,"vac":true,"version":"7961495","steam_id":85568392924742829,"keywords":["cp","nocrits","nodmgspread","uncletopia"],"game_id":440,"stv_port":27056,"stv_name":"Uncletopia | London | 5 | All Maps | STV","players":null},{"server_id":22,"name":"Uncletopia | London | 6 | All Maps","name_short":"lon-6","host":"lon-1.uk.uncletopia.com","port":27065,"enabled":true,"region":"eu","cc":"gb","latitude":51.509865,"longitude":-0.118092,"reserved":0,"last_update":"0001-01-01T00:00:00Z","name_a2s":"Uncletopia | London | 6 | All Maps","protocol":17,"map":"cp_snakewater_final1","folder":"tf","game":"Team Fortress","app_id":440,"player_count":0,"max_players":24,"Bots":0,"server_type":"Dedicated","server_os":"Linux","password":true,"vac":true,"version":"7961495","steam_id":85568392924742830,"keywords":["cp","nocrits","nodmgspread","uncletopia"],"game_id":440,"stv_port":27066,"stv_name":"Uncletopia | London | 6 | All Maps | STV","players":null},{"server_id":40,"name":"Uncletopia | London | 7 | Stopwatch","name_short":"lon-7","host":"lon-1.uk.uncletopia.com","port":27075,"enabled":true,"region":"eu","cc":"gb","latitude":51.509865,"longitude":-0.118092,"reserved":0,"last_update":"0001-01-01T00:00:00Z","name_a2s":"Uncletopia | London | 7 | Stopwatch","protocol":17,"map":"workshop/koth_ramjam_rc1.ugc459778887","folder":"tf","game":"Team Fortress","app_id":440,"player_count":0,"max_players":24,"Bots":0,"server_type":"Dedicated","server_os":"Linux","password":true,"vac":true,"version":"7961495","steam_id":85568392924964314,"keywords":["cp","nocrits","nodmgspread","uncletopia"],"game_id":440,"stv_port":27076,"stv_name":"Uncletopia | London | 7 | Stopwatch | STV","players":null},{"server_id":41,"name":"Uncletopia | London | 8 | Community","name_short":"lon-8","host":"lon-1.uk.uncletopia.com","port":27085,"enabled":true,"region":"eu","cc":"gb","latitude":51.509865,"longitude":-0.118092,"reserved":0,"last_update":"0001-01-01T00:00:00Z","name_a2s":"Uncletopia | London | 8 | Community","protocol":17,"map":"workshop/cp_reckoner_rc6.ugc674719999","folder":"tf","game":"Team Fortress","app_id":440,"player_count":0,"max_players":24,"Bots":0,"server_type":"Dedicated","server_os":"Linux","password":true,"vac":true,"version":"7961495","steam_id":85568392924964315,"keywords":["cp","nocrits","nodmgspread","uncletopia"],"game_id":440,"stv_port":27086,"stv_name":"Uncletopia | London | 8 | Community | STV","players":null},{"server_id":300,"name":"Uncletopia | Montr√©al | 1 | One Thousand Uncles","name_short":"mtl-1","host":"mtl-1.ca.uncletopia.com","port":27015,"enabled":true,"region":"us-east","cc":"ca","latitude":45.50889,"longitude":-73.56167,"reserved":0,"last_update":"0001-01-01T00:00:00Z","name_a2s":"","protocol":0,"map":"","folder":"","game":"","app_id":0,"player_count":13,"max_players":0,"Bots":0,"server_type":"","server_os":"","password":false,"vac":false,"version":"","steam_id":0,"keywords":null,"game_id":0,"stv_port":0,"stv_name":"","players":[{"user_id":429,"name":"mr.stuffedpenguin","steam_id":76561199212807058,"connected_time":1408000000000,"state":"active","ping":49},{"user_id":400,"name":"Birdie Smalls","steam_id":76561198208947105,"connected_time":2052000000000,"state":"active","ping":35},{"user_id":372,"name":"mrbeast109385079350229083479082","steam_id":76561198370687830,"connected_time":4748000000000,"state":"active","ping":58},{"user_id":456,"name":"WM1 PYRO","steam_id":76561198045893896,"connected_time":355000000000,"state":"active","ping":101},{"user_id":277,"name":"Strange Festive Femboy","steam_id":76561198050385093,"connected_time":11327000000000,"state":"active","ping":55},{"user_id":399,"name":"5oc","steam_id":76561199196300397,"connected_time":2177000000000,"state":"active","ping":104},{"user_id":352,"name":"asian","steam_id":76561198091441622,"connected_time":5856000000000,"state":"active","ping":45},{"user_id":373,"name":"bad to the bone","steam_id":76561198419097079,"connected_time":4725000000000,"state":"active","ping":67},{"user_id":374,"name":"JOOOOEEEEE BIIIIIDDDDEEENNNNNNN","steam_id":76561198447014542,"connected_time":4337000000000,"state":"active","ping":63},{"user_id":394,"name":"nonagon infinity","steam_id":76561198397662124,"connected_time":3015000000000,"state":"active","ping":96},{"user_id":457,"name":"petitjayd22","steam_id":76561199389238003,"connected_time":332000000000,"state":"active","ping":35},{"user_id":396,"name":"Horseless Headless Horseman","steam_id":76561199229388635,"connected_time":2968000000000,"state":"active","ping":91},{"user_id":458,"name":"Freek","steam_id":76561198204204055,"connected_time":81000000000,"state":"active","ping":45}]},{"server_id":301,"name":"Uncletopia | Montr√©al | 2 | One Thousand Uncles","name_short":"mtl-2","host":"mtl-1.ca.uncletopia.com","port":27025,"enabled":true,"region":"us-east","cc":"ca","latitude":45.50889,"longitude":-73.56167,"reserved":0,"last_update":"0001-01-01T00:00:00Z","name_a2s":"","protocol":0,"map":"","folder":"","game":"","app_id":0,"player_count":2,"max_players":0,"Bots":0,"server_type":"","server_os":"","password":false,"vac":false,"version":"","steam_id":0,"keywords":null,"game_id":0,"stv_port":0,"stv_name":"","players":[{"user_id":328,"name":"Holiday Fartcruise","steam_id":76561198043851584,"connected_time":1369000000000,"state":"active","ping":132},{"user_id":320,"name":"Target practice","steam_id":76561198027102552,"connected_time":3151000000000,"state":"active","ping":117}]},{"server_id":302,"name":"Uncletopia | Montr√©al | 3 | One Thousand Uncles","name_short":"mtl-3","host":"mtl-1.ca.uncletopia.com","port":27035,"enabled":true,"region":"us-east","cc":"ca","latitude":45.50889,"longitude":-73.56167,"reserved":0,"last_update":"0001-01-01T00:00:00Z","name_a2s":"","protocol":0,"map":"","folder":"","game":"","app_id":0,"player_count":0,"max_players":0,"Bots":0,"server_type":"","server_os":"","password":false,"vac":false,"version":"","steam_id":0,"keywords":null,"game_id":0,"stv_port":0,"stv_name":"","players":null},{"server_id":13,"name":"Uncletopia | New York City | 1 | All Maps","name_short":"nyc-1","host":"nyc-1.us.uncletopia.com","port":27015,"enabled":true,"region":"us-east","cc":"us","latitude":40.73061,"longitude":-73.93524,"reserved":0,"last_update":"0001-01-01T00:00:00Z","name_a2s":"Uncletopia | New York City | 1 | All Maps","protocol":17,"map":"pl_upward","folder":"tf","game":"Team Fortress","app_id":440,"player_count":22,"max_players":24,"Bots":0,"server_type":"Dedicated","server_os":"Linux","password":true,"vac":true,"version":"7961495","steam_id":85568392924469993,"keywords":["nocrits","nodmgspread","payload","uncletopia"],"game_id":440,"stv_port":27016,"stv_name":"Uncletopia | New York City | 1 | All Maps | STV","players":[{"user_id":513,"name":"Wahooka","steam_id":76561197962240925,"connected_time":2922000000000,"state":"active","ping":37},{"user_id":558,"name":"Hellmonger","steam_id":76561198016058155,"connected_time":622000000000,"state":"active","ping":57},{"user_id":541,"name":"Parth Makeo","steam_id":76561198002516581,"connected_time":1291000000000,"state":"active","ping":41},{"user_id":559,"name":"Melaza Madera","steam_id":76561199031977210,"connected_time":593000000000,"state":"active","ping":70},{"user_id":538,"name":"raisedbybirds","steam_id":76561198131531646,"connected_time":1333000000000,"state":"active","ping":44},{"user_id":557,"name":"Bubbly","steam_id":76561199014095959,"connected_time":776000000000,"state":"active","ping":62},{"user_id":483,"name":"Unk","steam_id":76561198031717617,"connected_time":4727000000000,"state":"active","ping":45},{"user_id":552,"name":"Fuzzy Toast","steam_id":76561198028067781,"connected_time":1033000000000,"state":"active","ping":60},{"user_id":565,"name":"MIKA","steam_id":76561198312451814,"connected_time":15000000000,"state":"active","ping":121},{"user_id":544,"name":"Sagoogoo","steam_id":76561198176061614,"connected_time":1267000000000,"state":"active","ping":81},{"user_id":539,"name":"ShaqtusHD(She/Her)","steam_id":76561199138286233,"connected_time":1329000000000,"state":"active","ping":64},{"user_id":564,"name":"wepry","steam_id":76561198114091417,"connected_time":19000000000,"state":"spawning","ping":60},{"user_id":549,"name":"SHAZBOT","steam_id":76561198068536790,"connected_time":1206000000000,"state":"active","ping":79},{"user_id":526,"name":"whirlybird","steam_id":76561198353887173,"connected_time":2279000000000,"state":"active","ping":31},{"user_id":566,"name":"Drapph","steam_id":76561199384213314,"connected_time":4000000000,"state":"spawning","ping":64},{"user_id":546,"name":"Cat on Your Porch","steam_id":76561197979078330,"connected_time":1264000000000,"state":"active","ping":60},{"user_id":537,"name":"White Male (he/him)","steam_id":76561199501497157,"connected_time":1534000000000,"state":"active","ping":63},{"user_id":556,"name":"feleven","steam_id":76561198853721046,"connected_time":808000000000,"state":"active","ping":53},{"user_id":555,"name":"tax evasion dog","steam_id":76561198082293288,"connected_time":834000000000,"state":"active","ping":75},{"user_id":501,"name":"he suckin on my rick til i mort","steam_id":76561198310711692,"connected_time":4128000000000,"state":"active","ping":165},{"user_id":562,"name":"randomusername","steam_id":76561199078214700,"connected_time":26000000000,"state":"active","ping":77},{"user_id":563,"name":"Primitive","steam_id":76561198060500671,"connected_time":26000000000,"state":"active","ping":37}]},{"server_id":14,"name":"Uncletopia | New York City | 2 | All Maps","name_short":"nyc-2","host":"nyc-1.us.uncletopia.com","port":27025,"enabled":true,"region":"us-east","cc":"us","latitude":40.73061,"longitude":-73.93524,"reserved":0,"last_update":"0001-01-01T00:00:00Z","name_a2s":"Uncletopia | New York City | 2 | All Maps","protocol":17,"map":"pl_goldrush","folder":"tf","game":"Team Fortress","app_id":440,"player_count":24,"max_players":24,"Bots":0,"server_type":"Dedicated","server_os":"Linux","password":true,"vac":true,"version":"7961495","steam_id":85568392924469994,"keywords":["nocrits","nodmgspread","payload","uncletopia"],"game_id":440,"stv_port":27026,"stv_name":"Uncletopia | New York City | 2 | All Maps | STV","players":[{"user_id":401,"name":"fritzthecat","steam_id":76561199180497813,"connected_time":2399000000000,"state":"active","ping":72},{"user_id":379,"name":"HotDogWater","steam_id":76561198354253380,"connected_time":3921000000000,"state":"active","ping":61},{"user_id":417,"name":"Slasher69","steam_id":76561198027679752,"connected_time":862000000000,"state":"active","ping":93},{"user_id":385,"name":"swan","steam_id":76561198012569200,"connected_time":2968000000000,"state":"active","ping":57},{"user_id":416,"name":"breathingtrees","steam_id":76561198118931690,"connected_time":1056000000000,"state":"active","ping":53},{"user_id":392,"name":"Kduck","steam_id":76561198092171095,"connected_time":2655000000000,"state":"active","ping":46},{"user_id":386,"name":"BeerPowder","steam_id":76561198058129400,"connected_time":2918000000000,"state":"active","ping":49},{"user_id":400,"name":"Nixhalis","steam_id":76561198289151385,"connected_time":2438000000000,"state":"active","ping":98},{"user_id":415,"name":"vastrobotmax","steam_id":76561198417110724,"connected_time":1182000000000,"state":"active","ping":73},{"user_id":410,"name":"Doctor Glocktorpus [NGC]","steam_id":76561198049194645,"connected_time":1846000000000,"state":"active","ping":57},{"user_id":359,"name":"YummerBummer","steam_id":76561198094773987,"connected_time":4980000000000,"state":"active","ping":53},{"user_id":418,"name":"The Creepy9","steam_id":76561198039104966,"connected_time":858000000000,"state":"active","ping":64},{"user_id":311,"name":"D.T. Katze","steam_id":76561198002280813,"connected_time":9398000000000,"state":"active","ping":58},{"user_id":413,"name":"milky","steam_id":76561198799267765,"connected_time":1366000000000,"state":"active","ping":69},{"user_id":420,"name":"Death Glows","steam_id":76561198356384115,"connected_time":272000000000,"state":"active","ping":62},{"user_id":412,"name":"BombTaco","steam_id":76561198261919901,"connected_time":1403000000000,"state":"active","ping":68},{"user_id":422,"name":"Slime Rancher 2 Enjoyer","steam_id":76561199171272762,"connected_time":112000000000,"state":"active","ping":71},{"user_id":397,"name":"smog monster","steam_id":76561198118954499,"connected_time":2553000000000,"state":"active","ping":73},{"user_id":405,"name":"Piss goblin","steam_id":76561198118330539,"connected_time":2177000000000,"state":"active","ping":106},{"user_id":408,"name":"LemonDrop","steam_id":76561198057153001,"connected_time":1897000000000,"state":"active","ping":97},{"user_id":403,"name":"Rated_C","steam_id":76561199226478414,"connected_time":2371000000000,"state":"active","ping":110},{"user_id":399,"name":"SGA","steam_id":76561198832172648,"connected_time":2483000000000,"state":"active","ping":44},{"user_id":381,"name":"splot","steam_id":76561199133681385,"connected_time":3826000000000,"state":"active","ping":96},{"user_id":407,"name":"Gram Tokers Count Doinkula","steam_id":76561198112811565,"connected_time":1923000000000,"state":"active","ping":59}]},{"server_id":15,"name":"Uncletopia | New York City | 3 | Stopwatch","name_short":"nyc-3","host":"nyc-1.us.uncletopia.com","port":27035,"enabled":true,"region":"us-east","cc":"us","latitude":40.73061,"longitude":-73.93524,"reserved":0,"last_update":"0001-01-01T00:00:00Z","name_a2s":"Uncletopia | New York City | 3 | Stopwatch","protocol":17,"map":"workshop/koth_ashville_final.ugc2130459942","folder":"tf","game":"Team Fortress","app_id":440,"player_count":0,"max_players":24,"Bots":0,"server_type":"Dedicated","server_os":"Linux","password":true,"vac":true,"version":"7961495","steam_id":85568392924742820,"keywords":["cp","nocrits","nodmgspread","uncletopia"],"game_id":440,"stv_port":27036,"stv_name":"Uncletopia | New York City | 3 | Stopwatch | STV","players":null},{"server_id":16,"name":"Uncletopia | New York City | 4 | Community","name_short":"nyc-4","host":"nyc-1.us.uncletopia.com","port":27045,"enabled":true,"region":"us-east","cc":"us","latitude":40.73061,"longitude":-73.93524,"reserved":0,"last_update":"0001-01-01T00:00:00Z","name_a2s":"Uncletopia | New York City | 4 | Community","protocol":17,"map":"workshop/koth_slaughter_rc1.ugc1712845210","folder":"tf","game":"Team Fortress","app_id":440,"player_count":4,"max_players":24,"Bots":0,"server_type":"Dedicated","server_os":"Linux","password":true,"vac":true,"version":"7961495","steam_id":85568392924742821,"keywords":["cp","nocrits","nodmgspread","uncletopia"],"game_id":440,"stv_port":27046,"stv_name":"Uncletopia | New York City | 4 | Community | STV","players":[{"user_id":29,"name":"Izerfun","steam_id":76561197977227320,"connected_time":2188000000000,"state":"active","ping":54},{"user_id":32,"name":"KonradPrinceOfPoland","steam_id":76561199097747095,"connected_time":1240000000000,"state":"active","ping":55},{"user_id":33,"name":"Boykisser","steam_id":76561199382783363,"connected_time":767000000000,"state":"active","ping":77},{"user_id":34,"name":"e2_e8","steam_id":76561198025032556,"connected_time":698000000000,"state":"active","ping":50}]},{"server_id":142,"name":"Uncletopia | S√£o Paulo | 1 | All Maps","name_short":"sao-1","host":"sao-1.br.uncletopia.com","port":27015,"enabled":true,"region":"sa","cc":"br","latitude":-23.533773,"longitude":-46.62529,"reserved":0,"last_update":"0001-01-01T00:00:00Z","name_a2s":"Uncletopia | S√£o Paulo | 1 | All Maps","protocol":17,"map":"cp_altitude","folder":"tf","game":"Team Fortress","app_id":440,"player_count":0,"max_players":24,"Bots":0,"server_type":"Dedicated","server_os":"Linux","password":true,"vac":true,"version":"7961495","steam_id":85568392924469996,"keywords":["cp","nocrits","nodmgspread","uncletopia"],"game_id":440,"stv_port":27016,"stv_name":"Uncletopia | S√£o Paulo | 1 | All Maps | STV","players":null},{"server_id":143,"name":"Uncletopia | S√£o Paulo | 2 | Community","name_short":"sao-2","host":"sao-2.br.uncletopia.com","port":27015,"enabled":true,"region":"sa","cc":"br","latitude":-23.533773,"longitude":-46.62529,"reserved":0,"last_update":"0001-01-01T00:00:00Z","name_a2s":"Uncletopia | S√£o Paulo | 2 | Community","protocol":17,"map":"workshop/koth_kemptown_rc1.ugc767410655","folder":"tf","game":"Team Fortress","app_id":440,"player_count":0,"max_players":24,"Bots":0,"server_type":"Dedicated","server_os":"Linux","password":true,"vac":true,"version":"7961495","steam_id":85568392924485349,"keywords":["cp","nocrits","nodmgspread","uncletopia"],"game_id":440,"stv_port":27016,"stv_name":"Uncletopia | S√£o Paulo | 2 | Community | STV","players":null},{"server_id":7,"name":"Uncletopia | Seattle | 1 | All Maps","name_short":"sea-1","host":"sea-1.us.uncletopia.com","port":27015,"enabled":true,"region":"us-west","cc":"us","latitude":47.608013,"longitude":-122.33517,"reserved":0,"last_update":"0001-01-01T00:00:00Z","name_a2s":"Uncletopia | Seattle | 1 | All Maps","protocol":17,"map":"pl_upward","folder":"tf","game":"Team Fortress","app_id":440,"player_count":24,"max_players":24,"Bots":0,"server_type":"Dedicated","server_os":"Linux","password":true,"vac":true,"version":"7961495","steam_id":85568392924469997,"keywords":["nocrits","nodmgspread","payload","uncletopia"],"game_id":440,"stv_port":27016,"stv_name":"Uncletopia | Seattle | 1 | All Maps | STV","players":[{"user_id":390,"name":"Monte","steam_id":76561198097499917,"connected_time":4066000000000,"state":"active","ping":75},{"user_id":421,"name":"shane","steam_id":76561198060491451,"connected_time":2554000000000,"state":"active","ping":86},{"user_id":431,"name":"Sniff","steam_id":76561198010270922,"connected_time":1290000000000,"state":"active","ping":64},{"user_id":401,"name":"master_minion","steam_id":76561198170693990,"connected_time":3777000000000,"state":"active","ping":79},{"user_id":433,"name":"Furikuri","steam_id":76561197998277739,"connected_time":1160000000000,"state":"active","ping":30},{"user_id":336,"name":"VerminKing","steam_id":76561198060887391,"connected_time":10479000000000,"state":"active","ping":69},{"user_id":434,"name":"TheMagicMrWaffle","steam_id":76561198104357256,"connected_time":934000000000,"state":"active","ping":65},{"user_id":389,"name":"William P. Ennis","steam_id":76561198073464877,"connected_time":4188000000000,"state":"active","ping":91},{"user_id":418,"name":"Corbezy","steam_id":76561197993398349,"connected_time":2812000000000,"state":"active","ping":126},{"user_id":443,"name":"Apollo","steam_id":76561198162364702,"connected_time":5000000000,"state":"spawning","ping":43},{"user_id":427,"name":"Mignyanne :3","steam_id":76561198048754056,"connected_time":2194000000000,"state":"active","ping":68},{"user_id":310,"name":"DaddyGalaxy","steam_id":76561198139697796,"connected_time":14897000000000,"state":"active","ping":57},{"user_id":435,"name":"Bendidy","steam_id":76561198041964300,"connected_time":901000000000,"state":"active","ping":61},{"user_id":430,"name":"Drake from State Farm","steam_id":76561199069029812,"connected_time":1303000000000,"state":"active","ping":101},{"user_id":415,"name":"Luca","steam_id":76561198125087140,"connected_time":2936000000000,"state":"active","ping":46},{"user_id":436,"name":"Dimmerswitch","steam_id":76561198034782177,"connected_time":897000000000,"state":"active","ping":59},{"user_id":386,"name":"bbbbb","steam_id":76561198095480838,"connected_time":4439000000000,"state":"active","ping":47},{"user_id":438,"name":"gugcat","steam_id":76561198129822860,"connected_time":670000000000,"state":"active","ping":44},{"user_id":442,"name":"Peppy","steam_id":76561198866629645,"connected_time":361000000000,"state":"active","ping":61},{"user_id":419,"name":"Qas","steam_id":76561198067564482,"connected_time":2711000000000,"state":"active","ping":73},{"user_id":441,"name":"Henchie!","steam_id":76561198047567464,"connected_time":376000000000,"state":"active","ping":75},{"user_id":440,"name":"Ayayayayayayayayayayayahuasca","steam_id":76561199002906056,"connected_time":626000000000,"state":"active","ping":53},{"user_id":413,"name":"Sketchdude","steam_id":76561198428554205,"connected_time":3108000000000,"state":"active","ping":83},{"user_id":417,"name":"Dimentioof","steam_id":76561198945867866,"connected_time":2908000000000,"state":"active","ping":127}]},{"server_id":119,"name":"Uncletopia | Seattle | 2 | All Maps","name_short":"sea-2","host":"sea-1.us.uncletopia.com","port":27025,"enabled":true,"region":"us-west","cc":"us","latitude":47.608013,"longitude":-122.33517,"reserved":0,"last_update":"0001-01-01T00:00:00Z","name_a2s":"Uncletopia | Seattle | 2 | All Maps","protocol":17,"map":"cp_sunshine","folder":"tf","game":"Team Fortress","app_id":440,"player_count":23,"max_players":24,"Bots":0,"server_type":"Dedicated","server_os":"Linux","password":true,"vac":true,"version":"7961495","steam_id":85568392924469998,"keywords":["cp","nocrits","nodmgspread","uncletopia"],"game_id":440,"stv_port":27026,"stv_name":"Uncletopia | Seattle | 2 | All Maps | STV","players":[{"user_id":333,"name":"SoCal Kaizer","steam_id":76561198334361081,"connected_time":1154000000000,"state":"active","ping":77},{"user_id":320,"name":"WonkyCow","steam_id":76561198307611953,"connected_time":2325000000000,"state":"active","ping":50},{"user_id":334,"name":"chunkysquare","steam_id":76561199076468383,"connected_time":1146000000000,"state":"active","ping":65},{"user_id":291,"name":"TeriyakiDynamite","steam_id":76561198050049346,"connected_time":3445000000000,"state":"active","ping":96},{"user_id":330,"name":"Winter the Witchie","steam_id":76561198151971178,"connected_time":1472000000000,"state":"active","ping":102},{"user_id":340,"name":"d1nero","steam_id":76561198295578318,"connected_time":854000000000,"state":"active","ping":60},{"user_id":307,"name":"Sax","steam_id":76561198055425123,"connected_time":2756000000000,"state":"active","ping":57},{"user_id":326,"name":"cerious","steam_id":76561197994365894,"connected_time":1781000000000,"state":"active","ping":43},{"user_id":347,"name":"fey","steam_id":76561198119191002,"connected_time":110000000000,"state":"active","ping":86},{"user_id":345,"name":"BL√òRG","steam_id":76561198036126673,"connected_time":386000000000,"state":"active","ping":88},{"user_id":308,"name":"Crake","steam_id":76561198001959071,"connected_time":2719000000000,"state":"active","ping":48},{"user_id":343,"name":"Starpillow ‚ô°","steam_id":76561198095034817,"connected_time":802000000000,"state":"active","ping":56},{"user_id":336,"name":"Surfing Garchomp","steam_id":76561199107236884,"connected_time":1096000000000,"state":"active","ping":54},{"user_id":327,"name":"Dr. Inkulus | snln ûuI Àô…π·ó°","steam_id":76561198212231033,"connected_time":1767000000000,"state":"active","ping":36},{"user_id":337,"name":"PTR","steam_id":76561198237253772,"connected_time":1068000000000,"state":"active","ping":102},{"user_id":328,"name":"ckris","steam_id":76561198061167278,"connected_time":1739000000000,"state":"active","ping":84},{"user_id":332,"name":"Greskrendtregk","steam_id":76561197969553142,"connected_time":1178000000000,"state":"active","ping":52},{"user_id":292,"name":"Wavern From Bakugan","steam_id":76561198191536489,"connected_time":3444000000000,"state":"active","ping":79},{"user_id":329,"name":"your alcoholic step father","steam_id":76561199386363103,"connected_time":1735000000000,"state":"active","ping":59},{"user_id":331,"name":"Escapism","steam_id":76561198045302512,"connected_time":1209000000000,"state":"active","ping":48},{"user_id":338,"name":"BitPieStudios","steam_id":76561198059216393,"connected_time":1056000000000,"state":"active","ping":68},{"user_id":312,"name":"Dr.Blunt","steam_id":76561198096333958,"connected_time":2672000000000,"state":"active","ping":74},{"user_id":303,"name":"hotdog gamer","steam_id":76561198146746361,"connected_time":3090000000000,"state":"active","ping":99}]},{"server_id":406,"name":"Uncletopia | Seattle | 3 | Stopwatch","name_short":"sea-3","host":"sea-1.us.uncletopia.com","port":27035,"enabled":true,"region":"us-west","cc":"us","latitude":47.608013,"longitude":-122.33517,"reserved":0,"last_update":"0001-01-01T00:00:00Z","name_a2s":"Uncletopia | Seattle | 3 | Stopwatch","protocol":17,"map":"koth_highpass","folder":"tf","game":"Team Fortress","app_id":440,"player_count":0,"max_players":24,"Bots":0,"server_type":"Dedicated","server_os":"Linux","password":true,"vac":true,"version":"7961495","steam_id":85568392924515217,"keywords":["cp","nocrits","nodmgspread","uncletopia"],"game_id":440,"stv_port":27036,"stv_name":"Uncletopia | Seattle | 3 | Stopwatch | STV","players":null},{"server_id":17,"name":"Uncletopia | San Francisco | 1 | All Maps","name_short":"sfo-1","host":"sfo-1.us.uncletopia.com","port":27015,"enabled":true,"region":"us-west","cc":"us","latitude":37.77397,"longitude":-122.4313,"reserved":0,"last_update":"0001-01-01T00:00:00Z","name_a2s":"Uncletopia | San Francisco | 1 | All Maps","protocol":17,"map":"cp_mountainlab","folder":"tf","game":"Team Fortress","app_id":440,"player_count":0,"max_players":24,"Bots":0,"server_type":"Dedicated","server_os":"Linux","password":true,"vac":true,"version":"7961495","steam_id":85568392924469999,"keywords":["cp","nocrits","nodmgspread","uncletopia"],"game_id":440,"stv_port":27016,"stv_name":"Uncletopia | San Francisco | 1 | All Maps | STV","players":null},{"server_id":18,"name":"Uncletopia | San Francisco | 2 | All Maps","name_short":"sfo-2","host":"sfo-1.us.uncletopia.com","port":27025,"enabled":true,"region":"us-west","cc":"us","latitude":37.77397,"longitude":-122.4313,"reserved":0,"last_update":"0001-01-01T00:00:00Z","name_a2s":"Uncletopia | San Francisco | 2 | All Maps","protocol":17,"map":"cp_altitude","folder":"tf","game":"Team Fortress","app_id":440,"player_count":0,"max_players":24,"Bots":0,"server_type":"Dedicated","server_os":"Linux","password":true,"vac":true,"version":"7961495","steam_id":85568392924470000,"keywords":["cp","nocrits","nodmgspread","uncletopia"],"game_id":440,"stv_port":27026,"stv_name":"Uncletopia | San Francisco | 2 | All Maps | STV","players":null},{"server_id":19,"name":"Uncletopia | San Francisco | 3 | Stopwatch","name_short":"sfo-3","host":"sfo-1.us.uncletopia.com","port":27035,"enabled":true,"region":"us-west","cc":"us","latitude":37.77397,"longitude":-122.4313,"reserved":0,"last_update":"0001-01-01T00:00:00Z","name_a2s":"Uncletopia | San Francisco | 3 | Stopwatch","protocol":17,"map":"cp_snakewater_final1","folder":"tf","game":"Team Fortress","app_id":440,"player_count":0,"max_players":24,"Bots":0,"server_type":"Dedicated","server_os":"Linux","password":true,"vac":true,"version":"7961495","steam_id":85568392924742824,"keywords":["cp","nocrits","nodmgspread","uncletopia"],"game_id":440,"stv_port":27036,"stv_name":"Uncletopia | San Francisco | 3 | Stopwatch | STV","players":null},{"server_id":20,"name":"Uncletopia | San Francisco | 4 | Community","name_short":"sfo-4","host":"sfo-1.us.uncletopia.com","port":27045,"enabled":true,"region":"us-west","cc":"us","latitude":37.77397,"longitude":-122.4313,"reserved":0,"last_update":"0001-01-01T00:00:00Z","name_a2s":"Uncletopia | San Francisco | 4 | Community","protocol":17,"map":"pl_pier","folder":"tf","game":"Team Fortress","app_id":440,"player_count":0,"max_players":24,"Bots":0,"server_type":"Dedicated","server_os":"Linux","password":true,"vac":true,"version":"7961495","steam_id":85568392924742826,"keywords":["nocrits","nodmgspread","payload","uncletopia"],"game_id":440,"stv_port":27046,"stv_name":"Uncletopia | San Francisco | 4 | Community | STV","players":null},{"server_id":141,"name":"Uncletopia | Sydney | 1 | All Maps","name_short":"syd-1","host":"syd-1.au.uncletopia.com","port":27015,"enabled":true,"region":"au","cc":"au","latitude":-33.865143,"longitude":151.2099,"reserved":0,"last_update":"0001-01-01T00:00:00Z","name_a2s":"Uncletopia | Sydney | 1 | All Maps","protocol":17,"map":"koth_viaduct","folder":"tf","game":"Team Fortress","app_id":440,"player_count":0,"max_players":24,"Bots":0,"server_type":"Dedicated","server_os":"Linux","password":true,"vac":true,"version":"7961495","steam_id":85568392924470001,"keywords":["cp","nocrits","nodmgspread","uncletopia"],"game_id":440,"stv_port":27016,"stv_name":"Uncletopia | Sydney | 1 | All Maps | STV","players":null},{"server_id":123,"name":"Uncletopia | Sydney | 2 | All Maps","name_short":"syd-2","host":"syd-1.au.uncletopia.com","port":27025,"enabled":true,"region":"au","cc":"au","latitude":-33.865143,"longitude":151.2099,"reserved":0,"last_update":"0001-01-01T00:00:00Z","name_a2s":"Uncletopia | Sydney | 2 | All Maps","protocol":17,"map":"koth_lakeside_final","folder":"tf","game":"Team Fortress","app_id":440,"player_count":0,"max_players":24,"Bots":0,"server_type":"Dedicated","server_os":"Linux","password":true,"vac":true,"version":"7961495","steam_id":85568392924470002,"keywords":["cp","nocrits","nodmgspread","uncletopia"],"game_id":440,"stv_port":27026,"stv_name":"Uncletopia | Sydney | 2 | All Maps | STV","players":null},{"server_id":395,"name":"Uncletopia | Sydney | 3 | All Maps","name_short":"syd-3","host":"syd-1.au.uncletopia.com","port":27035,"enabled":true,"region":"au","cc":"au","latitude":-33.865143,"longitude":151.2099,"reserved":0,"last_update":"0001-01-01T00:00:00Z","name_a2s":"Uncletopia | Sydney | 3 | All Maps","protocol":17,"map":"pl_frontier_final","folder":"tf","game":"Team Fortress","app_id":440,"player_count":0,"max_players":24,"Bots":0,"server_type":"Dedicated","server_os":"Linux","password":true,"vac":true,"version":"7961495","steam_id":85568392925194467,"keywords":["nocrits","nodmgspread","payload","uncletopia"],"game_id":440,"stv_port":27036,"stv_name":"Uncletopia | Sydney | 3 | All Maps | STV","players":null},{"server_id":396,"name":"Uncletopia | Sydney | 4 | All Maps","name_short":"syd-4","host":"syd-1.au.uncletopia.com","port":27045,"enabled":true,"region":"au","cc":"au","latitude":-33.865143,"longitude":151.2099,"reserved":0,"last_update":"0001-01-01T00:00:00Z","name_a2s":"Uncletopia | Sydney | 4 | All Maps","protocol":17,"map":"koth_lakeside_final","folder":"tf","game":"Team Fortress","app_id":440,"player_count":0,"max_players":24,"Bots":0,"server_type":"Dedicated","server_os":"Linux","password":true,"vac":true,"version":"7961495","steam_id":85568392925397958,"keywords":["cp","nocrits","nodmgspread","uncletopia"],"game_id":440,"stv_port":27046,"stv_name":"Uncletopia | Sydney | 4 | All Maps | STV","players":null},{"server_id":58,"name":"Uncletopia | Sydney | 5 | Stopwatch","name_short":"syd-5","host":"syd-1.au.uncletopia.com","port":27055,"enabled":true,"region":"au","cc":"au","latitude":-33.865143,"longitude":151.2099,"reserved":0,"last_update":"0001-01-01T00:00:00Z","name_a2s":"Uncletopia | Sydney | 5 | Stopwatch","protocol":17,"map":"pl_frontier_final","folder":"tf","game":"Team Fortress","app_id":440,"player_count":0,"max_players":24,"Bots":0,"server_type":"Dedicated","server_os":"Linux","password":true,"vac":true,"version":"7961495","steam_id":85568392925397959,"keywords":["nocrits","nodmgspread","payload","uncletopia"],"game_id":440,"stv_port":27056,"stv_name":"Uncletopia | Sydney | 5 | Stopwatch | STV","players":null},{"server_id":59,"name":"Uncletopia | Sydney | 6 | Community","name_short":"syd-6","host":"syd-1.au.uncletopia.com","port":27065,"enabled":true,"region":"au","cc":"au","latitude":-33.865143,"longitude":151.2099,"reserved":0,"last_update":"0001-01-01T00:00:00Z","name_a2s":"Uncletopia | Sydney | 6 | Community","protocol":17,"map":"cp_sunshine","folder":"tf","game":"Team Fortress","app_id":440,"player_count":0,"max_players":24,"Bots":0,"server_type":"Dedicated","server_os":"Linux","password":true,"vac":true,"version":"7961495","steam_id":85568392925397960,"keywords":["cp","nocrits","nodmgspread","uncletopia"],"game_id":440,"stv_port":27066,"stv_name":"Uncletopia | Sydney | 6 | Community | STV","players":null},{"server_id":49,"name":"Uncletopia | Warsaw | 1 | One Thousand Uncles","name_short":"waw-1","host":"waw-1.pl.uncletopia.com","port":27015,"enabled":true,"region":"eu","cc":"pl","latitude":52.2297,"longitude":21.017532,"reserved":0,"last_update":"0001-01-01T00:00:00Z","name_a2s":"Uncletopia | Warsaw | 1 | One Thousand Uncles","protocol":17,"map":"pl_hoodoo_final","folder":"tf","game":"Team Fortress","app_id":440,"player_count":0,"max_players":32,"Bots":0,"server_type":"Dedicated","server_os":"Linux","password":true,"vac":true,"version":"7961495","steam_id":85568392925397850,"keywords":["alltalk","danepve","increased_maxplayers","nocrits","norespawntime","payload","uncletopia"],"game_id":440,"stv_port":0,"stv_name":"","players":null},{"server_id":50,"name":"Uncletopia | Warsaw | 2 | One Thousand Uncles","name_short":"waw-2","host":"waw-1.pl.uncletopia.com","port":27025,"enabled":true,"region":"eu","cc":"pl","latitude":52.2297,"longitude":21.017532,"reserved":0,"last_update":"0001-01-01T00:00:00Z","name_a2s":"Uncletopia | Warsaw | 2 | One Thousand Uncles","protocol":17,"map":"cp_dustbowl","folder":"tf","game":"Team Fortress","app_id":440,"player_count":0,"max_players":32,"Bots":0,"server_type":"Dedicated","server_os":"Linux","password":true,"vac":true,"version":"7961495","steam_id":85568392925397851,"keywords":["alltalk","cp","danepve","increased_maxplayers","nocrits","norespawntime","uncletopia"],"game_id":440,"stv_port":0,"stv_name":"","players":null},{"server_id":51,"name":"Uncletopia | Warsaw | 3 | All Maps","name_short":"waw-3","host":"waw-1.pl.uncletopia.com","port":27035,"enabled":true,"region":"eu","cc":"pl","latitude":52.2297,"longitude":21.017532,"reserved":0,"last_update":"0001-01-01T00:00:00Z","name_a2s":"Uncletopia | Warsaw | 3 | All Maps","protocol":17,"map":"koth_highpass","folder":"tf","game":"Team Fortress","app_id":440,"player_count":0,"max_players":24,"Bots":0,"server_type":"Dedicated","server_os":"Linux","password":true,"vac":true,"version":"7961495","steam_id":85568392925397852,"keywords":["cp","nocrits","nodmgspread","uncletopia"],"game_id":440,"stv_port":27036,"stv_name":"Uncletopia | Warsaw | 3 | All Maps | STV","players":null},{"server_id":52,"name":"Uncletopia | Warsaw | 4 | All Maps","name_short":"waw-4","host":"waw-1.pl.uncletopia.com","port":27045,"enabled":true,"region":"eu","cc":"pl","latitude":52.2297,"longitude":21.017532,"reserved":0,"last_update":"0001-01-01T00:00:00Z","name_a2s":"Uncletopia | Warsaw | 4 | All Maps","protocol":17,"map":"koth_highpass","folder":"tf","game":"Team Fortress","app_id":440,"player_count":0,"max_players":24,"Bots":0,"server_type":"Dedicated","server_os":"Linux","password":true,"vac":true,"version":"7961495","steam_id":85568392925397853,"keywords":["cp","nocrits","nodmgspread","uncletopia"],"game_id":440,"stv_port":27046,"stv_name":"Uncletopia | Warsaw | 4 | All Maps | STV","players":null},{"server_id":53,"name":"Uncletopia | Warsaw | 5 | Stopwatch","name_short":"waw-5","host":"waw-1.pl.uncletopia.com","port":27055,"enabled":true,"region":"eu","cc":"pl","latitude":52.2297,"longitude":21.017532,"reserved":0,"last_update":"0001-01-01T00:00:00Z","name_a2s":"Uncletopia | Warsaw | 5 | Stopwatch","protocol":17,"map":"pl_upward","folder":"tf","game":"Team Fortress","app_id":440,"player_count":0,"max_players":24,"Bots":0,"server_type":"Dedicated","server_os":"Linux","password":true,"vac":true,"version":"7961495","steam_id":85568392925397854,"keywords":["nocrits","nodmgspread","payload","uncletopia"],"game_id":440,"stv_port":27056,"stv_name":"Uncletopia | Warsaw | 5 | Stopwatch | STV","players":null},{"server_id":54,"name":"Uncletopia | Warsaw | 6 | Community","name_short":"waw-6","host":"waw-1.pl.uncletopia.com","port":27065,"enabled":true,"region":"eu","cc":"pl","latitude":52.2297,"longitude":21.017532,"reserved":0,"last_update":"0001-01-01T00:00:00Z","name_a2s":"Uncletopia | Warsaw | 6 | Community","protocol":17,"map":"workshop/cp_hazyfort_rc6.ugc1365963729","folder":"tf","game":"Team Fortress","app_id":440,"player_count":0,"max_players":24,"Bots":0,"server_type":"Dedicated","server_os":"Linux","password":true,"vac":true,"version":"7961495","steam_id":85568392925397856,"keywords":["cp","nocrits","nodmgspread","uncletopia"],"game_id":440,"stv_port":27066,"stv_name":"Uncletopia | Warsaw | 6 | Community | STV","players":null}]}