{"status":true,"message":"","result":[{"server_id":9,"name":"Uncletopia | Atlanta | 1 | All Maps","name_short":"atl-1","host":"atl-1.us.uncletopia.com","port":27015,"enabled":true,"region":"us-east","cc":"us","latitude":33.753746,"longitude":-84.38633,"reserved":0,"last_update":"0001-01-01T00:00:00Z","name_a2s":"Uncletopia | Atlanta | 1 | All Maps","protocol":17,"map":"koth_cascade","folder":"tf","game":"Team Fortress","app_id":440,"player_count":1,"max_players":24,"Bots":0,"server_type":"Dedicated","server_os":"Linux","password":true,"vac":true,"version":"7757534","steam_id":85568392924469982,"keywords":["cp","nocrits","nodmgspread","uncletopia"],"game_id":440,"stv_port":27016,"stv_name":"Uncletopia | Atlanta | 1 | All Maps | STV","players":[{"user_id":668,"name":"Orangecrust26","steam_id":76561199232443221,"connected_time":474000000000,"state":"active","ping":66}]},{"server_id":400,"name":"Uncletopia | Atlanta | 3 | Stopwatch Beta","name_short":"atl-3","host":"atl-1.us.uncletopia.com","port":27035,"enabled":true,"region":"us-east","cc":"us","latitude":33.753746,"longitude":-84.38633,"reserved":0,"last_update":"0001-01-01T00:00:00Z","name_a2s":"Uncletopia | Atlanta | 3 | Stopwatch Beta","protocol":17,"map":"workshop/cp_process_f11.ugc2302948105","folder":"tf","game":"Team Fortress","app_id":440,"player_count":0,"max_players":24,"Bots":0,"server_type":"Dedicated","server_os":"Linux","password":true,"vac":true,"version":"7757534","steam_id":85568392924515187,"keywords":["cp","nocrits","nodmgspread","uncletopia"],"game_id":440,"stv_port":27036,"stv_name":"Uncletopia | Atlanta | 3 | Stopwatch Beta | STV","players":null},{"server_id":401,"name":"Uncletopia | Atlanta | 4 | No Payload","name_short":"atl-4","host":"atl-1.us.uncletopia.com","port":27045,"enabled":true,"region":"us-east","cc":"us","latitude":33.753746,"longitude":-84.38633,"reserved":0,"last_update":"0001-01-01T00:00:00Z","name_a2s":"Uncletopia | Atlanta | 4 | No Payload","protocol":17,"map":"pl_pier","folder":"tf","game":"Team Fortress","app_id":440,"player_count":0,"max_players":24,"Bots":0,"server_type":"Dedicated","server_os":"Linux","password":true,"vac":true,"version":"7723704","steam_id":85568392924515188,"keywords":["nocrits","nodmgspread","payload","uncletopia"],"game_id":440,"stv_port":27046,"stv_name":"Uncletopia | Atlanta | 4 | No Payload | STV","players":null},{"server_id":2,"name":"Uncletopia | Chicago | 1 | All Maps","name_short":"chi-1","host":"chi-1.us.uncletopia.com","port":27015,"enabled":true,"region":"us-central","cc":"us","latitude":41.881832,"longitude":-87.62318,"reserved":0,"last_update":"0001-01-01T00:00:00Z","name_a2s":"Uncletopia | Chicago | 1 | All Maps","protocol":17,"map":"pl_pier","folder":"tf","game":"Team Fortress","app_id":440,"player_count":24,"max_players":24,"Bots":0,"server_type":"Dedicated","server_os":"Linux","password":true,"vac":true,"version":"7757534","steam_id":85568392924469984,"keywords":["nocrits","nodmgspread","payload","uncletopia"],"game_id":440,"stv_port":27016,"stv_name":"Uncletopia | Chicago | 1 | All Maps | STV","players":[{"user_id":1047,"name":"blockchain culture","steam_id":76561198040996386,"connected_time":475000000000,"state":"active","ping":85},{"user_id":1045,"name":"YanYan","steam_id":76561198132231801,"connected_time":489000000000,"state":"active","ping":69},{"user_id":1031,"name":"Zagzagel","steam_id":76561198090875874,"connected_time":2215000000000,"state":"active","ping":71},{"user_id":1042,"name":"Cheese","steam_id":76561198151450076,"connected_time":497000000000,"state":"active","ping":106},{"user_id":1050,"name":"Venezia","steam_id":76561197994107407,"connected_time":379000000000,"state":"active","ping":58},{"user_id":1048,"name":"HIGH AS FUCK","steam_id":76561198812086921,"connected_time":474000000000,"state":"active","ping":60},{"user_id":1049,"name":"kritik","steam_id":76561198075216115,"connected_time":444000000000,"state":"active","ping":150},{"user_id":1037,"name":"MaybeMars","steam_id":76561198084736804,"connected_time":1919000000000,"state":"active","ping":80},{"user_id":1039,"name":"TastesLikeTriangle","steam_id":76561198109705599,"connected_time":1780000000000,"state":"active","ping":84},{"user_id":1051,"name":"moopmop","steam_id":76561198065224965,"connected_time":375000000000,"state":"active","ping":90},{"user_id":1043,"name":"Bunt","steam_id":76561198124477567,"connected_time":496000000000,"state":"active","ping":66},{"user_id":1055,"name":"Xbox_Pro_2016","steam_id":76561198176126519,"connected_time":201000000000,"state":"active","ping":78},{"user_id":1053,"name":"junkgle","steam_id":76561198259507820,"connected_time":362000000000,"state":"active","ping":65},{"user_id":1020,"name":"$200 Shirt","steam_id":76561197977329534,"connected_time":3456000000000,"state":"active","ping":55},{"user_id":1054,"name":"Caretnose","steam_id":76561198021762583,"connected_time":346000000000,"state":"active","ping":48},{"user_id":1018,"name":"Sakiayuo","steam_id":76561198055408083,"connected_time":3529000000000,"state":"active","ping":90},{"user_id":1035,"name":"fuckterry","steam_id":76561198271957738,"connected_time":2045000000000,"state":"active","ping":74},{"user_id":1036,"name":"·µñ·µâ·µáÀ°","steam_id":76561198022760558,"connected_time":2017000000000,"state":"active","ping":74},{"user_id":1040,"name":"onion","steam_id":76561198242311084,"connected_time":1704000000000,"state":"active","ping":71},{"user_id":1033,"name":"Saikyo","steam_id":76561198212461467,"connected_time":2166000000000,"state":"active","ping":74},{"user_id":1002,"name":"Gredc100","steam_id":76561198398494357,"connected_time":4370000000000,"state":"active","ping":76},{"user_id":1046,"name":"Ask Nicely For Heals","steam_id":76561198138478907,"connected_time":487000000000,"state":"active","ping":56},{"user_id":1029,"name":"General Fisticuffs","steam_id":76561198255721392,"connected_time":2240000000000,"state":"active","ping":81},{"user_id":1041,"name":"the boss","steam_id":76561198047689205,"connected_time":504000000000,"state":"active","ping":59}]},{"server_id":106,"name":"Uncletopia | Chicago | 2 | All Maps","name_short":"chi-2","host":"chi-1.us.uncletopia.com","port":27025,"enabled":true,"region":"us-central","cc":"us","latitude":41.881832,"longitude":-87.62318,"reserved":0,"last_update":"0001-01-01T00:00:00Z","name_a2s":"Uncletopia | Chicago | 2 | All Maps","protocol":17,"map":"cp_yukon_final","folder":"tf","game":"Team Fortress","app_id":440,"player_count":0,"max_players":24,"Bots":0,"server_type":"Dedicated","server_os":"Linux","password":true,"vac":true,"version":"7757534","steam_id":85568392924469985,"keywords":["cp","nocrits","nodmgspread","uncletopia"],"game_id":440,"stv_port":27026,"stv_name":"Uncletopia | Chicago | 2 | All Maps | STV","players":null},{"server_id":402,"name":"Uncletopia | Chicago | 3 | All Maps","name_short":"chi-3","host":"chi-1.us.uncletopia.com","port":27035,"enabled":true,"region":"us-central","cc":"us","latitude":41.881832,"longitude":-87.62318,"reserved":0,"last_update":"0001-01-01T00:00:00Z","name_a2s":"Uncletopia | Chicago | 3 | All Maps","protocol":17,"map":"cp_snakewater_final1","folder":"tf","game":"Team Fortress","app_id":440,"player_count":0,"max_players":24,"Bots":0,"server_type":"Dedicated","server_os":"Linux","password":true,"vac":true,"version":"7757534","steam_id":85568392924515191,"keywords":["cp","nocrits","nodmgspread","uncletopia"],"game_id":440,"stv_port":27036,"stv_name":"Uncletopia | Chicago | 3 | All Maps | STV","players":null},{"server_id":403,"name":"Uncletopia | Chicago | 4 | All Maps","name_short":"chi-4","host":"chi-1.us.uncletopia.com","port":27045,"enabled":true,"region":"us-central","cc":"us","latitude":41.881832,"longitude":-87.62318,"reserved":0,"last_update":"0001-01-01T00:00:00Z","name_a2s":"Uncletopia | Chicago | 4 | All Maps","protocol":17,"map":"pl_barnblitz","folder":"tf","game":"Team Fortress","app_id":440,"player_count":24,"max_players":24,"Bots":0,"server_type":"Dedicated","server_os":"Linux","password":true,"vac":true,"version":"7757534","steam_id":85568392924515193,"keywords":["nocrits","nodmgspread","payload","uncletopia"],"game_id":440,"stv_port":27046,"stv_name":"Uncletopia | Chicago | 4 | All Maps | STV","players":[{"user_id":790,"name":"4+1MyriadFuturesCosMo@BousouFC","steam_id":76561198181929019,"connected_time":776000000000,"state":"active","ping":48},{"user_id":803,"name":"bruh","steam_id":76561199095370765,"connected_time":469000000000,"state":"active","ping":94},{"user_id":742,"name":"duckypotato","steam_id":76561198047703790,"connected_time":3378000000000,"state":"active","ping":73},{"user_id":805,"name":"azula","steam_id":76561198043911582,"connected_time":434000000000,"state":"active","ping":61},{"user_id":797,"name":"Discourse","steam_id":76561198984286678,"connected_time":630000000000,"state":"active","ping":50},{"user_id":807,"name":"tim-","steam_id":76561199119101315,"connected_time":180000000000,"state":"active","ping":69},{"user_id":759,"name":"Mewtiepie","steam_id":76561198310552416,"connected_time":2042000000000,"state":"active","ping":65},{"user_id":756,"name":"Dastardly_Devious","steam_id":76561198103939491,"connected_time":2049000000000,"state":"active","ping":110},{"user_id":757,"name":"xXiNSanEXx_CoBrA","steam_id":76561199036450881,"connected_time":2047000000000,"state":"active","ping":126},{"user_id":752,"name":"Linux Gayming","steam_id":76561199208765424,"connected_time":2330000000000,"state":"active","ping":74},{"user_id":758,"name":"Lil Glac (Inept)","steam_id":76561198105395149,"connected_time":2046000000000,"state":"active","ping":103},{"user_id":779,"name":"Sovulous","steam_id":76561198045389233,"connected_time":1479000000000,"state":"active","ping":86},{"user_id":766,"name":"mai","steam_id":76561198139174433,"connected_time":1757000000000,"state":"active","ping":90},{"user_id":767,"name":"ty lee","steam_id":76561198086008437,"connected_time":1757000000000,"state":"active","ping":76},{"user_id":792,"name":"germba","steam_id":76561198421591995,"connected_time":742000000000,"state":"active","ping":71},{"user_id":799,"name":"Chunts up with that?","steam_id":76561198063808137,"connected_time":575000000000,"state":"active","ping":86},{"user_id":801,"name":"Disco Fever","steam_id":76561198069532215,"connected_time":532000000000,"state":"active","ping":70},{"user_id":772,"name":"The Great Karizma!","steam_id":76561198346191193,"connected_time":1639000000000,"state":"active","ping":97},{"user_id":804,"name":"KingToaster","steam_id":76561198007903802,"connected_time":443000000000,"state":"active","ping":75},{"user_id":780,"name":"Uncle Iroh","steam_id":76561198131467867,"connected_time":835000000000,"state":"active","ping":77},{"user_id":806,"name":"Skeleblood","steam_id":76561198153323281,"connected_time":410000000000,"state":"active","ping":81},{"user_id":741,"name":"SuperBigGulp","steam_id":76561198047797687,"connected_time":3404000000000,"state":"active","ping":80},{"user_id":800,"name":"jt","steam_id":76561198059575962,"connected_time":564000000000,"state":"active","ping":59},{"user_id":778,"name":"IVV4","steam_id":76561198194356583,"connected_time":1530000000000,"state":"active","ping":78}]},{"server_id":36,"name":"Uncletopia | Chicago | 5 | All Maps","name_short":"chi-5","host":"chi-2.us.uncletopia.com","port":27015,"enabled":true,"region":"us-central","cc":"us","latitude":41.881832,"longitude":-87.62318,"reserved":0,"last_update":"0001-01-01T00:00:00Z","name_a2s":"Uncletopia | Chicago | 5 | All Maps","protocol":17,"map":"koth_viaduct","folder":"tf","game":"Team Fortress","app_id":440,"player_count":0,"max_players":24,"Bots":0,"server_type":"Dedicated","server_os":"Linux","password":true,"vac":true,"version":"7757534","steam_id":85568392924866362,"keywords":["cp","nocrits","nodmgspread","uncletopia"],"game_id":440,"stv_port":27016,"stv_name":"Uncletopia | Chicago | 5 | All Maps | STV","players":null},{"server_id":37,"name":"Uncletopia | Chicago | 6 | All Maps","name_short":"chi-6","host":"chi-2.us.uncletopia.com","port":27025,"enabled":true,"region":"us-central","cc":"us","latitude":41.881832,"longitude":-87.62318,"reserved":0,"last_update":"0001-01-01T00:00:00Z","name_a2s":"Uncletopia | Chicago | 6 | All Maps","protocol":17,"map":"pl_barnblitz","folder":"tf","game":"Team Fortress","app_id":440,"player_count":2,"max_players":24,"Bots":0,"server_type":"Dedicated","server_os":"Linux","password":true,"vac":true,"version":"7757534","steam_id":85568392924866363,"keywords":["nocrits","nodmgspread","payload","uncletopia"],"game_id":440,"stv_port":27026,"stv_name":"Uncletopia | Chicago | 6 | All Maps | STV","players":[{"user_id":906,"name":"Poggares","steam_id":76561198113064908,"connected_time":481000000000,"state":"active","ping":54},{"user_id":898,"name":"Purgatory","steam_id":76561198374795958,"connected_time":1283000000000,"state":"active","ping":85}]},{"server_id":38,"name":"Uncletopia | Chicago | 7 | Stopwatch Beta","name_short":"chi-7","host":"chi-2.us.uncletopia.com","port":27035,"enabled":true,"region":"us-central","cc":"us","latitude":41.881832,"longitude":-87.62318,"reserved":0,"last_update":"0001-01-01T00:00:00Z","name_a2s":"Uncletopia | Chicago | 7 | Stopwatch Beta","protocol":17,"map":"workshop/koth_product_final.ugc454272353","folder":"tf","game":"Team Fortress","app_id":440,"player_count":0,"max_players":24,"Bots":0,"server_type":"Dedicated","server_os":"Linux","password":true,"vac":true,"version":"7757534","steam_id":85568392924866364,"keywords":["cp","nocrits","nodmgspread","uncletopia"],"game_id":440,"stv_port":27036,"stv_name":"Uncletopia | Chicago | 7 | Stopwatch Beta | STV","players":null},{"server_id":39,"name":"Uncletopia | Chicago | 8 | Community","name_short":"chi-8","host":"chi-2.us.uncletopia.com","port":27045,"enabled":true,"region":"us-central","cc":"us","latitude":41.881832,"longitude":-87.62318,"reserved":0,"last_update":"0001-01-01T00:00:00Z","name_a2s":"Uncletopia | Chicago | 8 | Community","protocol":17,"map":"workshop/koth_ramjam_rc1.ugc459778887","folder":"tf","game":"Team Fortress","app_id":440,"player_count":0,"max_players":24,"Bots":0,"server_type":"Dedicated","server_os":"Linux","password":true,"vac":true,"version":"7757534","steam_id":85568392924866365,"keywords":["cp","nocrits","nodmgspread","uncletopia"],"game_id":440,"stv_port":27046,"stv_name":"Uncletopia | Chicago | 8 | Community | STV","players":null},{"server_id":8,"name":"Uncletopia | Dallas | 1 | All Maps","name_short":"dal-1","host":"dal-1.us.uncletopia.com","port":27015,"enabled":true,"region":"us-central","cc":"us","latitude":32.779167,"longitude":-96.80889,"reserved":0,"last_update":"0001-01-01T00:00:00Z","name_a2s":"Uncletopia | Dallas | 1 | All Maps","protocol":17,"map":"pl_pier","folder":"tf","game":"Team Fortress","app_id":440,"player_count":19,"max_players":24,"Bots":0,"server_type":"Dedicated","server_os":"Linux","password":true,"vac":true,"version":"7757534","steam_id":85568392924469986,"keywords":["nocrits","nodmgspread","payload","uncletopia"],"game_id":440,"stv_port":27016,"stv_name":"Uncletopia | Dallas | 1 | All Maps | STV","players":[{"user_id":937,"name":"John Dungus (the real one)","steam_id":76561198049191027,"connected_time":952000000000,"state":"active","ping":70},{"user_id":941,"name":"Kkendal","steam_id":76561198042878852,"connected_time":734000000000,"state":"active","ping":92},{"user_id":917,"name":"ender","steam_id":76561198092159728,"connected_time":2528000000000,"state":"active","ping":34},{"user_id":938,"name":"quacks","steam_id":76561198077934343,"connected_time":805000000000,"state":"active","ping":31},{"user_id":953,"name":"Rise for the National Spamton","steam_id":76561198138468982,"connected_time":77000000000,"state":"active","ping":115},{"user_id":864,"name":"Not A Rapper","steam_id":76561198077523537,"connected_time":5847000000000,"state":"active","ping":88},{"user_id":926,"name":"trash beast","steam_id":76561198015792736,"connected_time":1428000000000,"state":"active","ping":77},{"user_id":931,"name":"Frightnight2004","steam_id":76561198208386849,"connected_time":1103000000000,"state":"active","ping":88},{"user_id":930,"name":"Haula","steam_id":76561198076586592,"connected_time":1121000000000,"state":"active","ping":53},{"user_id":873,"name":"'^ '","steam_id":76561198125261443,"connected_time":5196000000000,"state":"active","ping":99},{"user_id":939,"name":"The Caretaker","steam_id":76561198125241411,"connected_time":797000000000,"state":"active","ping":99},{"user_id":928,"name":"superpak","steam_id":76561199069779746,"connected_time":1147000000000,"state":"active","ping":49},{"user_id":952,"name":"matto1120","steam_id":76561198201321499,"connected_time":144000000000,"state":"active","ping":89},{"user_id":940,"name":"Ricardo M. M.","steam_id":76561199226017223,"connected_time":792000000000,"state":"active","ping":130},{"user_id":935,"name":"can't","steam_id":76561198090531755,"connected_time":1024000000000,"state":"active","ping":37},{"user_id":936,"name":"eyepen","steam_id":76561198381154476,"connected_time":992000000000,"state":"active","ping":50},{"user_id":944,"name":"Pinetree w/ apples.","steam_id":76561198105411709,"connected_time":541000000000,"state":"active","ping":107},{"user_id":890,"name":"MelonLikeAFelon","steam_id":76561198060170336,"connected_time":4456000000000,"state":"active","ping":64},{"user_id":945,"name":"Oblivious","steam_id":76561198153127206,"connected_time":525000000000,"state":"active","ping":92}]},{"server_id":108,"name":"Uncletopia | Dallas | 2 | All Maps","name_short":"dal-2","host":"dal-1.us.uncletopia.com","port":27025,"enabled":true,"region":"us-central","cc":"us","latitude":32.779167,"longitude":-96.80889,"reserved":0,"last_update":"0001-01-01T00:00:00Z","name_a2s":"Uncletopia | Dallas | 2 | All Maps","protocol":17,"map":"pl_barnblitz","folder":"tf","game":"Team Fortress","app_id":440,"player_count":0,"max_players":24,"Bots":0,"server_type":"Dedicated","server_os":"Linux","password":true,"vac":true,"version":"7757534","steam_id":85568392924469988,"keywords":["nocrits","nodmgspread","payload","uncletopia"],"game_id":440,"stv_port":27026,"stv_name":"Uncletopia | Dallas | 2 | All Maps | STV","players":null},{"server_id":5,"name":"Uncletopia | Frankfurt | 1 | All Maps","name_short":"frk-1","host":"frk-1.de.uncletopia.com","port":27015,"enabled":true,"region":"eu","cc":"de","latitude":50.110924,"longitude":8.682127,"reserved":0,"last_update":"0001-01-01T00:00:00Z","name_a2s":"Uncletopia | Frankfurt | 1 | All Maps","protocol":17,"map":"cp_dustbowl","folder":"tf","game":"Team Fortress","app_id":440,"player_count":0,"max_players":24,"Bots":0,"server_type":"Dedicated","server_os":"Linux","password":true,"vac":true,"version":"7757534","steam_id":85568392924469989,"keywords":["cp","nocrits","nodmgspread","uncletopia"],"game_id":440,"stv_port":27016,"stv_name":"Uncletopia | Frankfurt | 1 | All Maps | STV","players":null},{"server_id":110,"name":"Uncletopia | Frankfurt | 2 | All Maps","name_short":"frk-2","host":"frk-1.de.uncletopia.com","port":27025,"enabled":true,"region":"eu","cc":"de","latitude":50.110924,"longitude":8.682127,"reserved":0,"last_update":"0001-01-01T00:00:00Z","name_a2s":"Uncletopia | Frankfurt | 2 | All Maps","protocol":17,"map":"cp_mountainlab","folder":"tf","game":"Team Fortress","app_id":440,"player_count":0,"max_players":24,"Bots":0,"server_type":"Dedicated","server_os":"Linux","password":true,"vac":true,"version":"7757534","steam_id":85568392924469990,"keywords":["cp","nocrits","nodmgspread","uncletopia"],"game_id":440,"stv_port":27026,"stv_name":"Uncletopia | Frankfurt | 2 | All Maps | STV","players":null},{"server_id":308,"name":"Uncletopia | Frankfurt | 3 | All Maps","name_short":"frk-3","host":"frk-1.de.uncletopia.com","port":27035,"enabled":true,"region":"eu","cc":"de","latitude":50.110924,"longitude":8.682127,"reserved":0,"last_update":"0001-01-01T00:00:00Z","name_a2s":"Uncletopia | Frankfurt | 3 | All Maps","protocol":17,"map":"koth_viaduct","folder":"tf","game":"Team Fortress","app_id":440,"player_count":0,"max_players":24,"Bots":0,"server_type":"Dedicated","server_os":"Linux","password":true,"vac":true,"version":"7757534","steam_id":85568392924504274,"keywords":["cp","nocrits","nodmgspread","uncletopia"],"game_id":440,"stv_port":27036,"stv_name":"Uncletopia | Frankfurt | 3 | All Maps | STV","players":null},{"server_id":309,"name":"Uncletopia | Frankfurt | 4 | All Maps","name_short":"frk-4","host":"frk-1.de.uncletopia.com","port":27045,"enabled":true,"region":"eu","cc":"de","latitude":50.110924,"longitude":8.682127,"reserved":0,"last_update":"0001-01-01T00:00:00Z","name_a2s":"Uncletopia | Frankfurt | 4 | All Maps","protocol":17,"map":"koth_viaduct","folder":"tf","game":"Team Fortress","app_id":440,"player_count":0,"max_players":24,"Bots":0,"server_type":"Dedicated","server_os":"Linux","password":true,"vac":true,"version":"7757534","steam_id":85568392924504275,"keywords":["cp","nocrits","nodmgspread","uncletopia"],"game_id":440,"stv_port":27046,"stv_name":"Uncletopia | Frankfurt | 4 | All Maps | STV","players":null},{"server_id":310,"name":"Uncletopia | Frankfurt | 5 | All Maps","name_short":"frk-5","host":"frk-1.de.uncletopia.com","port":27055,"enabled":true,"region":"eu","cc":"de","latitude":50.110924,"longitude":8.682127,"reserved":0,"last_update":"0001-01-01T00:00:00Z","name_a2s":"Uncletopia | Frankfurt | 5 | All Maps","protocol":17,"map":"cp_altitude","folder":"tf","game":"Team Fortress","app_id":440,"player_count":0,"max_players":24,"Bots":0,"server_type":"Dedicated","server_os":"Linux","password":true,"vac":true,"version":"7757534","steam_id":85568392924504277,"keywords":["cp","nocrits","nodmgspread","uncletopia"],"game_id":440,"stv_port":27056,"stv_name":"Uncletopia | Frankfurt | 5 | All Maps | STV","players":null},{"server_id":311,"name":"Uncletopia | Frankfurt | 6 | All Maps","name_short":"frk-6","host":"frk-1.de.uncletopia.com","port":27065,"enabled":true,"region":"eu","cc":"de","latitude":50.110924,"longitude":8.682127,"reserved":0,"last_update":"0001-01-01T00:00:00Z","name_a2s":"Uncletopia | Frankfurt | 6 | All Maps","protocol":17,"map":"koth_highpass","folder":"tf","game":"Team Fortress","app_id":440,"player_count":0,"max_players":24,"Bots":0,"server_type":"Dedicated","server_os":"Linux","password":true,"vac":true,"version":"7757534","steam_id":85568392924504278,"keywords":["cp","nocrits","nodmgspread","uncletopia"],"game_id":440,"stv_port":27066,"stv_name":"Uncletopia | Frankfurt | 6 | All Maps | STV","players":null},{"server_id":23,"name":"Uncletopia | Frankfurt | 7 | Stopwatch Beta","name_short":"frk-7","host":"frk-1.de.uncletopia.com","port":27075,"enabled":true,"region":"eu","cc":"de","latitude":50.110924,"longitude":8.682127,"reserved":0,"last_update":"0001-01-01T00:00:00Z","name_a2s":"Uncletopia | Frankfurt | 7 | Stopwatch Beta","protocol":17,"map":"pl_borneo","folder":"tf","game":"Team Fortress","app_id":440,"player_count":0,"max_players":24,"Bots":0,"server_type":"Dedicated","server_os":"Linux","password":true,"vac":true,"version":"7757534","steam_id":85568392924742827,"keywords":["nocrits","nodmgspread","payload","uncletopia"],"game_id":440,"stv_port":27076,"stv_name":"Uncletopia | Frankfurt | 7 | Stopwatch Beta | STV","players":null},{"server_id":24,"name":"Uncletopia | Frankfurt | 8 | Community","name_short":"frk-8","host":"frk-1.de.uncletopia.com","port":27085,"enabled":true,"region":"eu","cc":"de","latitude":50.110924,"longitude":8.682127,"reserved":0,"last_update":"0001-01-01T00:00:00Z","name_a2s":"Uncletopia | Frankfurt | 8 | Community","protocol":17,"map":"koth_cascade","folder":"tf","game":"Team Fortress","app_id":440,"player_count":0,"max_players":24,"Bots":0,"server_type":"Dedicated","server_os":"Linux","password":true,"vac":true,"version":"7757534","steam_id":85568392924742828,"keywords":["cp","nocrits","nodmgspread","uncletopia"],"game_id":440,"stv_port":27086,"stv_name":"Uncletopia | Frankfurt | 8 | Community | STV","players":null},{"server_id":202,"name":"Uncletopia | Hong Kong | 1 | All Maps","name_short":"hgk-1","host":"hgk-1.hk.uncletopia.com","port":27015,"enabled":true,"region":"asia","cc":"hk","latitude":22.302711,"longitude":114.177216,"reserved":0,"last_update":"0001-01-01T00:00:00Z","name_a2s":"Uncletopia | Hong Kong | 1 | All Maps","protocol":17,"map":"pl_upward","folder":"tf","game":"Team Fortress","app_id":440,"player_count":23,"max_players":24,"Bots":0,"server_type":"Dedicated","server_os":"Linux","password":true,"vac":true,"version":"7757534","steam_id":85568392924494504,"keywords":["nocrits","nodmgspread","payload","uncletopia"],"game_id":440,"stv_port":27016,"stv_name":"Uncletopia | Hong Kong | 1 | All Maps | STV","players":[{"user_id":282,"name":"UltraFat","steam_id":76561198253918132,"connected_time":1483000000000,"state":"active","ping":84},{"user_id":301,"name":"Just the crust","steam_id":76561198118872550,"connected_time":318000000000,"state":"active","ping":114},{"user_id":211,"name":"Vortex Morez","steam_id":76561198833527091,"connected_time":8417000000000,"state":"active","ping":95},{"user_id":236,"name":"Gold","steam_id":76561199008543001,"connected_time":5517000000000,"state":"active","ping":52},{"user_id":229,"name":"im_0ff","steam_id":76561198339346695,"connected_time":5565000000000,"state":"active","ping":128},{"user_id":295,"name":"Delusional Dumbass","steam_id":76561199174449723,"connected_time":728000000000,"state":"active","ping":114},{"user_id":267,"name":"tiden2000","steam_id":76561198092969425,"connected_time":2980000000000,"state":"active","ping":80},{"user_id":304,"name":"\"SKS\"","steam_id":76561198187995386,"connected_time":185000000000,"state":"active","ping":86},{"user_id":274,"name":"Pin","steam_id":76561199070154388,"connected_time":2294000000000,"state":"active","ping":361},{"user_id":245,"name":"Boo","steam_id":76561198200955590,"connected_time":4840000000000,"state":"active","ping":84},{"user_id":74,"name":"iced","steam_id":76561198999114004,"connected_time":17854000000000,"state":"active","ping":108},{"user_id":238,"name":"PapaFranku69","steam_id":76561199446266814,"connected_time":5279000000000,"state":"active","ping":209},{"user_id":303,"name":"corpse_cadaver","steam_id":76561199225360457,"connected_time":235000000000,"state":"active","ping":66},{"user_id":275,"name":"LudE","steam_id":76561198828840546,"connected_time":2262000000000,"state":"active","ping":80},{"user_id":237,"name":"irylfaith","steam_id":76561199071455481,"connected_time":5441000000000,"state":"active","ping":90},{"user_id":299,"name":"bad at everything(f2p)","steam_id":76561199378524169,"connected_time":335000000000,"state":"active","ping":123},{"user_id":306,"name":"Â∏ï","steam_id":76561198439343999,"connected_time":67000000000,"state":"spawning","ping":61},{"user_id":285,"name":"Owmyn","steam_id":76561199239651098,"connected_time":1282000000000,"state":"active","ping":106},{"user_id":290,"name":"Lil' Chungus","steam_id":76561198258046956,"connected_time":1116000000000,"state":"active","ping":114},{"user_id":281,"name":"ey","steam_id":76561198413116920,"connected_time":2094000000000,"state":"active","ping":75},{"user_id":291,"name":"greeny","steam_id":76561198024666371,"connected_time":1041000000000,"state":"active","ping":92},{"user_id":297,"name":"ThePootisTaco \u003c3","steam_id":76561198180363385,"connected_time":439000000000,"state":"active","ping":81},{"user_id":296,"name":"Sev","steam_id":76561198864660173,"connected_time":697000000000,"state":"active","ping":139}]},{"server_id":1,"name":"Uncletopia | Los Angeles | 1 | All Maps","name_short":"lax-1","host":"lax-1.us.uncletopia.com","port":27015,"enabled":true,"region":"us-west","cc":"us","latitude":33.94279,"longitude":-118.41004,"reserved":0,"last_update":"0001-01-01T00:00:00Z","name_a2s":"Uncletopia | Los Angeles | 1 | All Maps","protocol":17,"map":"pl_borneo","folder":"tf","game":"Team Fortress","app_id":440,"player_count":24,"max_players":24,"Bots":0,"server_type":"Dedicated","server_os":"Linux","password":true,"vac":true,"version":"7757534","steam_id":85568392924469991,"keywords":["nocrits","nodmgspread","payload","uncletopia"],"game_id":440,"stv_port":27016,"stv_name":"Uncletopia | Los Angeles | 1 | All Maps | STV","players":[{"user_id":275,"name":"Akkolite","steam_id":76561198170153270,"connected_time":153000000000,"state":"active","ping":86},{"user_id":167,"name":"Teh Pug","steam_id":76561198085810161,"connected_time":5703000000000,"state":"active","ping":47},{"user_id":272,"name":"Joker's Skull","steam_id":76561199185320627,"connected_time":445000000000,"state":"active","ping":102},{"user_id":168,"name":"unnamed56565","steam_id":76561199082953233,"connected_time":5307000000000,"state":"active","ping":69},{"user_id":255,"name":"Randy \"the Man\" Johnson","steam_id":76561198039124445,"connected_time":903000000000,"state":"active","ping":65},{"user_id":231,"name":"MDude37","steam_id":76561199162131742,"connected_time":1912000000000,"state":"active","ping":124},{"user_id":273,"name":"theneedforfeet","steam_id":76561198861637608,"connected_time":421000000000,"state":"active","ping":60},{"user_id":274,"name":"ayaya?","steam_id":76561199000188109,"connected_time":228000000000,"state":"active","ping":49},{"user_id":276,"name":"SonicTheHedgehogEpicGamer2013","steam_id":76561199229577594,"connected_time":134000000000,"state":"active","ping":65},{"user_id":186,"name":"dont touch","steam_id":76561198165442555,"connected_time":4050000000000,"state":"active","ping":74},{"user_id":176,"name":"Happytoe","steam_id":76561198001295503,"connected_time":4307000000000,"state":"active","ping":68},{"user_id":190,"name":"Sevfront","steam_id":76561198249207818,"connected_time":3943000000000,"state":"active","ping":45},{"user_id":191,"name":"Resident Thrussy Lender","steam_id":76561198071790583,"connected_time":3935000000000,"state":"active","ping":112},{"user_id":277,"name":"Tue","steam_id":76561198181668501,"connected_time":100000000000,"state":"active","ping":111},{"user_id":180,"name":"vile scott","steam_id":76561198089630547,"connected_time":4140000000000,"state":"active","ping":97},{"user_id":181,"name":"Doctor X (Michiko Daemon)","steam_id":76561199106264424,"connected_time":4124000000000,"state":"active","ping":105},{"user_id":211,"name":"dash23‚Ñ¢","steam_id":76561198314951185,"connected_time":2956000000000,"state":"active","ping":83},{"user_id":183,"name":"Corbezy","steam_id":76561197993398349,"connected_time":4122000000000,"state":"active","ping":152},{"user_id":243,"name":"Gundam Guy","steam_id":76561198178453993,"connected_time":1542000000000,"state":"active","ping":61},{"user_id":234,"name":"Pyrotek‚Å¥","steam_id":76561198072747672,"connected_time":1881000000000,"state":"active","ping":41},{"user_id":278,"name":"robertistoastyargentina","steam_id":76561198324736786,"connected_time":95000000000,"state":"active","ping":78},{"user_id":235,"name":"Caramel_Chalice","steam_id":76561198307609692,"connected_time":1823000000000,"state":"active","ping":86},{"user_id":280,"name":"ramen","steam_id":76561198193457726,"connected_time":7000000000,"state":"spawning","ping":47},{"user_id":279,"name":"gbaneu guye","steam_id":76561198086846242,"connected_time":95000000000,"state":"active","ping":96}]},{"server_id":112,"name":"Uncletopia | Los Angeles | 2 | All Maps","name_short":"lax-2","host":"lax-1.us.uncletopia.com","port":27025,"enabled":true,"region":"us-west","cc":"us","latitude":33.94279,"longitude":-118.41004,"reserved":0,"last_update":"0001-01-01T00:00:00Z","name_a2s":"Uncletopia | Los Angeles | 2 | All Maps","protocol":17,"map":"pl_badwater","folder":"tf","game":"Team Fortress","app_id":440,"player_count":24,"max_players":24,"Bots":0,"server_type":"Dedicated","server_os":"Linux","password":true,"vac":true,"version":"7757534","steam_id":85568392924469992,"keywords":["nocrits","nodmgspread","payload","uncletopia"],"game_id":440,"stv_port":27026,"stv_name":"Uncletopia | Los Angeles | 2 | All Maps | STV","players":[{"user_id":214,"name":"moe","steam_id":76561198929586245,"connected_time":2207000000000,"state":"active","ping":38},{"user_id":229,"name":"non menthol newport","steam_id":76561198041907345,"connected_time":1588000000000,"state":"active","ping":62},{"user_id":213,"name":"hycoda","steam_id":76561198045197971,"connected_time":2258000000000,"state":"active","ping":57},{"user_id":233,"name":"heimdall","steam_id":76561198069380992,"connected_time":611000000000,"state":"active","ping":94},{"user_id":228,"name":"Chucklenuts Mcfucklebutts","steam_id":76561198103382044,"connected_time":1691000000000,"state":"active","ping":100},{"user_id":216,"name":"Super D Duper","steam_id":76561198078203677,"connected_time":2177000000000,"state":"active","ping":115},{"user_id":166,"name":"Thaberii","steam_id":76561198275818707,"connected_time":7267000000000,"state":"active","ping":57},{"user_id":231,"name":"Big Booty Backshots :)","steam_id":76561198083229340,"connected_time":1207000000000,"state":"active","ping":114},{"user_id":122,"name":"Soap Man","steam_id":76561198000490235,"connected_time":9487000000000,"state":"active","ping":103},{"user_id":195,"name":"teh mummy","steam_id":76561198044123636,"connected_time":4478000000000,"state":"active","ping":31},{"user_id":211,"name":"Monky duh luppy","steam_id":76561198035410427,"connected_time":2465000000000,"state":"active","ping":55},{"user_id":234,"name":"HeavenHearst","steam_id":76561198066083947,"connected_time":608000000000,"state":"active","ping":98},{"user_id":196,"name":"FriskyDemon","steam_id":76561198043684646,"connected_time":4456000000000,"state":"active","ping":70},{"user_id":206,"name":"Jax O'Gaytor","steam_id":76561198288922168,"connected_time":3676000000000,"state":"active","ping":67},{"user_id":223,"name":"MysteryMan","steam_id":76561198451939441,"connected_time":2074000000000,"state":"active","ping":123},{"user_id":235,"name":"cilo","steam_id":76561198046163502,"connected_time":573000000000,"state":"active","ping":75},{"user_id":220,"name":"mosskeeno","steam_id":76561199005997747,"connected_time":2100000000000,"state":"active","ping":71},{"user_id":236,"name":"THIRDPIERCE","steam_id":76561198405366314,"connected_time":536000000000,"state":"active","ping":90},{"user_id":224,"name":"Hook, Line, and Sphincter","steam_id":76561198078207743,"connected_time":2064000000000,"state":"active","ping":105},{"user_id":184,"name":"Aspa","steam_id":76561199048815630,"connected_time":5924000000000,"state":"active","ping":95},{"user_id":207,"name":"BasedGod","steam_id":76561198061177973,"connected_time":3338000000000,"state":"active","ping":52},{"user_id":230,"name":"BBL Sponsor","steam_id":76561199093733603,"connected_time":1390000000000,"state":"active","ping":48},{"user_id":237,"name":"ikea","steam_id":76561198065339248,"connected_time":505000000000,"state":"active","ping":58},{"user_id":227,"name":"Doctor Bad Dragon","steam_id":76561198058773212,"connected_time":1993000000000,"state":"active","ping":72}]},{"server_id":324,"name":"Uncletopia | Los Angeles | 3 | All Maps","name_short":"lax-3","host":"lax-1.us.uncletopia.com","port":27035,"enabled":true,"region":"us-west","cc":"us","latitude":33.94279,"longitude":-118.41004,"reserved":0,"last_update":"0001-01-01T00:00:00Z","name_a2s":"Uncletopia | Los Angeles | 3 | All Maps","protocol":17,"map":"pl_upward","folder":"tf","game":"Team Fortress","app_id":440,"player_count":7,"max_players":24,"Bots":0,"server_type":"Dedicated","server_os":"Linux","password":true,"vac":true,"version":"7757534","steam_id":85568392924510198,"keywords":["nocrits","nodmgspread","payload","uncletopia"],"game_id":440,"stv_port":27036,"stv_name":"Uncletopia | Los Angeles | 3 | All Maps | STV","players":[{"user_id":661,"name":"The Broken Lightbulb","steam_id":76561198141566312,"connected_time":967000000000,"state":"active","ping":58},{"user_id":651,"name":"space mann","steam_id":76561198174447043,"connected_time":1811000000000,"state":"active","ping":93},{"user_id":656,"name":"THE NUT","steam_id":76561198067813626,"connected_time":1468000000000,"state":"active","ping":70},{"user_id":653,"name":"CapKolea","steam_id":76561198194894413,"connected_time":1793000000000,"state":"active","ping":113},{"user_id":665,"name":"douglas4925","steam_id":76561198930342505,"connected_time":873000000000,"state":"active","ping":70},{"user_id":664,"name":"Kage","steam_id":76561198203190975,"connected_time":891000000000,"state":"active","ping":44},{"user_id":667,"name":"Spiderfight1","steam_id":76561199189991528,"connected_time":841000000000,"state":"active","ping":110}]},{"server_id":25,"name":"Uncletopia | Los Angeles | 4 | Stopwatch Beta","name_short":"lax-4","host":"lax-1.us.uncletopia.com","port":27045,"enabled":true,"region":"us-west","cc":"us","latitude":33.94279,"longitude":-118.41004,"reserved":0,"last_update":"0001-01-01T00:00:00Z","name_a2s":"Uncletopia | Los Angeles | 4 | Stopwatch Beta","protocol":17,"map":"cp_sunshine","folder":"tf","game":"Team Fortress","app_id":440,"player_count":0,"max_players":24,"Bots":0,"server_type":"Dedicated","server_os":"Linux","password":true,"vac":true,"version":"7757534","steam_id":85568392924510199,"keywords":["cp","nocrits","nodmgspread","uncletopia"],"game_id":440,"stv_port":27046,"stv_name":"Uncletopia | Los Angeles | 4 | Stopwatch Beta | STV","players":null},{"server_id":11,"name":"Uncletopia | London | 1 | All Maps","name_short":"lon-1","host":"lon-1.uk.uncletopia.com","port":27015,"enabled":true,"region":"eu","cc":"gb","latitude":51.509865,"longitude":-0.118092,"reserved":0,"last_update":"0001-01-01T00:00:00Z","name_a2s":"Uncletopia | London | 1 | All Maps","protocol":17,"map":"pl_pier","folder":"tf","game":"Team Fortress","app_id":440,"player_count":0,"max_players":24,"Bots":0,"server_type":"Dedicated","server_os":"Linux","password":true,"vac":true,"version":"7757534","steam_id":85568392924367362,"keywords":["nocrits","nodmgspread","payload","uncletopia"],"game_id":440,"stv_port":27016,"stv_name":"Uncletopia | London | 1 | All Maps | STV","players":null},{"server_id":114,"name":"Uncletopia | London | 2 | All Maps","name_short":"lon-2","host":"lon-1.uk.uncletopia.com","port":27025,"enabled":true,"region":"eu","cc":"gb","latitude":51.509865,"longitude":-0.118092,"reserved":0,"last_update":"0001-01-01T00:00:00Z","name_a2s":"Uncletopia | London | 2 | All Maps","protocol":17,"map":"pl_upward","folder":"tf","game":"Team Fortress","app_id":440,"player_count":24,"max_players":24,"Bots":0,"server_type":"Dedicated","server_os":"Linux","password":true,"vac":true,"version":"7757534","steam_id":85568392924470941,"keywords":["nocrits","nodmgspread","payload","uncletopia"],"game_id":440,"stv_port":27026,"stv_name":"Uncletopia | London | 2 | All Maps | STV","players":[{"user_id":3,"name":"Autumnsky","steam_id":76561198055161203,"connected_time":6763000000000,"state":"active","ping":60},{"user_id":40,"name":"Rave Robber","steam_id":76561199414716848,"connected_time":6069000000000,"state":"active","ping":75},{"user_id":5,"name":"BrainLacking","steam_id":76561198965574196,"connected_time":6763000000000,"state":"active","ping":52},{"user_id":81,"name":"Johnny Sack","steam_id":76561198364121077,"connected_time":692000000000,"state":"active","ping":88},{"user_id":78,"name":"bhop.rip raki-","steam_id":76561199105063476,"connected_time":1129000000000,"state":"active","ping":74},{"user_id":58,"name":"Bains","steam_id":76561198139457537,"connected_time":2893000000000,"state":"active","ping":159},{"user_id":47,"name":"pip boy","steam_id":76561197960530280,"connected_time":4559000000000,"state":"active","ping":74},{"user_id":79,"name":"üñ§‚Éùdora‚òÖ‡øê","steam_id":76561198854788884,"connected_time":1090000000000,"state":"active","ping":150},{"user_id":80,"name":"UnknownHero","steam_id":76561198864766392,"connected_time":843000000000,"state":"active","ping":90},{"user_id":72,"name":"korpokkur kolossus","steam_id":76561198029827784,"connected_time":1165000000000,"state":"active","ping":104},{"user_id":13,"name":"Tazerann","steam_id":76561198043743881,"connected_time":6747000000000,"state":"active","ping":43},{"user_id":14,"name":"rat :3","steam_id":76561198151884156,"connected_time":6745000000000,"state":"active","ping":49},{"user_id":83,"name":"Bad and Wuji","steam_id":76561199385280253,"connected_time":180000000000,"state":"active","ping":119},{"user_id":75,"name":"schmick","steam_id":76561198039537958,"connected_time":1155000000000,"state":"active","ping":58},{"user_id":55,"name":"glyph","steam_id":76561197980736364,"connected_time":4254000000000,"state":"active","ping":90},{"user_id":18,"name":"Arturs","steam_id":76561198085667179,"connected_time":6740000000000,"state":"active","ping":114},{"user_id":85,"name":"Corpus Christi","steam_id":76561198417999443,"connected_time":84000000000,"state":"active","ping":104},{"user_id":67,"name":"bird gaming","steam_id":76561198844172196,"connected_time":1746000000000,"state":"active","ping":159},{"user_id":61,"name":"dx_xb","steam_id":76561198064878900,"connected_time":2167000000000,"state":"active","ping":61},{"user_id":64,"name":"hellbound","steam_id":76561198160562773,"connected_time":1824000000000,"state":"active","ping":75},{"user_id":45,"name":"–∏–≤–∞–Ω","steam_id":76561198072730591,"connected_time":5006000000000,"state":"active","ping":61},{"user_id":82,"name":"fatmegaman","steam_id":76561198171015509,"connected_time":415000000000,"state":"active","ping":92},{"user_id":68,"name":"Penguinmark","steam_id":76561199057089501,"connected_time":1745000000000,"state":"active","ping":126},{"user_id":71,"name":"InfamousAxe","steam_id":76561198099504739,"connected_time":1385000000000,"state":"active","ping":120}]},{"server_id":320,"name":"Uncletopia | London | 3 | All Maps","name_short":"lon-3","host":"lon-1.uk.uncletopia.com","port":27035,"enabled":true,"region":"eu","cc":"gb","latitude":51.509865,"longitude":-0.118092,"reserved":0,"last_update":"0001-01-01T00:00:00Z","name_a2s":"Uncletopia | London | 3 | All Maps","protocol":17,"map":"pl_badwater","folder":"tf","game":"Team Fortress","app_id":440,"player_count":0,"max_players":24,"Bots":0,"server_type":"Dedicated","server_os":"Linux","password":true,"vac":true,"version":"7757534","steam_id":85568392924510192,"keywords":["nocrits","nodmgspread","payload","uncletopia"],"game_id":440,"stv_port":27036,"stv_name":"Uncletopia | London | 3 | All Maps | STV","players":null},{"server_id":321,"name":"Uncletopia | London | 4 | All Maps","name_short":"lon-4","host":"lon-1.uk.uncletopia.com","port":27045,"enabled":true,"region":"eu","cc":"gb","latitude":51.509865,"longitude":-0.118092,"reserved":0,"last_update":"0001-01-01T00:00:00Z","name_a2s":"Uncletopia | London | 4 | All Maps","protocol":17,"map":"koth_cascade","folder":"tf","game":"Team Fortress","app_id":440,"player_count":0,"max_players":24,"Bots":0,"server_type":"Dedicated","server_os":"Linux","password":true,"vac":true,"version":"7757534","steam_id":85568392924510193,"keywords":["cp","nocrits","nodmgspread","uncletopia"],"game_id":440,"stv_port":27046,"stv_name":"Uncletopia | London | 4 | All Maps | STV","players":null},{"server_id":21,"name":"Uncletopia | London | 5 | All Maps","name_short":"lon-5","host":"lon-1.uk.uncletopia.com","port":27055,"enabled":true,"region":"eu","cc":"gb","latitude":51.509865,"longitude":-0.118092,"reserved":0,"last_update":"0001-01-01T00:00:00Z","name_a2s":"Uncletopia | London | 5 | All Maps","protocol":17,"map":"pl_frontier_final","folder":"tf","game":"Team Fortress","app_id":440,"player_count":24,"max_players":24,"Bots":0,"server_type":"Dedicated","server_os":"Linux","password":true,"vac":true,"version":"7757534","steam_id":85568392924742829,"keywords":["nocrits","nodmgspread","payload","uncletopia"],"game_id":440,"stv_port":27056,"stv_name":"Uncletopia | London | 5 | All Maps | STV","players":[{"user_id":19,"name":"Choruptian","steam_id":76561198017686366,"connected_time":1793000000000,"state":"active","ping":68},{"user_id":33,"name":"problack","steam_id":76561198000514719,"connected_time":1343000000000,"state":"active","ping":68},{"user_id":7,"name":"ddchdrn","steam_id":76561198024358566,"connected_time":3454000000000,"state":"active","ping":65},{"user_id":8,"name":"Eliminaattori","steam_id":76561197996681411,"connected_time":3436000000000,"state":"active","ping":78},{"user_id":9,"name":"Xerp","steam_id":76561198325049769,"connected_time":3053000000000,"state":"active","ping":57},{"user_id":10,"name":"fried","steam_id":76561198307522022,"connected_time":3047000000000,"state":"active","ping":49},{"user_id":12,"name":"NeonNAX","steam_id":76561198294435500,"connected_time":2720000000000,"state":"active","ping":47},{"user_id":24,"name":"BONK-TEC!","steam_id":76561198272667029,"connected_time":1611000000000,"state":"active","ping":53},{"user_id":14,"name":"Gekko [HUN]","steam_id":76561198869884227,"connected_time":2609000000000,"state":"active","ping":74},{"user_id":25,"name":"Paska, perse vittu","steam_id":76561198093000666,"connected_time":1602000000000,"state":"active","ping":76},{"user_id":18,"name":"maunet732","steam_id":76561198032423958,"connected_time":2216000000000,"state":"active","ping":69},{"user_id":26,"name":"deepnotic","steam_id":76561199154324805,"connected_time":1592000000000,"state":"active","ping":85},{"user_id":22,"name":"DharanRocks","steam_id":76561199084484720,"connected_time":1700000000000,"state":"active","ping":179},{"user_id":23,"name":"Mr. Fox","steam_id":76561198803610709,"connected_time":1634000000000,"state":"active","ping":105},{"user_id":32,"name":"Allereinan","steam_id":76561198342239906,"connected_time":1458000000000,"state":"active","ping":93},{"user_id":28,"name":"CouchPotato","steam_id":76561198849369915,"connected_time":1512000000000,"state":"active","ping":64},{"user_id":43,"name":"NickiCheetah","steam_id":76561198980540766,"connected_time":1112000000000,"state":"active","ping":74},{"user_id":30,"name":"Pineapple Okan„Å§ ‚óï_‚óï ‡ºΩ\ufffd\ufffd","steam_id":76561198069199449,"connected_time":1482000000000,"state":"active","ping":114},{"user_id":31,"name":"Slushy_","steam_id":76561198148649945,"connected_time":1465000000000,"state":"active","ping":94},{"user_id":46,"name":"ji","steam_id":76561198845550388,"connected_time":379000000000,"state":"active","ping":99},{"user_id":37,"name":"Dmitry Kerman","steam_id":76561198300020540,"connected_time":1283000000000,"state":"active","ping":114},{"user_id":38,"name":"shr1mple","steam_id":76561198173537027,"connected_time":1259000000000,"state":"active","ping":48},{"user_id":39,"name":"Leszy","steam_id":76561198372172135,"connected_time":1251000000000,"state":"active","ping":72},{"user_id":44,"name":"mad_max228","steam_id":76561198382965930,"connected_time":513000000000,"state":"active","ping":85}]},{"server_id":22,"name":"Uncletopia | London | 6 | All Maps","name_short":"lon-6","host":"lon-1.uk.uncletopia.com","port":27065,"enabled":true,"region":"eu","cc":"gb","latitude":51.509865,"longitude":-0.118092,"reserved":0,"last_update":"0001-01-01T00:00:00Z","name_a2s":"Uncletopia | London | 6 | All Maps","protocol":17,"map":"pl_snowycoast","folder":"tf","game":"Team Fortress","app_id":440,"player_count":0,"max_players":24,"Bots":0,"server_type":"Dedicated","server_os":"Linux","password":true,"vac":true,"version":"7757534","steam_id":85568392924742830,"keywords":["nocrits","nodmgspread","payload","uncletopia"],"game_id":440,"stv_port":27066,"stv_name":"Uncletopia | London | 6 | All Maps | STV","players":null},{"server_id":40,"name":"Uncletopia | London | 7 | No Payload","name_short":"lon-7","host":"lon-1.uk.uncletopia.com","port":27075,"enabled":true,"region":"eu","cc":"gb","latitude":51.509865,"longitude":-0.118092,"reserved":0,"last_update":"0001-01-01T00:00:00Z","name_a2s":"Uncletopia | London | 7 | No Payload","protocol":17,"map":"koth_sawmill","folder":"tf","game":"Team Fortress","app_id":440,"player_count":0,"max_players":24,"Bots":0,"server_type":"Dedicated","server_os":"Linux","password":true,"vac":true,"version":"7757534","steam_id":85568392924964314,"keywords":["cp","nocrits","nodmgspread","uncletopia"],"game_id":440,"stv_port":27076,"stv_name":"Uncletopia | London | 7 | No Payload | STV","players":null},{"server_id":41,"name":"Uncletopia | London | 8 | Community","name_short":"lon-8","host":"lon-1.uk.uncletopia.com","port":27085,"enabled":true,"region":"eu","cc":"gb","latitude":51.509865,"longitude":-0.118092,"reserved":0,"last_update":"0001-01-01T00:00:00Z","name_a2s":"Uncletopia | London | 8 | Community","protocol":17,"map":"workshop/pl_cactuscanyon_redux_rc4b.ugc2579644293","folder":"tf","game":"Team Fortress","app_id":440,"player_count":0,"max_players":24,"Bots":0,"server_type":"Dedicated","server_os":"Linux","password":true,"vac":true,"version":"7757534","steam_id":85568392924964315,"keywords":["nocrits","nodmgspread","payload","uncletopia"],"game_id":440,"stv_port":27086,"stv_name":"Uncletopia | London | 8 | Community | STV","players":null},{"server_id":300,"name":"Uncletopia | Montr√©al | 1 | All Maps","name_short":"mtl-1","host":"mtl-1.ca.uncletopia.com","port":27015,"enabled":true,"region":"us-east","cc":"ca","latitude":45.50889,"longitude":-73.56167,"reserved":0,"last_update":"0001-01-01T00:00:00Z","name_a2s":"Uncletopia | Montr√©al | 1 | All Maps","protocol":17,"map":"koth_cascade","folder":"tf","game":"Team Fortress","app_id":440,"player_count":0,"max_players":24,"Bots":0,"server_type":"Dedicated","server_os":"Linux","password":true,"vac":true,"version":"7757534","steam_id":85568392924500087,"keywords":["cp","nocrits","nodmgspread","uncletopia"],"game_id":440,"stv_port":27016,"stv_name":"Uncletopia | Montr√©al | 1 | All Maps | STV","players":null},{"server_id":301,"name":"Uncletopia | Montr√©al | 2 | All Maps","name_short":"mtl-2","host":"mtl-1.ca.uncletopia.com","port":27025,"enabled":true,"region":"us-east","cc":"ca","latitude":45.50889,"longitude":-73.56167,"reserved":0,"last_update":"0001-01-01T00:00:00Z","name_a2s":"Uncletopia | Montr√©al | 2 | All Maps","protocol":17,"map":"cp_sunshine","folder":"tf","game":"Team Fortress","app_id":440,"player_count":0,"max_players":24,"Bots":0,"server_type":"Dedicated","server_os":"Linux","password":true,"vac":true,"version":"7757534","steam_id":85568392924500088,"keywords":["cp","nocrits","nodmgspread","uncletopia"],"game_id":440,"stv_port":27026,"stv_name":"Uncletopia | Montr√©al | 2 | All Maps | STV","players":null},{"server_id":302,"name":"Uncletopia | Montr√©al | 3 | All Maps","name_short":"mtl-3","host":"mtl-1.ca.uncletopia.com","port":27035,"enabled":true,"region":"us-east","cc":"ca","latitude":45.50889,"longitude":-73.56167,"reserved":0,"last_update":"0001-01-01T00:00:00Z","name_a2s":"Uncletopia | Montr√©al | 3 | All Maps","protocol":17,"map":"cp_dustbowl","folder":"tf","game":"Team Fortress","app_id":440,"player_count":2,"max_players":24,"Bots":0,"server_type":"Dedicated","server_os":"Linux","password":true,"vac":true,"version":"7757534","steam_id":85568392924500089,"keywords":["cp","nocrits","nodmgspread","uncletopia"],"game_id":440,"stv_port":27036,"stv_name":"Uncletopia | Montr√©al | 3 | All Maps | STV","players":[{"user_id":8,"name":"Royluck","steam_id":76561198303305772,"connected_time":3220000000000,"state":"active","ping":108},{"user_id":9,"name":"Meowtimez","steam_id":76561199384238857,"connected_time":3199000000000,"state":"active","ping":115}]},{"server_id":303,"name":"Uncletopia | Montr√©al | 4 | No Payload","name_short":"mtl-4","host":"mtl-1.ca.uncletopia.com","port":27045,"enabled":true,"region":"us-east","cc":"ca","latitude":45.50889,"longitude":-73.56167,"reserved":0,"last_update":"0001-01-01T00:00:00Z","name_a2s":"Uncletopia | Montr√©al | 4 | No Payload","protocol":17,"map":"koth_highpass","folder":"tf","game":"Team Fortress","app_id":440,"player_count":0,"max_players":24,"Bots":0,"server_type":"Dedicated","server_os":"Linux","password":true,"vac":true,"version":"7757534","steam_id":85568392924500090,"keywords":["cp","nocrits","nodmgspread","uncletopia"],"game_id":440,"stv_port":27046,"stv_name":"Uncletopia | Montr√©al | 4 | No Payload | STV","players":null},{"server_id":13,"name":"Uncletopia | New York City | 1 | All Maps","name_short":"nyc-1","host":"nyc-1.us.uncletopia.com","port":27015,"enabled":true,"region":"us-east","cc":"us","latitude":40.73061,"longitude":-73.93524,"reserved":0,"last_update":"0001-01-01T00:00:00Z","name_a2s":"Uncletopia | New York City | 1 | All Maps","protocol":17,"map":"pl_pier","folder":"tf","game":"Team Fortress","app_id":440,"player_count":21,"max_players":24,"Bots":0,"server_type":"Dedicated","server_os":"Linux","password":true,"vac":true,"version":"7757534","steam_id":85568392924469993,"keywords":["nocrits","nodmgspread","payload","uncletopia"],"game_id":440,"stv_port":27016,"stv_name":"Uncletopia | New York City | 1 | All Maps | STV","players":[{"user_id":533,"name":"watchfull","steam_id":76561198433266742,"connected_time":2133000000000,"state":"active","ping":116},{"user_id":524,"name":"Elegant Ejaculation","steam_id":76561198014190878,"connected_time":2637000000000,"state":"active","ping":116},{"user_id":554,"name":"Jac","steam_id":76561199118187089,"connected_time":283000000000,"state":"active","ping":93},{"user_id":555,"name":"Blackcat","steam_id":76561199013406735,"connected_time":262000000000,"state":"active","ping":108},{"user_id":519,"name":"^9kniff","steam_id":76561197973733659,"connected_time":3149000000000,"state":"active","ping":123},{"user_id":548,"name":"pepsibobby","steam_id":76561198853864511,"connected_time":1059000000000,"state":"active","ping":72},{"user_id":536,"name":"Antknee","steam_id":76561198263793809,"connected_time":2049000000000,"state":"active","ping":71},{"user_id":559,"name":"Haydeen095","steam_id":76561198998715600,"connected_time":166000000000,"state":"active","ping":115},{"user_id":544,"name":"Dannnnnn","steam_id":76561198442700385,"connected_time":1616000000000,"state":"active","ping":163},{"user_id":556,"name":"Aristotle Voulton","steam_id":76561198100174923,"connected_time":261000000000,"state":"active","ping":76},{"user_id":542,"name":"no.1 dragonvale player","steam_id":76561198124365349,"connected_time":1918000000000,"state":"active","ping":91},{"user_id":565,"name":"howtobepker","steam_id":76561198115053865,"connected_time":21000000000,"state":"spawning","ping":93},{"user_id":558,"name":"SirDoughy","steam_id":76561199088805201,"connected_time":227000000000,"state":"active","ping":125},{"user_id":562,"name":"‚í∑‚ì™‚ì™‚ì£‚ì®‚ìí‚ìê‚ìö‚ìî‚ì¢","steam_id":76561198088776421,"connected_time":63000000000,"state":"active","ping":86},{"user_id":553,"name":"twitch.tv/HeadlessVoid","steam_id":76561198354658793,"connected_time":365000000000,"state":"active","ping":77},{"user_id":563,"name":"kino","steam_id":76561199417907044,"connected_time":34000000000,"state":"active","ping":75},{"user_id":527,"name":"BOB","steam_id":76561198354496665,"connected_time":2480000000000,"state":"active","ping":63},{"user_id":528,"name":"Moofins","steam_id":76561198050291949,"connected_time":2417000000000,"state":"active","ping":100},{"user_id":564,"name":"Sad Sapling","steam_id":76561198075612150,"connected_time":33000000000,"state":"active","ping":118},{"user_id":551,"name":"you are all pieces on my chessb","steam_id":76561198039909187,"connected_time":986000000000,"state":"active","ping":71},{"user_id":543,"name":"Karma","steam_id":76561198030565234,"connected_time":1738000000000,"state":"active","ping":49}]},{"server_id":14,"name":"Uncletopia | New York City | 2 | All Maps","name_short":"nyc-2","host":"nyc-1.us.uncletopia.com","port":27025,"enabled":true,"region":"us-east","cc":"us","latitude":40.73061,"longitude":-73.93524,"reserved":0,"last_update":"0001-01-01T00:00:00Z","name_a2s":"Uncletopia | New York City | 2 | All Maps","protocol":17,"map":"pl_barnblitz","folder":"tf","game":"Team Fortress","app_id":440,"player_count":24,"max_players":24,"Bots":0,"server_type":"Dedicated","server_os":"Linux","password":true,"vac":true,"version":"7757534","steam_id":85568392924469994,"keywords":["nocrits","nodmgspread","payload","uncletopia"],"game_id":440,"stv_port":27026,"stv_name":"Uncletopia | New York City | 2 | All Maps | STV","players":[{"user_id":821,"name":"RICE","steam_id":76561198285698221,"connected_time":1516000000000,"state":"active","ping":80},{"user_id":791,"name":"Medl3y Batel","steam_id":76561198179888142,"connected_time":2817000000000,"state":"active","ping":74},{"user_id":817,"name":"„É†Spritz„É†","steam_id":76561198255578427,"connected_time":1725000000000,"state":"active","ping":72},{"user_id":825,"name":"DanFunTime","steam_id":76561199070914651,"connected_time":1267000000000,"state":"active","ping":58},{"user_id":737,"name":"Glass Joe","steam_id":76561198317365741,"connected_time":5461000000000,"state":"active","ping":65},{"user_id":787,"name":"Female Gamer","steam_id":76561199366482682,"connected_time":3258000000000,"state":"active","ping":138},{"user_id":837,"name":"HollowMan","steam_id":76561198967266827,"connected_time":905000000000,"state":"active","ping":101},{"user_id":826,"name":"flora","steam_id":76561197994492154,"connected_time":1266000000000,"state":"active","ping":142},{"user_id":833,"name":"skill based matchmaking","steam_id":76561198149987582,"connected_time":1104000000000,"state":"active","ping":66},{"user_id":834,"name":"Assitins","steam_id":76561198041572892,"connected_time":1103000000000,"state":"active","ping":50},{"user_id":843,"name":"Man Weed","steam_id":76561198133467786,"connected_time":165000000000,"state":"active","ping":61},{"user_id":839,"name":"fox gaming","steam_id":76561198201645150,"connected_time":530000000000,"state":"active","ping":141},{"user_id":822,"name":"Kaluka","steam_id":76561198036861445,"connected_time":1350000000000,"state":"active","ping":58},{"user_id":842,"name":"Cleric","steam_id":76561198045887994,"connected_time":178000000000,"state":"active","ping":63},{"user_id":722,"name":"basil","steam_id":76561198075758026,"connected_time":6401000000000,"state":"active","ping":86},{"user_id":840,"name":"Griffin","steam_id":76561198159339442,"connected_time":429000000000,"state":"active","ping":72},{"user_id":844,"name":"Buh Buh","steam_id":76561198872613199,"connected_time":70000000000,"state":"active","ping":75},{"user_id":841,"name":"invb","steam_id":76561197998263914,"connected_time":387000000000,"state":"active","ping":79},{"user_id":820,"name":"$kinwalker","steam_id":76561198177755837,"connected_time":1660000000000,"state":"active","ping":64},{"user_id":795,"name":"gup","steam_id":76561198108938632,"connected_time":2661000000000,"state":"active","ping":57},{"user_id":838,"name":"rlty","steam_id":76561198009395055,"connected_time":707000000000,"state":"active","ping":90},{"user_id":806,"name":"Vonzoid","steam_id":76561198272309709,"connected_time":2318000000000,"state":"active","ping":72},{"user_id":836,"name":"turt","steam_id":76561198260892128,"connected_time":1081000000000,"state":"active","ping":65},{"user_id":798,"name":"potato pat lft(?)","steam_id":76561198025489194,"connected_time":2555000000000,"state":"active","ping":91}]},{"server_id":15,"name":"Uncletopia | New York City | 3 | Stopwatch Beta","name_short":"nyc-3","host":"nyc-1.us.uncletopia.com","port":27035,"enabled":true,"region":"us-east","cc":"us","latitude":40.73061,"longitude":-73.93524,"reserved":0,"last_update":"0001-01-01T00:00:00Z","name_a2s":"Uncletopia | New York City | 3 | Stopwatch Beta","protocol":17,"map":"workshop/cp_reckoner_rc6.ugc674719999","folder":"tf","game":"Team Fortress","app_id":440,"player_count":0,"max_players":24,"Bots":0,"server_type":"Dedicated","server_os":"Linux","password":true,"vac":true,"version":"7757534","steam_id":85568392924742820,"keywords":["cp","nocrits","nodmgspread","uncletopia"],"game_id":440,"stv_port":27036,"stv_name":"Uncletopia | New York City | 3 | Stopwatch Beta | STV","players":null},{"server_id":16,"name":"Uncletopia | New York City | 4 | Community","name_short":"nyc-4","host":"nyc-1.us.uncletopia.com","port":27045,"enabled":true,"region":"us-east","cc":"us","latitude":40.73061,"longitude":-73.93524,"reserved":0,"last_update":"0001-01-01T00:00:00Z","name_a2s":"Uncletopia | New York City | 4 | Community","protocol":17,"map":"workshop/cp_reckoner_rc6.ugc674719999","folder":"tf","game":"Team Fortress","app_id":440,"player_count":0,"max_players":24,"Bots":0,"server_type":"Dedicated","server_os":"Linux","password":true,"vac":true,"version":"7757534","steam_id":85568392924742821,"keywords":["cp","nocrits","nodmgspread","uncletopia"],"game_id":440,"stv_port":27046,"stv_name":"Uncletopia | New York City | 4 | Community | STV","players":null},{"server_id":142,"name":"Uncletopia | S√£o Paulo | 1 | All Maps","name_short":"sao-1","host":"sao-1.br.uncletopia.com","port":27015,"enabled":true,"region":"sa","cc":"br","latitude":-23.533773,"longitude":-46.62529,"reserved":0,"last_update":"0001-01-01T00:00:00Z","name_a2s":"Uncletopia | S√£o Paulo | 1 | All Maps","protocol":17,"map":"koth_highpass","folder":"tf","game":"Team Fortress","app_id":440,"player_count":0,"max_players":24,"Bots":0,"server_type":"Dedicated","server_os":"Linux","password":true,"vac":true,"version":"7757534","steam_id":85568392924469996,"keywords":["cp","nocrits","nodmgspread","uncletopia"],"game_id":440,"stv_port":27016,"stv_name":"Uncletopia | S√£o Paulo | 1 | All Maps | STV","players":null},{"server_id":143,"name":"Uncletopia | S√£o Paulo | 2 | All Maps","name_short":"sao-2","host":"sao-2.br.uncletopia.com","port":27015,"enabled":true,"region":"sa","cc":"br","latitude":-23.533773,"longitude":-46.62529,"reserved":0,"last_update":"0001-01-01T00:00:00Z","name_a2s":"Uncletopia | S√£o Paulo | 2 | All Maps","protocol":17,"map":"koth_highpass","folder":"tf","game":"Team Fortress","app_id":440,"player_count":0,"max_players":24,"Bots":0,"server_type":"Dedicated","server_os":"Linux","password":true,"vac":true,"version":"7757534","steam_id":85568392924485349,"keywords":["cp","nocrits","nodmgspread","uncletopia"],"game_id":440,"stv_port":27016,"stv_name":"Uncletopia | S√£o Paulo | 2 | All Maps | STV","players":null},{"server_id":7,"name":"Uncletopia | Seattle | 1 | All Maps","name_short":"sea-1","host":"sea-1.us.uncletopia.com","port":27015,"enabled":true,"region":"us-west","cc":"us","latitude":47.608013,"longitude":-122.33517,"reserved":0,"last_update":"0001-01-01T00:00:00Z","name_a2s":"Uncletopia | Seattle | 1 | All Maps","protocol":17,"map":"pl_barnblitz","folder":"tf","game":"Team Fortress","app_id":440,"player_count":24,"max_players":24,"Bots":0,"server_type":"Dedicated","server_os":"Linux","password":true,"vac":true,"version":"7757534","steam_id":85568392924469997,"keywords":["nocrits","nodmgspread","payload","uncletopia"],"game_id":440,"stv_port":27016,"stv_name":"Uncletopia | Seattle | 1 | All Maps | STV","players":[{"user_id":678,"name":"American Dad Funny Moments #32","steam_id":76561198254874328,"connected_time":2730000000000,"state":"active","ping":149},{"user_id":640,"name":"An Old Lady","steam_id":76561198047480318,"connected_time":5898000000000,"state":"active","ping":68},{"user_id":676,"name":"N√©oGothiqueüïØ","steam_id":76561198003467269,"connected_time":2983000000000,"state":"active","ping":109},{"user_id":621,"name":"Pneumo.","steam_id":76561197987911883,"connected_time":8498000000000,"state":"active","ping":67},{"user_id":701,"name":"Father Jon","steam_id":76561198324730919,"connected_time":1152000000000,"state":"active","ping":119},{"user_id":699,"name":"–≥—Ä—É—Å—Ç–Ω—ã–π","steam_id":76561198274550638,"connected_time":1183000000000,"state":"active","ping":105},{"user_id":612,"name":"PopcornNinja101","steam_id":76561198330680181,"connected_time":9715000000000,"state":"active","ping":46},{"user_id":679,"name":"bingus","steam_id":76561198132870504,"connected_time":2725000000000,"state":"active","ping":121},{"user_id":695,"name":"Ham Radio","steam_id":76561198030613297,"connected_time":1828000000000,"state":"active","ping":109},{"user_id":694,"name":"bbbbb","steam_id":76561198095480838,"connected_time":2181000000000,"state":"active","ping":46},{"user_id":697,"name":"fa√ßade","steam_id":76561199157009256,"connected_time":1345000000000,"state":"active","ping":60},{"user_id":643,"name":"Mr. The Engie","steam_id":76561198121439300,"connected_time":5851000000000,"state":"active","ping":61},{"user_id":675,"name":"YuuriDaThrilla","steam_id":76561198184814466,"connected_time":3104000000000,"state":"active","ping":44},{"user_id":700,"name":"SenTreats","steam_id":76561198085835841,"connected_time":1162000000000,"state":"active","ping":88},{"user_id":685,"name":"raku","steam_id":76561198124069038,"connected_time":2625000000000,"state":"active","ping":63},{"user_id":703,"name":"Sniff","steam_id":76561198010270922,"connected_time":211000000000,"state":"active","ping":43},{"user_id":688,"name":"Zino Primo","steam_id":76561198044562994,"connected_time":2589000000000,"state":"active","ping":50},{"user_id":689,"name":"EwokLord50","steam_id":76561198133069672,"connected_time":2575000000000,"state":"active","ping":90},{"user_id":690,"name":"OrangeSockNinja","steam_id":76561198325741958,"connected_time":2559000000000,"state":"active","ping":68},{"user_id":691,"name":"Yack Skag","steam_id":76561198068251493,"connected_time":2558000000000,"state":"active","ping":64},{"user_id":693,"name":"GreenSockNinja","steam_id":76561198214619897,"connected_time":2473000000000,"state":"active","ping":133},{"user_id":608,"name":"flishko","steam_id":76561198326489802,"connected_time":9978000000000,"state":"active","ping":59},{"user_id":647,"name":"The_Pacific_gamer","steam_id":76561198089491446,"connected_time":5714000000000,"state":"active","ping":58},{"user_id":702,"name":"doopsies","steam_id":76561198083000867,"connected_time":952000000000,"state":"active","ping":54}]},{"server_id":119,"name":"Uncletopia | Seattle | 2 | All Maps","name_short":"sea-2","host":"sea-1.us.uncletopia.com","port":27025,"enabled":true,"region":"us-west","cc":"us","latitude":47.608013,"longitude":-122.33517,"reserved":0,"last_update":"0001-01-01T00:00:00Z","name_a2s":"Uncletopia | Seattle | 2 | All Maps","protocol":17,"map":"ctf_2fort","folder":"tf","game":"Team Fortress","app_id":440,"player_count":24,"max_players":24,"Bots":0,"server_type":"Dedicated","server_os":"Linux","password":true,"vac":true,"version":"7757534","steam_id":85568392924469998,"keywords":["ctf","nocrits","nodmgspread","uncletopia"],"game_id":440,"stv_port":27026,"stv_name":"Uncletopia | Seattle | 2 | All Maps | STV","players":[{"user_id":538,"name":"ËãóÊ¢ùÂéö","steam_id":76561198164921218,"connected_time":717000000000,"state":"active","ping":122},{"user_id":486,"name":"Fazool","steam_id":76561198111191216,"connected_time":6157000000000,"state":"active","ping":55},{"user_id":537,"name":"bingle","steam_id":76561198359413453,"connected_time":720000000000,"state":"active","ping":138},{"user_id":496,"name":"Dr. Reaper","steam_id":76561198049436290,"connected_time":5515000000000,"state":"active","ping":55},{"user_id":522,"name":"Plain Toast","steam_id":76561198451580251,"connected_time":1830000000000,"state":"active","ping":114},{"user_id":530,"name":"Testicular Torsion","steam_id":76561197968179862,"connected_time":919000000000,"state":"active","ping":115},{"user_id":528,"name":"Shr√∂dinger's Trap","steam_id":76561198082996062,"connected_time":927000000000,"state":"active","ping":74},{"user_id":460,"name":"Charles Codsworth","steam_id":76561198038976657,"connected_time":9310000000000,"state":"active","ping":86},{"user_id":461,"name":"Vexxant","steam_id":76561198080549580,"connected_time":9118000000000,"state":"active","ping":107},{"user_id":462,"name":"Cinna Mon","steam_id":76561198005840633,"connected_time":8489000000000,"state":"active","ping":48},{"user_id":503,"name":"king piccolo gaming","steam_id":76561198000744865,"connected_time":4299000000000,"state":"active","ping":46},{"user_id":485,"name":"Nekrotic","steam_id":76561198309465586,"connected_time":6219000000000,"state":"active","ping":45},{"user_id":495,"name":"ppsmall","steam_id":76561198060169845,"connected_time":5522000000000,"state":"active","ping":36},{"user_id":539,"name":"Matte :)","steam_id":76561198070631073,"connected_time":698000000000,"state":"active","ping":60},{"user_id":532,"name":"How do u play","steam_id":76561198111567279,"connected_time":867000000000,"state":"active","ping":56},{"user_id":456,"name":"Phonk Miser","steam_id":76561199435609906,"connected_time":9613000000000,"state":"active","ping":110},{"user_id":540,"name":"Eden","steam_id":76561198075587475,"connected_time":648000000000,"state":"active","ping":94},{"user_id":549,"name":"Homeless pleas help gaming","steam_id":76561199098230670,"connected_time":123000000000,"state":"active","ping":111},{"user_id":521,"name":"Anjeer Kohi","steam_id":76561199466957279,"connected_time":1975000000000,"state":"active","ping":96},{"user_id":551,"name":"FridgeOfJustice","steam_id":76561198061995534,"connected_time":54000000000,"state":"active","ping":90},{"user_id":552,"name":"Mara Roo","steam_id":76561198279341789,"connected_time":29000000000,"state":"active","ping":111},{"user_id":525,"name":"Ash!‚ù§","steam_id":76561198070398840,"connected_time":1592000000000,"state":"active","ping":72},{"user_id":544,"name":"Tomato Soup","steam_id":76561198051834684,"connected_time":385000000000,"state":"active","ping":60},{"user_id":553,"name":"Ayayahuasca","steam_id":76561199002906056,"connected_time":11000000000,"state":"spawning","ping":45}]},{"server_id":406,"name":"Uncletopia | Seattle | 3 | Stopwatch Beta","name_short":"sea-3","host":"sea-1.us.uncletopia.com","port":27035,"enabled":true,"region":"us-west","cc":"us","latitude":47.608013,"longitude":-122.33517,"reserved":0,"last_update":"0001-01-01T00:00:00Z","name_a2s":"Uncletopia | Seattle | 3 | Stopwatch Beta","protocol":17,"map":"pl_swiftwater_final1","folder":"tf","game":"Team Fortress","app_id":440,"player_count":0,"max_players":24,"Bots":0,"server_type":"Dedicated","server_os":"Linux","password":true,"vac":true,"version":"7757534","steam_id":85568392924515217,"keywords":["nocrits","nodmgspread","payload","uncletopia"],"game_id":440,"stv_port":27036,"stv_name":"Uncletopia | Seattle | 3 | Stopwatch Beta | STV","players":null},{"server_id":17,"name":"Uncletopia | San Francisco | 1 | All Maps","name_short":"sfo-1","host":"sfo-1.us.uncletopia.com","port":27015,"enabled":true,"region":"us-west","cc":"us","latitude":37.77397,"longitude":-122.4313,"reserved":0,"last_update":"0001-01-01T00:00:00Z","name_a2s":"Uncletopia | San Francisco | 1 | All Maps","protocol":17,"map":"pl_snowycoast","folder":"tf","game":"Team Fortress","app_id":440,"player_count":22,"max_players":24,"Bots":0,"server_type":"Dedicated","server_os":"Linux","password":true,"vac":true,"version":"7757534","steam_id":85568392924469999,"keywords":["nocrits","nodmgspread","payload","uncletopia"],"game_id":440,"stv_port":27016,"stv_name":"Uncletopia | San Francisco | 1 | All Maps | STV","players":[{"user_id":890,"name":"Fargo","steam_id":76561198044703931,"connected_time":499000000000,"state":"active","ping":75},{"user_id":894,"name":"Octo","steam_id":76561198813471705,"connected_time":261000000000,"state":"active","ping":75},{"user_id":898,"name":"Mightythor","steam_id":76561199162355715,"connected_time":163000000000,"state":"active","ping":110},{"user_id":864,"name":"A UsedNom","steam_id":76561198402832756,"connected_time":2143000000000,"state":"active","ping":32},{"user_id":862,"name":"Malmart_Employee","steam_id":76561198320388704,"connected_time":2375000000000,"state":"active","ping":82},{"user_id":895,"name":"Nuggies","steam_id":76561198272432592,"connected_time":243000000000,"state":"active","ping":52},{"user_id":880,"name":"dominic82503","steam_id":76561199229812271,"connected_time":1343000000000,"state":"active","ping":57},{"user_id":896,"name":"beatrix","steam_id":76561199057103062,"connected_time":236000000000,"state":"active","ping":71},{"user_id":897,"name":"kaeru","steam_id":76561198043789098,"connected_time":212000000000,"state":"active","ping":87},{"user_id":899,"name":"Dude Avocado","steam_id":76561198153212586,"connected_time":136000000000,"state":"active","ping":80},{"user_id":901,"name":"Sinn","steam_id":76561199013434543,"connected_time":81000000000,"state":"active","ping":54},{"user_id":879,"name":"Rollo","steam_id":76561198064812108,"connected_time":1353000000000,"state":"active","ping":79},{"user_id":878,"name":"Seanvich","steam_id":76561198065805500,"connected_time":1361000000000,"state":"active","ping":104},{"user_id":833,"name":"The American Egele","steam_id":76561198081504766,"connected_time":4559000000000,"state":"active","ping":89},{"user_id":847,"name":"Zoroaz (3 Shots and a cocktail)","steam_id":76561199245203720,"connected_time":3987000000000,"state":"active","ping":94},{"user_id":874,"name":"Jesus Loves You57","steam_id":76561199058833769,"connected_time":1569000000000,"state":"active","ping":47},{"user_id":902,"name":"Mugen","steam_id":76561198411174773,"connected_time":75000000000,"state":"active","ping":59},{"user_id":876,"name":"arrayzk","steam_id":76561198280409646,"connected_time":1510000000000,"state":"active","ping":55},{"user_id":877,"name":"Destroyer1004","steam_id":76561199367685913,"connected_time":1366000000000,"state":"active","ping":72},{"user_id":903,"name":"Dom Kench","steam_id":76561198118910491,"connected_time":43000000000,"state":"active","ping":67},{"user_id":904,"name":"poey","steam_id":76561198865346767,"connected_time":4000000000,"state":"spawning","ping":59},{"user_id":885,"name":"tyler633withtj","steam_id":76561199136015400,"connected_time":1175000000000,"state":"active","ping":88}]},{"server_id":18,"name":"Uncletopia | San Francisco | 2 | All Maps","name_short":"sfo-2","host":"sfo-1.us.uncletopia.com","port":27025,"enabled":true,"region":"us-west","cc":"us","latitude":37.77397,"longitude":-122.4313,"reserved":0,"last_update":"0001-01-01T00:00:00Z","name_a2s":"Uncletopia | San Francisco | 2 | All Maps","protocol":17,"map":"pl_upward","folder":"tf","game":"Team Fortress","app_id":440,"player_count":24,"max_players":24,"Bots":0,"server_type":"Dedicated","server_os":"Linux","password":true,"vac":true,"version":"7757534","steam_id":85568392924470000,"keywords":["nocrits","nodmgspread","payload","uncletopia"],"game_id":440,"stv_port":27026,"stv_name":"Uncletopia | San Francisco | 2 | All Maps | STV","players":[{"user_id":362,"name":"golia","steam_id":76561198000264266,"connected_time":507000000000,"state":"active","ping":53},{"user_id":338,"name":"Jax","steam_id":76561198251160282,"connected_time":2016000000000,"state":"active","ping":73},{"user_id":373,"name":"kona","steam_id":76561199146582356,"connected_time":183000000000,"state":"active","ping":74},{"user_id":318,"name":"Moshi Man","steam_id":76561198038249762,"connected_time":4000000000000,"state":"active","ping":106},{"user_id":346,"name":"Porytal","steam_id":76561198306101889,"connected_time":1528000000000,"state":"active","ping":70},{"user_id":352,"name":"Navi","steam_id":76561198316219626,"connected_time":1407000000000,"state":"active","ping":115},{"user_id":364,"name":"car gas is yummy","steam_id":76561199045901994,"connected_time":471000000000,"state":"active","ping":69},{"user_id":370,"name":"Allah's drunkest separtist","steam_id":76561198144604567,"connected_time":252000000000,"state":"active","ping":61},{"user_id":355,"name":"DŒûŒîN","steam_id":76561198018561337,"connected_time":1360000000000,"state":"active","ping":46},{"user_id":365,"name":"MS Paint Gamer","steam_id":76561198964527916,"connected_time":358000000000,"state":"active","ping":67},{"user_id":366,"name":"Vaniner","steam_id":76561198170917802,"connected_time":305000000000,"state":"active","ping":81},{"user_id":341,"name":"Volute","steam_id":76561198081928565,"connected_time":1957000000000,"state":"active","ping":71},{"user_id":367,"name":"CoconutFlakes","steam_id":76561198203751503,"connected_time":286000000000,"state":"active","ping":63},{"user_id":345,"name":"Sloome Lover","steam_id":76561198299879257,"connected_time":1569000000000,"state":"active","ping":89},{"user_id":368,"name":"rE_d0","steam_id":76561198975450630,"connected_time":279000000000,"state":"active","ping":70},{"user_id":348,"name":"girr","steam_id":76561198995114110,"connected_time":1510000000000,"state":"active","ping":72},{"user_id":282,"name":"Blue Protogen - 001198","steam_id":76561198145791867,"connected_time":6917000000000,"state":"active","ping":69},{"user_id":369,"name":"Watt Dafuq","steam_id":76561198194402925,"connected_time":275000000000,"state":"active","ping":124},{"user_id":354,"name":"yimbecile","steam_id":76561198042515747,"connected_time":1390000000000,"state":"active","ping":99},{"user_id":371,"name":"Biznickel","steam_id":76561199422511230,"connected_time":243000000000,"state":"active","ping":62},{"user_id":372,"name":"Villenova","steam_id":76561198073606416,"connected_time":219000000000,"state":"active","ping":65},{"user_id":377,"name":"Petey","steam_id":76561198007339151,"connected_time":57000000000,"state":"active","ping":62},{"user_id":375,"name":"klaus","steam_id":76561199008634102,"connected_time":102000000000,"state":"active","ping":79},{"user_id":376,"name":"Hifumi Togo","steam_id":76561198074930636,"connected_time":91000000000,"state":"active","ping":93}]},{"server_id":19,"name":"Uncletopia | San Francisco | 3 | Stopwatch Beta","name_short":"sfo-3","host":"sfo-1.us.uncletopia.com","port":27035,"enabled":true,"region":"us-west","cc":"us","latitude":37.77397,"longitude":-122.4313,"reserved":0,"last_update":"0001-01-01T00:00:00Z","name_a2s":"Uncletopia | San Francisco | 3 | Stopwatch Beta","protocol":17,"map":"workshop/koth_clearcut_b15.ugc2107050255","folder":"tf","game":"Team Fortress","app_id":440,"player_count":0,"max_players":24,"Bots":0,"server_type":"Dedicated","server_os":"Linux","password":true,"vac":true,"version":"7757534","steam_id":85568392924742824,"keywords":["cp","nocrits","nodmgspread","uncletopia"],"game_id":440,"stv_port":27036,"stv_name":"Uncletopia | San Francisco | 3 | Stopwatch Beta | STV","players":null},{"server_id":20,"name":"Uncletopia | San Francisco | 4 | Community","name_short":"sfo-4","host":"sfo-1.us.uncletopia.com","port":27045,"enabled":true,"region":"us-west","cc":"us","latitude":37.77397,"longitude":-122.4313,"reserved":0,"last_update":"0001-01-01T00:00:00Z","name_a2s":"Uncletopia | San Francisco | 4 | Community","protocol":17,"map":"workshop/rd_asteroid_redux_b1.ugc2154902912","folder":"tf","game":"Team Fortress","app_id":440,"player_count":24,"max_players":24,"Bots":0,"server_type":"Dedicated","server_os":"Linux","password":true,"vac":true,"version":"7757534","steam_id":85568392924742826,"keywords":["beta","nocrits","nodmgspread","rd","uncletopia"],"game_id":440,"stv_port":27046,"stv_name":"Uncletopia | San Francisco | 4 | Community | STV","players":[{"user_id":641,"name":"sara, boylady","steam_id":76561198283462369,"connected_time":1093000000000,"state":"active","ping":71},{"user_id":608,"name":"JJP","steam_id":76561198032914094,"connected_time":3508000000000,"state":"active","ping":57},{"user_id":529,"name":"p9 jorts","steam_id":76561199041179985,"connected_time":8298000000000,"state":"active","ping":86},{"user_id":625,"name":"social distance warrior","steam_id":76561198128992994,"connected_time":2590000000000,"state":"active","ping":66},{"user_id":604,"name":"Arsonist Goose","steam_id":76561198147441830,"connected_time":3937000000000,"state":"active","ping":50},{"user_id":652,"name":"mandingo mascot","steam_id":76561199014452022,"connected_time":533000000000,"state":"active","ping":76},{"user_id":631,"name":"p9 delight","steam_id":76561197980280272,"connected_time":1933000000000,"state":"active","ping":69},{"user_id":623,"name":"gerg","steam_id":76561197997127387,"connected_time":2698000000000,"state":"active","ping":48},{"user_id":640,"name":"Oinker","steam_id":76561198033130631,"connected_time":1345000000000,"state":"active","ping":56},{"user_id":646,"name":"cyro","steam_id":76561198146241989,"connected_time":805000000000,"state":"active","ping":115},{"user_id":636,"name":"Oomitch","steam_id":76561198071702759,"connected_time":1602000000000,"state":"active","ping":75},{"user_id":653,"name":"alaska","steam_id":76561198017030029,"connected_time":526000000000,"state":"active","ping":55},{"user_id":596,"name":"AKKAWI","steam_id":76561198203159952,"connected_time":4725000000000,"state":"active","ping":63},{"user_id":624,"name":"Mahiru Koizumi","steam_id":76561198164782653,"connected_time":2645000000000,"state":"active","ping":124},{"user_id":654,"name":"carmillalover1334","steam_id":76561198325306660,"connected_time":56000000000,"state":"active","ping":74},{"user_id":635,"name":"Tenebane Gold","steam_id":76561198144971150,"connected_time":1671000000000,"state":"active","ping":62},{"user_id":628,"name":"shoe","steam_id":76561198451476220,"connected_time":2127000000000,"state":"active","ping":78},{"user_id":651,"name":"me","steam_id":76561199468285784,"connected_time":736000000000,"state":"active","ping":44},{"user_id":647,"name":"Brodacious","steam_id":76561198854322021,"connected_time":797000000000,"state":"active","ping":77},{"user_id":648,"name":"IllTurbollI","steam_id":76561198204238512,"connected_time":785000000000,"state":"active","ping":126},{"user_id":638,"name":"One Bar","steam_id":76561198100517050,"connected_time":1462000000000,"state":"active","ping":86},{"user_id":621,"name":"doo doo","steam_id":76561198049784197,"connected_time":2867000000000,"state":"active","ping":53},{"user_id":622,"name":"abset","steam_id":76561198093171376,"connected_time":2854000000000,"state":"active","ping":57},{"user_id":649,"name":"brk","steam_id":76561198079634017,"connected_time":776000000000,"state":"active","ping":64}]},{"server_id":141,"name":"Uncletopia | Sydney | 1 | All Maps","name_short":"syd-1","host":"syd-1.au.uncletopia.com","port":27015,"enabled":true,"region":"au","cc":"au","latitude":-33.865143,"longitude":151.2099,"reserved":0,"last_update":"0001-01-01T00:00:00Z","name_a2s":"Uncletopia | Sydney | 1 | All Maps","protocol":17,"map":"cp_snakewater_final1","folder":"tf","game":"Team Fortress","app_id":440,"player_count":24,"max_players":24,"Bots":0,"server_type":"Dedicated","server_os":"Linux","password":true,"vac":true,"version":"7757534","steam_id":85568392924470001,"keywords":["cp","nocrits","nodmgspread","uncletopia"],"game_id":440,"stv_port":27016,"stv_name":"Uncletopia | Sydney | 1 | All Maps | STV","players":[{"user_id":350,"name":"Tiger_Tan","steam_id":76561198221733844,"connected_time":1464000000000,"state":"active","ping":61},{"user_id":305,"name":"TheDoctor30","steam_id":76561198433686866,"connected_time":4358000000000,"state":"active","ping":101},{"user_id":326,"name":"Leonidas","steam_id":76561198054096076,"connected_time":2354000000000,"state":"active","ping":64},{"user_id":354,"name":"A KNIFE!","steam_id":76561198160390701,"connected_time":1253000000000,"state":"active","ping":65},{"user_id":328,"name":"Soru","steam_id":76561198010844786,"connected_time":2258000000000,"state":"active","ping":60},{"user_id":369,"name":"hadouken","steam_id":76561198019740135,"connected_time":147000000000,"state":"active","ping":59},{"user_id":356,"name":"ej bog","steam_id":76561199184547017,"connected_time":906000000000,"state":"active","ping":41},{"user_id":289,"name":"Wrainbow","steam_id":76561199039385168,"connected_time":4817000000000,"state":"active","ping":87},{"user_id":338,"name":"Monad (Trans-Girl Arc)","steam_id":76561198895999428,"connected_time":1941000000000,"state":"active","ping":51},{"user_id":347,"name":"Willy The Worm Man","steam_id":76561198306058183,"connected_time":1685000000000,"state":"active","ping":83},{"user_id":353,"name":"yumps","steam_id":76561198009311069,"connected_time":1368000000000,"state":"active","ping":72},{"user_id":362,"name":"blicky","steam_id":76561198029829077,"connected_time":378000000000,"state":"active","ping":95},{"user_id":334,"name":"N√∏rska","steam_id":76561199052150545,"connected_time":2087000000000,"state":"active","ping":100},{"user_id":361,"name":"Faston J Finch","steam_id":76561198811524641,"connected_time":557000000000,"state":"active","ping":58},{"user_id":297,"name":"Chooka","steam_id":76561197992307814,"connected_time":4649000000000,"state":"active","ping":66},{"user_id":323,"name":"in the balls","steam_id":76561199084857134,"connected_time":2524000000000,"state":"active","ping":58},{"user_id":335,"name":"SadEggMan","steam_id":76561198963928910,"connected_time":2051000000000,"state":"active","ping":58},{"user_id":367,"name":"ages","steam_id":76561198016686295,"connected_time":230000000000,"state":"active","ping":68},{"user_id":358,"name":"Reddaye","steam_id":76561198025232124,"connected_time":822000000000,"state":"active","ping":47},{"user_id":368,"name":"pigeon","steam_id":76561198135180841,"connected_time":223000000000,"state":"active","ping":47},{"user_id":359,"name":"Hugh Mungus","steam_id":76561198126605733,"connected_time":816000000000,"state":"active","ping":49},{"user_id":355,"name":"tweedie","steam_id":76561198063425523,"connected_time":1126000000000,"state":"active","ping":60},{"user_id":317,"name":"Lv 9 Reborn Nubblet","steam_id":76561198069483103,"connected_time":3045000000000,"state":"active","ping":86},{"user_id":366,"name":"Diavolo Diablo","steam_id":76561198166295333,"connected_time":235000000000,"state":"active","ping":164}]},{"server_id":123,"name":"Uncletopia | Sydney | 2 | All Maps","name_short":"syd-2","host":"syd-1.au.uncletopia.com","port":27025,"enabled":true,"region":"au","cc":"au","latitude":-33.865143,"longitude":151.2099,"reserved":0,"last_update":"0001-01-01T00:00:00Z","name_a2s":"Uncletopia | Sydney | 2 | All Maps","protocol":17,"map":"pl_snowycoast","folder":"tf","game":"Team Fortress","app_id":440,"player_count":3,"max_players":24,"Bots":0,"server_type":"Dedicated","server_os":"Linux","password":true,"vac":true,"version":"7757534","steam_id":85568392924470002,"keywords":["nocrits","nodmgspread","payload","uncletopia"],"game_id":440,"stv_port":27026,"stv_name":"Uncletopia | Sydney | 2 | All Maps | STV","players":[{"user_id":206,"name":"Phantom Postman","steam_id":76561198075252643,"connected_time":481000000000,"state":"active","ping":70},{"user_id":208,"name":"wawa car","steam_id":76561198170727659,"connected_time":108000000000,"state":"active","ping":74},{"user_id":209,"name":"The Bisoneer TF2","steam_id":76561199446773766,"connected_time":89000000000,"state":"active","ping":84}]},{"server_id":395,"name":"Uncletopia | Sydney | 3 | All Maps","name_short":"syd-3","host":"syd-1.au.uncletopia.com","port":27035,"enabled":true,"region":"au","cc":"au","latitude":-33.865143,"longitude":151.2099,"reserved":0,"last_update":"0001-01-01T00:00:00Z","name_a2s":"Uncletopia | Sydney | 3 | All Maps","protocol":17,"map":"cp_snakewater_final1","folder":"tf","game":"Team Fortress","app_id":440,"player_count":0,"max_players":24,"Bots":0,"server_type":"Dedicated","server_os":"Linux","password":true,"vac":true,"version":"7757534","steam_id":85568392925194467,"keywords":["cp","nocrits","nodmgspread","uncletopia"],"game_id":440,"stv_port":27036,"stv_name":"Uncletopia | Sydney | 3 | All Maps | STV","players":null},{"server_id":396,"name":"Uncletopia | Sydney | 4 | All Maps","name_short":"syd-4","host":"syd-1.au.uncletopia.com","port":27045,"enabled":true,"region":"au","cc":"au","latitude":-33.865143,"longitude":151.2099,"reserved":0,"last_update":"0001-01-01T00:00:00Z","name_a2s":"Uncletopia | Sydney | 4 | All Maps","protocol":17,"map":"cp_altitude","folder":"tf","game":"Team Fortress","app_id":440,"player_count":0,"max_players":24,"Bots":0,"server_type":"Dedicated","server_os":"Linux","password":true,"vac":true,"version":"7757534","steam_id":85568392925397958,"keywords":["cp","nocrits","nodmgspread","uncletopia"],"game_id":440,"stv_port":27046,"stv_name":"Uncletopia | Sydney | 4 | All Maps | STV","players":null},{"server_id":58,"name":"Uncletopia | Sydney | 5 | Stopwatch Beta","name_short":"syd-5","host":"syd-1.au.uncletopia.com","port":27055,"enabled":true,"region":"au","cc":"au","latitude":-33.865143,"longitude":151.2099,"reserved":0,"last_update":"0001-01-01T00:00:00Z","name_a2s":"Uncletopia | Sydney | 5 | Stopwatch Beta","protocol":17,"map":"pl_barnblitz","folder":"tf","game":"Team Fortress","app_id":440,"player_count":0,"max_players":24,"Bots":0,"server_type":"Dedicated","server_os":"Linux","password":true,"vac":true,"version":"7757534","steam_id":85568392925397959,"keywords":["nocrits","nodmgspread","payload","uncletopia"],"game_id":440,"stv_port":27056,"stv_name":"Uncletopia | Sydney | 5 | Stopwatch Beta | STV","players":null},{"server_id":59,"name":"Uncletopia | Sydney | 6 | Community","name_short":"syd-6","host":"syd-1.au.uncletopia.com","port":27065,"enabled":true,"region":"au","cc":"au","latitude":-33.865143,"longitude":151.2099,"reserved":0,"last_update":"0001-01-01T00:00:00Z","name_a2s":"Uncletopia | Sydney | 6 | Community","protocol":17,"map":"workshop/koth_slaughter_rc1.ugc1712845210","folder":"tf","game":"Team Fortress","app_id":440,"player_count":0,"max_players":24,"Bots":0,"server_type":"Dedicated","server_os":"Linux","password":true,"vac":true,"version":"7757534","steam_id":85568392925397960,"keywords":["cp","nocrits","nodmgspread","uncletopia"],"game_id":440,"stv_port":27066,"stv_name":"Uncletopia | Sydney | 6 | Community | STV","players":null},{"server_id":49,"name":"Uncletopia | Warsaw | 1 | All Maps","name_short":"waw-1","host":"waw-1.pl.uncletopia.com","port":27015,"enabled":true,"region":"eu","cc":"pl","latitude":52.2297,"longitude":21.017532,"reserved":0,"last_update":"0001-01-01T00:00:00Z","name_a2s":"","protocol":0,"map":"","folder":"","game":"","app_id":0,"player_count":0,"max_players":0,"Bots":0,"server_type":"","server_os":"","password":false,"vac":false,"version":"","steam_id":0,"keywords":null,"game_id":0,"stv_port":0,"stv_name":"","players":null},{"server_id":50,"name":"Uncletopia | Warsaw | 2 | All Maps","name_short":"waw-2","host":"waw-1.pl.uncletopia.com","port":27025,"enabled":true,"region":"eu","cc":"pl","latitude":52.2297,"longitude":21.017532,"reserved":0,"last_update":"0001-01-01T00:00:00Z","name_a2s":"Uncletopia | Warsaw | 2 | All Maps","protocol":17,"map":"cp_snakewater_final1","folder":"tf","game":"Team Fortress","app_id":440,"player_count":0,"max_players":24,"Bots":0,"server_type":"Dedicated","server_os":"Linux","password":true,"vac":true,"version":"7757534","steam_id":85568392925397851,"keywords":["cp","nocrits","nodmgspread","uncletopia"],"game_id":440,"stv_port":27026,"stv_name":"Uncletopia | Warsaw | 2 | All Maps | STV","players":null},{"server_id":51,"name":"Uncletopia | Warsaw | 3 | All Maps","name_short":"waw-3","host":"waw-1.pl.uncletopia.com","port":27035,"enabled":true,"region":"eu","cc":"pl","latitude":52.2297,"longitude":21.017532,"reserved":0,"last_update":"0001-01-01T00:00:00Z","name_a2s":"Uncletopia | Warsaw | 3 | All Maps","protocol":17,"map":"pl_swiftwater_final1","folder":"tf","game":"Team Fortress","app_id":440,"player_count":0,"max_players":24,"Bots":0,"server_type":"Dedicated","server_os":"Linux","password":true,"vac":true,"version":"7757534","steam_id":85568392925397852,"keywords":["nocrits","nodmgspread","payload","uncletopia"],"game_id":440,"stv_port":27036,"stv_name":"Uncletopia | Warsaw | 3 | All Maps | STV","players":null},{"server_id":52,"name":"Uncletopia | Warsaw | 4 | All Maps","name_short":"waw-4","host":"waw-1.pl.uncletopia.com","port":27045,"enabled":true,"region":"eu","cc":"pl","latitude":52.2297,"longitude":21.017532,"reserved":0,"last_update":"0001-01-01T00:00:00Z","name_a2s":"Uncletopia | Warsaw | 4 | All Maps","protocol":17,"map":"pl_borneo","folder":"tf","game":"Team Fortress","app_id":440,"player_count":0,"max_players":24,"Bots":0,"server_type":"Dedicated","server_os":"Linux","password":true,"vac":true,"version":"7757534","steam_id":85568392925397853,"keywords":["nocrits","nodmgspread","payload","uncletopia"],"game_id":440,"stv_port":27046,"stv_name":"Uncletopia | Warsaw | 4 | All Maps | STV","players":null},{"server_id":53,"name":"Uncletopia | Warsaw | 5 | Stopwatch Beta","name_short":"waw-5","host":"waw-1.pl.uncletopia.com","port":27055,"enabled":true,"region":"eu","cc":"pl","latitude":52.2297,"longitude":21.017532,"reserved":0,"last_update":"0001-01-01T00:00:00Z","name_a2s":"Uncletopia | Warsaw | 5 | Stopwatch Beta","protocol":17,"map":"pl_upward","folder":"tf","game":"Team Fortress","app_id":440,"player_count":0,"max_players":24,"Bots":0,"server_type":"Dedicated","server_os":"Linux","password":true,"vac":true,"version":"7757534","steam_id":85568392925397854,"keywords":["nocrits","nodmgspread","payload","uncletopia"],"game_id":440,"stv_port":27056,"stv_name":"Uncletopia | Warsaw | 5 | Stopwatch Beta | STV","players":null},{"server_id":54,"name":"Uncletopia | Warsaw | 6 | Community","name_short":"waw-6","host":"waw-1.pl.uncletopia.com","port":27065,"enabled":true,"region":"eu","cc":"pl","latitude":52.2297,"longitude":21.017532,"reserved":0,"last_update":"0001-01-01T00:00:00Z","name_a2s":"Uncletopia | Warsaw | 6 | Community","protocol":17,"map":"pl_barnblitz","folder":"tf","game":"Team Fortress","app_id":440,"player_count":0,"max_players":24,"Bots":0,"server_type":"Dedicated","server_os":"Linux","password":true,"vac":true,"version":"7757534","steam_id":85568392925397856,"keywords":["nocrits","nodmgspread","payload","uncletopia"],"game_id":440,"stv_port":27066,"stv_name":"Uncletopia | Warsaw | 6 | Community | STV","players":null}]}