{"status":true,"message":"","result":[{"server_id":9,"name":"Uncletopia | Atlanta | 1 | All Maps","name_short":"atl-1","host":"atl-1.us.uncletopia.com","port":27015,"enabled":true,"region":"us-east","cc":"us","latitude":33.753746,"longitude":-84.38633,"reserved":0,"last_update":"0001-01-01T00:00:00Z","name_a2s":"Uncletopia | Atlanta | 1 | All Maps","protocol":17,"map":"cp_sunshine","folder":"tf","game":"Team Fortress","app_id":440,"player_count":0,"max_players":24,"Bots":0,"server_type":"Dedicated","server_os":"Linux","password":true,"vac":true,"version":"7932396","steam_id":85568392924469982,"keywords":["cp","nocrits","nodmgspread","uncletopia"],"game_id":440,"stv_port":27016,"stv_name":"Uncletopia | Atlanta | 1 | All Maps | STV","players":null},{"server_id":104,"name":"Uncletopia | Atlanta | 2 | All Maps","name_short":"atl-2","host":"atl-1.us.uncletopia.com","port":27025,"enabled":true,"region":"us-east","cc":"us","latitude":33.753746,"longitude":-84.38633,"reserved":0,"last_update":"0001-01-01T00:00:00Z","name_a2s":"Uncletopia | Atlanta | 2 | All Maps","protocol":17,"map":"cp_sunshine","folder":"tf","game":"Team Fortress","app_id":440,"player_count":0,"max_players":24,"Bots":0,"server_type":"Dedicated","server_os":"Linux","password":true,"vac":true,"version":"7932396","steam_id":85568392924469983,"keywords":["cp","nocrits","nodmgspread","uncletopia"],"game_id":440,"stv_port":27026,"stv_name":"Uncletopia | Atlanta | 2 | All Maps | STV","players":null},{"server_id":400,"name":"Uncletopia | Atlanta | 3 | Community","name_short":"atl-3","host":"atl-1.us.uncletopia.com","port":27035,"enabled":true,"region":"us-east","cc":"us","latitude":33.753746,"longitude":-84.38633,"reserved":0,"last_update":"0001-01-01T00:00:00Z","name_a2s":"Uncletopia | Atlanta | 3 | Community","protocol":17,"map":"workshop/koth_kemptown_rc1.ugc767410655","folder":"tf","game":"Team Fortress","app_id":440,"player_count":0,"max_players":24,"Bots":0,"server_type":"Dedicated","server_os":"Linux","password":true,"vac":true,"version":"7932396","steam_id":85568392924515187,"keywords":["cp","nocrits","nodmgspread","uncletopia"],"game_id":440,"stv_port":27036,"stv_name":"Uncletopia | Atlanta | 3 | Community | STV","players":null},{"server_id":401,"name":"Uncletopia | Atlanta | 4 | No Payload","name_short":"atl-4","host":"atl-1.us.uncletopia.com","port":27045,"enabled":true,"region":"us-east","cc":"us","latitude":33.753746,"longitude":-84.38633,"reserved":0,"last_update":"0001-01-01T00:00:00Z","name_a2s":"","protocol":0,"map":"","folder":"","game":"","app_id":0,"player_count":0,"max_players":0,"Bots":0,"server_type":"","server_os":"","password":false,"vac":false,"version":"","steam_id":0,"keywords":null,"game_id":0,"stv_port":0,"stv_name":"","players":null},{"server_id":2,"name":"Uncletopia | Chicago | 1 | All Maps","name_short":"chi-1","host":"chi-1.us.uncletopia.com","port":27015,"enabled":true,"region":"us-central","cc":"us","latitude":41.881832,"longitude":-87.62318,"reserved":0,"last_update":"0001-01-01T00:00:00Z","name_a2s":"Uncletopia | Chicago | 1 | All Maps","protocol":17,"map":"pl_barnblitz","folder":"tf","game":"Team Fortress","app_id":440,"player_count":24,"max_players":24,"Bots":0,"server_type":"Dedicated","server_os":"Linux","password":true,"vac":true,"version":"7932396","steam_id":85568392924469984,"keywords":["nocrits","nodmgspread","payload","uncletopia"],"game_id":440,"stv_port":27016,"stv_name":"Uncletopia | Chicago | 1 | All Maps | STV","players":[{"user_id":623,"name":"femmefatale","steam_id":76561198083749380,"connected_time":2278000000000,"state":"active","ping":100},{"user_id":635,"name":"bhocolate bhip bookies","steam_id":76561198309823950,"connected_time":450000000000,"state":"active","ping":86},{"user_id":436,"name":"Moonkey","steam_id":76561199013741389,"connected_time":17826000000000,"state":"active","ping":53},{"user_id":595,"name":"Ojen","steam_id":76561197998414482,"connected_time":5568000000000,"state":"active","ping":72},{"user_id":613,"name":"Epifiny","steam_id":76561198027958086,"connected_time":3266000000000,"state":"active","ping":66},{"user_id":632,"name":"exile","steam_id":76561198047813960,"connected_time":1053000000000,"state":"active","ping":90},{"user_id":630,"name":"God","steam_id":76561198131089513,"connected_time":1437000000000,"state":"active","ping":53},{"user_id":574,"name":"OddSlaush","steam_id":76561198043898488,"connected_time":7487000000000,"state":"active","ping":102},{"user_id":636,"name":"UR TEAM PRO= MY TEAM=SHIT","steam_id":76561198238664158,"connected_time":124000000000,"state":"active","ping":73},{"user_id":621,"name":"Calc","steam_id":76561198009590555,"connected_time":2861000000000,"state":"active","ping":74},{"user_id":568,"name":"BrainlezBrainiac","steam_id":76561199193942805,"connected_time":8615000000000,"state":"active","ping":84},{"user_id":622,"name":"lazyhead","steam_id":76561198044358804,"connected_time":2521000000000,"state":"active","ping":51},{"user_id":502,"name":"Mank","steam_id":76561198189421005,"connected_time":13779000000000,"state":"active","ping":46},{"user_id":603,"name":"Ludcmorais","steam_id":76561198359217809,"connected_time":5065000000000,"state":"active","ping":189},{"user_id":572,"name":"qt pa 2t","steam_id":76561198066867150,"connected_time":7729000000000,"state":"active","ping":75},{"user_id":588,"name":"Nessie is my Waifu","steam_id":76561198076021620,"connected_time":6564000000000,"state":"active","ping":69},{"user_id":626,"name":"Redesign Your Logo","steam_id":76561198090289497,"connected_time":2251000000000,"state":"active","ping":78},{"user_id":610,"name":"Vengeful_Unlawful_Spoon","steam_id":76561197971810183,"connected_time":4023000000000,"state":"active","ping":172},{"user_id":631,"name":"Eins","steam_id":76561199030343810,"connected_time":1198000000000,"state":"active","ping":53},{"user_id":611,"name":"Furfur","steam_id":76561198025179322,"connected_time":3913000000000,"state":"active","ping":59},{"user_id":628,"name":"Nobody","steam_id":76561198085808754,"connected_time":1462000000000,"state":"active","ping":89},{"user_id":519,"name":"Dr. Blair Chao","steam_id":76561198146027518,"connected_time":11618000000000,"state":"active","ping":60},{"user_id":620,"name":"177013","steam_id":76561198072303290,"connected_time":2958000000000,"state":"active","ping":61},{"user_id":634,"name":"Drapph","steam_id":76561199384213314,"connected_time":811000000000,"state":"active","ping":63}]},{"server_id":106,"name":"Uncletopia | Chicago | 2 | All Maps","name_short":"chi-2","host":"chi-1.us.uncletopia.com","port":27025,"enabled":true,"region":"us-central","cc":"us","latitude":41.881832,"longitude":-87.62318,"reserved":0,"last_update":"0001-01-01T00:00:00Z","name_a2s":"Uncletopia | Chicago | 2 | All Maps","protocol":17,"map":"cp_snakewater_final1","folder":"tf","game":"Team Fortress","app_id":440,"player_count":0,"max_players":24,"Bots":0,"server_type":"Dedicated","server_os":"Linux","password":true,"vac":true,"version":"7932396","steam_id":85568392924469985,"keywords":["cp","nocrits","nodmgspread","uncletopia"],"game_id":440,"stv_port":27026,"stv_name":"Uncletopia | Chicago | 2 | All Maps | STV","players":null},{"server_id":402,"name":"Uncletopia | Chicago | 3 | All Maps","name_short":"chi-3","host":"chi-1.us.uncletopia.com","port":27035,"enabled":true,"region":"us-central","cc":"us","latitude":41.881832,"longitude":-87.62318,"reserved":0,"last_update":"0001-01-01T00:00:00Z","name_a2s":"Uncletopia | Chicago | 3 | All Maps","protocol":17,"map":"cp_snakewater_final1","folder":"tf","game":"Team Fortress","app_id":440,"player_count":0,"max_players":24,"Bots":0,"server_type":"Dedicated","server_os":"Linux","password":true,"vac":true,"version":"7932396","steam_id":85568392924515191,"keywords":["cp","nocrits","nodmgspread","uncletopia"],"game_id":440,"stv_port":27036,"stv_name":"Uncletopia | Chicago | 3 | All Maps | STV","players":null},{"server_id":403,"name":"Uncletopia | Chicago | 4 | All Maps","name_short":"chi-4","host":"chi-1.us.uncletopia.com","port":27045,"enabled":true,"region":"us-central","cc":"us","latitude":41.881832,"longitude":-87.62318,"reserved":0,"last_update":"0001-01-01T00:00:00Z","name_a2s":"Uncletopia | Chicago | 4 | All Maps","protocol":17,"map":"koth_lakeside_final","folder":"tf","game":"Team Fortress","app_id":440,"player_count":0,"max_players":24,"Bots":0,"server_type":"Dedicated","server_os":"Linux","password":true,"vac":true,"version":"7932396","steam_id":85568392924515193,"keywords":["cp","nocrits","nodmgspread","uncletopia"],"game_id":440,"stv_port":27046,"stv_name":"Uncletopia | Chicago | 4 | All Maps | STV","players":null},{"server_id":36,"name":"Uncletopia | Chicago | 5 | All Maps","name_short":"chi-5","host":"chi-2.us.uncletopia.com","port":27015,"enabled":true,"region":"us-central","cc":"us","latitude":41.881832,"longitude":-87.62318,"reserved":0,"last_update":"0001-01-01T00:00:00Z","name_a2s":"Uncletopia | Chicago | 5 | All Maps","protocol":17,"map":"cp_process_final","folder":"tf","game":"Team Fortress","app_id":440,"player_count":0,"max_players":24,"Bots":0,"server_type":"Dedicated","server_os":"Linux","password":true,"vac":true,"version":"7932396","steam_id":85568392924866362,"keywords":["cp","nocrits","nodmgspread","uncletopia"],"game_id":440,"stv_port":27016,"stv_name":"Uncletopia | Chicago | 5 | All Maps | STV","players":null},{"server_id":37,"name":"Uncletopia | Chicago | 6 | All Maps","name_short":"chi-6","host":"chi-2.us.uncletopia.com","port":27025,"enabled":true,"region":"us-central","cc":"us","latitude":41.881832,"longitude":-87.62318,"reserved":0,"last_update":"0001-01-01T00:00:00Z","name_a2s":"Uncletopia | Chicago | 6 | All Maps","protocol":17,"map":"koth_lakeside_final","folder":"tf","game":"Team Fortress","app_id":440,"player_count":3,"max_players":24,"Bots":0,"server_type":"Dedicated","server_os":"Linux","password":true,"vac":true,"version":"7932396","steam_id":85568392924866363,"keywords":["cp","nocrits","nodmgspread","uncletopia"],"game_id":440,"stv_port":27026,"stv_name":"Uncletopia | Chicago | 6 | All Maps | STV","players":[{"user_id":385,"name":"rhean","steam_id":76561199480688132,"connected_time":20000000000,"state":"spawning","ping":242},{"user_id":377,"name":"DarkHero","steam_id":76561198197125710,"connected_time":8535000000000,"state":"active","ping":60},{"user_id":268,"name":"AnonymousCritter","steam_id":76561198864475187,"connected_time":17184000000000,"state":"active","ping":46}]},{"server_id":38,"name":"Uncletopia | Chicago | 7 | Stopwatch Beta","name_short":"chi-7","host":"chi-2.us.uncletopia.com","port":27035,"enabled":true,"region":"us-central","cc":"us","latitude":41.881832,"longitude":-87.62318,"reserved":0,"last_update":"0001-01-01T00:00:00Z","name_a2s":"Uncletopia | Chicago | 7 | Stopwatch Beta","protocol":17,"map":"workshop/pl_badwater_pro_v12.ugc2142942074","folder":"tf","game":"Team Fortress","app_id":440,"player_count":0,"max_players":24,"Bots":0,"server_type":"Dedicated","server_os":"Linux","password":true,"vac":true,"version":"7932396","steam_id":85568392924866364,"keywords":["nocrits","nodmgspread","payload","uncletopia"],"game_id":440,"stv_port":27036,"stv_name":"Uncletopia | Chicago | 7 | Stopwatch Beta | STV","players":null},{"server_id":39,"name":"Uncletopia | Chicago | 8 | Community","name_short":"chi-8","host":"chi-2.us.uncletopia.com","port":27045,"enabled":true,"region":"us-central","cc":"us","latitude":41.881832,"longitude":-87.62318,"reserved":0,"last_update":"0001-01-01T00:00:00Z","name_a2s":"Uncletopia | Chicago | 8 | Community","protocol":17,"map":"workshop/koth_trenchfoot_b1a.ugc731436616","folder":"tf","game":"Team Fortress","app_id":440,"player_count":0,"max_players":24,"Bots":0,"server_type":"Dedicated","server_os":"Linux","password":true,"vac":true,"version":"7932396","steam_id":85568392924866365,"keywords":["cp","nocrits","nodmgspread","uncletopia"],"game_id":440,"stv_port":27046,"stv_name":"Uncletopia | Chicago | 8 | Community | STV","players":null},{"server_id":8,"name":"Uncletopia | Dallas | 1 | All Maps","name_short":"dal-1","host":"dal-1.us.uncletopia.com","port":27015,"enabled":true,"region":"us-central","cc":"us","latitude":32.779167,"longitude":-96.80889,"reserved":0,"last_update":"0001-01-01T00:00:00Z","name_a2s":"Uncletopia | Dallas | 1 | All Maps","protocol":17,"map":"pl_badwater","folder":"tf","game":"Team Fortress","app_id":440,"player_count":24,"max_players":24,"Bots":0,"server_type":"Dedicated","server_os":"Linux","password":true,"vac":true,"version":"7932396","steam_id":85568392924469986,"keywords":["nocrits","nodmgspread","payload","uncletopia"],"game_id":440,"stv_port":27016,"stv_name":"Uncletopia | Dallas | 1 | All Maps | STV","players":[{"user_id":1032,"name":"uhfref","steam_id":76561198271369866,"connected_time":2035000000000,"state":"active","ping":94},{"user_id":990,"name":"cypherzero","steam_id":76561199182960322,"connected_time":4954000000000,"state":"active","ping":47},{"user_id":1041,"name":"Sartupial","steam_id":76561198443169940,"connected_time":1154000000000,"state":"active","ping":54},{"user_id":1035,"name":"Saltycheesecak0","steam_id":76561199044288353,"connected_time":1667000000000,"state":"active","ping":67},{"user_id":1033,"name":"MayaBon","steam_id":76561198797968261,"connected_time":2013000000000,"state":"active","ping":105},{"user_id":1026,"name":"JamesBlakeFan11","steam_id":76561198440539769,"connected_time":2846000000000,"state":"active","ping":94},{"user_id":1027,"name":"MyTeamIsAzz","steam_id":76561198241921220,"connected_time":2819000000000,"state":"active","ping":89},{"user_id":1050,"name":"Pho","steam_id":76561198306515742,"connected_time":1030000000000,"state":"active","ping":90},{"user_id":1038,"name":"Wendigo","steam_id":76561198045937454,"connected_time":1438000000000,"state":"active","ping":107},{"user_id":1054,"name":"ZoranTheBear","steam_id":76561198026500247,"connected_time":15000000000,"state":"active","ping":53},{"user_id":1053,"name":"porksoda","steam_id":76561198021451377,"connected_time":127000000000,"state":"active","ping":100},{"user_id":1049,"name":"Mr. Bojanglesworth","steam_id":76561197980793051,"connected_time":1117000000000,"state":"active","ping":91},{"user_id":1052,"name":"..flop","steam_id":76561197989058876,"connected_time":779000000000,"state":"active","ping":98},{"user_id":1001,"name":"Bosser","steam_id":76561198112818156,"connected_time":4050000000000,"state":"active","ping":94},{"user_id":1034,"name":"Rebel","steam_id":76561198015124382,"connected_time":1878000000000,"state":"active","ping":49},{"user_id":1042,"name":"GhettoSmash@freenudecelebs.com","steam_id":76561198168864083,"connected_time":1147000000000,"state":"active","ping":113},{"user_id":1015,"name":"St4r_Str1ker","steam_id":76561198168463508,"connected_time":3539000000000,"state":"active","ping":89},{"user_id":1047,"name":"ningen","steam_id":76561198082898559,"connected_time":1135000000000,"state":"active","ping":89},{"user_id":1031,"name":"Amaster","steam_id":76561198031519938,"connected_time":2651000000000,"state":"active","ping":80},{"user_id":1006,"name":"WHITEDAWN","steam_id":76561199210002358,"connected_time":3995000000000,"state":"active","ping":80},{"user_id":930,"name":"Khaiden","steam_id":76561198104454754,"connected_time":9939000000000,"state":"active","ping":176},{"user_id":959,"name":"Terminal Brain Rot","steam_id":76561198112594672,"connected_time":7170000000000,"state":"active","ping":69},{"user_id":886,"name":"Mr. DeLarge","steam_id":76561198336820066,"connected_time":12584000000000,"state":"active","ping":108},{"user_id":1045,"name":"jim awesome","steam_id":76561198337486020,"connected_time":1143000000000,"state":"active","ping":92}]},{"server_id":108,"name":"Uncletopia | Dallas | 2 | All Maps","name_short":"dal-2","host":"dal-1.us.uncletopia.com","port":27025,"enabled":true,"region":"us-central","cc":"us","latitude":32.779167,"longitude":-96.80889,"reserved":0,"last_update":"0001-01-01T00:00:00Z","name_a2s":"Uncletopia | Dallas | 2 | All Maps","protocol":17,"map":"koth_viaduct","folder":"tf","game":"Team Fortress","app_id":440,"player_count":0,"max_players":24,"Bots":0,"server_type":"Dedicated","server_os":"Linux","password":true,"vac":true,"version":"7932396","steam_id":85568392924469988,"keywords":["cp","nocrits","nodmgspread","uncletopia"],"game_id":440,"stv_port":27026,"stv_name":"Uncletopia | Dallas | 2 | All Maps | STV","players":null},{"server_id":5,"name":"Uncletopia | Frankfurt | 1 | All Maps","name_short":"frk-1","host":"frk-1.de.uncletopia.com","port":27015,"enabled":true,"region":"eu","cc":"de","latitude":50.110924,"longitude":8.682127,"reserved":0,"last_update":"0001-01-01T00:00:00Z","name_a2s":"Uncletopia | Frankfurt | 1 | All Maps","protocol":17,"map":"pl_frontier_final","folder":"tf","game":"Team Fortress","app_id":440,"player_count":15,"max_players":24,"Bots":0,"server_type":"Dedicated","server_os":"Linux","password":true,"vac":true,"version":"7932396","steam_id":85568392924469989,"keywords":["nocrits","nodmgspread","payload","uncletopia"],"game_id":440,"stv_port":27016,"stv_name":"Uncletopia | Frankfurt | 1 | All Maps | STV","players":[{"user_id":21,"name":"benifis163","steam_id":76561198420973492,"connected_time":304000000000,"state":"active","ping":101},{"user_id":15,"name":"Pissyphus","steam_id":76561198439543536,"connected_time":552000000000,"state":"active","ping":164},{"user_id":14,"name":"YeetusFeetus","steam_id":76561199043598948,"connected_time":592000000000,"state":"active","ping":79},{"user_id":16,"name":"Artificial.Ignorance","steam_id":76561198453090180,"connected_time":535000000000,"state":"active","ping":149},{"user_id":12,"name":"PsycLess","steam_id":76561198429499007,"connected_time":1143000000000,"state":"active","ping":92},{"user_id":17,"name":"ScarredPixel123","steam_id":76561199165112703,"connected_time":531000000000,"state":"active","ping":79},{"user_id":18,"name":"kornetov.vitalya","steam_id":76561199286034833,"connected_time":477000000000,"state":"active","ping":112},{"user_id":19,"name":"RiX","steam_id":76561197969053733,"connected_time":470000000000,"state":"active","ping":56},{"user_id":20,"name":"Yelowchy","steam_id":76561198199416121,"connected_time":464000000000,"state":"active","ping":60},{"user_id":22,"name":"mark of the outsider","steam_id":76561198309246388,"connected_time":215000000000,"state":"active","ping":45},{"user_id":23,"name":"Gimmick","steam_id":76561197979603871,"connected_time":177000000000,"state":"active","ping":59},{"user_id":24,"name":"hekemi","steam_id":76561198808348785,"connected_time":156000000000,"state":"active","ping":85},{"user_id":25,"name":"lemon pene","steam_id":76561198206954985,"connected_time":148000000000,"state":"active","ping":125},{"user_id":26,"name":"hÖh","steam_id":76561198418503654,"connected_time":127000000000,"state":"active","ping":92},{"user_id":27,"name":"Leibeigener","steam_id":76561199275478305,"connected_time":87000000000,"state":"active","ping":37}]},{"server_id":110,"name":"Uncletopia | Frankfurt | 2 | All Maps","name_short":"frk-2","host":"frk-1.de.uncletopia.com","port":27025,"enabled":true,"region":"eu","cc":"de","latitude":50.110924,"longitude":8.682127,"reserved":0,"last_update":"0001-01-01T00:00:00Z","name_a2s":"Uncletopia | Frankfurt | 2 | All Maps","protocol":17,"map":"pl_barnblitz","folder":"tf","game":"Team Fortress","app_id":440,"player_count":0,"max_players":24,"Bots":0,"server_type":"Dedicated","server_os":"Linux","password":true,"vac":true,"version":"7932396","steam_id":85568392924469990,"keywords":["nocrits","nodmgspread","payload","uncletopia"],"game_id":440,"stv_port":27026,"stv_name":"Uncletopia | Frankfurt | 2 | All Maps | STV","players":null},{"server_id":308,"name":"Uncletopia | Frankfurt | 3 | All Maps","name_short":"frk-3","host":"frk-1.de.uncletopia.com","port":27035,"enabled":true,"region":"eu","cc":"de","latitude":50.110924,"longitude":8.682127,"reserved":0,"last_update":"0001-01-01T00:00:00Z","name_a2s":"Uncletopia | Frankfurt | 3 | All Maps","protocol":17,"map":"pl_badwater","folder":"tf","game":"Team Fortress","app_id":440,"player_count":0,"max_players":24,"Bots":0,"server_type":"Dedicated","server_os":"Linux","password":true,"vac":true,"version":"7932396","steam_id":85568392924504274,"keywords":["nocrits","nodmgspread","payload","uncletopia"],"game_id":440,"stv_port":27036,"stv_name":"Uncletopia | Frankfurt | 3 | All Maps | STV","players":null},{"server_id":309,"name":"Uncletopia | Frankfurt | 4 | All Maps","name_short":"frk-4","host":"frk-1.de.uncletopia.com","port":27045,"enabled":true,"region":"eu","cc":"de","latitude":50.110924,"longitude":8.682127,"reserved":0,"last_update":"0001-01-01T00:00:00Z","name_a2s":"Uncletopia | Frankfurt | 4 | All Maps","protocol":17,"map":"koth_cascade","folder":"tf","game":"Team Fortress","app_id":440,"player_count":0,"max_players":24,"Bots":0,"server_type":"Dedicated","server_os":"Linux","password":true,"vac":true,"version":"7932396","steam_id":85568392924504275,"keywords":["cp","nocrits","nodmgspread","uncletopia"],"game_id":440,"stv_port":27046,"stv_name":"Uncletopia | Frankfurt | 4 | All Maps | STV","players":null},{"server_id":310,"name":"Uncletopia | Frankfurt | 5 | All Maps","name_short":"frk-5","host":"frk-1.de.uncletopia.com","port":27055,"enabled":true,"region":"eu","cc":"de","latitude":50.110924,"longitude":8.682127,"reserved":0,"last_update":"0001-01-01T00:00:00Z","name_a2s":"Uncletopia | Frankfurt | 5 | All Maps","protocol":17,"map":"pl_borneo","folder":"tf","game":"Team Fortress","app_id":440,"player_count":20,"max_players":24,"Bots":0,"server_type":"Dedicated","server_os":"Linux","password":true,"vac":true,"version":"7932396","steam_id":85568392924504277,"keywords":["nocrits","nodmgspread","payload","uncletopia"],"game_id":440,"stv_port":27056,"stv_name":"Uncletopia | Frankfurt | 5 | All Maps | STV","players":[{"user_id":144,"name":"THIS IS SUICIDE SEASON","steam_id":76561198368067660,"connected_time":494000000000,"state":"active","ping":160},{"user_id":133,"name":"Dan86130","steam_id":76561199187190436,"connected_time":1296000000000,"state":"active","ping":58},{"user_id":141,"name":"Helon","steam_id":76561198050761682,"connected_time":813000000000,"state":"active","ping":42},{"user_id":143,"name":"disposablesuperbread","steam_id":76561199074703607,"connected_time":692000000000,"state":"active","ping":60},{"user_id":70,"name":"игла","steam_id":76561198120760515,"connected_time":4940000000000,"state":"active","ping":90},{"user_id":86,"name":"Kahvi","steam_id":76561198723244199,"connected_time":3970000000000,"state":"active","ping":82},{"user_id":79,"name":"KiT","steam_id":76561198043770371,"connected_time":4663000000000,"state":"active","ping":66},{"user_id":136,"name":"Mébh Óg MacTíre","steam_id":76561198346399624,"connected_time":1235000000000,"state":"active","ping":74},{"user_id":127,"name":"Russenluster","steam_id":76561198118016220,"connected_time":1889000000000,"state":"active","ping":52},{"user_id":146,"name":"A Red Brick","steam_id":76561198317522580,"connected_time":73000000000,"state":"active","ping":99},{"user_id":140,"name":"Zylon","steam_id":76561198073269221,"connected_time":940000000000,"state":"active","ping":56},{"user_id":119,"name":"self doubt | god complex","steam_id":76561198197807767,"connected_time":2120000000000,"state":"active","ping":75},{"user_id":142,"name":"medicinal man","steam_id":76561198202668788,"connected_time":712000000000,"state":"active","ping":63},{"user_id":97,"name":"DooWooD","steam_id":76561198335810106,"connected_time":3503000000000,"state":"active","ping":81},{"user_id":124,"name":"Acbh","steam_id":76561198158271672,"connected_time":2023000000000,"state":"active","ping":64},{"user_id":118,"name":"f.fred04 #save_tf2","steam_id":76561198311701465,"connected_time":2183000000000,"state":"active","ping":105},{"user_id":120,"name":"John0309","steam_id":76561198447428162,"connected_time":2093000000000,"state":"active","ping":63},{"user_id":83,"name":"kontad","steam_id":76561198044538694,"connected_time":4146000000000,"state":"active","ping":139},{"user_id":125,"name":"Check Your Posture!","steam_id":76561198097466136,"connected_time":2004000000000,"state":"active","ping":60},{"user_id":145,"name":"Dolcelatte","steam_id":76561198038501770,"connected_time":439000000000,"state":"active","ping":60}]},{"server_id":311,"name":"Uncletopia | Frankfurt | 6 | All Maps","name_short":"frk-6","host":"frk-1.de.uncletopia.com","port":27065,"enabled":true,"region":"eu","cc":"de","latitude":50.110924,"longitude":8.682127,"reserved":0,"last_update":"0001-01-01T00:00:00Z","name_a2s":"Uncletopia | Frankfurt | 6 | All Maps","protocol":17,"map":"koth_viaduct","folder":"tf","game":"Team Fortress","app_id":440,"player_count":0,"max_players":24,"Bots":0,"server_type":"Dedicated","server_os":"Linux","password":true,"vac":true,"version":"7932396","steam_id":85568392924504278,"keywords":["cp","nocrits","nodmgspread","uncletopia"],"game_id":440,"stv_port":27066,"stv_name":"Uncletopia | Frankfurt | 6 | All Maps | STV","players":null},{"server_id":23,"name":"Uncletopia | Frankfurt | 7 | Stopwatch Beta","name_short":"frk-7","host":"frk-1.de.uncletopia.com","port":27075,"enabled":true,"region":"eu","cc":"de","latitude":50.110924,"longitude":8.682127,"reserved":0,"last_update":"0001-01-01T00:00:00Z","name_a2s":"Uncletopia | Frankfurt | 7 | Stopwatch Beta","protocol":17,"map":"pl_snowycoast","folder":"tf","game":"Team Fortress","app_id":440,"player_count":0,"max_players":24,"Bots":0,"server_type":"Dedicated","server_os":"Linux","password":true,"vac":true,"version":"7932396","steam_id":85568392924742827,"keywords":["nocrits","nodmgspread","payload","uncletopia"],"game_id":440,"stv_port":27076,"stv_name":"Uncletopia | Frankfurt | 7 | Stopwatch Beta | STV","players":null},{"server_id":24,"name":"Uncletopia | Frankfurt | 8 | Community","name_short":"frk-8","host":"frk-1.de.uncletopia.com","port":27085,"enabled":true,"region":"eu","cc":"de","latitude":50.110924,"longitude":8.682127,"reserved":0,"last_update":"0001-01-01T00:00:00Z","name_a2s":"Uncletopia | Frankfurt | 8 | Community","protocol":17,"map":"workshop/cp_logjam_rc12.ugc454812035","folder":"tf","game":"Team Fortress","app_id":440,"player_count":0,"max_players":24,"Bots":0,"server_type":"Dedicated","server_os":"Linux","password":true,"vac":true,"version":"7932396","steam_id":85568392924742828,"keywords":["cp","nocrits","nodmgspread","uncletopia"],"game_id":440,"stv_port":27086,"stv_name":"Uncletopia | Frankfurt | 8 | Community | STV","players":null},{"server_id":202,"name":"Uncletopia | Hong Kong | 1 | All Maps","name_short":"hgk-1","host":"hgk-1.hk.uncletopia.com","port":27015,"enabled":true,"region":"asia","cc":"hk","latitude":22.302711,"longitude":114.177216,"reserved":0,"last_update":"0001-01-01T00:00:00Z","name_a2s":"Uncletopia | Hong Kong | 1 | All Maps","protocol":17,"map":"pl_snowycoast","folder":"tf","game":"Team Fortress","app_id":440,"player_count":24,"max_players":24,"Bots":0,"server_type":"Dedicated","server_os":"Linux","password":true,"vac":true,"version":"7932396","steam_id":85568392924494504,"keywords":["nocrits","nodmgspread","payload","uncletopia"],"game_id":440,"stv_port":27016,"stv_name":"Uncletopia | Hong Kong | 1 | All Maps | STV","players":[{"user_id":60,"name":"hotgamerth","steam_id":76561199026418153,"connected_time":3483000000000,"state":"active","ping":91},{"user_id":75,"name":"Shotty 2 Hotty","steam_id":76561199174449723,"connected_time":2015000000000,"state":"active","ping":114},{"user_id":99,"name":"The Stock Shovel Soldier","steam_id":76561199042244775,"connected_time":822000000000,"state":"active","ping":119},{"user_id":65,"name":"善良の墨","steam_id":76561199102754539,"connected_time":2649000000000,"state":"active","ping":74},{"user_id":86,"name":"palerider","steam_id":76561198083234925,"connected_time":1547000000000,"state":"active","ping":87},{"user_id":69,"name":"\"SKS\"","steam_id":76561198187995386,"connected_time":2533000000000,"state":"active","ping":87},{"user_id":68,"name":"Chomer","steam_id":76561199034546642,"connected_time":2540000000000,"state":"active","ping":100},{"user_id":70,"name":"Green","steam_id":76561198391718463,"connected_time":2355000000000,"state":"active","ping":59},{"user_id":71,"name":"water tastes good","steam_id":76561199375947670,"connected_time":2344000000000,"state":"active","ping":237},{"user_id":90,"name":"Darknight","steam_id":76561199090139287,"connected_time":1312000000000,"state":"active","ping":80},{"user_id":73,"name":"Crystèle","steam_id":76561198026030175,"connected_time":2196000000000,"state":"active","ping":81},{"user_id":91,"name":"NotKomori","steam_id":76561198845165975,"connected_time":1257000000000,"state":"active","ping":140},{"user_id":78,"name":"Aerotronics","steam_id":76561198821190704,"connected_time":1844000000000,"state":"active","ping":163},{"user_id":79,"name":"LAZ","steam_id":76561198401637036,"connected_time":1838000000000,"state":"active","ping":136},{"user_id":82,"name":"huh :-)","steam_id":76561198293775978,"connected_time":1660000000000,"state":"active","ping":102},{"user_id":92,"name":"KUZCO","steam_id":76561198115298835,"connected_time":1225000000000,"state":"active","ping":77},{"user_id":87,"name":"no vc no c","steam_id":76561197989503095,"connected_time":1543000000000,"state":"active","ping":86},{"user_id":101,"name":"xd45_","steam_id":76561198410772507,"connected_time":658000000000,"state":"active","ping":98},{"user_id":102,"name":"Streety","steam_id":76561199098969003,"connected_time":412000000000,"state":"active","ping":106},{"user_id":103,"name":"Hehehehe","steam_id":76561198260540008,"connected_time":297000000000,"state":"active","ping":123},{"user_id":96,"name":"yuyu26071","steam_id":76561199363142727,"connected_time":1062000000000,"state":"active","ping":110},{"user_id":104,"name":"p1st0n","steam_id":76561198992723983,"connected_time":275000000000,"state":"active","ping":103},{"user_id":105,"name":"Milk❤","steam_id":76561198163911560,"connected_time":249000000000,"state":"active","ping":118},{"user_id":106,"name":"炎技(a Friendly Chinese Furry","steam_id":76561198322497572,"connected_time":239000000000,"state":"active","ping":73}]},{"server_id":1,"name":"Uncletopia | Los Angeles | 1 | All Maps","name_short":"lax-1","host":"lax-1.us.uncletopia.com","port":27015,"enabled":true,"region":"us-west","cc":"us","latitude":33.94279,"longitude":-118.41004,"reserved":0,"last_update":"0001-01-01T00:00:00Z","name_a2s":"Uncletopia | Los Angeles | 1 | All Maps","protocol":17,"map":"pl_swiftwater_final1","folder":"tf","game":"Team Fortress","app_id":440,"player_count":0,"max_players":24,"Bots":0,"server_type":"Dedicated","server_os":"Linux","password":true,"vac":true,"version":"7932396","steam_id":85568392924469991,"keywords":["nocrits","nodmgspread","payload","uncletopia"],"game_id":440,"stv_port":27016,"stv_name":"Uncletopia | Los Angeles | 1 | All Maps | STV","players":null},{"server_id":112,"name":"Uncletopia | Los Angeles | 2 | All Maps","name_short":"lax-2","host":"lax-1.us.uncletopia.com","port":27025,"enabled":true,"region":"us-west","cc":"us","latitude":33.94279,"longitude":-118.41004,"reserved":0,"last_update":"0001-01-01T00:00:00Z","name_a2s":"Uncletopia | Los Angeles | 2 | All Maps","protocol":17,"map":"cp_egypt_final","folder":"tf","game":"Team Fortress","app_id":440,"player_count":0,"max_players":24,"Bots":0,"server_type":"Dedicated","server_os":"Linux","password":true,"vac":true,"version":"7932396","steam_id":85568392924469992,"keywords":["cp","nocrits","nodmgspread","uncletopia"],"game_id":440,"stv_port":27026,"stv_name":"Uncletopia | Los Angeles | 2 | All Maps | STV","players":null},{"server_id":324,"name":"Uncletopia | Los Angeles | 3 | All Maps","name_short":"lax-3","host":"lax-1.us.uncletopia.com","port":27035,"enabled":true,"region":"us-west","cc":"us","latitude":33.94279,"longitude":-118.41004,"reserved":0,"last_update":"0001-01-01T00:00:00Z","name_a2s":"Uncletopia | Los Angeles | 3 | All Maps","protocol":17,"map":"koth_lakeside_final","folder":"tf","game":"Team Fortress","app_id":440,"player_count":0,"max_players":24,"Bots":0,"server_type":"Dedicated","server_os":"Linux","password":true,"vac":true,"version":"7932396","steam_id":85568392924510198,"keywords":["cp","nocrits","nodmgspread","uncletopia"],"game_id":440,"stv_port":27036,"stv_name":"Uncletopia | Los Angeles | 3 | All Maps | STV","players":null},{"server_id":25,"name":"Uncletopia | Los Angeles | 4 | Stopwatch Beta","name_short":"lax-4","host":"lax-1.us.uncletopia.com","port":27045,"enabled":true,"region":"us-west","cc":"us","latitude":33.94279,"longitude":-118.41004,"reserved":0,"last_update":"0001-01-01T00:00:00Z","name_a2s":"Uncletopia | Los Angeles | 4 | Stopwatch Beta","protocol":17,"map":"workshop/koth_ashville_final.ugc2130459942","folder":"tf","game":"Team Fortress","app_id":440,"player_count":0,"max_players":24,"Bots":0,"server_type":"Dedicated","server_os":"Linux","password":true,"vac":true,"version":"7932396","steam_id":85568392924510199,"keywords":["cp","nocrits","nodmgspread","uncletopia"],"game_id":440,"stv_port":27046,"stv_name":"Uncletopia | Los Angeles | 4 | Stopwatch Beta | STV","players":null},{"server_id":11,"name":"Uncletopia | London | 1 | All Maps","name_short":"lon-1","host":"lon-1.uk.uncletopia.com","port":27015,"enabled":true,"region":"eu","cc":"gb","latitude":51.509865,"longitude":-0.118092,"reserved":0,"last_update":"0001-01-01T00:00:00Z","name_a2s":"Uncletopia | London | 1 | All Maps","protocol":17,"map":"pl_barnblitz","folder":"tf","game":"Team Fortress","app_id":440,"player_count":24,"max_players":24,"Bots":0,"server_type":"Dedicated","server_os":"Linux","password":true,"vac":true,"version":"7932396","steam_id":85568392924367362,"keywords":["nocrits","nodmgspread","payload","uncletopia"],"game_id":440,"stv_port":27016,"stv_name":"Uncletopia | London | 1 | All Maps | STV","players":[{"user_id":187,"name":"Luxotrics","steam_id":76561198053455161,"connected_time":3525000000000,"state":"active","ping":86},{"user_id":192,"name":"Stijnoh","steam_id":76561198130883038,"connected_time":3331000000000,"state":"active","ping":53},{"user_id":161,"name":"cock","steam_id":76561198307522022,"connected_time":5362000000000,"state":"active","ping":48},{"user_id":202,"name":"ShireDN","steam_id":76561199060272542,"connected_time":2446000000000,"state":"active","ping":54},{"user_id":230,"name":"peruna","steam_id":76561198000721196,"connected_time":925000000000,"state":"active","ping":74},{"user_id":188,"name":"the year 2007","steam_id":76561198063120984,"connected_time":3525000000000,"state":"active","ping":68},{"user_id":231,"name":"SunZi","steam_id":76561198139243535,"connected_time":894000000000,"state":"active","ping":83},{"user_id":234,"name":"Dirty Dave","steam_id":76561198036930727,"connected_time":666000000000,"state":"active","ping":51},{"user_id":163,"name":"Hyp3r #Savetf2","steam_id":76561198965043686,"connected_time":5348000000000,"state":"active","ping":55},{"user_id":185,"name":"G/3","steam_id":76561198234844188,"connected_time":3696000000000,"state":"active","ping":49},{"user_id":220,"name":"[Mg] Zé Péquéno","steam_id":76561198000927489,"connected_time":1379000000000,"state":"active","ping":71},{"user_id":215,"name":"I want to pumpkin die","steam_id":76561198037050528,"connected_time":1554000000000,"state":"active","ping":117},{"user_id":229,"name":"rakk","steam_id":76561197970887887,"connected_time":971000000000,"state":"active","ping":50},{"user_id":236,"name":"Northwood","steam_id":76561198016533859,"connected_time":104000000000,"state":"active","ping":73},{"user_id":210,"name":"Hedge Knight","steam_id":76561198989449047,"connected_time":2039000000000,"state":"active","ping":120},{"user_id":145,"name":"unconditional love","steam_id":76561199026097466,"connected_time":6723000000000,"state":"active","ping":73},{"user_id":205,"name":"nutsack norman","steam_id":76561198075539799,"connected_time":2277000000000,"state":"active","ping":46},{"user_id":226,"name":"Meterora","steam_id":76561198092422131,"connected_time":1279000000000,"state":"active","ping":52},{"user_id":223,"name":"Sylvanas","steam_id":76561198154904165,"connected_time":1335000000000,"state":"active","ping":116},{"user_id":235,"name":"Flint","steam_id":76561197995920776,"connected_time":181000000000,"state":"active","ping":45},{"user_id":224,"name":"Simon Ekpa","steam_id":76561198853658163,"connected_time":1331000000000,"state":"active","ping":79},{"user_id":211,"name":"Soaya","steam_id":76561199101510855,"connected_time":1850000000000,"state":"active","ping":45},{"user_id":177,"name":"PP_master69420","steam_id":76561199019913910,"connected_time":4831000000000,"state":"active","ping":83},{"user_id":209,"name":"three badgers in a trenchcoat","steam_id":76561198329640236,"connected_time":2158000000000,"state":"active","ping":44}]},{"server_id":114,"name":"Uncletopia | London | 2 | All Maps","name_short":"lon-2","host":"lon-1.uk.uncletopia.com","port":27025,"enabled":true,"region":"eu","cc":"gb","latitude":51.509865,"longitude":-0.118092,"reserved":0,"last_update":"0001-01-01T00:00:00Z","name_a2s":"Uncletopia | London | 2 | All Maps","protocol":17,"map":"koth_highpass","folder":"tf","game":"Team Fortress","app_id":440,"player_count":0,"max_players":24,"Bots":0,"server_type":"Dedicated","server_os":"Linux","password":true,"vac":true,"version":"7932396","steam_id":85568392924470941,"keywords":["cp","nocrits","nodmgspread","uncletopia"],"game_id":440,"stv_port":27026,"stv_name":"Uncletopia | London | 2 | All Maps | STV","players":null},{"server_id":320,"name":"Uncletopia | London | 3 | All Maps","name_short":"lon-3","host":"lon-1.uk.uncletopia.com","port":27035,"enabled":true,"region":"eu","cc":"gb","latitude":51.509865,"longitude":-0.118092,"reserved":0,"last_update":"0001-01-01T00:00:00Z","name_a2s":"Uncletopia | London | 3 | All Maps","protocol":17,"map":"cp_altitude","folder":"tf","game":"Team Fortress","app_id":440,"player_count":0,"max_players":24,"Bots":0,"server_type":"Dedicated","server_os":"Linux","password":true,"vac":true,"version":"7932396","steam_id":85568392924510192,"keywords":["cp","nocrits","nodmgspread","uncletopia"],"game_id":440,"stv_port":27036,"stv_name":"Uncletopia | London | 3 | All Maps | STV","players":null},{"server_id":321,"name":"Uncletopia | London | 4 | All Maps","name_short":"lon-4","host":"lon-1.uk.uncletopia.com","port":27045,"enabled":true,"region":"eu","cc":"gb","latitude":51.509865,"longitude":-0.118092,"reserved":0,"last_update":"0001-01-01T00:00:00Z","name_a2s":"Uncletopia | London | 4 | All Maps","protocol":17,"map":"cp_snakewater_final1","folder":"tf","game":"Team Fortress","app_id":440,"player_count":0,"max_players":24,"Bots":0,"server_type":"Dedicated","server_os":"Linux","password":true,"vac":true,"version":"7932396","steam_id":85568392924510193,"keywords":["cp","nocrits","nodmgspread","uncletopia"],"game_id":440,"stv_port":27046,"stv_name":"Uncletopia | London | 4 | All Maps | STV","players":null},{"server_id":21,"name":"Uncletopia | London | 5 | All Maps","name_short":"lon-5","host":"lon-1.uk.uncletopia.com","port":27055,"enabled":true,"region":"eu","cc":"gb","latitude":51.509865,"longitude":-0.118092,"reserved":0,"last_update":"0001-01-01T00:00:00Z","name_a2s":"Uncletopia | London | 5 | All Maps","protocol":17,"map":"pl_borneo","folder":"tf","game":"Team Fortress","app_id":440,"player_count":0,"max_players":24,"Bots":0,"server_type":"Dedicated","server_os":"Linux","password":true,"vac":true,"version":"7932396","steam_id":85568392924742829,"keywords":["nocrits","nodmgspread","payload","uncletopia"],"game_id":440,"stv_port":27056,"stv_name":"Uncletopia | London | 5 | All Maps | STV","players":null},{"server_id":22,"name":"Uncletopia | London | 6 | All Maps","name_short":"lon-6","host":"lon-1.uk.uncletopia.com","port":27065,"enabled":true,"region":"eu","cc":"gb","latitude":51.509865,"longitude":-0.118092,"reserved":0,"last_update":"0001-01-01T00:00:00Z","name_a2s":"Uncletopia | London | 6 | All Maps","protocol":17,"map":"cp_mountainlab","folder":"tf","game":"Team Fortress","app_id":440,"player_count":0,"max_players":24,"Bots":0,"server_type":"Dedicated","server_os":"Linux","password":true,"vac":true,"version":"7932396","steam_id":85568392924742830,"keywords":["cp","nocrits","nodmgspread","uncletopia"],"game_id":440,"stv_port":27066,"stv_name":"Uncletopia | London | 6 | All Maps | STV","players":null},{"server_id":40,"name":"Uncletopia | London | 7 | No Payload","name_short":"lon-7","host":"lon-1.uk.uncletopia.com","port":27075,"enabled":true,"region":"eu","cc":"gb","latitude":51.509865,"longitude":-0.118092,"reserved":0,"last_update":"0001-01-01T00:00:00Z","name_a2s":"Uncletopia | London | 7 | No Payload","protocol":17,"map":"pl_snowycoast","folder":"tf","game":"Team Fortress","app_id":440,"player_count":0,"max_players":24,"Bots":0,"server_type":"Dedicated","server_os":"Linux","password":true,"vac":true,"version":"7932396","steam_id":85568392924964314,"keywords":["nocrits","nodmgspread","payload","uncletopia"],"game_id":440,"stv_port":27076,"stv_name":"Uncletopia | London | 7 | No Payload | STV","players":null},{"server_id":41,"name":"Uncletopia | London | 8 | Community","name_short":"lon-8","host":"lon-1.uk.uncletopia.com","port":27085,"enabled":true,"region":"eu","cc":"gb","latitude":51.509865,"longitude":-0.118092,"reserved":0,"last_update":"0001-01-01T00:00:00Z","name_a2s":"Uncletopia | London | 8 | Community","protocol":17,"map":"pl_barnblitz","folder":"tf","game":"Team Fortress","app_id":440,"player_count":0,"max_players":24,"Bots":0,"server_type":"Dedicated","server_os":"Linux","password":true,"vac":true,"version":"7932396","steam_id":85568392924964315,"keywords":["nocrits","nodmgspread","payload","uncletopia"],"game_id":440,"stv_port":27086,"stv_name":"Uncletopia | London | 8 | Community | STV","players":null},{"server_id":300,"name":"Uncletopia | Montréal | 1 | All Maps","name_short":"mtl-1","host":"mtl-1.ca.uncletopia.com","port":27015,"enabled":true,"region":"us-east","cc":"ca","latitude":45.50889,"longitude":-73.56167,"reserved":0,"last_update":"0001-01-01T00:00:00Z","name_a2s":"Uncletopia | Montréal | 1 | All Maps","protocol":17,"map":"cp_dustbowl","folder":"tf","game":"Team Fortress","app_id":440,"player_count":0,"max_players":24,"Bots":0,"server_type":"Dedicated","server_os":"Linux","password":true,"vac":true,"version":"7932396","steam_id":85568392924500087,"keywords":["cp","nocrits","nodmgspread","uncletopia"],"game_id":440,"stv_port":27016,"stv_name":"Uncletopia | Montréal | 1 | All Maps | STV","players":null},{"server_id":301,"name":"Uncletopia | Montréal | 2 | All Maps","name_short":"mtl-2","host":"mtl-1.ca.uncletopia.com","port":27025,"enabled":true,"region":"us-east","cc":"ca","latitude":45.50889,"longitude":-73.56167,"reserved":0,"last_update":"0001-01-01T00:00:00Z","name_a2s":"Uncletopia | Montréal | 2 | All Maps","protocol":17,"map":"pl_snowycoast","folder":"tf","game":"Team Fortress","app_id":440,"player_count":0,"max_players":24,"Bots":0,"server_type":"Dedicated","server_os":"Linux","password":true,"vac":true,"version":"7932396","steam_id":85568392924500088,"keywords":["nocrits","nodmgspread","payload","uncletopia"],"game_id":440,"stv_port":27026,"stv_name":"Uncletopia | Montréal | 2 | All Maps | STV","players":null},{"server_id":302,"name":"Uncletopia | Montréal | 3 | All Maps","name_short":"mtl-3","host":"mtl-1.ca.uncletopia.com","port":27035,"enabled":true,"region":"us-east","cc":"ca","latitude":45.50889,"longitude":-73.56167,"reserved":0,"last_update":"0001-01-01T00:00:00Z","name_a2s":"Uncletopia | Montréal | 3 | All Maps","protocol":17,"map":"pl_barnblitz","folder":"tf","game":"Team Fortress","app_id":440,"player_count":0,"max_players":24,"Bots":0,"server_type":"Dedicated","server_os":"Linux","password":true,"vac":true,"version":"7932396","steam_id":85568392924500089,"keywords":["nocrits","nodmgspread","payload","uncletopia"],"game_id":440,"stv_port":27036,"stv_name":"Uncletopia | Montréal | 3 | All Maps | STV","players":null},{"server_id":303,"name":"Uncletopia | Montréal | 4 | No Payload","name_short":"mtl-4","host":"mtl-1.ca.uncletopia.com","port":27045,"enabled":true,"region":"us-east","cc":"ca","latitude":45.50889,"longitude":-73.56167,"reserved":0,"last_update":"0001-01-01T00:00:00Z","name_a2s":"Uncletopia | Montréal | 4 | No Payload","protocol":17,"map":"cp_snakewater_final1","folder":"tf","game":"Team Fortress","app_id":440,"player_count":0,"max_players":24,"Bots":0,"server_type":"Dedicated","server_os":"Linux","password":true,"vac":true,"version":"7932396","steam_id":85568392924500090,"keywords":["cp","nocrits","nodmgspread","uncletopia"],"game_id":440,"stv_port":27046,"stv_name":"Uncletopia | Montréal | 4 | No Payload | STV","players":null},{"server_id":13,"name":"Uncletopia | New York City | 1 | All Maps","name_short":"nyc-1","host":"nyc-1.us.uncletopia.com","port":27015,"enabled":true,"region":"us-east","cc":"us","latitude":40.73061,"longitude":-73.93524,"reserved":0,"last_update":"0001-01-01T00:00:00Z","name_a2s":"Uncletopia | New York City | 1 | All Maps","protocol":17,"map":"pl_badwater","folder":"tf","game":"Team Fortress","app_id":440,"player_count":23,"max_players":24,"Bots":0,"server_type":"Dedicated","server_os":"Linux","password":true,"vac":true,"version":"7932396","steam_id":85568392924469993,"keywords":["nocrits","nodmgspread","payload","uncletopia"],"game_id":440,"stv_port":27016,"stv_name":"Uncletopia | New York City | 1 | All Maps | STV","players":[{"user_id":598,"name":"BIG HOG","steam_id":76561198079923652,"connected_time":1069000000000,"state":"active","ping":76},{"user_id":564,"name":"dyyd7706","steam_id":76561199230461523,"connected_time":2695000000000,"state":"active","ping":112},{"user_id":577,"name":"[S]Mr. X [No Monitor]","steam_id":76561197963746035,"connected_time":1983000000000,"state":"active","ping":107},{"user_id":558,"name":"The Poop Dealer","steam_id":76561198141198352,"connected_time":4349000000000,"state":"active","ping":60},{"user_id":611,"name":"Call Me Ishmael","steam_id":76561198030696516,"connected_time":667000000000,"state":"active","ping":130},{"user_id":600,"name":"nic","steam_id":76561198030654668,"connected_time":959000000000,"state":"active","ping":94},{"user_id":605,"name":"Ekohtwo","steam_id":76561198067994868,"connected_time":800000000000,"state":"active","ping":80},{"user_id":618,"name":"LogicalFurret","steam_id":76561198350604657,"connected_time":294000000000,"state":"active","ping":109},{"user_id":566,"name":"joythecat514","steam_id":76561199466073821,"connected_time":2476000000000,"state":"active","ping":66},{"user_id":615,"name":"Acto","steam_id":76561198043025164,"connected_time":483000000000,"state":"active","ping":121},{"user_id":532,"name":"Dementophobic_Dude","steam_id":76561199470601524,"connected_time":7378000000000,"state":"active","ping":85},{"user_id":601,"name":"Kardinal Chaos","steam_id":76561198882695773,"connected_time":938000000000,"state":"active","ping":150},{"user_id":607,"name":"Stoney Goblin","steam_id":76561198141215376,"connected_time":723000000000,"state":"active","ping":68},{"user_id":570,"name":"cryptidTD","steam_id":76561199094314945,"connected_time":2346000000000,"state":"active","ping":125},{"user_id":591,"name":"this is hell","steam_id":76561199087741582,"connected_time":1422000000000,"state":"active","ping":117},{"user_id":603,"name":"Fat Kid","steam_id":76561198304180941,"connected_time":871000000000,"state":"active","ping":103},{"user_id":579,"name":"Stefan Ocean","steam_id":76561198143036112,"connected_time":1906000000000,"state":"active","ping":137},{"user_id":604,"name":"how la cucaracha lose","steam_id":76561198138109149,"connected_time":852000000000,"state":"active","ping":46},{"user_id":581,"name":"Gab","steam_id":76561198070710412,"connected_time":1901000000000,"state":"active","ping":118},{"user_id":616,"name":"Artoric","steam_id":76561198978834722,"connected_time":424000000000,"state":"active","ping":124},{"user_id":614,"name":"Borf","steam_id":76561198359207056,"connected_time":520000000000,"state":"active","ping":84},{"user_id":619,"name":"Taterboy07","steam_id":76561199236691088,"connected_time":122000000000,"state":"active","ping":84},{"user_id":613,"name":"Coinclever","steam_id":76561198099972692,"connected_time":601000000000,"state":"active","ping":78}]},{"server_id":14,"name":"Uncletopia | New York City | 2 | All Maps","name_short":"nyc-2","host":"nyc-1.us.uncletopia.com","port":27025,"enabled":true,"region":"us-east","cc":"us","latitude":40.73061,"longitude":-73.93524,"reserved":0,"last_update":"0001-01-01T00:00:00Z","name_a2s":"Uncletopia | New York City | 2 | All Maps","protocol":17,"map":"pl_snowycoast","folder":"tf","game":"Team Fortress","app_id":440,"player_count":0,"max_players":24,"Bots":0,"server_type":"Dedicated","server_os":"Linux","password":true,"vac":true,"version":"7932396","steam_id":85568392924469994,"keywords":["nocrits","nodmgspread","payload","uncletopia"],"game_id":440,"stv_port":27026,"stv_name":"Uncletopia | New York City | 2 | All Maps | STV","players":null},{"server_id":15,"name":"Uncletopia | New York City | 3 | Stopwatch Beta","name_short":"nyc-3","host":"nyc-1.us.uncletopia.com","port":27035,"enabled":true,"region":"us-east","cc":"us","latitude":40.73061,"longitude":-73.93524,"reserved":0,"last_update":"0001-01-01T00:00:00Z","name_a2s":"Uncletopia | New York City | 3 | Stopwatch Beta","protocol":17,"map":"workshop/koth_product_final.ugc454272353","folder":"tf","game":"Team Fortress","app_id":440,"player_count":0,"max_players":24,"Bots":0,"server_type":"Dedicated","server_os":"Linux","password":true,"vac":true,"version":"7932396","steam_id":85568392924742820,"keywords":["cp","nocrits","nodmgspread","uncletopia"],"game_id":440,"stv_port":27036,"stv_name":"Uncletopia | New York City | 3 | Stopwatch Beta | STV","players":null},{"server_id":16,"name":"Uncletopia | New York City | 4 | Community","name_short":"nyc-4","host":"nyc-1.us.uncletopia.com","port":27045,"enabled":true,"region":"us-east","cc":"us","latitude":40.73061,"longitude":-73.93524,"reserved":0,"last_update":"0001-01-01T00:00:00Z","name_a2s":"Uncletopia | New York City | 4 | Community","protocol":17,"map":"workshop/pl_barnblitz_pro7.ugc582280235","folder":"tf","game":"Team Fortress","app_id":440,"player_count":0,"max_players":24,"Bots":0,"server_type":"Dedicated","server_os":"Linux","password":true,"vac":true,"version":"7932396","steam_id":85568392924742821,"keywords":["nocrits","nodmgspread","payload","uncletopia"],"game_id":440,"stv_port":27046,"stv_name":"Uncletopia | New York City | 4 | Community | STV","players":null},{"server_id":142,"name":"Uncletopia | São Paulo | 1 | All Maps","name_short":"sao-1","host":"sao-1.br.uncletopia.com","port":27015,"enabled":true,"region":"sa","cc":"br","latitude":-23.533773,"longitude":-46.62529,"reserved":0,"last_update":"0001-01-01T00:00:00Z","name_a2s":"Uncletopia | São Paulo | 1 | All Maps","protocol":17,"map":"cp_mountainlab","folder":"tf","game":"Team Fortress","app_id":440,"player_count":0,"max_players":24,"Bots":0,"server_type":"Dedicated","server_os":"Linux","password":true,"vac":true,"version":"7932396","steam_id":85568392924469996,"keywords":["cp","nocrits","nodmgspread","uncletopia"],"game_id":440,"stv_port":27016,"stv_name":"Uncletopia | São Paulo | 1 | All Maps | STV","players":null},{"server_id":143,"name":"Uncletopia | São Paulo | 2 | All Maps","name_short":"sao-2","host":"sao-2.br.uncletopia.com","port":27015,"enabled":true,"region":"sa","cc":"br","latitude":-23.533773,"longitude":-46.62529,"reserved":0,"last_update":"0001-01-01T00:00:00Z","name_a2s":"Uncletopia | São Paulo | 2 | All Maps","protocol":17,"map":"pl_swiftwater_final1","folder":"tf","game":"Team Fortress","app_id":440,"player_count":0,"max_players":24,"Bots":0,"server_type":"Dedicated","server_os":"Linux","password":true,"vac":true,"version":"7932396","steam_id":85568392924485349,"keywords":["nocrits","nodmgspread","payload","uncletopia"],"game_id":440,"stv_port":27016,"stv_name":"Uncletopia | São Paulo | 2 | All Maps | STV","players":null},{"server_id":7,"name":"Uncletopia | Seattle | 1 | All Maps","name_short":"sea-1","host":"sea-1.us.uncletopia.com","port":27015,"enabled":true,"region":"us-west","cc":"us","latitude":47.608013,"longitude":-122.33517,"reserved":0,"last_update":"0001-01-01T00:00:00Z","name_a2s":"Uncletopia | Seattle | 1 | All Maps","protocol":17,"map":"koth_viaduct","folder":"tf","game":"Team Fortress","app_id":440,"player_count":0,"max_players":24,"Bots":0,"server_type":"Dedicated","server_os":"Linux","password":true,"vac":true,"version":"7932396","steam_id":85568392924469997,"keywords":["cp","nocrits","nodmgspread","uncletopia"],"game_id":440,"stv_port":27016,"stv_name":"Uncletopia | Seattle | 1 | All Maps | STV","players":null},{"server_id":119,"name":"Uncletopia | Seattle | 2 | All Maps","name_short":"sea-2","host":"sea-1.us.uncletopia.com","port":27025,"enabled":true,"region":"us-west","cc":"us","latitude":47.608013,"longitude":-122.33517,"reserved":0,"last_update":"0001-01-01T00:00:00Z","name_a2s":"Uncletopia | Seattle | 2 | All Maps","protocol":17,"map":"pl_frontier_final","folder":"tf","game":"Team Fortress","app_id":440,"player_count":21,"max_players":24,"Bots":0,"server_type":"Dedicated","server_os":"Linux","password":true,"vac":true,"version":"7932396","steam_id":85568392924469998,"keywords":["nocrits","nodmgspread","payload","uncletopia"],"game_id":440,"stv_port":27026,"stv_name":"Uncletopia | Seattle | 2 | All Maps | STV","players":[{"user_id":535,"name":"Dilbert Garfunkel","steam_id":76561198088318184,"connected_time":130000000000,"state":"connecting","ping":81},{"user_id":519,"name":"KrylonHeretic","steam_id":76561198139811459,"connected_time":1368000000000,"state":"connecting","ping":132},{"user_id":520,"name":"mjr","steam_id":76561198148301033,"connected_time":1359000000000,"state":"connecting","ping":102},{"user_id":483,"name":"Slagothor","steam_id":76561197999435333,"connected_time":4407000000000,"state":"connecting","ping":122},{"user_id":504,"name":"ShapedSky0","steam_id":76561199486555735,"connected_time":3065000000000,"state":"connecting","ping":113},{"user_id":508,"name":"Yamn Zaddy","steam_id":76561198074678001,"connected_time":2534000000000,"state":"connecting","ping":141},{"user_id":517,"name":"jadeite","steam_id":76561198022298676,"connected_time":1773000000000,"state":"connecting","ping":49},{"user_id":526,"name":"flouride","steam_id":76561198103189993,"connected_time":1080000000000,"state":"connecting","ping":81},{"user_id":509,"name":"nerv","steam_id":76561198012678811,"connected_time":2504000000000,"state":"connecting","ping":158},{"user_id":522,"name":"Disc0","steam_id":76561198067337267,"connected_time":1323000000000,"state":"spawning","ping":56},{"user_id":527,"name":"Grill Skills","steam_id":76561198053575147,"connected_time":974000000000,"state":"spawning","ping":68},{"user_id":505,"name":"SNIPER MONKEY","steam_id":76561198403205128,"connected_time":2713000000000,"state":"connecting","ping":97},{"user_id":528,"name":"litroolay","steam_id":76561197995226856,"connected_time":442000000000,"state":"connecting","ping":38},{"user_id":532,"name":"AceOfSpades7036","steam_id":76561198403610714,"connected_time":419000000000,"state":"connecting","ping":125},{"user_id":502,"name":"Papa Smoke","steam_id":76561198377796587,"connected_time":3327000000000,"state":"connecting","ping":68},{"user_id":529,"name":"goldhed","steam_id":76561198051751133,"connected_time":441000000000,"state":"connecting","ping":71},{"user_id":533,"name":"Jack Horner in a F-16","steam_id":76561198062438923,"connected_time":418000000000,"state":"connecting","ping":126}]},{"server_id":406,"name":"Uncletopia | Seattle | 3 | Stopwatch Beta","name_short":"sea-3","host":"sea-1.us.uncletopia.com","port":27035,"enabled":true,"region":"us-west","cc":"us","latitude":47.608013,"longitude":-122.33517,"reserved":0,"last_update":"0001-01-01T00:00:00Z","name_a2s":"Uncletopia | Seattle | 3 | Stopwatch Beta","protocol":17,"map":"workshop/koth_bagel_rc6.ugc2514036946","folder":"tf","game":"Team Fortress","app_id":440,"player_count":0,"max_players":24,"Bots":0,"server_type":"Dedicated","server_os":"Linux","password":true,"vac":true,"version":"7932396","steam_id":85568392924515217,"keywords":["cp","nocrits","nodmgspread","uncletopia"],"game_id":440,"stv_port":27036,"stv_name":"Uncletopia | Seattle | 3 | Stopwatch Beta | STV","players":null},{"server_id":17,"name":"Uncletopia | San Francisco | 1 | All Maps","name_short":"sfo-1","host":"sfo-1.us.uncletopia.com","port":27015,"enabled":true,"region":"us-west","cc":"us","latitude":37.77397,"longitude":-122.4313,"reserved":0,"last_update":"0001-01-01T00:00:00Z","name_a2s":"Uncletopia | San Francisco | 1 | All Maps","protocol":17,"map":"koth_lakeside_final","folder":"tf","game":"Team Fortress","app_id":440,"player_count":0,"max_players":24,"Bots":0,"server_type":"Dedicated","server_os":"Linux","password":true,"vac":true,"version":"7932396","steam_id":85568392924469999,"keywords":["cp","nocrits","nodmgspread","uncletopia"],"game_id":440,"stv_port":27016,"stv_name":"Uncletopia | San Francisco | 1 | All Maps | STV","players":null},{"server_id":18,"name":"Uncletopia | San Francisco | 2 | All Maps","name_short":"sfo-2","host":"sfo-1.us.uncletopia.com","port":27025,"enabled":true,"region":"us-west","cc":"us","latitude":37.77397,"longitude":-122.4313,"reserved":0,"last_update":"0001-01-01T00:00:00Z","name_a2s":"Uncletopia | San Francisco | 2 | All Maps","protocol":17,"map":"koth_viaduct","folder":"tf","game":"Team Fortress","app_id":440,"player_count":16,"max_players":24,"Bots":0,"server_type":"Dedicated","server_os":"Linux","password":true,"vac":true,"version":"7932396","steam_id":85568392924470000,"keywords":["cp","nocrits","nodmgspread","uncletopia"],"game_id":440,"stv_port":27026,"stv_name":"Uncletopia | San Francisco | 2 | All Maps | STV","players":[{"user_id":471,"name":"the deep","steam_id":76561198043732416,"connected_time":250000000000,"state":"active","ping":101},{"user_id":452,"name":"Miro","steam_id":76561198936412406,"connected_time":2375000000000,"state":"active","ping":119},{"user_id":464,"name":"Brynn","steam_id":76561198114951618,"connected_time":1126000000000,"state":"active","ping":94},{"user_id":470,"name":"0","steam_id":76561199474493516,"connected_time":276000000000,"state":"active","ping":47},{"user_id":439,"name":"Azteck","steam_id":76561198073841466,"connected_time":2978000000000,"state":"active","ping":83},{"user_id":454,"name":"babyfacerayfan1","steam_id":76561198044571475,"connected_time":2045000000000,"state":"active","ping":60},{"user_id":466,"name":"BongBlaster69","steam_id":76561198316811893,"connected_time":1067000000000,"state":"active","ping":55},{"user_id":458,"name":"Hurb","steam_id":76561198746677086,"connected_time":1476000000000,"state":"active","ping":114},{"user_id":472,"name":"Landogg","steam_id":76561198049000586,"connected_time":226000000000,"state":"active","ping":60},{"user_id":447,"name":"Oh No! It's Twister!","steam_id":76561198016791916,"connected_time":2787000000000,"state":"active","ping":113},{"user_id":453,"name":"shark bait hoo ha ha","steam_id":76561198114603745,"connected_time":2150000000000,"state":"active","ping":49},{"user_id":460,"name":"TankFizzle","steam_id":76561198237713308,"connected_time":1466000000000,"state":"active","ping":196},{"user_id":469,"name":"ʀ.ʚɞ.","steam_id":76561198029580420,"connected_time":286000000000,"state":"active","ping":142},{"user_id":450,"name":"FI LO","steam_id":76561198976530881,"connected_time":2564000000000,"state":"active","ping":44},{"user_id":462,"name":"Mak","steam_id":76561198089197922,"connected_time":1466000000000,"state":"active","ping":75},{"user_id":463,"name":"moze","steam_id":76561198143802501,"connected_time":1464000000000,"state":"active","ping":101}]},{"server_id":19,"name":"Uncletopia | San Francisco | 3 | Stopwatch Beta","name_short":"sfo-3","host":"sfo-1.us.uncletopia.com","port":27035,"enabled":true,"region":"us-west","cc":"us","latitude":37.77397,"longitude":-122.4313,"reserved":0,"last_update":"0001-01-01T00:00:00Z","name_a2s":"Uncletopia | San Francisco | 3 | Stopwatch Beta","protocol":17,"map":"workshop/pl_badwater_pro_v12.ugc2142942074","folder":"tf","game":"Team Fortress","app_id":440,"player_count":0,"max_players":24,"Bots":0,"server_type":"Dedicated","server_os":"Linux","password":true,"vac":true,"version":"7932396","steam_id":85568392924742824,"keywords":["nocrits","nodmgspread","payload","uncletopia"],"game_id":440,"stv_port":27036,"stv_name":"Uncletopia | San Francisco | 3 | Stopwatch Beta | STV","players":null},{"server_id":20,"name":"Uncletopia | San Francisco | 4 | Community","name_short":"sfo-4","host":"sfo-1.us.uncletopia.com","port":27045,"enabled":true,"region":"us-west","cc":"us","latitude":37.77397,"longitude":-122.4313,"reserved":0,"last_update":"0001-01-01T00:00:00Z","name_a2s":"Uncletopia | San Francisco | 4 | Community","protocol":17,"map":"workshop/cp_croissant_final.ugc458840209","folder":"tf","game":"Team Fortress","app_id":440,"player_count":0,"max_players":24,"Bots":0,"server_type":"Dedicated","server_os":"Linux","password":true,"vac":true,"version":"7932396","steam_id":85568392924742826,"keywords":["cp","nocrits","nodmgspread","uncletopia"],"game_id":440,"stv_port":27046,"stv_name":"Uncletopia | San Francisco | 4 | Community | STV","players":null},{"server_id":141,"name":"Uncletopia | Sydney | 1 | All Maps","name_short":"syd-1","host":"syd-1.au.uncletopia.com","port":27015,"enabled":true,"region":"au","cc":"au","latitude":-33.865143,"longitude":151.2099,"reserved":0,"last_update":"0001-01-01T00:00:00Z","name_a2s":"Uncletopia | Sydney | 1 | All Maps","protocol":17,"map":"cp_dustbowl","folder":"tf","game":"Team Fortress","app_id":440,"player_count":6,"max_players":24,"Bots":0,"server_type":"Dedicated","server_os":"Linux","password":true,"vac":true,"version":"7932396","steam_id":85568392924470001,"keywords":["cp","nocrits","nodmgspread","uncletopia"],"game_id":440,"stv_port":27016,"stv_name":"Uncletopia | Sydney | 1 | All Maps | STV","players":[{"user_id":188,"name":"Bill Nye","steam_id":76561198312898168,"connected_time":3085000000000,"state":"active","ping":70},{"user_id":189,"name":"ToonaIsHere","steam_id":76561199174461175,"connected_time":3024000000000,"state":"active","ping":68},{"user_id":202,"name":"burfdae boi","steam_id":76561199000827969,"connected_time":1991000000000,"state":"active","ping":36},{"user_id":204,"name":"Lace","steam_id":76561198290993506,"connected_time":1837000000000,"state":"active","ping":55},{"user_id":207,"name":"Jetfire","steam_id":76561198047370036,"connected_time":1328000000000,"state":"active","ping":75},{"user_id":227,"name":"caca","steam_id":76561199260541478,"connected_time":710000000000,"state":"active","ping":54}]},{"server_id":123,"name":"Uncletopia | Sydney | 2 | All Maps","name_short":"syd-2","host":"syd-1.au.uncletopia.com","port":27025,"enabled":true,"region":"au","cc":"au","latitude":-33.865143,"longitude":151.2099,"reserved":0,"last_update":"0001-01-01T00:00:00Z","name_a2s":"Uncletopia | Sydney | 2 | All Maps","protocol":17,"map":"cp_steel","folder":"tf","game":"Team Fortress","app_id":440,"player_count":24,"max_players":24,"Bots":0,"server_type":"Dedicated","server_os":"Linux","password":true,"vac":true,"version":"7932396","steam_id":85568392924470002,"keywords":["cp","nocrits","nodmgspread","uncletopia"],"game_id":440,"stv_port":27026,"stv_name":"Uncletopia | Sydney | 2 | All Maps | STV","players":[{"user_id":135,"name":"voxii","steam_id":76561198099698281,"connected_time":11426000000000,"state":"active","ping":68},{"user_id":238,"name":"Maestro[FmJ]","steam_id":76561197996842734,"connected_time":3721000000000,"state":"active","ping":62},{"user_id":265,"name":"Kumquat King","steam_id":76561199018139964,"connected_time":2079000000000,"state":"active","ping":84},{"user_id":249,"name":"Chibi Wolf","steam_id":76561198074235306,"connected_time":3048000000000,"state":"active","ping":61},{"user_id":240,"name":"_MAFKEES","steam_id":76561198233733104,"connected_time":3648000000000,"state":"active","ping":70},{"user_id":280,"name":"Selling Anti-Matter for $543","steam_id":76561198070708382,"connected_time":156000000000,"state":"active","ping":50},{"user_id":193,"name":"Jodelkönig Franzl Lang","steam_id":76561198007667830,"connected_time":7375000000000,"state":"active","ping":59},{"user_id":198,"name":"uven","steam_id":76561198080981482,"connected_time":7011000000000,"state":"active","ping":37},{"user_id":182,"name":"Dr. Hoppity","steam_id":76561197999715646,"connected_time":7957000000000,"state":"active","ping":59},{"user_id":273,"name":"sav","steam_id":76561198058760041,"connected_time":647000000000,"state":"active","ping":70},{"user_id":274,"name":"Chez","steam_id":76561198089925051,"connected_time":636000000000,"state":"active","ping":105},{"user_id":242,"name":"TZEI","steam_id":76561198045566851,"connected_time":3604000000000,"state":"active","ping":95},{"user_id":276,"name":"weezer","steam_id":76561199439508788,"connected_time":511000000000,"state":"active","ping":67},{"user_id":252,"name":"Aquila","steam_id":76561198042520637,"connected_time":2963000000000,"state":"active","ping":43},{"user_id":277,"name":"jone","steam_id":76561198285234796,"connected_time":449000000000,"state":"active","ping":89},{"user_id":235,"name":"Kremmen","steam_id":76561198051368641,"connected_time":3900000000000,"state":"active","ping":70},{"user_id":279,"name":"Doctor Vinnie Boombotz","steam_id":76561198062311556,"connected_time":202000000000,"state":"active","ping":54},{"user_id":283,"name":"lego star war","steam_id":76561198052781893,"connected_time":83000000000,"state":"active","ping":64},{"user_id":266,"name":"RhyuziN","steam_id":76561198341072593,"connected_time":2047000000000,"state":"active","ping":48},{"user_id":257,"name":"Lotuses","steam_id":76561199045059964,"connected_time":2644000000000,"state":"active","ping":117},{"user_id":267,"name":"Zoey","steam_id":76561198126153554,"connected_time":1288000000000,"state":"active","ping":81},{"user_id":271,"name":"Pickled Cow","steam_id":76561198292517991,"connected_time":681000000000,"state":"active","ping":45},{"user_id":282,"name":"Tain","steam_id":76561198255611856,"connected_time":107000000000,"state":"active","ping":70},{"user_id":269,"name":"mada","steam_id":76561199436707447,"connected_time":694000000000,"state":"active","ping":52}]},{"server_id":395,"name":"Uncletopia | Sydney | 3 | All Maps","name_short":"syd-3","host":"syd-1.au.uncletopia.com","port":27035,"enabled":true,"region":"au","cc":"au","latitude":-33.865143,"longitude":151.2099,"reserved":0,"last_update":"0001-01-01T00:00:00Z","name_a2s":"Uncletopia | Sydney | 3 | All Maps","protocol":17,"map":"cp_dustbowl","folder":"tf","game":"Team Fortress","app_id":440,"player_count":0,"max_players":24,"Bots":0,"server_type":"Dedicated","server_os":"Linux","password":true,"vac":true,"version":"7932396","steam_id":85568392925194467,"keywords":["cp","nocrits","nodmgspread","uncletopia"],"game_id":440,"stv_port":27036,"stv_name":"Uncletopia | Sydney | 3 | All Maps | STV","players":null},{"server_id":396,"name":"Uncletopia | Sydney | 4 | All Maps","name_short":"syd-4","host":"syd-1.au.uncletopia.com","port":27045,"enabled":true,"region":"au","cc":"au","latitude":-33.865143,"longitude":151.2099,"reserved":0,"last_update":"0001-01-01T00:00:00Z","name_a2s":"Uncletopia | Sydney | 4 | All Maps","protocol":17,"map":"cp_dustbowl","folder":"tf","game":"Team Fortress","app_id":440,"player_count":0,"max_players":24,"Bots":0,"server_type":"Dedicated","server_os":"Linux","password":true,"vac":true,"version":"7932396","steam_id":85568392925397958,"keywords":["cp","nocrits","nodmgspread","uncletopia"],"game_id":440,"stv_port":27046,"stv_name":"Uncletopia | Sydney | 4 | All Maps | STV","players":null},{"server_id":58,"name":"Uncletopia | Sydney | 5 | Stopwatch Beta","name_short":"syd-5","host":"syd-1.au.uncletopia.com","port":27055,"enabled":true,"region":"au","cc":"au","latitude":-33.865143,"longitude":151.2099,"reserved":0,"last_update":"0001-01-01T00:00:00Z","name_a2s":"Uncletopia | Sydney | 5 | Stopwatch Beta","protocol":17,"map":"pl_borneo","folder":"tf","game":"Team Fortress","app_id":440,"player_count":0,"max_players":24,"Bots":0,"server_type":"Dedicated","server_os":"Linux","password":true,"vac":true,"version":"7932396","steam_id":85568392925397959,"keywords":["nocrits","nodmgspread","payload","uncletopia"],"game_id":440,"stv_port":27056,"stv_name":"Uncletopia | Sydney | 5 | Stopwatch Beta | STV","players":null},{"server_id":59,"name":"Uncletopia | Sydney | 6 | Community","name_short":"syd-6","host":"syd-1.au.uncletopia.com","port":27065,"enabled":true,"region":"au","cc":"au","latitude":-33.865143,"longitude":151.2099,"reserved":0,"last_update":"0001-01-01T00:00:00Z","name_a2s":"Uncletopia | Sydney | 6 | Community","protocol":17,"map":"workshop/pl_divulgence_b4b.ugc2884808746","folder":"tf","game":"Team Fortress","app_id":440,"player_count":0,"max_players":24,"Bots":0,"server_type":"Dedicated","server_os":"Linux","password":true,"vac":true,"version":"7932396","steam_id":85568392925397960,"keywords":["nocrits","nodmgspread","payload","uncletopia"],"game_id":440,"stv_port":27066,"stv_name":"Uncletopia | Sydney | 6 | Community | STV","players":null},{"server_id":49,"name":"Uncletopia | Warsaw | 1 | All Maps","name_short":"waw-1","host":"waw-1.pl.uncletopia.com","port":27015,"enabled":true,"region":"eu","cc":"pl","latitude":52.2297,"longitude":21.017532,"reserved":0,"last_update":"0001-01-01T00:00:00Z","name_a2s":"","protocol":0,"map":"","folder":"","game":"","app_id":0,"player_count":0,"max_players":0,"Bots":0,"server_type":"","server_os":"","password":false,"vac":false,"version":"","steam_id":0,"keywords":null,"game_id":0,"stv_port":0,"stv_name":"","players":null},{"server_id":50,"name":"Uncletopia | Warsaw | 2 | All Maps","name_short":"waw-2","host":"waw-1.pl.uncletopia.com","port":27025,"enabled":true,"region":"eu","cc":"pl","latitude":52.2297,"longitude":21.017532,"reserved":0,"last_update":"0001-01-01T00:00:00Z","name_a2s":"Uncletopia | Warsaw | 2 | All Maps","protocol":17,"map":"cp_sunshine","folder":"tf","game":"Team Fortress","app_id":440,"player_count":0,"max_players":24,"Bots":0,"server_type":"Dedicated","server_os":"Linux","password":true,"vac":true,"version":"7932396","steam_id":85568392925397851,"keywords":["cp","nocrits","nodmgspread","uncletopia"],"game_id":440,"stv_port":27026,"stv_name":"Uncletopia | Warsaw | 2 | All Maps | STV","players":null},{"server_id":51,"name":"Uncletopia | Warsaw | 3 | All Maps","name_short":"waw-3","host":"waw-1.pl.uncletopia.com","port":27035,"enabled":true,"region":"eu","cc":"pl","latitude":52.2297,"longitude":21.017532,"reserved":0,"last_update":"0001-01-01T00:00:00Z","name_a2s":"Uncletopia | Warsaw | 3 | All Maps","protocol":17,"map":"koth_lakeside_final","folder":"tf","game":"Team Fortress","app_id":440,"player_count":0,"max_players":24,"Bots":0,"server_type":"Dedicated","server_os":"Linux","password":true,"vac":true,"version":"7932396","steam_id":85568392925397852,"keywords":["cp","nocrits","nodmgspread","uncletopia"],"game_id":440,"stv_port":27036,"stv_name":"Uncletopia | Warsaw | 3 | All Maps | STV","players":null},{"server_id":52,"name":"Uncletopia | Warsaw | 4 | All Maps","name_short":"waw-4","host":"waw-1.pl.uncletopia.com","port":27045,"enabled":true,"region":"eu","cc":"pl","latitude":52.2297,"longitude":21.017532,"reserved":0,"last_update":"0001-01-01T00:00:00Z","name_a2s":"Uncletopia | Warsaw | 4 | All Maps","protocol":17,"map":"pl_swiftwater_final1","folder":"tf","game":"Team Fortress","app_id":440,"player_count":0,"max_players":24,"Bots":0,"server_type":"Dedicated","server_os":"Linux","password":true,"vac":true,"version":"7932396","steam_id":85568392925397853,"keywords":["nocrits","nodmgspread","payload","uncletopia"],"game_id":440,"stv_port":27046,"stv_name":"Uncletopia | Warsaw | 4 | All Maps | STV","players":null},{"server_id":53,"name":"Uncletopia | Warsaw | 5 | Stopwatch Beta","name_short":"waw-5","host":"waw-1.pl.uncletopia.com","port":27055,"enabled":true,"region":"eu","cc":"pl","latitude":52.2297,"longitude":21.017532,"reserved":0,"last_update":"0001-01-01T00:00:00Z","name_a2s":"Uncletopia | Warsaw | 5 | Stopwatch Beta","protocol":17,"map":"pl_upward","folder":"tf","game":"Team Fortress","app_id":440,"player_count":1,"max_players":24,"Bots":0,"server_type":"Dedicated","server_os":"Linux","password":true,"vac":true,"version":"7932396","steam_id":85568392925397854,"keywords":["nocrits","nodmgspread","payload","uncletopia"],"game_id":440,"stv_port":27056,"stv_name":"Uncletopia | Warsaw | 5 | Stopwatch Beta | STV","players":[{"user_id":3,"name":"sauli01","steam_id":76561198069149120,"connected_time":146000000000,"state":"active","ping":90}]},{"server_id":54,"name":"Uncletopia | Warsaw | 6 | Community","name_short":"waw-6","host":"waw-1.pl.uncletopia.com","port":27065,"enabled":true,"region":"eu","cc":"pl","latitude":52.2297,"longitude":21.017532,"reserved":0,"last_update":"0001-01-01T00:00:00Z","name_a2s":"Uncletopia | Warsaw | 6 | Community","protocol":17,"map":"pl_upward","folder":"tf","game":"Team Fortress","app_id":440,"player_count":0,"max_players":24,"Bots":0,"server_type":"Dedicated","server_os":"Linux","password":true,"vac":true,"version":"7932396","steam_id":85568392925397856,"keywords":["nocrits","nodmgspread","payload","uncletopia"],"game_id":440,"stv_port":27066,"stv_name":"Uncletopia | Warsaw | 6 | Community | STV","players":null}]}