{"status":true,"message":"","result":[{"server_id":9,"name":"Uncletopia | Atlanta | 1 | All Maps","name_short":"atl-1","host":"atl-1.us.uncletopia.com","port":27015,"enabled":true,"region":"us-east","cc":"us","latitude":33.753746,"longitude":-84.38633,"reserved":0,"last_update":"0001-01-01T00:00:00Z","name_a2s":"Uncletopia | Atlanta | 1 | All Maps","protocol":17,"map":"pl_swiftwater_final1","folder":"tf","game":"Team Fortress","app_id":440,"player_count":4,"max_players":24,"Bots":0,"server_type":"Dedicated","server_os":"Linux","password":true,"vac":true,"version":"7961495","steam_id":85568392924469982,"keywords":["nocrits","nodmgspread","payload","uncletopia"],"game_id":440,"stv_port":27016,"stv_name":"Uncletopia | Atlanta | 1 | All Maps | STV","players":[{"user_id":846,"name":"Zippy","steam_id":76561198279229422,"connected_time":1249000000000,"state":"active","ping":81},{"user_id":852,"name":"dave :3","steam_id":76561198135961731,"connected_time":27000000000,"state":"spawning","ping":59},{"user_id":835,"name":"Captain Sonic","steam_id":76561198274564062,"connected_time":1848000000000,"state":"active","ping":80},{"user_id":761,"name":"CoffeeZombee","steam_id":76561198172708053,"connected_time":7783000000000,"state":"active","ping":65}]},{"server_id":104,"name":"Uncletopia | Atlanta | 2 | All Maps","name_short":"atl-2","host":"atl-1.us.uncletopia.com","port":27025,"enabled":true,"region":"us-east","cc":"us","latitude":33.753746,"longitude":-84.38633,"reserved":0,"last_update":"0001-01-01T00:00:00Z","name_a2s":"Uncletopia | Atlanta | 2 | All Maps","protocol":17,"map":"koth_cascade","folder":"tf","game":"Team Fortress","app_id":440,"player_count":0,"max_players":24,"Bots":0,"server_type":"Dedicated","server_os":"Linux","password":true,"vac":true,"version":"7961495","steam_id":85568392924469983,"keywords":["cp","nocrits","nodmgspread","uncletopia"],"game_id":440,"stv_port":27026,"stv_name":"Uncletopia | Atlanta | 2 | All Maps | STV","players":null},{"server_id":400,"name":"Uncletopia | Atlanta | 3 | Stopwatch","name_short":"atl-3","host":"atl-1.us.uncletopia.com","port":27035,"enabled":true,"region":"us-east","cc":"us","latitude":33.753746,"longitude":-84.38633,"reserved":0,"last_update":"0001-01-01T00:00:00Z","name_a2s":"Uncletopia | Atlanta | 3 | Stopwatch","protocol":17,"map":"cp_metalworks","folder":"tf","game":"Team Fortress","app_id":440,"player_count":0,"max_players":24,"Bots":0,"server_type":"Dedicated","server_os":"Linux","password":true,"vac":true,"version":"7961495","steam_id":85568392924515187,"keywords":["cp","nocrits","nodmgspread","uncletopia"],"game_id":440,"stv_port":27036,"stv_name":"Uncletopia | Atlanta | 3 | Stopwatch | STV","players":null},{"server_id":401,"name":"Uncletopia | Atlanta | 4 | Community","name_short":"atl-4","host":"atl-1.us.uncletopia.com","port":27045,"enabled":true,"region":"us-east","cc":"us","latitude":33.753746,"longitude":-84.38633,"reserved":0,"last_update":"0001-01-01T00:00:00Z","name_a2s":"Uncletopia | Atlanta | 4 | Community","protocol":17,"map":"workshop/pl_boundary_final1.ugc456799153","folder":"tf","game":"Team Fortress","app_id":440,"player_count":0,"max_players":24,"Bots":0,"server_type":"Dedicated","server_os":"Linux","password":true,"vac":true,"version":"7961495","steam_id":85568392924515188,"keywords":["nocrits","nodmgspread","payload","uncletopia"],"game_id":440,"stv_port":27046,"stv_name":"Uncletopia | Atlanta | 4 | Community | STV","players":null},{"server_id":2,"name":"Uncletopia | Chicago | 1 | All Maps","name_short":"chi-1","host":"chi-1.us.uncletopia.com","port":27015,"enabled":true,"region":"us-central","cc":"us","latitude":41.881832,"longitude":-87.62318,"reserved":0,"last_update":"0001-01-01T00:00:00Z","name_a2s":"Uncletopia | Chicago | 1 | All Maps","protocol":17,"map":"cp_sunshine","folder":"tf","game":"Team Fortress","app_id":440,"player_count":24,"max_players":24,"Bots":0,"server_type":"Dedicated","server_os":"Linux","password":true,"vac":true,"version":"7961495","steam_id":85568392924469984,"keywords":["cp","nocrits","nodmgspread","uncletopia"],"game_id":440,"stv_port":27016,"stv_name":"Uncletopia | Chicago | 1 | All Maps | STV","players":[{"user_id":822,"name":"Businessman","steam_id":76561198194912765,"connected_time":815000000000,"state":"active","ping":87},{"user_id":835,"name":"mu","steam_id":76561197997530228,"connected_time":247000000000,"state":"active","ping":104},{"user_id":787,"name":"Shabooyaroll-call","steam_id":76561198112306237,"connected_time":3015000000000,"state":"active","ping":108},{"user_id":718,"name":"Hipster_Giraffe","steam_id":76561198069701092,"connected_time":7078000000000,"state":"active","ping":88},{"user_id":788,"name":"Help!","steam_id":76561198270926835,"connected_time":2899000000000,"state":"active","ping":112},{"user_id":834,"name":"Pastor Johnson","steam_id":76561198256774959,"connected_time":284000000000,"state":"active","ping":136},{"user_id":832,"name":"gallowsCalibrator","steam_id":76561198404707578,"connected_time":455000000000,"state":"active","ping":110},{"user_id":809,"name":"Greg (Real)","steam_id":76561198257241062,"connected_time":1909000000000,"state":"active","ping":107},{"user_id":836,"name":"Hour_Before","steam_id":76561198090433209,"connected_time":244000000000,"state":"active","ping":93},{"user_id":804,"name":"pim","steam_id":76561198095163441,"connected_time":2276000000000,"state":"active","ping":62},{"user_id":794,"name":"cofi","steam_id":76561198077504898,"connected_time":2641000000000,"state":"active","ping":61},{"user_id":807,"name":"Lemon Soda","steam_id":76561198140208761,"connected_time":2052000000000,"state":"active","ping":70},{"user_id":819,"name":"ThatOnePersonCalledCaine","steam_id":76561198089836391,"connected_time":884000000000,"state":"active","ping":61},{"user_id":837,"name":"Pablo","steam_id":76561198072168938,"connected_time":235000000000,"state":"active","ping":72},{"user_id":816,"name":"✪ BigWillyMann","steam_id":76561198328072861,"connected_time":1389000000000,"state":"active","ping":76},{"user_id":730,"name":"Boss Hogg","steam_id":76561198412147032,"connected_time":6806000000000,"state":"active","ping":85},{"user_id":796,"name":"Kantamoe","steam_id":76561198046661611,"connected_time":2603000000000,"state":"active","ping":80},{"user_id":782,"name":"That Canadian Dude","steam_id":76561198024985831,"connected_time":3863000000000,"state":"active","ping":66},{"user_id":797,"name":"Luna","steam_id":76561198023352750,"connected_time":2589000000000,"state":"active","ping":86},{"user_id":770,"name":"Tideflat","steam_id":76561198179850851,"connected_time":4311000000000,"state":"active","ping":95},{"user_id":824,"name":"EliminateSingleFamilyZoning","steam_id":76561198276653985,"connected_time":762000000000,"state":"active","ping":72},{"user_id":817,"name":"HazerLazer","steam_id":76561198043945871,"connected_time":1358000000000,"state":"active","ping":68},{"user_id":811,"name":"TTv 2008_Economic_Recession","steam_id":76561198286124157,"connected_time":1766000000000,"state":"active","ping":66},{"user_id":831,"name":"bubba","steam_id":76561198142629517,"connected_time":536000000000,"state":"active","ping":64}]},{"server_id":106,"name":"Uncletopia | Chicago | 2 | All Maps","name_short":"chi-2","host":"chi-1.us.uncletopia.com","port":27025,"enabled":true,"region":"us-central","cc":"us","latitude":41.881832,"longitude":-87.62318,"reserved":0,"last_update":"0001-01-01T00:00:00Z","name_a2s":"Uncletopia | Chicago | 2 | All Maps","protocol":17,"map":"pl_swiftwater_final1","folder":"tf","game":"Team Fortress","app_id":440,"player_count":24,"max_players":24,"Bots":0,"server_type":"Dedicated","server_os":"Linux","password":true,"vac":true,"version":"7961495","steam_id":85568392924469985,"keywords":["nocrits","nodmgspread","payload","uncletopia"],"game_id":440,"stv_port":27026,"stv_name":"Uncletopia | Chicago | 2 | All Maps | STV","players":[{"user_id":580,"name":"ms. capgras [troutsupply.net]","steam_id":76561199080209996,"connected_time":533000000000,"state":"active","ping":51},{"user_id":579,"name":"soona","steam_id":76561198127325351,"connected_time":542000000000,"state":"active","ping":63},{"user_id":536,"name":"Stanv","steam_id":76561198259530604,"connected_time":4913000000000,"state":"active","ping":48},{"user_id":575,"name":"gwen","steam_id":76561198046815360,"connected_time":1179000000000,"state":"active","ping":92},{"user_id":573,"name":"phantom","steam_id":76561197963860777,"connected_time":1190000000000,"state":"active","ping":54},{"user_id":571,"name":"Pissless Pissmass Pissman","steam_id":76561198409907417,"connected_time":2096000000000,"state":"active","ping":110},{"user_id":565,"name":"gerg","steam_id":76561197997127387,"connected_time":2372000000000,"state":"active","ping":104},{"user_id":551,"name":"Hector Salamanca","steam_id":76561198093836635,"connected_time":3713000000000,"state":"active","ping":116},{"user_id":566,"name":"Under an Unquiet Skull","steam_id":76561198164782653,"connected_time":2368000000000,"state":"active","ping":69},{"user_id":581,"name":"puzzlemaster","steam_id":76561198095997869,"connected_time":524000000000,"state":"active","ping":85},{"user_id":567,"name":"social distance warrior","steam_id":76561198128992994,"connected_time":2361000000000,"state":"active","ping":89},{"user_id":582,"name":"Big Bill Haywood","steam_id":76561198142290733,"connected_time":477000000000,"state":"active","ping":72},{"user_id":503,"name":"Toasty","steam_id":76561198081819853,"connected_time":7655000000000,"state":"active","ping":82},{"user_id":588,"name":"He rolls his own","steam_id":76561198058162684,"connected_time":293000000000,"state":"active","ping":80},{"user_id":578,"name":"ly_dee","steam_id":76561198074956732,"connected_time":564000000000,"state":"active","ping":135},{"user_id":539,"name":"9gon Danmar33","steam_id":76561198056453091,"connected_time":4723000000000,"state":"active","ping":46},{"user_id":547,"name":"K","steam_id":76561198171446177,"connected_time":4190000000000,"state":"active","ping":99},{"user_id":569,"name":"Trouser Snivy","steam_id":76561198073788829,"connected_time":2292000000000,"state":"active","ping":135},{"user_id":584,"name":"BIGMACDINNER","steam_id":76561198035678747,"connected_time":435000000000,"state":"active","ping":70},{"user_id":549,"name":"Scurvpup","steam_id":76561198090484962,"connected_time":3926000000000,"state":"active","ping":92},{"user_id":589,"name":"FutureGᐰdget001","steam_id":76561198085120663,"connected_time":89000000000,"state":"active","ping":87},{"user_id":585,"name":"Dzhoshua","steam_id":76561198071915251,"connected_time":426000000000,"state":"active","ping":68},{"user_id":586,"name":"Sweater-Fan","steam_id":76561199389567214,"connected_time":415000000000,"state":"active","ping":75},{"user_id":587,"name":"Sky","steam_id":76561198853245153,"connected_time":409000000000,"state":"active","ping":94}]},{"server_id":402,"name":"Uncletopia | Chicago | 3 | All Maps","name_short":"chi-3","host":"chi-1.us.uncletopia.com","port":27035,"enabled":true,"region":"us-central","cc":"us","latitude":41.881832,"longitude":-87.62318,"reserved":0,"last_update":"0001-01-01T00:00:00Z","name_a2s":"Uncletopia | Chicago | 3 | All Maps","protocol":17,"map":"koth_viaduct","folder":"tf","game":"Team Fortress","app_id":440,"player_count":0,"max_players":24,"Bots":0,"server_type":"Dedicated","server_os":"Linux","password":true,"vac":true,"version":"7961495","steam_id":85568392924515191,"keywords":["cp","nocrits","nodmgspread","uncletopia"],"game_id":440,"stv_port":27036,"stv_name":"Uncletopia | Chicago | 3 | All Maps | STV","players":null},{"server_id":403,"name":"Uncletopia | Chicago | 4 | All Maps","name_short":"chi-4","host":"chi-1.us.uncletopia.com","port":27045,"enabled":true,"region":"us-central","cc":"us","latitude":41.881832,"longitude":-87.62318,"reserved":0,"last_update":"0001-01-01T00:00:00Z","name_a2s":"Uncletopia | Chicago | 4 | All Maps","protocol":17,"map":"cp_dustbowl","folder":"tf","game":"Team Fortress","app_id":440,"player_count":11,"max_players":24,"Bots":0,"server_type":"Dedicated","server_os":"Linux","password":true,"vac":true,"version":"7961495","steam_id":85568392924515193,"keywords":["cp","nocrits","nodmgspread","uncletopia"],"game_id":440,"stv_port":27046,"stv_name":"Uncletopia | Chicago | 4 | All Maps | STV","players":[{"user_id":1061,"name":"Nari","steam_id":76561199220038535,"connected_time":1025000000000,"state":"active","ping":62},{"user_id":1054,"name":"Pyro she/her","steam_id":76561198214080773,"connected_time":1866000000000,"state":"active","ping":83},{"user_id":1056,"name":"nick.burnside29","steam_id":76561199502565889,"connected_time":1464000000000,"state":"active","ping":81},{"user_id":1065,"name":"neptune","steam_id":76561198383404869,"connected_time":151000000000,"state":"active","ping":114},{"user_id":1066,"name":"MINI CRIT!999","steam_id":76561198027649268,"connected_time":134000000000,"state":"active","ping":73},{"user_id":1048,"name":"Steak","steam_id":76561198214754864,"connected_time":2073000000000,"state":"active","ping":85},{"user_id":1049,"name":"eepy kitty uwu","steam_id":76561198106313563,"connected_time":2037000000000,"state":"active","ping":59},{"user_id":1067,"name":"TTV/YT hunter","steam_id":76561198115812405,"connected_time":27000000000,"state":"active","ping":79},{"user_id":1052,"name":"femboy on hrt","steam_id":76561198204075083,"connected_time":1929000000000,"state":"active","ping":72},{"user_id":994,"name":"CreateADebate","steam_id":76561198115760035,"connected_time":7626000000000,"state":"active","ping":60},{"user_id":1057,"name":"cajun thotsauce","steam_id":76561198101636066,"connected_time":1306000000000,"state":"active","ping":93}]},{"server_id":36,"name":"Uncletopia | Chicago | 5 | All Maps","name_short":"chi-5","host":"chi-2.us.uncletopia.com","port":27015,"enabled":true,"region":"us-central","cc":"us","latitude":41.881832,"longitude":-87.62318,"reserved":0,"last_update":"0001-01-01T00:00:00Z","name_a2s":"Uncletopia | Chicago | 5 | All Maps","protocol":17,"map":"koth_cascade","folder":"tf","game":"Team Fortress","app_id":440,"player_count":0,"max_players":24,"Bots":0,"server_type":"Dedicated","server_os":"Linux","password":true,"vac":true,"version":"7961495","steam_id":85568392924866362,"keywords":["cp","nocrits","nodmgspread","uncletopia"],"game_id":440,"stv_port":27016,"stv_name":"Uncletopia | Chicago | 5 | All Maps | STV","players":null},{"server_id":37,"name":"Uncletopia | Chicago | 6 | All Maps","name_short":"chi-6","host":"chi-2.us.uncletopia.com","port":27025,"enabled":true,"region":"us-central","cc":"us","latitude":41.881832,"longitude":-87.62318,"reserved":0,"last_update":"0001-01-01T00:00:00Z","name_a2s":"Uncletopia | Chicago | 6 | All Maps","protocol":17,"map":"pl_frontier_final","folder":"tf","game":"Team Fortress","app_id":440,"player_count":0,"max_players":24,"Bots":0,"server_type":"Dedicated","server_os":"Linux","password":true,"vac":true,"version":"7961495","steam_id":85568392924866363,"keywords":["nocrits","nodmgspread","payload","uncletopia"],"game_id":440,"stv_port":27026,"stv_name":"Uncletopia | Chicago | 6 | All Maps | STV","players":null},{"server_id":38,"name":"Uncletopia | Chicago | 7 | Stopwatch","name_short":"chi-7","host":"chi-2.us.uncletopia.com","port":27035,"enabled":true,"region":"us-central","cc":"us","latitude":41.881832,"longitude":-87.62318,"reserved":0,"last_update":"0001-01-01T00:00:00Z","name_a2s":"Uncletopia | Chicago | 7 | Stopwatch","protocol":17,"map":"workshop/koth_ashville_final.ugc2130459942","folder":"tf","game":"Team Fortress","app_id":440,"player_count":0,"max_players":24,"Bots":0,"server_type":"Dedicated","server_os":"Linux","password":true,"vac":true,"version":"7961495","steam_id":85568392924866364,"keywords":["cp","nocrits","nodmgspread","uncletopia"],"game_id":440,"stv_port":27036,"stv_name":"Uncletopia | Chicago | 7 | Stopwatch | STV","players":null},{"server_id":39,"name":"Uncletopia | Chicago | 8 | Community","name_short":"chi-8","host":"chi-2.us.uncletopia.com","port":27045,"enabled":true,"region":"us-central","cc":"us","latitude":41.881832,"longitude":-87.62318,"reserved":0,"last_update":"0001-01-01T00:00:00Z","name_a2s":"Uncletopia | Chicago | 8 | Community","protocol":17,"map":"workshop/koth_ashville_final.ugc2130459942","folder":"tf","game":"Team Fortress","app_id":440,"player_count":0,"max_players":24,"Bots":0,"server_type":"Dedicated","server_os":"Linux","password":true,"vac":true,"version":"7961495","steam_id":85568392924866365,"keywords":["cp","nocrits","nodmgspread","uncletopia"],"game_id":440,"stv_port":27046,"stv_name":"Uncletopia | Chicago | 8 | Community | STV","players":null},{"server_id":8,"name":"Uncletopia | Dallas | 1 | All Maps","name_short":"dal-1","host":"dal-1.us.uncletopia.com","port":27015,"enabled":true,"region":"us-central","cc":"us","latitude":32.779167,"longitude":-96.80889,"reserved":0,"last_update":"0001-01-01T00:00:00Z","name_a2s":"Uncletopia | Dallas | 1 | All Maps","protocol":17,"map":"pl_pier","folder":"tf","game":"Team Fortress","app_id":440,"player_count":0,"max_players":24,"Bots":0,"server_type":"Dedicated","server_os":"Linux","password":true,"vac":true,"version":"7961495","steam_id":85568392924469986,"keywords":["nocrits","nodmgspread","payload","uncletopia"],"game_id":440,"stv_port":27016,"stv_name":"Uncletopia | Dallas | 1 | All Maps | STV","players":null},{"server_id":108,"name":"Uncletopia | Dallas | 2 | All Maps","name_short":"dal-2","host":"dal-1.us.uncletopia.com","port":27025,"enabled":true,"region":"us-central","cc":"us","latitude":32.779167,"longitude":-96.80889,"reserved":0,"last_update":"0001-01-01T00:00:00Z","name_a2s":"Uncletopia | Dallas | 2 | All Maps","protocol":17,"map":"pl_snowycoast","folder":"tf","game":"Team Fortress","app_id":440,"player_count":24,"max_players":24,"Bots":0,"server_type":"Dedicated","server_os":"Linux","password":true,"vac":true,"version":"7961495","steam_id":85568392924469988,"keywords":["nocrits","nodmgspread","payload","uncletopia"],"game_id":440,"stv_port":27026,"stv_name":"Uncletopia | Dallas | 2 | All Maps | STV","players":[{"user_id":489,"name":"gamig","steam_id":76561198452046317,"connected_time":1492000000000,"state":"active","ping":75},{"user_id":492,"name":"Artic_Ryuu","steam_id":76561198182194918,"connected_time":946000000000,"state":"active","ping":74},{"user_id":493,"name":"clavin","steam_id":76561198069380992,"connected_time":756000000000,"state":"active","ping":57},{"user_id":491,"name":"Cave Dweller","steam_id":76561198374825685,"connected_time":1122000000000,"state":"active","ping":97},{"user_id":511,"name":"Slug Warrior","steam_id":76561197996052704,"connected_time":282000000000,"state":"active","ping":92},{"user_id":431,"name":"Cast Iron Crusader","steam_id":76561198066384337,"connected_time":6798000000000,"state":"active","ping":85},{"user_id":494,"name":"don","steam_id":76561198204410892,"connected_time":713000000000,"state":"active","ping":69},{"user_id":469,"name":"{ST} Oxythemoron","steam_id":76561198060089965,"connected_time":2341000000000,"state":"active","ping":58},{"user_id":465,"name":"gromt","steam_id":76561198314446564,"connected_time":3067000000000,"state":"active","ping":88},{"user_id":462,"name":"Potato Lord Gaben","steam_id":76561198238661676,"connected_time":3601000000000,"state":"active","ping":62},{"user_id":512,"name":"Cat","steam_id":76561198132362099,"connected_time":274000000000,"state":"active","ping":105},{"user_id":474,"name":"Female Gamer","steam_id":76561199366482682,"connected_time":2170000000000,"state":"active","ping":117},{"user_id":466,"name":"Missing Minus","steam_id":76561198120822928,"connected_time":3060000000000,"state":"active","ping":72},{"user_id":450,"name":"tsz","steam_id":76561199246231090,"connected_time":4334000000000,"state":"active","ping":79},{"user_id":497,"name":"An Unhappy Clown","steam_id":76561198175516514,"connected_time":648000000000,"state":"active","ping":49},{"user_id":477,"name":"Squiliam","steam_id":76561198025278006,"connected_time":2115000000000,"state":"active","ping":44},{"user_id":461,"name":"Kenny[Goblin]","steam_id":76561199005805984,"connected_time":3786000000000,"state":"active","ping":45},{"user_id":500,"name":"herb","steam_id":76561198185980055,"connected_time":631000000000,"state":"active","ping":75},{"user_id":487,"name":"Larry Gooseman","steam_id":76561198018696922,"connected_time":1559000000000,"state":"active","ping":90},{"user_id":488,"name":"[Karma]Destroyer","steam_id":76561198086977640,"connected_time":1557000000000,"state":"active","ping":98},{"user_id":480,"name":"NexFrost","steam_id":76561197985774837,"connected_time":2086000000000,"state":"active","ping":40},{"user_id":481,"name":"Densten","steam_id":76561198026091923,"connected_time":1994000000000,"state":"active","ping":102},{"user_id":490,"name":"purple hatsune miku","steam_id":76561198108844158,"connected_time":1395000000000,"state":"active","ping":73},{"user_id":501,"name":"Sturm","steam_id":76561198340079559,"connected_time":620000000000,"state":"active","ping":83}]},{"server_id":404,"name":"Uncletopia | Dallas | 3 | All Maps","name_short":"dal-3","host":"dal-1.us.uncletopia.com","port":27035,"enabled":true,"region":"us-central","cc":"us","latitude":32.779167,"longitude":-96.80889,"reserved":0,"last_update":"0001-01-01T00:00:00Z","name_a2s":"Uncletopia | Dallas | 3 | All Maps","protocol":17,"map":"cp_altitude","folder":"tf","game":"Team Fortress","app_id":440,"player_count":0,"max_players":24,"Bots":0,"server_type":"Dedicated","server_os":"Linux","password":true,"vac":true,"version":"7961495","steam_id":85568392924515219,"keywords":["cp","nocrits","nodmgspread","uncletopia"],"game_id":440,"stv_port":27036,"stv_name":"Uncletopia | Dallas | 3 | All Maps | STV","players":null},{"server_id":405,"name":"Uncletopia | Dallas | 4 | Community","name_short":"dal-4","host":"dal-1.us.uncletopia.com","port":27045,"enabled":true,"region":"us-central","cc":"us","latitude":32.779167,"longitude":-96.80889,"reserved":0,"last_update":"0001-01-01T00:00:00Z","name_a2s":"Uncletopia | Dallas | 4 | Community","protocol":17,"map":"workshop/koth_synthetic_rc6a.ugc1549817316","folder":"tf","game":"Team Fortress","app_id":440,"player_count":0,"max_players":24,"Bots":0,"server_type":"Dedicated","server_os":"Linux","password":true,"vac":true,"version":"7961495","steam_id":85568392924515220,"keywords":["cp","nocrits","nodmgspread","uncletopia"],"game_id":440,"stv_port":27046,"stv_name":"Uncletopia | Dallas | 4 | Community | STV","players":null},{"server_id":5,"name":"Uncletopia | Frankfurt | 1 | All Maps","name_short":"frk-1","host":"frk-1.de.uncletopia.com","port":27015,"enabled":true,"region":"eu","cc":"de","latitude":50.110924,"longitude":8.682127,"reserved":0,"last_update":"0001-01-01T00:00:00Z","name_a2s":"Uncletopia | Frankfurt | 1 | All Maps","protocol":17,"map":"koth_highpass","folder":"tf","game":"Team Fortress","app_id":440,"player_count":0,"max_players":24,"Bots":0,"server_type":"Dedicated","server_os":"Linux","password":true,"vac":true,"version":"7961495","steam_id":85568392924469989,"keywords":["cp","nocrits","nodmgspread","uncletopia"],"game_id":440,"stv_port":27016,"stv_name":"Uncletopia | Frankfurt | 1 | All Maps | STV","players":null},{"server_id":110,"name":"Uncletopia | Frankfurt | 2 | All Maps","name_short":"frk-2","host":"frk-1.de.uncletopia.com","port":27025,"enabled":true,"region":"eu","cc":"de","latitude":50.110924,"longitude":8.682127,"reserved":0,"last_update":"0001-01-01T00:00:00Z","name_a2s":"Uncletopia | Frankfurt | 2 | All Maps","protocol":17,"map":"pl_borneo","folder":"tf","game":"Team Fortress","app_id":440,"player_count":7,"max_players":24,"Bots":0,"server_type":"Dedicated","server_os":"Linux","password":true,"vac":true,"version":"7961495","steam_id":85568392924469990,"keywords":["nocrits","nodmgspread","payload","uncletopia"],"game_id":440,"stv_port":27026,"stv_name":"Uncletopia | Frankfurt | 2 | All Maps | STV","players":[{"user_id":4,"name":"Mozzaza","steam_id":76561198156316111,"connected_time":4405000000000,"state":"active","ping":132},{"user_id":30,"name":"Freezer84","steam_id":76561198314211531,"connected_time":766000000000,"state":"active","ping":80},{"user_id":33,"name":"Squash Banana","steam_id":76561198055480280,"connected_time":268000000000,"state":"active","ping":78},{"user_id":34,"name":"demoman gaming","steam_id":76561198883641136,"connected_time":158000000000,"state":"active","ping":80},{"user_id":10,"name":"QuantumFox","steam_id":76561198125912648,"connected_time":3404000000000,"state":"active","ping":51},{"user_id":16,"name":"GüçlüAYraNsAĞ","steam_id":76561199184988396,"connected_time":2803000000000,"state":"active","ping":103},{"user_id":15,"name":"Sneaky boi","steam_id":76561199195985387,"connected_time":2825000000000,"state":"active","ping":81}]},{"server_id":308,"name":"Uncletopia | Frankfurt | 3 | All Maps","name_short":"frk-3","host":"frk-1.de.uncletopia.com","port":27035,"enabled":true,"region":"eu","cc":"de","latitude":50.110924,"longitude":8.682127,"reserved":0,"last_update":"0001-01-01T00:00:00Z","name_a2s":"Uncletopia | Frankfurt | 3 | All Maps","protocol":17,"map":"pl_barnblitz","folder":"tf","game":"Team Fortress","app_id":440,"player_count":0,"max_players":24,"Bots":0,"server_type":"Dedicated","server_os":"Linux","password":true,"vac":true,"version":"7961495","steam_id":85568392924504274,"keywords":["nocrits","nodmgspread","payload","uncletopia"],"game_id":440,"stv_port":27036,"stv_name":"Uncletopia | Frankfurt | 3 | All Maps | STV","players":null},{"server_id":309,"name":"Uncletopia | Frankfurt | 4 | All Maps","name_short":"frk-4","host":"frk-1.de.uncletopia.com","port":27045,"enabled":true,"region":"eu","cc":"de","latitude":50.110924,"longitude":8.682127,"reserved":0,"last_update":"0001-01-01T00:00:00Z","name_a2s":"Uncletopia | Frankfurt | 4 | All Maps","protocol":17,"map":"koth_highpass","folder":"tf","game":"Team Fortress","app_id":440,"player_count":0,"max_players":24,"Bots":0,"server_type":"Dedicated","server_os":"Linux","password":true,"vac":true,"version":"7961495","steam_id":85568392924504275,"keywords":["cp","nocrits","nodmgspread","uncletopia"],"game_id":440,"stv_port":27046,"stv_name":"Uncletopia | Frankfurt | 4 | All Maps | STV","players":null},{"server_id":310,"name":"Uncletopia | Frankfurt | 5 | All Maps","name_short":"frk-5","host":"frk-1.de.uncletopia.com","port":27055,"enabled":true,"region":"eu","cc":"de","latitude":50.110924,"longitude":8.682127,"reserved":0,"last_update":"0001-01-01T00:00:00Z","name_a2s":"Uncletopia | Frankfurt | 5 | All Maps","protocol":17,"map":"pl_badwater","folder":"tf","game":"Team Fortress","app_id":440,"player_count":0,"max_players":24,"Bots":0,"server_type":"Dedicated","server_os":"Linux","password":true,"vac":true,"version":"7961495","steam_id":85568392924504277,"keywords":["nocrits","nodmgspread","payload","uncletopia"],"game_id":440,"stv_port":27056,"stv_name":"Uncletopia | Frankfurt | 5 | All Maps | STV","players":null},{"server_id":311,"name":"Uncletopia | Frankfurt | 6 | All Maps","name_short":"frk-6","host":"frk-1.de.uncletopia.com","port":27065,"enabled":true,"region":"eu","cc":"de","latitude":50.110924,"longitude":8.682127,"reserved":0,"last_update":"0001-01-01T00:00:00Z","name_a2s":"Uncletopia | Frankfurt | 6 | All Maps","protocol":17,"map":"cp_altitude","folder":"tf","game":"Team Fortress","app_id":440,"player_count":0,"max_players":24,"Bots":0,"server_type":"Dedicated","server_os":"Linux","password":true,"vac":true,"version":"7961495","steam_id":85568392924504278,"keywords":["cp","nocrits","nodmgspread","uncletopia"],"game_id":440,"stv_port":27066,"stv_name":"Uncletopia | Frankfurt | 6 | All Maps | STV","players":null},{"server_id":23,"name":"Uncletopia | Frankfurt | 7 | Stopwatch","name_short":"frk-7","host":"frk-1.de.uncletopia.com","port":27075,"enabled":true,"region":"eu","cc":"de","latitude":50.110924,"longitude":8.682127,"reserved":0,"last_update":"0001-01-01T00:00:00Z","name_a2s":"Uncletopia | Frankfurt | 7 | Stopwatch","protocol":17,"map":"pl_frontier_final","folder":"tf","game":"Team Fortress","app_id":440,"player_count":0,"max_players":24,"Bots":0,"server_type":"Dedicated","server_os":"Linux","password":true,"vac":true,"version":"7961495","steam_id":85568392924742827,"keywords":["nocrits","nodmgspread","payload","uncletopia"],"game_id":440,"stv_port":27076,"stv_name":"Uncletopia | Frankfurt | 7 | Stopwatch | STV","players":null},{"server_id":24,"name":"Uncletopia | Frankfurt | 8 | Community","name_short":"frk-8","host":"frk-1.de.uncletopia.com","port":27085,"enabled":true,"region":"eu","cc":"de","latitude":50.110924,"longitude":8.682127,"reserved":0,"last_update":"0001-01-01T00:00:00Z","name_a2s":"Uncletopia | Frankfurt | 8 | Community","protocol":17,"map":"cp_mountainlab","folder":"tf","game":"Team Fortress","app_id":440,"player_count":0,"max_players":24,"Bots":0,"server_type":"Dedicated","server_os":"Linux","password":true,"vac":true,"version":"7961495","steam_id":85568392924742828,"keywords":["cp","nocrits","nodmgspread","uncletopia"],"game_id":440,"stv_port":27086,"stv_name":"Uncletopia | Frankfurt | 8 | Community | STV","players":null},{"server_id":202,"name":"Uncletopia | Hong Kong | 1 | All Maps","name_short":"hgk-1","host":"hgk-1.hk.uncletopia.com","port":27015,"enabled":true,"region":"asia","cc":"hk","latitude":22.302711,"longitude":114.177216,"reserved":0,"last_update":"0001-01-01T00:00:00Z","name_a2s":"Uncletopia | Hong Kong | 1 | All Maps","protocol":17,"map":"koth_lakeside_final","folder":"tf","game":"Team Fortress","app_id":440,"player_count":0,"max_players":24,"Bots":0,"server_type":"Dedicated","server_os":"Linux","password":true,"vac":true,"version":"7961495","steam_id":85568392924494504,"keywords":["cp","nocrits","nodmgspread","uncletopia"],"game_id":440,"stv_port":27016,"stv_name":"Uncletopia | Hong Kong | 1 | All Maps | STV","players":null},{"server_id":1,"name":"Uncletopia | Los Angeles | 1 | All Maps","name_short":"lax-1","host":"lax-1.us.uncletopia.com","port":27015,"enabled":true,"region":"us-west","cc":"us","latitude":33.94279,"longitude":-118.41004,"reserved":0,"last_update":"0001-01-01T00:00:00Z","name_a2s":"Uncletopia | Los Angeles | 1 | All Maps","protocol":17,"map":"cp_dustbowl","folder":"tf","game":"Team Fortress","app_id":440,"player_count":24,"max_players":24,"Bots":0,"server_type":"Dedicated","server_os":"Linux","password":true,"vac":true,"version":"7961495","steam_id":85568392924469991,"keywords":["cp","nocrits","nodmgspread","uncletopia"],"game_id":440,"stv_port":27016,"stv_name":"Uncletopia | Los Angeles | 1 | All Maps | STV","players":[{"user_id":553,"name":"Puskinti","steam_id":76561198032120688,"connected_time":1985000000000,"state":"active","ping":85},{"user_id":574,"name":"ChoccyMiltank","steam_id":76561198981474284,"connected_time":160000000000,"state":"active","ping":44},{"user_id":560,"name":"Meat","steam_id":76561198047911274,"connected_time":1541000000000,"state":"active","ping":55},{"user_id":561,"name":"azureglxy","steam_id":76561198861388315,"connected_time":1491000000000,"state":"active","ping":37},{"user_id":573,"name":"SuperRPGgamer","steam_id":76561198288017834,"connected_time":496000000000,"state":"active","ping":70},{"user_id":562,"name":"Gummy","steam_id":76561199200969139,"connected_time":1409000000000,"state":"active","ping":111},{"user_id":508,"name":"who","steam_id":76561198066091050,"connected_time":4848000000000,"state":"active","ping":86},{"user_id":563,"name":"U ω U","steam_id":76561198118802562,"connected_time":1383000000000,"state":"active","ping":61},{"user_id":564,"name":"Grimm_Reaper164","steam_id":76561198848333297,"connected_time":1379000000000,"state":"active","ping":71},{"user_id":555,"name":"BurritoCat","steam_id":76561198059822805,"connected_time":1866000000000,"state":"active","ping":111},{"user_id":480,"name":"johnny","steam_id":76561198050225055,"connected_time":6585000000000,"state":"active","ping":45},{"user_id":492,"name":"EGADS! I'M PINNED!","steam_id":76561198145669711,"connected_time":5537000000000,"state":"active","ping":42},{"user_id":510,"name":"cjetson","steam_id":76561198074482272,"connected_time":4810000000000,"state":"active","ping":62},{"user_id":565,"name":"shakoiwa","steam_id":76561199059441773,"connected_time":1319000000000,"state":"active","ping":79},{"user_id":566,"name":"Emma","steam_id":76561198206177593,"connected_time":995000000000,"state":"active","ping":45},{"user_id":567,"name":"roach :3","steam_id":76561198354811369,"connected_time":956000000000,"state":"active","ping":54},{"user_id":546,"name":"Ando","steam_id":76561198434314265,"connected_time":2723000000000,"state":"active","ping":53},{"user_id":568,"name":"Nimrod","steam_id":76561198133286622,"connected_time":906000000000,"state":"active","ping":103},{"user_id":569,"name":"I_ARE_PABLO","steam_id":76561198882269003,"connected_time":816000000000,"state":"active","ping":114},{"user_id":500,"name":"lol","steam_id":76561198026491738,"connected_time":5352000000000,"state":"active","ping":69},{"user_id":501,"name":"meph","steam_id":76561198149683030,"connected_time":5351000000000,"state":"active","ping":69},{"user_id":570,"name":"Emperor Entropy","steam_id":76561198113723324,"connected_time":811000000000,"state":"active","ping":94},{"user_id":571,"name":"Uncle Smelly","steam_id":76561198833616175,"connected_time":810000000000,"state":"active","ping":88},{"user_id":572,"name":"yeah, I got a small dick, so wh","steam_id":76561198357132470,"connected_time":794000000000,"state":"active","ping":62}]},{"server_id":112,"name":"Uncletopia | Los Angeles | 2 | All Maps","name_short":"lax-2","host":"lax-1.us.uncletopia.com","port":27025,"enabled":true,"region":"us-west","cc":"us","latitude":33.94279,"longitude":-118.41004,"reserved":0,"last_update":"0001-01-01T00:00:00Z","name_a2s":"Uncletopia | Los Angeles | 2 | All Maps","protocol":17,"map":"cp_mountainlab","folder":"tf","game":"Team Fortress","app_id":440,"player_count":0,"max_players":24,"Bots":0,"server_type":"Dedicated","server_os":"Linux","password":true,"vac":true,"version":"7961495","steam_id":85568392924469992,"keywords":["cp","nocrits","nodmgspread","uncletopia"],"game_id":440,"stv_port":27026,"stv_name":"Uncletopia | Los Angeles | 2 | All Maps | STV","players":null},{"server_id":324,"name":"Uncletopia | Los Angeles | 3 | All Maps","name_short":"lax-3","host":"lax-1.us.uncletopia.com","port":27035,"enabled":true,"region":"us-west","cc":"us","latitude":33.94279,"longitude":-118.41004,"reserved":0,"last_update":"0001-01-01T00:00:00Z","name_a2s":"Uncletopia | Los Angeles | 3 | All Maps","protocol":17,"map":"cp_snakewater_final1","folder":"tf","game":"Team Fortress","app_id":440,"player_count":24,"max_players":24,"Bots":0,"server_type":"Dedicated","server_os":"Linux","password":true,"vac":true,"version":"7961495","steam_id":85568392924510198,"keywords":["cp","nocrits","nodmgspread","uncletopia"],"game_id":440,"stv_port":27036,"stv_name":"Uncletopia | Los Angeles | 3 | All Maps | STV","players":[{"user_id":176,"name":"EAT SPIT!","steam_id":76561198096836451,"connected_time":1556000000000,"state":"active","ping":60},{"user_id":190,"name":"doopu","steam_id":76561199199520060,"connected_time":619000000000,"state":"active","ping":69},{"user_id":149,"name":"basil","steam_id":76561198075758026,"connected_time":3484000000000,"state":"active","ping":112},{"user_id":148,"name":"cinnamon","steam_id":76561198130086375,"connected_time":3494000000000,"state":"active","ping":71},{"user_id":159,"name":"mrselfdestruct13","steam_id":76561197992054553,"connected_time":3182000000000,"state":"active","ping":77},{"user_id":194,"name":"Ide","steam_id":76561198936116083,"connected_time":202000000000,"state":"active","ping":105},{"user_id":175,"name":"bocchi the kobold","steam_id":76561198259650356,"connected_time":1590000000000,"state":"active","ping":68},{"user_id":177,"name":"Lumberjane37 (She/Her)","steam_id":76561198014841793,"connected_time":1527000000000,"state":"active","ping":60},{"user_id":187,"name":"jams","steam_id":76561198131701290,"connected_time":789000000000,"state":"active","ping":49},{"user_id":171,"name":"-{A★T}- KnightofWind","steam_id":76561198103233971,"connected_time":2309000000000,"state":"active","ping":53},{"user_id":193,"name":"inoricaM","steam_id":76561199199257149,"connected_time":395000000000,"state":"active","ping":96},{"user_id":151,"name":"Optimore","steam_id":76561198047662990,"connected_time":3411000000000,"state":"active","ping":45},{"user_id":179,"name":"Gardangle","steam_id":76561198394173831,"connected_time":1397000000000,"state":"active","ping":61},{"user_id":180,"name":"BLØRG","steam_id":76561198036126673,"connected_time":1389000000000,"state":"active","ping":89},{"user_id":173,"name":"weed lesbian","steam_id":76561198042263805,"connected_time":2263000000000,"state":"active","ping":77},{"user_id":181,"name":"tRiCkStAb","steam_id":76561197984716005,"connected_time":1365000000000,"state":"active","ping":57},{"user_id":191,"name":"hello","steam_id":76561198080256936,"connected_time":537000000000,"state":"active","ping":50},{"user_id":158,"name":"Elementary my dear Watson","steam_id":76561198028123939,"connected_time":3257000000000,"state":"active","ping":105},{"user_id":186,"name":"MysticOverlord","steam_id":76561198198132961,"connected_time":1046000000000,"state":"active","ping":96},{"user_id":196,"name":"your bitch uncrustable","steam_id":76561198059921781,"connected_time":19000000000,"state":"active","ping":57},{"user_id":155,"name":"tacticalAneurysm","steam_id":76561198151089127,"connected_time":3378000000000,"state":"active","ping":79},{"user_id":166,"name":"Walter","steam_id":76561198176428878,"connected_time":2710000000000,"state":"active","ping":74},{"user_id":188,"name":"gorefriend","steam_id":76561198049258493,"connected_time":780000000000,"state":"active","ping":83},{"user_id":195,"name":"Charlie Sheen","steam_id":76561198263105663,"connected_time":181000000000,"state":"active","ping":76}]},{"server_id":25,"name":"Uncletopia | Los Angeles | 4 | Stopwatch","name_short":"lax-4","host":"lax-1.us.uncletopia.com","port":27045,"enabled":true,"region":"us-west","cc":"us","latitude":33.94279,"longitude":-118.41004,"reserved":0,"last_update":"0001-01-01T00:00:00Z","name_a2s":"Uncletopia | Los Angeles | 4 | Stopwatch","protocol":17,"map":"workshop/pl_barnblitz_pro7.ugc582280235","folder":"tf","game":"Team Fortress","app_id":440,"player_count":0,"max_players":24,"Bots":0,"server_type":"Dedicated","server_os":"Linux","password":true,"vac":true,"version":"7961495","steam_id":85568392924510199,"keywords":["nocrits","nodmgspread","payload","uncletopia"],"game_id":440,"stv_port":27046,"stv_name":"Uncletopia | Los Angeles | 4 | Stopwatch | STV","players":null},{"server_id":11,"name":"Uncletopia | London | 1 | All Maps","name_short":"lon-1","host":"lon-1.uk.uncletopia.com","port":27015,"enabled":true,"region":"eu","cc":"gb","latitude":51.509865,"longitude":-0.118092,"reserved":0,"last_update":"0001-01-01T00:00:00Z","name_a2s":"Uncletopia | London | 1 | All Maps","protocol":17,"map":"cp_process_final","folder":"tf","game":"Team Fortress","app_id":440,"player_count":20,"max_players":24,"Bots":0,"server_type":"Dedicated","server_os":"Linux","password":true,"vac":true,"version":"7961495","steam_id":85568392924367362,"keywords":["cp","nocrits","nodmgspread","uncletopia"],"game_id":440,"stv_port":27016,"stv_name":"Uncletopia | London | 1 | All Maps | STV","players":[{"user_id":82,"name":"WeskerTea","steam_id":76561198803536180,"connected_time":723000000000,"state":"active","ping":102},{"user_id":90,"name":"sleeping souls","steam_id":76561198205464653,"connected_time":181000000000,"state":"active","ping":54},{"user_id":13,"name":"Alice","steam_id":76561198052410860,"connected_time":7830000000000,"state":"active","ping":141},{"user_id":6,"name":"❤Mr.M❤","steam_id":76561198071053911,"connected_time":8003000000000,"state":"active","ping":60},{"user_id":80,"name":"Zegi","steam_id":76561198036256545,"connected_time":871000000000,"state":"active","ping":66},{"user_id":74,"name":"Antoine","steam_id":76561198021526517,"connected_time":1689000000000,"state":"active","ping":56},{"user_id":83,"name":"Sex Man TF2","steam_id":76561198798657045,"connected_time":580000000000,"state":"active","ping":68},{"user_id":64,"name":"SeaCine","steam_id":76561198085122171,"connected_time":3206000000000,"state":"active","ping":66},{"user_id":76,"name":"marvs","steam_id":76561198851777617,"connected_time":1417000000000,"state":"active","ping":54},{"user_id":77,"name":"Sparrose","steam_id":76561199050235461,"connected_time":1314000000000,"state":"active","ping":88},{"user_id":79,"name":"Born to kill, forced to heal","steam_id":76561199226591345,"connected_time":923000000000,"state":"active","ping":104},{"user_id":81,"name":"else1","steam_id":76561197996558319,"connected_time":757000000000,"state":"active","ping":86},{"user_id":85,"name":"Neimon","steam_id":76561198343485710,"connected_time":529000000000,"state":"active","ping":127},{"user_id":86,"name":"yuno appreciator","steam_id":76561198083286511,"connected_time":459000000000,"state":"active","ping":33},{"user_id":50,"name":"Marcel","steam_id":76561198348686648,"connected_time":4804000000000,"state":"active","ping":44},{"user_id":92,"name":"mohemmedmokhter2005","steam_id":76561199197650506,"connected_time":119000000000,"state":"active","ping":112},{"user_id":93,"name":"I'm bored","steam_id":76561198380504471,"connected_time":101000000000,"state":"active","ping":56},{"user_id":94,"name":"mmodore","steam_id":76561199224563150,"connected_time":98000000000,"state":"active","ping":110},{"user_id":38,"name":"Mits","steam_id":76561198417811385,"connected_time":6108000000000,"state":"active","ping":55},{"user_id":60,"name":"V63 050","steam_id":76561198097789669,"connected_time":3707000000000,"state":"active","ping":69}]},{"server_id":114,"name":"Uncletopia | London | 2 | All Maps","name_short":"lon-2","host":"lon-1.uk.uncletopia.com","port":27025,"enabled":true,"region":"eu","cc":"gb","latitude":51.509865,"longitude":-0.118092,"reserved":0,"last_update":"0001-01-01T00:00:00Z","name_a2s":"Uncletopia | London | 2 | All Maps","protocol":17,"map":"koth_lakeside_final","folder":"tf","game":"Team Fortress","app_id":440,"player_count":0,"max_players":24,"Bots":0,"server_type":"Dedicated","server_os":"Linux","password":true,"vac":true,"version":"7961495","steam_id":85568392924470941,"keywords":["cp","nocrits","nodmgspread","uncletopia"],"game_id":440,"stv_port":27026,"stv_name":"Uncletopia | London | 2 | All Maps | STV","players":null},{"server_id":320,"name":"Uncletopia | London | 3 | All Maps","name_short":"lon-3","host":"lon-1.uk.uncletopia.com","port":27035,"enabled":true,"region":"eu","cc":"gb","latitude":51.509865,"longitude":-0.118092,"reserved":0,"last_update":"0001-01-01T00:00:00Z","name_a2s":"Uncletopia | London | 3 | All Maps","protocol":17,"map":"cp_process_final","folder":"tf","game":"Team Fortress","app_id":440,"player_count":0,"max_players":24,"Bots":0,"server_type":"Dedicated","server_os":"Linux","password":true,"vac":true,"version":"7961495","steam_id":85568392924510192,"keywords":["cp","nocrits","nodmgspread","uncletopia"],"game_id":440,"stv_port":27036,"stv_name":"Uncletopia | London | 3 | All Maps | STV","players":null},{"server_id":321,"name":"Uncletopia | London | 4 | All Maps","name_short":"lon-4","host":"lon-1.uk.uncletopia.com","port":27045,"enabled":true,"region":"eu","cc":"gb","latitude":51.509865,"longitude":-0.118092,"reserved":0,"last_update":"0001-01-01T00:00:00Z","name_a2s":"Uncletopia | London | 4 | All Maps","protocol":17,"map":"koth_cascade","folder":"tf","game":"Team Fortress","app_id":440,"player_count":0,"max_players":24,"Bots":0,"server_type":"Dedicated","server_os":"Linux","password":true,"vac":true,"version":"7961495","steam_id":85568392924510193,"keywords":["cp","nocrits","nodmgspread","uncletopia"],"game_id":440,"stv_port":27046,"stv_name":"Uncletopia | London | 4 | All Maps | STV","players":null},{"server_id":21,"name":"Uncletopia | London | 5 | All Maps","name_short":"lon-5","host":"lon-1.uk.uncletopia.com","port":27055,"enabled":true,"region":"eu","cc":"gb","latitude":51.509865,"longitude":-0.118092,"reserved":0,"last_update":"0001-01-01T00:00:00Z","name_a2s":"Uncletopia | London | 5 | All Maps","protocol":17,"map":"koth_lakeside_final","folder":"tf","game":"Team Fortress","app_id":440,"player_count":0,"max_players":24,"Bots":0,"server_type":"Dedicated","server_os":"Linux","password":true,"vac":true,"version":"7961495","steam_id":85568392924742829,"keywords":["cp","nocrits","nodmgspread","uncletopia"],"game_id":440,"stv_port":27056,"stv_name":"Uncletopia | London | 5 | All Maps | STV","players":null},{"server_id":22,"name":"Uncletopia | London | 6 | All Maps","name_short":"lon-6","host":"lon-1.uk.uncletopia.com","port":27065,"enabled":true,"region":"eu","cc":"gb","latitude":51.509865,"longitude":-0.118092,"reserved":0,"last_update":"0001-01-01T00:00:00Z","name_a2s":"Uncletopia | London | 6 | All Maps","protocol":17,"map":"cp_dustbowl","folder":"tf","game":"Team Fortress","app_id":440,"player_count":0,"max_players":24,"Bots":0,"server_type":"Dedicated","server_os":"Linux","password":true,"vac":true,"version":"7961495","steam_id":85568392924742830,"keywords":["cp","nocrits","nodmgspread","uncletopia"],"game_id":440,"stv_port":27066,"stv_name":"Uncletopia | London | 6 | All Maps | STV","players":null},{"server_id":40,"name":"Uncletopia | London | 7 | Stopwatch","name_short":"lon-7","host":"lon-1.uk.uncletopia.com","port":27075,"enabled":true,"region":"eu","cc":"gb","latitude":51.509865,"longitude":-0.118092,"reserved":0,"last_update":"0001-01-01T00:00:00Z","name_a2s":"Uncletopia | London | 7 | Stopwatch","protocol":17,"map":"koth_lakeside_final","folder":"tf","game":"Team Fortress","app_id":440,"player_count":0,"max_players":24,"Bots":0,"server_type":"Dedicated","server_os":"Linux","password":true,"vac":true,"version":"7961495","steam_id":85568392924964314,"keywords":["cp","nocrits","nodmgspread","uncletopia"],"game_id":440,"stv_port":27076,"stv_name":"Uncletopia | London | 7 | Stopwatch | STV","players":null},{"server_id":41,"name":"Uncletopia | London | 8 | Community","name_short":"lon-8","host":"lon-1.uk.uncletopia.com","port":27085,"enabled":true,"region":"eu","cc":"gb","latitude":51.509865,"longitude":-0.118092,"reserved":0,"last_update":"0001-01-01T00:00:00Z","name_a2s":"Uncletopia | London | 8 | Community","protocol":17,"map":"cp_snakewater_final1","folder":"tf","game":"Team Fortress","app_id":440,"player_count":0,"max_players":24,"Bots":0,"server_type":"Dedicated","server_os":"Linux","password":true,"vac":true,"version":"7961495","steam_id":85568392924964315,"keywords":["cp","nocrits","nodmgspread","uncletopia"],"game_id":440,"stv_port":27086,"stv_name":"Uncletopia | London | 8 | Community | STV","players":null},{"server_id":300,"name":"Uncletopia | Montréal | 1 | One Thousand Uncles","name_short":"mtl-1","host":"mtl-1.ca.uncletopia.com","port":27015,"enabled":true,"region":"us-east","cc":"ca","latitude":45.50889,"longitude":-73.56167,"reserved":0,"last_update":"0001-01-01T00:00:00Z","name_a2s":"","protocol":0,"map":"","folder":"","game":"","app_id":0,"player_count":0,"max_players":0,"Bots":0,"server_type":"","server_os":"","password":false,"vac":false,"version":"","steam_id":0,"keywords":null,"game_id":0,"stv_port":0,"stv_name":"","players":null},{"server_id":301,"name":"Uncletopia | Montréal | 2 | One Thousand Uncles","name_short":"mtl-2","host":"mtl-1.ca.uncletopia.com","port":27025,"enabled":true,"region":"us-east","cc":"ca","latitude":45.50889,"longitude":-73.56167,"reserved":0,"last_update":"0001-01-01T00:00:00Z","name_a2s":"","protocol":0,"map":"","folder":"","game":"","app_id":0,"player_count":0,"max_players":0,"Bots":0,"server_type":"","server_os":"","password":false,"vac":false,"version":"","steam_id":0,"keywords":null,"game_id":0,"stv_port":0,"stv_name":"","players":null},{"server_id":302,"name":"Uncletopia | Montréal | 3 | One Thousand Uncles","name_short":"mtl-3","host":"mtl-1.ca.uncletopia.com","port":27035,"enabled":true,"region":"us-east","cc":"ca","latitude":45.50889,"longitude":-73.56167,"reserved":0,"last_update":"0001-01-01T00:00:00Z","name_a2s":"","protocol":0,"map":"","folder":"","game":"","app_id":0,"player_count":0,"max_players":0,"Bots":0,"server_type":"","server_os":"","password":false,"vac":false,"version":"","steam_id":0,"keywords":null,"game_id":0,"stv_port":0,"stv_name":"","players":null},{"server_id":13,"name":"Uncletopia | New York City | 1 | All Maps","name_short":"nyc-1","host":"nyc-1.us.uncletopia.com","port":27015,"enabled":true,"region":"us-east","cc":"us","latitude":40.73061,"longitude":-73.93524,"reserved":0,"last_update":"0001-01-01T00:00:00Z","name_a2s":"Uncletopia | New York City | 1 | All Maps","protocol":17,"map":"pl_enclosure_final","folder":"tf","game":"Team Fortress","app_id":440,"player_count":0,"max_players":24,"Bots":0,"server_type":"Dedicated","server_os":"Linux","password":true,"vac":true,"version":"7961495","steam_id":85568392924469993,"keywords":["nocrits","nodmgspread","payload","uncletopia"],"game_id":440,"stv_port":27016,"stv_name":"Uncletopia | New York City | 1 | All Maps | STV","players":null},{"server_id":14,"name":"Uncletopia | New York City | 2 | All Maps","name_short":"nyc-2","host":"nyc-1.us.uncletopia.com","port":27025,"enabled":true,"region":"us-east","cc":"us","latitude":40.73061,"longitude":-73.93524,"reserved":0,"last_update":"0001-01-01T00:00:00Z","name_a2s":"Uncletopia | New York City | 2 | All Maps","protocol":17,"map":"pl_frontier_final","folder":"tf","game":"Team Fortress","app_id":440,"player_count":0,"max_players":24,"Bots":0,"server_type":"Dedicated","server_os":"Linux","password":true,"vac":true,"version":"7961495","steam_id":85568392924469994,"keywords":["nocrits","nodmgspread","payload","uncletopia"],"game_id":440,"stv_port":27026,"stv_name":"Uncletopia | New York City | 2 | All Maps | STV","players":null},{"server_id":15,"name":"Uncletopia | New York City | 3 | Stopwatch","name_short":"nyc-3","host":"nyc-1.us.uncletopia.com","port":27035,"enabled":true,"region":"us-east","cc":"us","latitude":40.73061,"longitude":-73.93524,"reserved":0,"last_update":"0001-01-01T00:00:00Z","name_a2s":"Uncletopia | New York City | 3 | Stopwatch","protocol":17,"map":"workshop/koth_ashville_final.ugc2130459942","folder":"tf","game":"Team Fortress","app_id":440,"player_count":0,"max_players":24,"Bots":0,"server_type":"Dedicated","server_os":"Linux","password":true,"vac":true,"version":"7961495","steam_id":85568392924742820,"keywords":["cp","nocrits","nodmgspread","uncletopia"],"game_id":440,"stv_port":27036,"stv_name":"Uncletopia | New York City | 3 | Stopwatch | STV","players":null},{"server_id":16,"name":"Uncletopia | New York City | 4 | Community","name_short":"nyc-4","host":"nyc-1.us.uncletopia.com","port":27045,"enabled":true,"region":"us-east","cc":"us","latitude":40.73061,"longitude":-73.93524,"reserved":0,"last_update":"0001-01-01T00:00:00Z","name_a2s":"Uncletopia | New York City | 4 | Community","protocol":17,"map":"workshop/koth_slaughter_rc1.ugc1712845210","folder":"tf","game":"Team Fortress","app_id":440,"player_count":0,"max_players":24,"Bots":0,"server_type":"Dedicated","server_os":"Linux","password":true,"vac":true,"version":"7961495","steam_id":85568392924742821,"keywords":["cp","nocrits","nodmgspread","uncletopia"],"game_id":440,"stv_port":27046,"stv_name":"Uncletopia | New York City | 4 | Community | STV","players":null},{"server_id":142,"name":"Uncletopia | São Paulo | 1 | All Maps","name_short":"sao-1","host":"sao-1.br.uncletopia.com","port":27015,"enabled":true,"region":"sa","cc":"br","latitude":-23.533773,"longitude":-46.62529,"reserved":0,"last_update":"0001-01-01T00:00:00Z","name_a2s":"Uncletopia | São Paulo | 1 | All Maps","protocol":17,"map":"koth_cascade","folder":"tf","game":"Team Fortress","app_id":440,"player_count":0,"max_players":24,"Bots":0,"server_type":"Dedicated","server_os":"Linux","password":true,"vac":true,"version":"7961495","steam_id":85568392924469996,"keywords":["cp","nocrits","nodmgspread","uncletopia"],"game_id":440,"stv_port":27016,"stv_name":"Uncletopia | São Paulo | 1 | All Maps | STV","players":null},{"server_id":143,"name":"Uncletopia | São Paulo | 2 | Community","name_short":"sao-2","host":"sao-2.br.uncletopia.com","port":27015,"enabled":true,"region":"sa","cc":"br","latitude":-23.533773,"longitude":-46.62529,"reserved":0,"last_update":"0001-01-01T00:00:00Z","name_a2s":"Uncletopia | São Paulo | 2 | Community","protocol":17,"map":"pl_badwater","folder":"tf","game":"Team Fortress","app_id":440,"player_count":0,"max_players":24,"Bots":0,"server_type":"Dedicated","server_os":"Linux","password":true,"vac":true,"version":"7961495","steam_id":85568392924485349,"keywords":["nocrits","nodmgspread","payload","uncletopia"],"game_id":440,"stv_port":27016,"stv_name":"Uncletopia | São Paulo | 2 | Community | STV","players":null},{"server_id":7,"name":"Uncletopia | Seattle | 1 | All Maps","name_short":"sea-1","host":"sea-1.us.uncletopia.com","port":27015,"enabled":true,"region":"us-west","cc":"us","latitude":47.608013,"longitude":-122.33517,"reserved":0,"last_update":"0001-01-01T00:00:00Z","name_a2s":"Uncletopia | Seattle | 1 | All Maps","protocol":17,"map":"pl_pier","folder":"tf","game":"Team Fortress","app_id":440,"player_count":24,"max_players":24,"Bots":0,"server_type":"Dedicated","server_os":"Linux","password":true,"vac":true,"version":"7961495","steam_id":85568392924469997,"keywords":["nocrits","nodmgspread","payload","uncletopia"],"game_id":440,"stv_port":27016,"stv_name":"Uncletopia | Seattle | 1 | All Maps | STV","players":[{"user_id":913,"name":"skittle ducks jr.","steam_id":76561198309823950,"connected_time":964000000000,"state":"active","ping":44},{"user_id":881,"name":"rat who can kickflip","steam_id":76561198073620027,"connected_time":3980000000000,"state":"active","ping":39},{"user_id":899,"name":"John Calibur","steam_id":76561197999986606,"connected_time":2688000000000,"state":"active","ping":74},{"user_id":919,"name":"Shaw","steam_id":76561198065598322,"connected_time":210000000000,"state":"active","ping":94},{"user_id":904,"name":"Sheep","steam_id":76561198161218914,"connected_time":1930000000000,"state":"active","ping":67},{"user_id":743,"name":"Havi","steam_id":76561198197832829,"connected_time":15962000000000,"state":"active","ping":45},{"user_id":900,"name":"My Tomato Computer","steam_id":76561198121360293,"connected_time":2585000000000,"state":"active","ping":46},{"user_id":918,"name":"ed","steam_id":76561198080475712,"connected_time":308000000000,"state":"active","ping":61},{"user_id":912,"name":"Lily Thorn","steam_id":76561198305488625,"connected_time":1230000000000,"state":"active","ping":60},{"user_id":888,"name":"Meepster","steam_id":76561198146305159,"connected_time":3478000000000,"state":"active","ping":55},{"user_id":863,"name":"Username","steam_id":76561199033122306,"connected_time":4603000000000,"state":"active","ping":139},{"user_id":914,"name":"dodger doo","steam_id":76561198986534519,"connected_time":926000000000,"state":"active","ping":45},{"user_id":897,"name":"Keamy","steam_id":76561199471434875,"connected_time":2882000000000,"state":"active","ping":44},{"user_id":920,"name":"type \"bad med\" to kick","steam_id":76561198076402476,"connected_time":134000000000,"state":"active","ping":84},{"user_id":865,"name":"Sniff","steam_id":76561198010270922,"connected_time":4588000000000,"state":"active","ping":75},{"user_id":917,"name":"kill me","steam_id":76561198032625036,"connected_time":334000000000,"state":"active","ping":56},{"user_id":893,"name":"exephur","steam_id":76561198135763234,"connected_time":3109000000000,"state":"active","ping":62},{"user_id":901,"name":"flame","steam_id":76561198079321914,"connected_time":2322000000000,"state":"active","ping":47},{"user_id":857,"name":"PvZ Enthusiast","steam_id":76561199089562026,"connected_time":5492000000000,"state":"active","ping":43},{"user_id":884,"name":"Lord Hater","steam_id":76561199158148782,"connected_time":3721000000000,"state":"active","ping":61},{"user_id":895,"name":"Sweets the bday girl","steam_id":76561198998446307,"connected_time":2902000000000,"state":"active","ping":87},{"user_id":921,"name":"ImaCactus","steam_id":76561198036131290,"connected_time":89000000000,"state":"active","ping":106},{"user_id":815,"name":"Daz","steam_id":76561198041431938,"connected_time":9049000000000,"state":"active","ping":51},{"user_id":889,"name":"raspy","steam_id":76561198027298961,"connected_time":3439000000000,"state":"active","ping":112}]},{"server_id":119,"name":"Uncletopia | Seattle | 2 | All Maps","name_short":"sea-2","host":"sea-1.us.uncletopia.com","port":27025,"enabled":true,"region":"us-west","cc":"us","latitude":47.608013,"longitude":-122.33517,"reserved":0,"last_update":"0001-01-01T00:00:00Z","name_a2s":"Uncletopia | Seattle | 2 | All Maps","protocol":17,"map":"cp_egypt_final","folder":"tf","game":"Team Fortress","app_id":440,"player_count":24,"max_players":24,"Bots":0,"server_type":"Dedicated","server_os":"Linux","password":true,"vac":true,"version":"7961495","steam_id":85568392924469998,"keywords":["cp","nocrits","nodmgspread","uncletopia"],"game_id":440,"stv_port":27026,"stv_name":"Uncletopia | Seattle | 2 | All Maps | STV","players":[{"user_id":416,"name":"Mr8bittripper","steam_id":76561198133894229,"connected_time":4791000000000,"state":"active","ping":46},{"user_id":439,"name":"baby","steam_id":76561198353456379,"connected_time":3618000000000,"state":"active","ping":76},{"user_id":470,"name":"top 10 sidewalks","steam_id":76561198844273999,"connected_time":1016000000000,"state":"active","ping":43},{"user_id":475,"name":"Future Tusk","steam_id":76561198199635217,"connected_time":703000000000,"state":"active","ping":70},{"user_id":417,"name":"Shazzy","steam_id":76561198145460523,"connected_time":4787000000000,"state":"active","ping":44},{"user_id":473,"name":"Spam The Alien","steam_id":76561199122290968,"connected_time":885000000000,"state":"active","ping":67},{"user_id":462,"name":"Set","steam_id":76561198063949642,"connected_time":1631000000000,"state":"active","ping":44},{"user_id":463,"name":"Antwan","steam_id":76561198246200638,"connected_time":1546000000000,"state":"active","ping":97},{"user_id":418,"name":"Noah","steam_id":76561198059048749,"connected_time":4769000000000,"state":"active","ping":46},{"user_id":232,"name":"worker","steam_id":76561198039608940,"connected_time":18425000000000,"state":"active","ping":58},{"user_id":430,"name":"fragadelphia","steam_id":76561198066116363,"connected_time":4581000000000,"state":"active","ping":45},{"user_id":370,"name":"Bullahorns","steam_id":76561197997138052,"connected_time":8229000000000,"state":"active","ping":104},{"user_id":445,"name":"Dr. Corg","steam_id":76561198039866005,"connected_time":3358000000000,"state":"active","ping":74},{"user_id":472,"name":"Scoops M'Gooch","steam_id":76561198048423812,"connected_time":905000000000,"state":"active","ping":77},{"user_id":427,"name":"Thequirka","steam_id":76561198968058652,"connected_time":4640000000000,"state":"active","ping":53},{"user_id":453,"name":"DEMO PAN TF2","steam_id":76561199152778243,"connected_time":2849000000000,"state":"active","ping":43},{"user_id":467,"name":"Daikaiju15","steam_id":76561198383955066,"connected_time":1215000000000,"state":"active","ping":45},{"user_id":460,"name":"Context","steam_id":76561197972634187,"connected_time":1789000000000,"state":"active","ping":57},{"user_id":464,"name":"Luckylit","steam_id":76561198271979612,"connected_time":1449000000000,"state":"active","ping":51},{"user_id":448,"name":"poundcake","steam_id":76561198796548083,"connected_time":3341000000000,"state":"active","ping":45},{"user_id":474,"name":"Siopao","steam_id":76561198254089497,"connected_time":881000000000,"state":"active","ping":126},{"user_id":434,"name":"Woah","steam_id":76561197973558812,"connected_time":4488000000000,"state":"active","ping":44},{"user_id":466,"name":"Hawksgamer","steam_id":76561198152405941,"connected_time":1344000000000,"state":"active","ping":48},{"user_id":469,"name":"DevourerofGlass","steam_id":76561199443647976,"connected_time":1203000000000,"state":"active","ping":100}]},{"server_id":406,"name":"Uncletopia | Seattle | 3 | Stopwatch","name_short":"sea-3","host":"sea-1.us.uncletopia.com","port":27035,"enabled":true,"region":"us-west","cc":"us","latitude":47.608013,"longitude":-122.33517,"reserved":0,"last_update":"0001-01-01T00:00:00Z","name_a2s":"Uncletopia | Seattle | 3 | Stopwatch","protocol":17,"map":"workshop/koth_clearcut_b15.ugc2107050255","folder":"tf","game":"Team Fortress","app_id":440,"player_count":0,"max_players":24,"Bots":0,"server_type":"Dedicated","server_os":"Linux","password":true,"vac":true,"version":"7961495","steam_id":85568392924515217,"keywords":["cp","nocrits","nodmgspread","uncletopia"],"game_id":440,"stv_port":27036,"stv_name":"Uncletopia | Seattle | 3 | Stopwatch | STV","players":null},{"server_id":17,"name":"Uncletopia | San Francisco | 1 | All Maps","name_short":"sfo-1","host":"sfo-1.us.uncletopia.com","port":27015,"enabled":true,"region":"us-west","cc":"us","latitude":37.77397,"longitude":-122.4313,"reserved":0,"last_update":"0001-01-01T00:00:00Z","name_a2s":"Uncletopia | San Francisco | 1 | All Maps","protocol":17,"map":"koth_cascade","folder":"tf","game":"Team Fortress","app_id":440,"player_count":0,"max_players":24,"Bots":0,"server_type":"Dedicated","server_os":"Linux","password":true,"vac":true,"version":"7961495","steam_id":85568392924469999,"keywords":["cp","nocrits","nodmgspread","uncletopia"],"game_id":440,"stv_port":27016,"stv_name":"Uncletopia | San Francisco | 1 | All Maps | STV","players":null},{"server_id":18,"name":"Uncletopia | San Francisco | 2 | All Maps","name_short":"sfo-2","host":"sfo-1.us.uncletopia.com","port":27025,"enabled":true,"region":"us-west","cc":"us","latitude":37.77397,"longitude":-122.4313,"reserved":0,"last_update":"0001-01-01T00:00:00Z","name_a2s":"Uncletopia | San Francisco | 2 | All Maps","protocol":17,"map":"koth_cascade","folder":"tf","game":"Team Fortress","app_id":440,"player_count":0,"max_players":24,"Bots":0,"server_type":"Dedicated","server_os":"Linux","password":true,"vac":true,"version":"7961495","steam_id":85568392924470000,"keywords":["cp","nocrits","nodmgspread","uncletopia"],"game_id":440,"stv_port":27026,"stv_name":"Uncletopia | San Francisco | 2 | All Maps | STV","players":null},{"server_id":19,"name":"Uncletopia | San Francisco | 3 | Stopwatch","name_short":"sfo-3","host":"sfo-1.us.uncletopia.com","port":27035,"enabled":true,"region":"us-west","cc":"us","latitude":37.77397,"longitude":-122.4313,"reserved":0,"last_update":"0001-01-01T00:00:00Z","name_a2s":"Uncletopia | San Francisco | 3 | Stopwatch","protocol":17,"map":"workshop/koth_ramjam_rc1.ugc459778887","folder":"tf","game":"Team Fortress","app_id":440,"player_count":0,"max_players":24,"Bots":0,"server_type":"Dedicated","server_os":"Linux","password":true,"vac":true,"version":"7961495","steam_id":85568392924742824,"keywords":["cp","nocrits","nodmgspread","uncletopia"],"game_id":440,"stv_port":27036,"stv_name":"Uncletopia | San Francisco | 3 | Stopwatch | STV","players":null},{"server_id":20,"name":"Uncletopia | San Francisco | 4 | Community","name_short":"sfo-4","host":"sfo-1.us.uncletopia.com","port":27045,"enabled":true,"region":"us-west","cc":"us","latitude":37.77397,"longitude":-122.4313,"reserved":0,"last_update":"0001-01-01T00:00:00Z","name_a2s":"Uncletopia | San Francisco | 4 | Community","protocol":17,"map":"workshop/koth_trenchfoot_ab1.ugc731436616","folder":"tf","game":"Team Fortress","app_id":440,"player_count":0,"max_players":24,"Bots":0,"server_type":"Dedicated","server_os":"Linux","password":true,"vac":true,"version":"7961495","steam_id":85568392924742826,"keywords":["cp","nocrits","nodmgspread","uncletopia"],"game_id":440,"stv_port":27046,"stv_name":"Uncletopia | San Francisco | 4 | Community | STV","players":null},{"server_id":141,"name":"Uncletopia | Sydney | 1 | All Maps","name_short":"syd-1","host":"syd-1.au.uncletopia.com","port":27015,"enabled":true,"region":"au","cc":"au","latitude":-33.865143,"longitude":151.2099,"reserved":0,"last_update":"0001-01-01T00:00:00Z","name_a2s":"Uncletopia | Sydney | 1 | All Maps","protocol":17,"map":"pl_upward","folder":"tf","game":"Team Fortress","app_id":440,"player_count":2,"max_players":24,"Bots":0,"server_type":"Dedicated","server_os":"Linux","password":true,"vac":true,"version":"7961495","steam_id":85568392924470001,"keywords":["nocrits","nodmgspread","payload","uncletopia"],"game_id":440,"stv_port":27016,"stv_name":"Uncletopia | Sydney | 1 | All Maps | STV","players":[{"user_id":14,"name":"76561199365669004","steam_id":76561199365669004,"connected_time":425000000000,"state":"active","ping":55},{"user_id":16,"name":"scoot010","steam_id":76561198821606563,"connected_time":51000000000,"state":"active","ping":51}]},{"server_id":123,"name":"Uncletopia | Sydney | 2 | All Maps","name_short":"syd-2","host":"syd-1.au.uncletopia.com","port":27025,"enabled":true,"region":"au","cc":"au","latitude":-33.865143,"longitude":151.2099,"reserved":0,"last_update":"0001-01-01T00:00:00Z","name_a2s":"Uncletopia | Sydney | 2 | All Maps","protocol":17,"map":"koth_lakeside_final","folder":"tf","game":"Team Fortress","app_id":440,"player_count":0,"max_players":24,"Bots":0,"server_type":"Dedicated","server_os":"Linux","password":true,"vac":true,"version":"7961495","steam_id":85568392924470002,"keywords":["cp","nocrits","nodmgspread","uncletopia"],"game_id":440,"stv_port":27026,"stv_name":"Uncletopia | Sydney | 2 | All Maps | STV","players":null},{"server_id":395,"name":"Uncletopia | Sydney | 3 | All Maps","name_short":"syd-3","host":"syd-1.au.uncletopia.com","port":27035,"enabled":true,"region":"au","cc":"au","latitude":-33.865143,"longitude":151.2099,"reserved":0,"last_update":"0001-01-01T00:00:00Z","name_a2s":"Uncletopia | Sydney | 3 | All Maps","protocol":17,"map":"koth_highpass","folder":"tf","game":"Team Fortress","app_id":440,"player_count":0,"max_players":24,"Bots":0,"server_type":"Dedicated","server_os":"Linux","password":true,"vac":true,"version":"7961495","steam_id":85568392925194467,"keywords":["cp","nocrits","nodmgspread","uncletopia"],"game_id":440,"stv_port":27036,"stv_name":"Uncletopia | Sydney | 3 | All Maps | STV","players":null},{"server_id":396,"name":"Uncletopia | Sydney | 4 | All Maps","name_short":"syd-4","host":"syd-1.au.uncletopia.com","port":27045,"enabled":true,"region":"au","cc":"au","latitude":-33.865143,"longitude":151.2099,"reserved":0,"last_update":"0001-01-01T00:00:00Z","name_a2s":"Uncletopia | Sydney | 4 | All Maps","protocol":17,"map":"cp_snakewater_final1","folder":"tf","game":"Team Fortress","app_id":440,"player_count":1,"max_players":24,"Bots":0,"server_type":"Dedicated","server_os":"Linux","password":true,"vac":true,"version":"7961495","steam_id":85568392925397958,"keywords":["cp","nocrits","nodmgspread","uncletopia"],"game_id":440,"stv_port":27046,"stv_name":"Uncletopia | Sydney | 4 | All Maps | STV","players":[{"user_id":13,"name":"AceOS","steam_id":76561199473362832,"connected_time":833000000000,"state":"active","ping":105}]},{"server_id":58,"name":"Uncletopia | Sydney | 5 | Stopwatch","name_short":"syd-5","host":"syd-1.au.uncletopia.com","port":27055,"enabled":true,"region":"au","cc":"au","latitude":-33.865143,"longitude":151.2099,"reserved":0,"last_update":"0001-01-01T00:00:00Z","name_a2s":"Uncletopia | Sydney | 5 | Stopwatch","protocol":17,"map":"workshop/pl_barnblitz_pro7.ugc582280235","folder":"tf","game":"Team Fortress","app_id":440,"player_count":22,"max_players":24,"Bots":0,"server_type":"Dedicated","server_os":"Linux","password":true,"vac":true,"version":"7961495","steam_id":85568392925397959,"keywords":["nocrits","nodmgspread","payload","uncletopia"],"game_id":440,"stv_port":27056,"stv_name":"Uncletopia | Sydney | 5 | Stopwatch | STV","players":[{"user_id":73,"name":"Mole Cricket Romancer","steam_id":76561198004276062,"connected_time":373000000000,"state":"active","ping":74},{"user_id":79,"name":"bread head","steam_id":76561198384097770,"connected_time":28000000000,"state":"spawning","ping":199},{"user_id":66,"name":"you can lead a Horace to water","steam_id":76561198301282416,"connected_time":683000000000,"state":"active","ping":53},{"user_id":65,"name":"Daniel Chong (Del Davis)","steam_id":76561199009189725,"connected_time":820000000000,"state":"active","ping":68},{"user_id":62,"name":"cas ganister + water","steam_id":76561198879023728,"connected_time":1274000000000,"state":"active","ping":46},{"user_id":30,"name":"Marzell","steam_id":76561198151276153,"connected_time":3748000000000,"state":"active","ping":89},{"user_id":54,"name":"soupy","steam_id":76561198073734936,"connected_time":1897000000000,"state":"active","ping":90},{"user_id":15,"name":"JunkKnight","steam_id":76561198050917553,"connected_time":4962000000000,"state":"active","ping":65},{"user_id":77,"name":"webbadon, the horrid ᘛ⁐̤\ufffd\ufffd","steam_id":76561198061998379,"connected_time":85000000000,"state":"active","ping":49},{"user_id":57,"name":"lavender","steam_id":76561198081681647,"connected_time":1559000000000,"state":"active","ping":74},{"user_id":80,"name":"2Floppy4Skin","steam_id":76561198854328038,"connected_time":2000000000,"state":"spawning","ping":57},{"user_id":20,"name":"4LOW","steam_id":76561199156942316,"connected_time":4592000000000,"state":"active","ping":77},{"user_id":22,"name":"El","steam_id":76561198095659550,"connected_time":4583000000000,"state":"active","ping":98},{"user_id":61,"name":"I suspect... worms","steam_id":76561198060024585,"connected_time":1354000000000,"state":"active","ping":31},{"user_id":76,"name":"1opal","steam_id":76561198078646194,"connected_time":142000000000,"state":"active","ping":66},{"user_id":35,"name":"8MILLION (del david)","steam_id":76561198140339181,"connected_time":3264000000000,"state":"active","ping":48},{"user_id":59,"name":"Noble Chernobyl","steam_id":76561198011803825,"connected_time":1530000000000,"state":"active","ping":45},{"user_id":48,"name":"Stab Calloway","steam_id":76561198027827983,"connected_time":2524000000000,"state":"active","ping":50},{"user_id":44,"name":"BADLET","steam_id":76561198149006195,"connected_time":2587000000000,"state":"active","ping":37},{"user_id":75,"name":"wack","steam_id":76561198102151044,"connected_time":169000000000,"state":"active","ping":48},{"user_id":72,"name":"Glassy-Eyed Automaton Exploitin","steam_id":76561198072845816,"connected_time":499000000000,"state":"active","ping":55},{"user_id":47,"name":"sober tony","steam_id":76561198046239819,"connected_time":2541000000000,"state":"active","ping":85}]},{"server_id":59,"name":"Uncletopia | Sydney | 6 | Community","name_short":"syd-6","host":"syd-1.au.uncletopia.com","port":27065,"enabled":true,"region":"au","cc":"au","latitude":-33.865143,"longitude":151.2099,"reserved":0,"last_update":"0001-01-01T00:00:00Z","name_a2s":"Uncletopia | Sydney | 6 | Community","protocol":17,"map":"cp_sunshine","folder":"tf","game":"Team Fortress","app_id":440,"player_count":0,"max_players":24,"Bots":0,"server_type":"Dedicated","server_os":"Linux","password":true,"vac":true,"version":"7961495","steam_id":85568392925397960,"keywords":["cp","nocrits","nodmgspread","uncletopia"],"game_id":440,"stv_port":27066,"stv_name":"Uncletopia | Sydney | 6 | Community | STV","players":null},{"server_id":49,"name":"Uncletopia | Warsaw | 1 | One Thousand Uncles","name_short":"waw-1","host":"waw-1.pl.uncletopia.com","port":27015,"enabled":true,"region":"eu","cc":"pl","latitude":52.2297,"longitude":21.017532,"reserved":0,"last_update":"0001-01-01T00:00:00Z","name_a2s":"Uncletopia | Warsaw | 1 | One Thousand Uncles","protocol":17,"map":"koth_highpass","folder":"tf","game":"Team Fortress","app_id":440,"player_count":0,"max_players":32,"Bots":0,"server_type":"Dedicated","server_os":"Linux","password":true,"vac":true,"version":"7961495","steam_id":85568392925397850,"keywords":["alltalk","cp","danepve","increased_maxplayers","nocrits","norespawntime","uncletopia"],"game_id":440,"stv_port":0,"stv_name":"","players":null},{"server_id":50,"name":"Uncletopia | Warsaw | 2 | One Thousand Uncles","name_short":"waw-2","host":"waw-1.pl.uncletopia.com","port":27025,"enabled":true,"region":"eu","cc":"pl","latitude":52.2297,"longitude":21.017532,"reserved":0,"last_update":"0001-01-01T00:00:00Z","name_a2s":"Uncletopia | Warsaw | 2 | One Thousand Uncles","protocol":17,"map":"pl_goldrush","folder":"tf","game":"Team Fortress","app_id":440,"player_count":0,"max_players":32,"Bots":0,"server_type":"Dedicated","server_os":"Linux","password":true,"vac":true,"version":"7961495","steam_id":85568392925397851,"keywords":["alltalk","danepve","increased_maxplayers","nocrits","norespawntime","payload","uncletopia"],"game_id":440,"stv_port":0,"stv_name":"","players":null},{"server_id":51,"name":"Uncletopia | Warsaw | 3 | All Maps","name_short":"waw-3","host":"waw-1.pl.uncletopia.com","port":27035,"enabled":true,"region":"eu","cc":"pl","latitude":52.2297,"longitude":21.017532,"reserved":0,"last_update":"0001-01-01T00:00:00Z","name_a2s":"Uncletopia | Warsaw | 3 | All Maps","protocol":17,"map":"plr_pipeline","folder":"tf","game":"Team Fortress","app_id":440,"player_count":0,"max_players":24,"Bots":0,"server_type":"Dedicated","server_os":"Linux","password":true,"vac":true,"version":"7961495","steam_id":85568392925397852,"keywords":["nocrits","nodmgspread","payload","uncletopia"],"game_id":440,"stv_port":27036,"stv_name":"Uncletopia | Warsaw | 3 | All Maps | STV","players":null},{"server_id":52,"name":"Uncletopia | Warsaw | 4 | All Maps","name_short":"waw-4","host":"waw-1.pl.uncletopia.com","port":27045,"enabled":true,"region":"eu","cc":"pl","latitude":52.2297,"longitude":21.017532,"reserved":0,"last_update":"0001-01-01T00:00:00Z","name_a2s":"Uncletopia | Warsaw | 4 | All Maps","protocol":17,"map":"cp_coldfront","folder":"tf","game":"Team Fortress","app_id":440,"player_count":0,"max_players":24,"Bots":0,"server_type":"Dedicated","server_os":"Linux","password":true,"vac":true,"version":"7961495","steam_id":85568392925397853,"keywords":["cp","nocrits","nodmgspread","uncletopia"],"game_id":440,"stv_port":27046,"stv_name":"Uncletopia | Warsaw | 4 | All Maps | STV","players":null},{"server_id":53,"name":"Uncletopia | Warsaw | 5 | Stopwatch","name_short":"waw-5","host":"waw-1.pl.uncletopia.com","port":27055,"enabled":true,"region":"eu","cc":"pl","latitude":52.2297,"longitude":21.017532,"reserved":0,"last_update":"0001-01-01T00:00:00Z","name_a2s":"Uncletopia | Warsaw | 5 | Stopwatch","protocol":17,"map":"workshop/koth_bagel_rc6.ugc2514036946","folder":"tf","game":"Team Fortress","app_id":440,"player_count":0,"max_players":24,"Bots":0,"server_type":"Dedicated","server_os":"Linux","password":true,"vac":true,"version":"7961495","steam_id":85568392925397854,"keywords":["cp","nocrits","nodmgspread","uncletopia"],"game_id":440,"stv_port":27056,"stv_name":"Uncletopia | Warsaw | 5 | Stopwatch | STV","players":null},{"server_id":54,"name":"Uncletopia | Warsaw | 6 | Community","name_short":"waw-6","host":"waw-1.pl.uncletopia.com","port":27065,"enabled":true,"region":"eu","cc":"pl","latitude":52.2297,"longitude":21.017532,"reserved":0,"last_update":"0001-01-01T00:00:00Z","name_a2s":"Uncletopia | Warsaw | 6 | Community","protocol":17,"map":"workshop/pl_badwater_pro_v12.ugc2142942074","folder":"tf","game":"Team Fortress","app_id":440,"player_count":0,"max_players":24,"Bots":0,"server_type":"Dedicated","server_os":"Linux","password":true,"vac":true,"version":"7961495","steam_id":85568392925397856,"keywords":["nocrits","nodmgspread","payload","uncletopia"],"game_id":440,"stv_port":27066,"stv_name":"Uncletopia | Warsaw | 6 | Community | STV","players":null}]}