{"status":true,"message":"","result":[{"server_id":9,"name":"Uncletopia | Atlanta | 1 | All Maps","name_short":"atl-1","host":"atl-1.us.uncletopia.com","port":27015,"enabled":true,"region":"us-east","cc":"us","latitude":33.753746,"longitude":-84.38633,"reserved":0,"last_update":"0001-01-01T00:00:00Z","name_a2s":"Uncletopia | Atlanta | 1 | All Maps","protocol":17,"map":"pl_pier","folder":"tf","game":"Team Fortress","app_id":440,"player_count":23,"max_players":24,"Bots":0,"server_type":"Dedicated","server_os":"Linux","password":true,"vac":true,"version":"7757534","steam_id":85568392924469982,"keywords":["nocrits","nodmgspread","payload","uncletopia"],"game_id":440,"stv_port":27016,"stv_name":"Uncletopia | Atlanta | 1 | All Maps | STV","players":[{"user_id":188,"name":"Xuulis","steam_id":76561198042810905,"connected_time":1814000000000,"state":"spawning","ping":130},{"user_id":135,"name":"[√òWQJ√ò]chubacaalatake","steam_id":76561198136201697,"connected_time":6777000000000,"state":"spawning","ping":210},{"user_id":136,"name":"Larynx","steam_id":76561199425162651,"connected_time":6762000000000,"state":"spawning","ping":185},{"user_id":6,"name":"oel","steam_id":76561198021224745,"connected_time":15056000000000,"state":"spawning","ping":106},{"user_id":197,"name":"MaxTheRetroGuy","steam_id":76561198845344731,"connected_time":0,"state":"connecting","ping":0},{"user_id":181,"name":"Sheep","steam_id":76561198122705864,"connected_time":1942000000000,"state":"spawning","ping":175},{"user_id":192,"name":"sevanial","steam_id":76561198071532126,"connected_time":1005000000000,"state":"spawning","ping":113},{"user_id":186,"name":"Nassu","steam_id":76561198147367577,"connected_time":1843000000000,"state":"spawning","ping":97},{"user_id":191,"name":"Damian","steam_id":76561198159390231,"connected_time":1473000000000,"state":"spawning","ping":160},{"user_id":183,"name":"Elefant√©","steam_id":76561198258765900,"connected_time":1924000000000,"state":"spawning","ping":91},{"user_id":13,"name":"puppy","steam_id":76561197964635660,"connected_time":15018000000000,"state":"spawning","ping":83},{"user_id":15,"name":"Eden","steam_id":76561198075587475,"connected_time":15013000000000,"state":"spawning","ping":80},{"user_id":196,"name":"Oddball","steam_id":76561198040440984,"connected_time":92000000000,"state":"spawning","ping":172},{"user_id":163,"name":"‡∏∏Reshy","steam_id":76561198004436202,"connected_time":5295000000000,"state":"spawning","ping":162},{"user_id":189,"name":"DMM","steam_id":76561198065426171,"connected_time":1721000000000,"state":"spawning","ping":111},{"user_id":180,"name":"Khailby","steam_id":76561198811728410,"connected_time":2513000000000,"state":"spawning","ping":84},{"user_id":190,"name":"Mr. Morrow","steam_id":76561198011333701,"connected_time":1717000000000,"state":"spawning","ping":122},{"user_id":194,"name":"‚ô• PsychicCellar ‚ô•","steam_id":76561198045923020,"connected_time":448000000000,"state":"spawning","ping":111},{"user_id":195,"name":"[420AA] Ethan Strauberry","steam_id":76561198033888033,"connected_time":398000000000,"state":"spawning","ping":96},{"user_id":172,"name":"the-willy12","steam_id":76561199145029672,"connected_time":3460000000000,"state":"spawning","ping":100},{"user_id":176,"name":"Caoticaos","steam_id":76561198114800227,"connected_time":3212000000000,"state":"spawning","ping":158},{"user_id":121,"name":"cin  ‚ô°‚Äß‚ÇäÀö","steam_id":76561198139802458,"connected_time":8568000000000,"state":"spawning","ping":137},{"user_id":146,"name":"Higgle Poggers","steam_id":76561198043960257,"connected_time":5792000000000,"state":"spawning","ping":97}]},{"server_id":104,"name":"Uncletopia | Atlanta | 2 | All Maps","name_short":"atl-2","host":"atl-1.us.uncletopia.com","port":27025,"enabled":true,"region":"us-east","cc":"us","latitude":33.753746,"longitude":-84.38633,"reserved":0,"last_update":"0001-01-01T00:00:00Z","name_a2s":"Uncletopia | Atlanta | 2 | All Maps","protocol":17,"map":"pl_frontier_final","folder":"tf","game":"Team Fortress","app_id":440,"player_count":24,"max_players":24,"Bots":0,"server_type":"Dedicated","server_os":"Linux","password":true,"vac":true,"version":"7757534","steam_id":85568392924469983,"keywords":["nocrits","nodmgspread","payload","uncletopia"],"game_id":440,"stv_port":27026,"stv_name":"Uncletopia | Atlanta | 2 | All Maps | STV","players":[{"user_id":40,"name":"Transformer6000","steam_id":76561199261627100,"connected_time":1295000000000,"state":"active","ping":75},{"user_id":55,"name":"Moop","steam_id":76561198096984681,"connected_time":190000000000,"state":"active","ping":92},{"user_id":53,"name":"Lilac Lulamoon","steam_id":76561198111402757,"connected_time":238000000000,"state":"active","ping":74},{"user_id":7,"name":"Bleem","steam_id":76561199013619130,"connected_time":3317000000000,"state":"active","ping":113},{"user_id":42,"name":"Room_237","steam_id":76561199135081315,"connected_time":1235000000000,"state":"active","ping":80},{"user_id":35,"name":"Concolor","steam_id":76561198027734150,"connected_time":1798000000000,"state":"active","ping":95},{"user_id":41,"name":"Morshu","steam_id":76561198081617990,"connected_time":1285000000000,"state":"active","ping":109},{"user_id":52,"name":"PCR","steam_id":76561198048748102,"connected_time":287000000000,"state":"active","ping":75},{"user_id":47,"name":"kametro4","steam_id":76561198835430429,"connected_time":1048000000000,"state":"active","ping":100},{"user_id":54,"name":"Frankthetank64","steam_id":76561198362368253,"connected_time":213000000000,"state":"active","ping":75},{"user_id":15,"name":"thrak","steam_id":76561198085790246,"connected_time":2847000000000,"state":"active","ping":67},{"user_id":46,"name":"XxDragon4321xX","steam_id":76561198046705735,"connected_time":1101000000000,"state":"active","ping":161},{"user_id":49,"name":"kasp","steam_id":76561198263271697,"connected_time":915000000000,"state":"active","ping":63},{"user_id":59,"name":"catbot","steam_id":76561198971354161,"connected_time":111000000000,"state":"active","ping":50},{"user_id":56,"name":"Sanic_Bum","steam_id":76561198094179822,"connected_time":190000000000,"state":"active","ping":49},{"user_id":57,"name":"shadownr #savetf2","steam_id":76561197970091757,"connected_time":178000000000,"state":"active","ping":64},{"user_id":51,"name":"Cloud","steam_id":76561198954987128,"connected_time":716000000000,"state":"active","ping":52},{"user_id":58,"name":"üî•üêá","steam_id":76561198357456014,"connected_time":148000000000,"state":"active","ping":101},{"user_id":45,"name":"COLAPERV69","steam_id":76561198912574744,"connected_time":1145000000000,"state":"active","ping":64},{"user_id":27,"name":"GoofyAhGamingGuy","steam_id":76561199331315881,"connected_time":2483000000000,"state":"active","ping":114},{"user_id":61,"name":"Muffin","steam_id":76561199156302434,"connected_time":65000000000,"state":"active","ping":77},{"user_id":31,"name":"Spanky611","steam_id":76561198986385521,"connected_time":2409000000000,"state":"active","ping":78},{"user_id":30,"name":"Super","steam_id":76561199179611350,"connected_time":2450000000000,"state":"active","ping":88},{"user_id":62,"name":"blobb","steam_id":76561198950448488,"connected_time":55000000000,"state":"active","ping":73}]},{"server_id":400,"name":"Uncletopia | Atlanta | 3 | Community","name_short":"atl-3","host":"atl-1.us.uncletopia.com","port":27035,"enabled":true,"region":"us-east","cc":"us","latitude":33.753746,"longitude":-84.38633,"reserved":0,"last_update":"0001-01-01T00:00:00Z","name_a2s":"Uncletopia | Atlanta | 3 | Community","protocol":17,"map":"workshop/cp_villa_b19.ugc2113052569","folder":"tf","game":"Team Fortress","app_id":440,"player_count":0,"max_players":24,"Bots":0,"server_type":"Dedicated","server_os":"Linux","password":true,"vac":true,"version":"7757534","steam_id":85568392924515187,"keywords":["cp","nocrits","nodmgspread","uncletopia"],"game_id":440,"stv_port":27036,"stv_name":"Uncletopia | Atlanta | 3 | Community | STV","players":null},{"server_id":401,"name":"Uncletopia | Atlanta | 4 | No Payload","name_short":"atl-4","host":"atl-1.us.uncletopia.com","port":27045,"enabled":true,"region":"us-east","cc":"us","latitude":33.753746,"longitude":-84.38633,"reserved":0,"last_update":"0001-01-01T00:00:00Z","name_a2s":"","protocol":0,"map":"","folder":"","game":"","app_id":0,"player_count":0,"max_players":0,"Bots":0,"server_type":"","server_os":"","password":false,"vac":false,"version":"","steam_id":0,"keywords":null,"game_id":0,"stv_port":0,"stv_name":"","players":null},{"server_id":2,"name":"Uncletopia | Chicago | 1 | All Maps","name_short":"chi-1","host":"chi-1.us.uncletopia.com","port":27015,"enabled":true,"region":"us-central","cc":"us","latitude":41.881832,"longitude":-87.62318,"reserved":0,"last_update":"0001-01-01T00:00:00Z","name_a2s":"Uncletopia | Chicago | 1 | All Maps","protocol":17,"map":"cp_snakewater_final1","folder":"tf","game":"Team Fortress","app_id":440,"player_count":24,"max_players":24,"Bots":0,"server_type":"Dedicated","server_os":"Linux","password":true,"vac":true,"version":"7757534","steam_id":85568392924469984,"keywords":["cp","nocrits","nodmgspread","uncletopia"],"game_id":440,"stv_port":27016,"stv_name":"Uncletopia | Chicago | 1 | All Maps | STV","players":[{"user_id":179,"name":"rice white","steam_id":76561198320732910,"connected_time":343000000000,"state":"active","ping":75},{"user_id":175,"name":"thigh enjoyer","steam_id":76561198088003193,"connected_time":463000000000,"state":"active","ping":76},{"user_id":172,"name":"canakblasteran","steam_id":76561199472518822,"connected_time":536000000000,"state":"active","ping":101},{"user_id":161,"name":"Pennis the Menace","steam_id":76561198254878037,"connected_time":795000000000,"state":"active","ping":100},{"user_id":173,"name":"HeisenBurger","steam_id":76561198040632080,"connected_time":534000000000,"state":"active","ping":52},{"user_id":162,"name":"Karrot","steam_id":76561198058970903,"connected_time":795000000000,"state":"active","ping":70},{"user_id":180,"name":"Best Boy In Illinois","steam_id":76561198063876068,"connected_time":266000000000,"state":"active","ping":54},{"user_id":135,"name":"scarmiglione in the tardis","steam_id":76561198018761740,"connected_time":3433000000000,"state":"active","ping":76},{"user_id":150,"name":"Coffee with a Stranger","steam_id":76561198307422313,"connected_time":1726000000000,"state":"active","ping":73},{"user_id":169,"name":"barbara","steam_id":76561198072417792,"connected_time":703000000000,"state":"active","ping":89},{"user_id":176,"name":"Rust","steam_id":76561198063959574,"connected_time":428000000000,"state":"active","ping":80},{"user_id":166,"name":"George","steam_id":76561198020046873,"connected_time":773000000000,"state":"active","ping":63},{"user_id":163,"name":"Splinto","steam_id":76561198111260488,"connected_time":793000000000,"state":"active","ping":47},{"user_id":146,"name":"jrdoran","steam_id":76561197984753094,"connected_time":2081000000000,"state":"active","ping":51},{"user_id":158,"name":"Argo","steam_id":76561198353725622,"connected_time":808000000000,"state":"active","ping":76},{"user_id":174,"name":"Poppet","steam_id":76561198012301951,"connected_time":526000000000,"state":"active","ping":55},{"user_id":164,"name":"HansBanans","steam_id":76561198167894050,"connected_time":793000000000,"state":"active","ping":67},{"user_id":168,"name":"lego star wars on the psp","steam_id":76561198148014773,"connected_time":750000000000,"state":"active","ping":75},{"user_id":151,"name":"grimp gromp","steam_id":76561199267535506,"connected_time":1636000000000,"state":"active","ping":70},{"user_id":154,"name":"Banks","steam_id":76561198276505537,"connected_time":1417000000000,"state":"active","ping":64},{"user_id":181,"name":"Highphin","steam_id":76561198986584680,"connected_time":124000000000,"state":"active","ping":64},{"user_id":155,"name":"-,..,-","steam_id":76561198056158882,"connected_time":1396000000000,"state":"active","ping":75},{"user_id":182,"name":"Huntpk","steam_id":76561198340591674,"connected_time":101000000000,"state":"active","ping":40},{"user_id":178,"name":"Highground","steam_id":76561199197544789,"connected_time":372000000000,"state":"active","ping":105}]},{"server_id":106,"name":"Uncletopia | Chicago | 2 | All Maps","name_short":"chi-2","host":"chi-1.us.uncletopia.com","port":27025,"enabled":true,"region":"us-central","cc":"us","latitude":41.881832,"longitude":-87.62318,"reserved":0,"last_update":"0001-01-01T00:00:00Z","name_a2s":"Uncletopia | Chicago | 2 | All Maps","protocol":17,"map":"koth_highpass","folder":"tf","game":"Team Fortress","app_id":440,"player_count":9,"max_players":24,"Bots":0,"server_type":"Dedicated","server_os":"Linux","password":true,"vac":true,"version":"7757534","steam_id":85568392924469985,"keywords":["cp","nocrits","nodmgspread","uncletopia"],"game_id":440,"stv_port":27026,"stv_name":"Uncletopia | Chicago | 2 | All Maps | STV","players":[{"user_id":27,"name":"chiswola","steam_id":76561198046920142,"connected_time":776000000000,"state":"active","ping":60},{"user_id":28,"name":"Generally Unlikeable Person","steam_id":76561197993075304,"connected_time":632000000000,"state":"active","ping":68},{"user_id":31,"name":"manbearswineflu","steam_id":76561198083945137,"connected_time":518000000000,"state":"active","ping":63},{"user_id":32,"name":"FarLogicDreamer","steam_id":76561198251736808,"connected_time":443000000000,"state":"active","ping":74},{"user_id":33,"name":"a crystal lizard","steam_id":76561197997661928,"connected_time":432000000000,"state":"active","ping":54},{"user_id":34,"name":"‡ºò ‚ãÜÀöüéßCaffeine‚òï*Àñ¬∞","steam_id":76561199259309294,"connected_time":311000000000,"state":"active","ping":68},{"user_id":35,"name":"RushlikeaBull","steam_id":76561199302301944,"connected_time":302000000000,"state":"active","ping":142},{"user_id":36,"name":"Belmore","steam_id":76561198009355231,"connected_time":294000000000,"state":"active","ping":109},{"user_id":37,"name":"beastierbeast","steam_id":76561199030645530,"connected_time":149000000000,"state":"active","ping":53}]},{"server_id":402,"name":"Uncletopia | Chicago | 3 | All Maps","name_short":"chi-3","host":"chi-1.us.uncletopia.com","port":27035,"enabled":true,"region":"us-central","cc":"us","latitude":41.881832,"longitude":-87.62318,"reserved":0,"last_update":"0001-01-01T00:00:00Z","name_a2s":"Uncletopia | Chicago | 3 | All Maps","protocol":17,"map":"koth_cascade","folder":"tf","game":"Team Fortress","app_id":440,"player_count":0,"max_players":24,"Bots":0,"server_type":"Dedicated","server_os":"Linux","password":true,"vac":true,"version":"7757534","steam_id":85568392924515191,"keywords":["cp","nocrits","nodmgspread","uncletopia"],"game_id":440,"stv_port":27036,"stv_name":"Uncletopia | Chicago | 3 | All Maps | STV","players":null},{"server_id":403,"name":"Uncletopia | Chicago | 4 | All Maps","name_short":"chi-4","host":"chi-1.us.uncletopia.com","port":27045,"enabled":true,"region":"us-central","cc":"us","latitude":41.881832,"longitude":-87.62318,"reserved":0,"last_update":"0001-01-01T00:00:00Z","name_a2s":"Uncletopia | Chicago | 4 | All Maps","protocol":17,"map":"koth_lakeside_final","folder":"tf","game":"Team Fortress","app_id":440,"player_count":0,"max_players":24,"Bots":0,"server_type":"Dedicated","server_os":"Linux","password":true,"vac":true,"version":"7757534","steam_id":85568392924515193,"keywords":["cp","nocrits","nodmgspread","uncletopia"],"game_id":440,"stv_port":27046,"stv_name":"Uncletopia | Chicago | 4 | All Maps | STV","players":null},{"server_id":36,"name":"Uncletopia | Chicago | 5 | All Maps","name_short":"chi-5","host":"chi-2.us.uncletopia.com","port":27015,"enabled":true,"region":"us-central","cc":"us","latitude":41.881832,"longitude":-87.62318,"reserved":0,"last_update":"0001-01-01T00:00:00Z","name_a2s":"Uncletopia | Chicago | 5 | All Maps","protocol":17,"map":"koth_cascade","folder":"tf","game":"Team Fortress","app_id":440,"player_count":0,"max_players":24,"Bots":0,"server_type":"Dedicated","server_os":"Linux","password":true,"vac":true,"version":"7757534","steam_id":85568392924866362,"keywords":["cp","nocrits","nodmgspread","uncletopia"],"game_id":440,"stv_port":27016,"stv_name":"Uncletopia | Chicago | 5 | All Maps | STV","players":null},{"server_id":37,"name":"Uncletopia | Chicago | 6 | All Maps","name_short":"chi-6","host":"chi-2.us.uncletopia.com","port":27025,"enabled":true,"region":"us-central","cc":"us","latitude":41.881832,"longitude":-87.62318,"reserved":0,"last_update":"0001-01-01T00:00:00Z","name_a2s":"Uncletopia | Chicago | 6 | All Maps","protocol":17,"map":"pl_borneo","folder":"tf","game":"Team Fortress","app_id":440,"player_count":0,"max_players":24,"Bots":0,"server_type":"Dedicated","server_os":"Linux","password":true,"vac":true,"version":"7757534","steam_id":85568392924866363,"keywords":["nocrits","nodmgspread","payload","uncletopia"],"game_id":440,"stv_port":27026,"stv_name":"Uncletopia | Chicago | 6 | All Maps | STV","players":null},{"server_id":38,"name":"Uncletopia | Chicago | 7 | Stopwatch Beta","name_short":"chi-7","host":"chi-2.us.uncletopia.com","port":27035,"enabled":true,"region":"us-central","cc":"us","latitude":41.881832,"longitude":-87.62318,"reserved":0,"last_update":"0001-01-01T00:00:00Z","name_a2s":"Uncletopia | Chicago | 7 | Stopwatch Beta","protocol":17,"map":"pl_barnblitz","folder":"tf","game":"Team Fortress","app_id":440,"player_count":0,"max_players":24,"Bots":0,"server_type":"Dedicated","server_os":"Linux","password":true,"vac":true,"version":"7757534","steam_id":85568392924866364,"keywords":["nocrits","nodmgspread","payload","uncletopia"],"game_id":440,"stv_port":27036,"stv_name":"Uncletopia | Chicago | 7 | Stopwatch Beta | STV","players":null},{"server_id":39,"name":"Uncletopia | Chicago | 8 | Community","name_short":"chi-8","host":"chi-2.us.uncletopia.com","port":27045,"enabled":true,"region":"us-central","cc":"us","latitude":41.881832,"longitude":-87.62318,"reserved":0,"last_update":"0001-01-01T00:00:00Z","name_a2s":"Uncletopia | Chicago | 8 | Community","protocol":17,"map":"koth_cascade","folder":"tf","game":"Team Fortress","app_id":440,"player_count":0,"max_players":24,"Bots":0,"server_type":"Dedicated","server_os":"Linux","password":true,"vac":true,"version":"7757534","steam_id":85568392924866365,"keywords":["cp","nocrits","nodmgspread","uncletopia"],"game_id":440,"stv_port":27046,"stv_name":"Uncletopia | Chicago | 8 | Community | STV","players":null},{"server_id":8,"name":"Uncletopia | Dallas | 1 | All Maps","name_short":"dal-1","host":"dal-1.us.uncletopia.com","port":27015,"enabled":true,"region":"us-central","cc":"us","latitude":32.779167,"longitude":-96.80889,"reserved":0,"last_update":"0001-01-01T00:00:00Z","name_a2s":"Uncletopia | Dallas | 1 | All Maps","protocol":17,"map":"pl_swiftwater_final1","folder":"tf","game":"Team Fortress","app_id":440,"player_count":0,"max_players":24,"Bots":0,"server_type":"Dedicated","server_os":"Linux","password":true,"vac":true,"version":"7757534","steam_id":85568392924469986,"keywords":["nocrits","nodmgspread","payload","uncletopia"],"game_id":440,"stv_port":27016,"stv_name":"Uncletopia | Dallas | 1 | All Maps | STV","players":null},{"server_id":108,"name":"Uncletopia | Dallas | 2 | All Maps","name_short":"dal-2","host":"dal-1.us.uncletopia.com","port":27025,"enabled":true,"region":"us-central","cc":"us","latitude":32.779167,"longitude":-96.80889,"reserved":0,"last_update":"0001-01-01T00:00:00Z","name_a2s":"Uncletopia | Dallas | 2 | All Maps","protocol":17,"map":"pl_upward","folder":"tf","game":"Team Fortress","app_id":440,"player_count":1,"max_players":24,"Bots":0,"server_type":"Dedicated","server_os":"Linux","password":true,"vac":true,"version":"7757534","steam_id":85568392924469988,"keywords":["nocrits","nodmgspread","payload","uncletopia"],"game_id":440,"stv_port":27026,"stv_name":"Uncletopia | Dallas | 2 | All Maps | STV","players":[{"user_id":6,"name":"[LINUX] Purple Penguin Pybro","steam_id":76561198093538786,"connected_time":443000000000,"state":"active","ping":42}]},{"server_id":5,"name":"Uncletopia | Frankfurt | 1 | All Maps","name_short":"frk-1","host":"frk-1.de.uncletopia.com","port":27015,"enabled":true,"region":"eu","cc":"de","latitude":50.110924,"longitude":8.682127,"reserved":0,"last_update":"0001-01-01T00:00:00Z","name_a2s":"Uncletopia | Frankfurt | 1 | All Maps","protocol":17,"map":"koth_cascade","folder":"tf","game":"Team Fortress","app_id":440,"player_count":0,"max_players":24,"Bots":0,"server_type":"Dedicated","server_os":"Linux","password":true,"vac":true,"version":"7757534","steam_id":85568392924469989,"keywords":["cp","nocrits","nodmgspread","uncletopia"],"game_id":440,"stv_port":27016,"stv_name":"Uncletopia | Frankfurt | 1 | All Maps | STV","players":null},{"server_id":110,"name":"Uncletopia | Frankfurt | 2 | All Maps","name_short":"frk-2","host":"frk-1.de.uncletopia.com","port":27025,"enabled":true,"region":"eu","cc":"de","latitude":50.110924,"longitude":8.682127,"reserved":0,"last_update":"0001-01-01T00:00:00Z","name_a2s":"Uncletopia | Frankfurt | 2 | All Maps","protocol":17,"map":"koth_lakeside_final","folder":"tf","game":"Team Fortress","app_id":440,"player_count":0,"max_players":24,"Bots":0,"server_type":"Dedicated","server_os":"Linux","password":true,"vac":true,"version":"7757534","steam_id":85568392924469990,"keywords":["cp","nocrits","nodmgspread","uncletopia"],"game_id":440,"stv_port":27026,"stv_name":"Uncletopia | Frankfurt | 2 | All Maps | STV","players":null},{"server_id":308,"name":"Uncletopia | Frankfurt | 3 | All Maps","name_short":"frk-3","host":"frk-1.de.uncletopia.com","port":27035,"enabled":true,"region":"eu","cc":"de","latitude":50.110924,"longitude":8.682127,"reserved":0,"last_update":"0001-01-01T00:00:00Z","name_a2s":"Uncletopia | Frankfurt | 3 | All Maps","protocol":17,"map":"pl_borneo","folder":"tf","game":"Team Fortress","app_id":440,"player_count":23,"max_players":24,"Bots":0,"server_type":"Dedicated","server_os":"Linux","password":true,"vac":true,"version":"7757534","steam_id":85568392924504274,"keywords":["nocrits","nodmgspread","payload","uncletopia"],"game_id":440,"stv_port":27036,"stv_name":"Uncletopia | Frankfurt | 3 | All Maps | STV","players":[{"user_id":81,"name":"SantiTzePug","steam_id":76561199049615996,"connected_time":1690000000000,"state":"active","ping":70},{"user_id":82,"name":"Clusterfart","steam_id":76561198150242043,"connected_time":1644000000000,"state":"active","ping":162},{"user_id":76,"name":"Micha≈Ç","steam_id":76561198320346362,"connected_time":2190000000000,"state":"active","ping":58},{"user_id":87,"name":"antlionguard","steam_id":76561198072747143,"connected_time":1536000000000,"state":"active","ping":91},{"user_id":70,"name":"Macci - Obismal","steam_id":76561198050485404,"connected_time":2764000000000,"state":"active","ping":74},{"user_id":71,"name":"wes","steam_id":76561198273536400,"connected_time":2762000000000,"state":"active","ping":147},{"user_id":66,"name":"fabacher","steam_id":76561198057905272,"connected_time":2906000000000,"state":"active","ping":58},{"user_id":92,"name":"12001 yellowjackets","steam_id":76561198375599872,"connected_time":1459000000000,"state":"active","ping":81},{"user_id":84,"name":"***** ***","steam_id":76561198048037379,"connected_time":1619000000000,"state":"active","ping":82},{"user_id":88,"name":"\"Long\"","steam_id":76561198126398022,"connected_time":1534000000000,"state":"active","ping":65},{"user_id":99,"name":"yusef","steam_id":76561198108481078,"connected_time":32000000000,"state":"active","ping":113},{"user_id":54,"name":"Bobo","steam_id":76561198052308399,"connected_time":3643000000000,"state":"active","ping":56},{"user_id":93,"name":"dopamine enjoyer","steam_id":76561198140591983,"connected_time":1444000000000,"state":"active","ping":102},{"user_id":100,"name":"MISSING LOBSTER","steam_id":76561198108877641,"connected_time":28000000000,"state":"active","ping":84},{"user_id":95,"name":"noodlehairronaldoprime","steam_id":76561199471954402,"connected_time":346000000000,"state":"active","ping":67},{"user_id":89,"name":"Chill Spirit","steam_id":76561198845001725,"connected_time":1526000000000,"state":"active","ping":45},{"user_id":77,"name":"cracker","steam_id":76561198062107879,"connected_time":2133000000000,"state":"active","ping":77},{"user_id":67,"name":"rock dog","steam_id":76561198110545854,"connected_time":2816000000000,"state":"active","ping":163},{"user_id":42,"name":"Mathieu.","steam_id":76561198039268163,"connected_time":4451000000000,"state":"active","ping":67},{"user_id":86,"name":"GrzMik","steam_id":76561198061951968,"connected_time":1584000000000,"state":"active","ping":90},{"user_id":59,"name":"yeyegoncas","steam_id":76561198061217656,"connected_time":3525000000000,"state":"active","ping":86},{"user_id":78,"name":"plazma","steam_id":76561198886594048,"connected_time":1958000000000,"state":"active","ping":98},{"user_id":98,"name":"Tobbe","steam_id":76561198257747060,"connected_time":120000000000,"state":"active","ping":83}]},{"server_id":309,"name":"Uncletopia | Frankfurt | 4 | All Maps","name_short":"frk-4","host":"frk-1.de.uncletopia.com","port":27045,"enabled":true,"region":"eu","cc":"de","latitude":50.110924,"longitude":8.682127,"reserved":0,"last_update":"0001-01-01T00:00:00Z","name_a2s":"Uncletopia | Frankfurt | 4 | All Maps","protocol":17,"map":"cp_gorge","folder":"tf","game":"Team Fortress","app_id":440,"player_count":20,"max_players":24,"Bots":0,"server_type":"Dedicated","server_os":"Linux","password":true,"vac":true,"version":"7757534","steam_id":85568392924504275,"keywords":["cp","nocrits","nodmgspread","uncletopia"],"game_id":440,"stv_port":27046,"stv_name":"Uncletopia | Frankfurt | 4 | All Maps | STV","players":[{"user_id":249,"name":"Pico","steam_id":76561198063552545,"connected_time":6348000000000,"state":"active","ping":100},{"user_id":332,"name":"better call selo","steam_id":76561198976793469,"connected_time":1007000000000,"state":"active","ping":89},{"user_id":320,"name":"Corpus Christi (F2P)","steam_id":76561199259288856,"connected_time":1684000000000,"state":"active","ping":94},{"user_id":288,"name":"Lesser engineer","steam_id":76561198058694987,"connected_time":3035000000000,"state":"active","ping":74},{"user_id":333,"name":"W√ºstenfuchs","steam_id":76561198453885708,"connected_time":996000000000,"state":"active","ping":69},{"user_id":309,"name":"Baki ‡∂û","steam_id":76561198193615529,"connected_time":2043000000000,"state":"active","ping":59},{"user_id":337,"name":"panakid","steam_id":76561198364121077,"connected_time":846000000000,"state":"active","ping":103},{"user_id":339,"name":"Cleander","steam_id":76561198262207332,"connected_time":270000000000,"state":"active","ping":50},{"user_id":326,"name":"‚òÅ Lou1smeister ‚òÅ","steam_id":76561198004032968,"connected_time":1489000000000,"state":"active","ping":75},{"user_id":327,"name":"Ecton","steam_id":76561198025103720,"connected_time":1451000000000,"state":"active","ping":60},{"user_id":328,"name":"lvl. 50 honkler","steam_id":76561198061688660,"connected_time":1447000000000,"state":"active","ping":110},{"user_id":276,"name":"Anonymous47007","steam_id":76561199005211417,"connected_time":4190000000000,"state":"active","ping":70},{"user_id":329,"name":"DaBro","steam_id":76561198842870459,"connected_time":1329000000000,"state":"active","ping":136},{"user_id":336,"name":"Marchioly","steam_id":76561198335079215,"connected_time":915000000000,"state":"active","ping":104},{"user_id":208,"name":"I was good before.","steam_id":76561198187045217,"connected_time":9167000000000,"state":"active","ping":78},{"user_id":334,"name":"Stein","steam_id":76561198065024084,"connected_time":970000000000,"state":"active","ping":75},{"user_id":287,"name":"Tonne","steam_id":76561197970856766,"connected_time":3047000000000,"state":"active","ping":56},{"user_id":313,"name":"player","steam_id":76561198142890210,"connected_time":1867000000000,"state":"active","ping":96},{"user_id":335,"name":"COLAN","steam_id":76561198111255418,"connected_time":961000000000,"state":"active","ping":55},{"user_id":290,"name":"blurst of times","steam_id":76561197972325640,"connected_time":3015000000000,"state":"active","ping":51}]},{"server_id":310,"name":"Uncletopia | Frankfurt | 5 | All Maps","name_short":"frk-5","host":"frk-1.de.uncletopia.com","port":27055,"enabled":true,"region":"eu","cc":"de","latitude":50.110924,"longitude":8.682127,"reserved":0,"last_update":"0001-01-01T00:00:00Z","name_a2s":"Uncletopia | Frankfurt | 5 | All Maps","protocol":17,"map":"koth_lakeside_final","folder":"tf","game":"Team Fortress","app_id":440,"player_count":0,"max_players":24,"Bots":0,"server_type":"Dedicated","server_os":"Linux","password":true,"vac":true,"version":"7757534","steam_id":85568392924504277,"keywords":["cp","nocrits","nodmgspread","uncletopia"],"game_id":440,"stv_port":27056,"stv_name":"Uncletopia | Frankfurt | 5 | All Maps | STV","players":null},{"server_id":311,"name":"Uncletopia | Frankfurt | 6 | All Maps","name_short":"frk-6","host":"frk-1.de.uncletopia.com","port":27065,"enabled":true,"region":"eu","cc":"de","latitude":50.110924,"longitude":8.682127,"reserved":0,"last_update":"0001-01-01T00:00:00Z","name_a2s":"Uncletopia | Frankfurt | 6 | All Maps","protocol":17,"map":"pl_hoodoo_final","folder":"tf","game":"Team Fortress","app_id":440,"player_count":22,"max_players":24,"Bots":0,"server_type":"Dedicated","server_os":"Linux","password":true,"vac":true,"version":"7757534","steam_id":85568392924504278,"keywords":["nocrits","nodmgspread","payload","uncletopia"],"game_id":440,"stv_port":27066,"stv_name":"Uncletopia | Frankfurt | 6 | All Maps | STV","players":[{"user_id":242,"name":"LIGHTWEIGHT BABY","steam_id":76561198002761980,"connected_time":3088000000000,"state":"active","ping":59},{"user_id":281,"name":"euww","steam_id":76561198061179194,"connected_time":511000000000,"state":"active","ping":78},{"user_id":288,"name":"jaredIV","steam_id":76561198336876675,"connected_time":169000000000,"state":"active","ping":52},{"user_id":279,"name":"avenje","steam_id":76561198155824845,"connected_time":930000000000,"state":"active","ping":82},{"user_id":268,"name":"Miolen","steam_id":76561198083366424,"connected_time":1548000000000,"state":"active","ping":115},{"user_id":282,"name":"Farmercy","steam_id":76561198000038039,"connected_time":507000000000,"state":"active","ping":59},{"user_id":277,"name":"gamer","steam_id":76561198209101861,"connected_time":979000000000,"state":"active","ping":66},{"user_id":223,"name":"Your Average Scout Main","steam_id":76561199403752637,"connected_time":3791000000000,"state":"active","ping":65},{"user_id":251,"name":"Chef Magpie","steam_id":76561198043926401,"connected_time":2265000000000,"state":"active","ping":116},{"user_id":287,"name":"m√®x","steam_id":76561197975951572,"connected_time":254000000000,"state":"active","ping":59},{"user_id":284,"name":"evegioyidechadab","steam_id":76561198075991626,"connected_time":352000000000,"state":"active","ping":71},{"user_id":269,"name":"Talkkari","steam_id":76561198025327723,"connected_time":1530000000000,"state":"active","ping":60},{"user_id":272,"name":"Che","steam_id":76561198069430398,"connected_time":1478000000000,"state":"active","ping":52},{"user_id":199,"name":"Silent Person","steam_id":76561198107763537,"connected_time":5411000000000,"state":"active","ping":64},{"user_id":271,"name":"captain from risk of rain 2","steam_id":76561198072765192,"connected_time":1498000000000,"state":"active","ping":61},{"user_id":253,"name":"Kati","steam_id":76561198007231088,"connected_time":2196000000000,"state":"active","ping":59},{"user_id":289,"name":"Pancakes","steam_id":76561198196259989,"connected_time":97000000000,"state":"active","ping":64},{"user_id":265,"name":"Average Sniper Enjoyer","steam_id":76561197965556042,"connected_time":1563000000000,"state":"active","ping":78},{"user_id":275,"name":"s a i","steam_id":76561197970379754,"connected_time":1371000000000,"state":"active","ping":56},{"user_id":188,"name":"Pronton","steam_id":76561198082502910,"connected_time":6016000000000,"state":"active","ping":55},{"user_id":182,"name":"citronous","steam_id":76561198093290934,"connected_time":6352000000000,"state":"active","ping":59},{"user_id":274,"name":"ELON MUSK","steam_id":76561198132788284,"connected_time":1434000000000,"state":"active","ping":71}]},{"server_id":23,"name":"Uncletopia | Frankfurt | 7 | Stopwatch Beta","name_short":"frk-7","host":"frk-1.de.uncletopia.com","port":27075,"enabled":true,"region":"eu","cc":"de","latitude":50.110924,"longitude":8.682127,"reserved":0,"last_update":"0001-01-01T00:00:00Z","name_a2s":"Uncletopia | Frankfurt | 7 | Stopwatch Beta","protocol":17,"map":"cp_sunshine","folder":"tf","game":"Team Fortress","app_id":440,"player_count":20,"max_players":24,"Bots":0,"server_type":"Dedicated","server_os":"Linux","password":true,"vac":true,"version":"7757534","steam_id":85568392924742827,"keywords":["cp","nocrits","nodmgspread","uncletopia"],"game_id":440,"stv_port":27076,"stv_name":"Uncletopia | Frankfurt | 7 | Stopwatch Beta | STV","players":[{"user_id":219,"name":"Absolute_clamp","steam_id":76561198958563865,"connected_time":796000000000,"state":"active","ping":87},{"user_id":172,"name":"mark","steam_id":76561198309246388,"connected_time":3956000000000,"state":"active","ping":50},{"user_id":179,"name":"Seeker","steam_id":76561198873052772,"connected_time":3492000000000,"state":"active","ping":64},{"user_id":188,"name":"rob","steam_id":76561198122211848,"connected_time":2835000000000,"state":"active","ping":116},{"user_id":222,"name":"Fish 'n' Chips","steam_id":76561198033476886,"connected_time":324000000000,"state":"active","ping":45},{"user_id":211,"name":"The Chosen One","steam_id":76561199046984627,"connected_time":1409000000000,"state":"active","ping":174},{"user_id":220,"name":"The one True Mads","steam_id":76561197999204692,"connected_time":796000000000,"state":"active","ping":70},{"user_id":228,"name":"Swedish Vegan","steam_id":76561198042775020,"connected_time":8000000000,"state":"spawning","ping":80},{"user_id":132,"name":"moody blues","steam_id":76561198444036574,"connected_time":6000000000000,"state":"active","ping":66},{"user_id":226,"name":"petr.kadera","steam_id":76561198310852145,"connected_time":239000000000,"state":"active","ping":68},{"user_id":200,"name":"domfoor22","steam_id":76561199445914774,"connected_time":2344000000000,"state":"active","ping":190},{"user_id":212,"name":"meatsoupcube","steam_id":76561198276802249,"connected_time":1368000000000,"state":"active","ping":112},{"user_id":218,"name":"Sanity Regression","steam_id":76561198967535773,"connected_time":915000000000,"state":"active","ping":76},{"user_id":193,"name":"Francisco","steam_id":76561198074614581,"connected_time":2603000000000,"state":"active","ping":80},{"user_id":225,"name":"RiX","steam_id":76561197969053733,"connected_time":261000000000,"state":"active","ping":69},{"user_id":227,"name":"jerf(god i want estrogen)","steam_id":76561199213901239,"connected_time":233000000000,"state":"active","ping":59},{"user_id":209,"name":"Red Knight","steam_id":76561198831701248,"connected_time":1612000000000,"state":"active","ping":81},{"user_id":147,"name":"Welder","steam_id":76561198355300561,"connected_time":5508000000000,"state":"active","ping":73},{"user_id":221,"name":"ele","steam_id":76561198194876459,"connected_time":793000000000,"state":"active","ping":71},{"user_id":175,"name":"JC","steam_id":76561198029213352,"connected_time":3882000000000,"state":"active","ping":59}]},{"server_id":24,"name":"Uncletopia | Frankfurt | 8 | Community","name_short":"frk-8","host":"frk-1.de.uncletopia.com","port":27085,"enabled":true,"region":"eu","cc":"de","latitude":50.110924,"longitude":8.682127,"reserved":0,"last_update":"0001-01-01T00:00:00Z","name_a2s":"Uncletopia | Frankfurt | 8 | Community","protocol":17,"map":"koth_lakeside_final","folder":"tf","game":"Team Fortress","app_id":440,"player_count":0,"max_players":24,"Bots":0,"server_type":"Dedicated","server_os":"Linux","password":true,"vac":true,"version":"7757534","steam_id":85568392924742828,"keywords":["cp","nocrits","nodmgspread","uncletopia"],"game_id":440,"stv_port":27086,"stv_name":"Uncletopia | Frankfurt | 8 | Community | STV","players":null},{"server_id":202,"name":"Uncletopia | Hong Kong | 1 | All Maps","name_short":"hgk-1","host":"hgk-1.hk.uncletopia.com","port":27015,"enabled":true,"region":"asia","cc":"hk","latitude":22.302711,"longitude":114.177216,"reserved":0,"last_update":"0001-01-01T00:00:00Z","name_a2s":"Uncletopia | Hong Kong | 1 | All Maps","protocol":17,"map":"cp_dustbowl","folder":"tf","game":"Team Fortress","app_id":440,"player_count":24,"max_players":24,"Bots":0,"server_type":"Dedicated","server_os":"Linux","password":true,"vac":true,"version":"7757534","steam_id":85568392924494504,"keywords":["cp","nocrits","nodmgspread","uncletopia"],"game_id":440,"stv_port":27016,"stv_name":"Uncletopia | Hong Kong | 1 | All Maps | STV","players":[{"user_id":466,"name":"P","steam_id":76561198304514505,"connected_time":781000000000,"state":"active","ping":78},{"user_id":448,"name":"Othopeus","steam_id":76561198283534382,"connected_time":1563000000000,"state":"active","ping":63},{"user_id":433,"name":"Turbo.RF4","steam_id":76561199061012484,"connected_time":3309000000000,"state":"active","ping":62},{"user_id":437,"name":"Aiko Kanata Zhenco","steam_id":76561199262955185,"connected_time":2015000000000,"state":"active","ping":112},{"user_id":470,"name":"monkeyman536","steam_id":76561197997717737,"connected_time":580000000000,"state":"active","ping":137},{"user_id":476,"name":"üß°486üß°","steam_id":76561198954326760,"connected_time":51000000000,"state":"active","ping":109},{"user_id":435,"name":"bocchi \"the rock\" johnson","steam_id":76561198008307645,"connected_time":2779000000000,"state":"active","ping":128},{"user_id":477,"name":"Ëß¶‰∏çÂà∞ÁöÑÊúà","steam_id":76561199223645677,"connected_time":18000000000,"state":"spawning","ping":105},{"user_id":452,"name":"Leo Chung","steam_id":76561198044007777,"connected_time":1404000000000,"state":"active","ping":60},{"user_id":242,"name":"silverhouse7","steam_id":76561198349634906,"connected_time":21865000000000,"state":"active","ping":62},{"user_id":462,"name":"ZeniaPY (Playing on Wacom)","steam_id":76561198404352831,"connected_time":1079000000000,"state":"active","ping":52},{"user_id":444,"name":"Wx","steam_id":76561199217780897,"connected_time":1744000000000,"state":"active","ping":119},{"user_id":469,"name":"dumgall","steam_id":76561198061634407,"connected_time":663000000000,"state":"active","ping":75},{"user_id":447,"name":"Grimo_1","steam_id":76561199100139135,"connected_time":1587000000000,"state":"active","ping":133},{"user_id":474,"name":"Pistorix","steam_id":76561199170954298,"connected_time":342000000000,"state":"active","ping":100},{"user_id":400,"name":"Hallelujah","steam_id":76561199024326941,"connected_time":6120000000000,"state":"active","ping":73},{"user_id":307,"name":"Zonic the subsonic","steam_id":76561198213031155,"connected_time":15470000000000,"state":"active","ping":91},{"user_id":472,"name":"Bonker","steam_id":76561198845159846,"connected_time":567000000000,"state":"active","ping":187},{"user_id":475,"name":"TomProPlayer","steam_id":76561199223292521,"connected_time":231000000000,"state":"active","ping":71},{"user_id":461,"name":"meong","steam_id":76561198000393270,"connected_time":1094000000000,"state":"active","ping":75},{"user_id":434,"name":"Socello123","steam_id":76561198400838979,"connected_time":3091000000000,"state":"active","ping":74},{"user_id":465,"name":"killman47","steam_id":76561198348487408,"connected_time":960000000000,"state":"active","ping":41},{"user_id":455,"name":"ChoboUnjeon","steam_id":76561198806095977,"connected_time":1318000000000,"state":"active","ping":90},{"user_id":440,"name":"Bepo","steam_id":76561198136685157,"connected_time":1899000000000,"state":"active","ping":60}]},{"server_id":1,"name":"Uncletopia | Los Angeles | 1 | All Maps","name_short":"lax-1","host":"lax-1.us.uncletopia.com","port":27015,"enabled":true,"region":"us-west","cc":"us","latitude":33.94279,"longitude":-118.41004,"reserved":0,"last_update":"0001-01-01T00:00:00Z","name_a2s":"Uncletopia | Los Angeles | 1 | All Maps","protocol":17,"map":"koth_lakeside_final","folder":"tf","game":"Team Fortress","app_id":440,"player_count":0,"max_players":24,"Bots":0,"server_type":"Dedicated","server_os":"Linux","password":true,"vac":true,"version":"7757534","steam_id":85568392924469991,"keywords":["cp","nocrits","nodmgspread","uncletopia"],"game_id":440,"stv_port":27016,"stv_name":"Uncletopia | Los Angeles | 1 | All Maps | STV","players":null},{"server_id":112,"name":"Uncletopia | Los Angeles | 2 | All Maps","name_short":"lax-2","host":"lax-1.us.uncletopia.com","port":27025,"enabled":true,"region":"us-west","cc":"us","latitude":33.94279,"longitude":-118.41004,"reserved":0,"last_update":"0001-01-01T00:00:00Z","name_a2s":"Uncletopia | Los Angeles | 2 | All Maps","protocol":17,"map":"pl_badwater","folder":"tf","game":"Team Fortress","app_id":440,"player_count":0,"max_players":24,"Bots":0,"server_type":"Dedicated","server_os":"Linux","password":true,"vac":true,"version":"7757534","steam_id":85568392924469992,"keywords":["nocrits","nodmgspread","payload","uncletopia"],"game_id":440,"stv_port":27026,"stv_name":"Uncletopia | Los Angeles | 2 | All Maps | STV","players":null},{"server_id":324,"name":"Uncletopia | Los Angeles | 3 | All Maps","name_short":"lax-3","host":"lax-1.us.uncletopia.com","port":27035,"enabled":true,"region":"us-west","cc":"us","latitude":33.94279,"longitude":-118.41004,"reserved":0,"last_update":"0001-01-01T00:00:00Z","name_a2s":"Uncletopia | Los Angeles | 3 | All Maps","protocol":17,"map":"pl_barnblitz","folder":"tf","game":"Team Fortress","app_id":440,"player_count":0,"max_players":24,"Bots":0,"server_type":"Dedicated","server_os":"Linux","password":true,"vac":true,"version":"7757534","steam_id":85568392924510198,"keywords":["nocrits","nodmgspread","payload","uncletopia"],"game_id":440,"stv_port":27036,"stv_name":"Uncletopia | Los Angeles | 3 | All Maps | STV","players":null},{"server_id":25,"name":"Uncletopia | Los Angeles | 4 | Stopwatch Beta","name_short":"lax-4","host":"lax-1.us.uncletopia.com","port":27045,"enabled":true,"region":"us-west","cc":"us","latitude":33.94279,"longitude":-118.41004,"reserved":0,"last_update":"0001-01-01T00:00:00Z","name_a2s":"Uncletopia | Los Angeles | 4 | Stopwatch Beta","protocol":17,"map":"pl_swiftwater_final1","folder":"tf","game":"Team Fortress","app_id":440,"player_count":0,"max_players":24,"Bots":0,"server_type":"Dedicated","server_os":"Linux","password":true,"vac":true,"version":"7757534","steam_id":85568392924510199,"keywords":["nocrits","nodmgspread","payload","uncletopia"],"game_id":440,"stv_port":27046,"stv_name":"Uncletopia | Los Angeles | 4 | Stopwatch Beta | STV","players":null},{"server_id":11,"name":"Uncletopia | London | 1 | All Maps","name_short":"lon-1","host":"lon-1.uk.uncletopia.com","port":27015,"enabled":true,"region":"eu","cc":"gb","latitude":51.509865,"longitude":-0.118092,"reserved":0,"last_update":"0001-01-01T00:00:00Z","name_a2s":"Uncletopia | London | 1 | All Maps","protocol":17,"map":"pl_snowycoast","folder":"tf","game":"Team Fortress","app_id":440,"player_count":24,"max_players":24,"Bots":0,"server_type":"Dedicated","server_os":"Linux","password":true,"vac":true,"version":"7757534","steam_id":85568392924367362,"keywords":["nocrits","nodmgspread","payload","uncletopia"],"game_id":440,"stv_port":27016,"stv_name":"Uncletopia | London | 1 | All Maps | STV","players":[{"user_id":228,"name":"Son Goku","steam_id":76561199383437138,"connected_time":1226000000000,"state":"active","ping":127},{"user_id":225,"name":"Jakk","steam_id":76561198041537908,"connected_time":1345000000000,"state":"active","ping":55},{"user_id":234,"name":"enesven","steam_id":76561199466839845,"connected_time":963000000000,"state":"active","ping":86},{"user_id":187,"name":"Udinese Dion","steam_id":76561198067931573,"connected_time":3260000000000,"state":"active","ping":52},{"user_id":244,"name":"Caerot (muted)","steam_id":76561198839000676,"connected_time":88000000000,"state":"active","ping":74},{"user_id":245,"name":"MelFunnySmell","steam_id":76561198077506613,"connected_time":25000000000,"state":"active","ping":78},{"user_id":201,"name":"TSx* {Demon-Angel}","steam_id":76561198151486463,"connected_time":2130000000000,"state":"active","ping":92},{"user_id":242,"name":"clean carp","steam_id":76561198127053294,"connected_time":475000000000,"state":"active","ping":73},{"user_id":241,"name":"Reult","steam_id":76561199444524084,"connected_time":696000000000,"state":"active","ping":62},{"user_id":185,"name":"NLSAM","steam_id":76561199111154916,"connected_time":3462000000000,"state":"active","ping":62},{"user_id":169,"name":"Husk","steam_id":76561198271808519,"connected_time":5553000000000,"state":"active","ping":68},{"user_id":239,"name":"Koli","steam_id":76561197992428783,"connected_time":827000000000,"state":"active","ping":60},{"user_id":230,"name":"Danilka","steam_id":76561199222725839,"connected_time":1220000000000,"state":"active","ping":119},{"user_id":235,"name":"Night Fury","steam_id":76561197995207032,"connected_time":952000000000,"state":"active","ping":87},{"user_id":212,"name":"TSx* Bargal","steam_id":76561198040266872,"connected_time":1990000000000,"state":"active","ping":82},{"user_id":223,"name":"mt","steam_id":76561197961319303,"connected_time":1489000000000,"state":"active","ping":61},{"user_id":205,"name":"TSx* Osa__PL","steam_id":76561198027016799,"connected_time":2069000000000,"state":"active","ping":81},{"user_id":229,"name":"AWildTamim","steam_id":76561198048060652,"connected_time":1224000000000,"state":"active","ping":42},{"user_id":236,"name":"KAZAM | Tervez","steam_id":76561198045459068,"connected_time":915000000000,"state":"active","ping":85},{"user_id":159,"name":"ANDROMEDA","steam_id":76561199213073534,"connected_time":6605000000000,"state":"active","ping":87},{"user_id":226,"name":"Puro ‚ô•","steam_id":76561198039016765,"connected_time":1345000000000,"state":"active","ping":94},{"user_id":214,"name":"skilltissues","steam_id":76561198025828664,"connected_time":1983000000000,"state":"active","ping":62},{"user_id":227,"name":"usmanov.inc","steam_id":76561198263734652,"connected_time":1333000000000,"state":"active","ping":119},{"user_id":233,"name":"Lobster","steam_id":76561198814084940,"connected_time":981000000000,"state":"active","ping":37}]},{"server_id":114,"name":"Uncletopia | London | 2 | All Maps","name_short":"lon-2","host":"lon-1.uk.uncletopia.com","port":27025,"enabled":true,"region":"eu","cc":"gb","latitude":51.509865,"longitude":-0.118092,"reserved":0,"last_update":"0001-01-01T00:00:00Z","name_a2s":"Uncletopia | London | 2 | All Maps","protocol":17,"map":"pl_barnblitz","folder":"tf","game":"Team Fortress","app_id":440,"player_count":22,"max_players":24,"Bots":0,"server_type":"Dedicated","server_os":"Linux","password":true,"vac":true,"version":"7757534","steam_id":85568392924470941,"keywords":["nocrits","nodmgspread","payload","uncletopia"],"game_id":440,"stv_port":27026,"stv_name":"Uncletopia | London | 2 | All Maps | STV","players":[{"user_id":322,"name":"f.","steam_id":76561199041640689,"connected_time":96000000000,"state":"active","ping":99},{"user_id":325,"name":"Kapitan Polska","steam_id":76561197968069413,"connected_time":61000000000,"state":"active","ping":72},{"user_id":311,"name":"Angry Ginger","steam_id":76561198256929349,"connected_time":634000000000,"state":"active","ping":135},{"user_id":319,"name":"SkiTzIe","steam_id":76561198010381798,"connected_time":152000000000,"state":"active","ping":55},{"user_id":316,"name":"Roe Jogan","steam_id":76561198871991529,"connected_time":353000000000,"state":"active","ping":61},{"user_id":268,"name":"Keh-nee „ÉÑ","steam_id":76561197970352080,"connected_time":3763000000000,"state":"active","ping":62},{"user_id":312,"name":"Vezage","steam_id":76561198064916164,"connected_time":609000000000,"state":"active","ping":70},{"user_id":313,"name":"Rayoo 420 BLAZE IT üêü","steam_id":76561198215225492,"connected_time":585000000000,"state":"active","ping":89},{"user_id":320,"name":"Dzan50","steam_id":76561198059758591,"connected_time":141000000000,"state":"active","ping":94},{"user_id":318,"name":"Raccoon gal","steam_id":76561198200607926,"connected_time":253000000000,"state":"active","ping":92},{"user_id":282,"name":"Unga-chan sleep for 3 moons.","steam_id":76561198295305088,"connected_time":2873000000000,"state":"active","ping":60},{"user_id":321,"name":"Tort","steam_id":76561198329646769,"connected_time":107000000000,"state":"active","ping":54},{"user_id":323,"name":"Nutri-Score E","steam_id":76561198799097492,"connected_time":93000000000,"state":"active","ping":45},{"user_id":251,"name":"breedable","steam_id":76561198010300032,"connected_time":5310000000000,"state":"active","ping":75},{"user_id":324,"name":"Mr. Hunts","steam_id":76561197981910397,"connected_time":93000000000,"state":"active","ping":65},{"user_id":297,"name":"LisoV","steam_id":76561198125910210,"connected_time":2124000000000,"state":"active","ping":69},{"user_id":326,"name":"„É†GeRmAn |√óUA√ó„É†","steam_id":76561199044754898,"connected_time":48000000000,"state":"active","ping":75},{"user_id":327,"name":"ACG_Dubsy","steam_id":76561198797308565,"connected_time":36000000000,"state":"spawning","ping":58},{"user_id":328,"name":"Cylinder Mann","steam_id":76561198219128033,"connected_time":25000000000,"state":"spawning","ping":60},{"user_id":329,"name":"Inhabitant of Sol 3","steam_id":76561198334822568,"connected_time":19000000000,"state":"active","ping":69},{"user_id":285,"name":"rajAs","steam_id":76561198035928111,"connected_time":2842000000000,"state":"active","ping":92},{"user_id":305,"name":"The_Jaystone","steam_id":76561198126280691,"connected_time":1597000000000,"state":"active","ping":33}]},{"server_id":320,"name":"Uncletopia | London | 3 | All Maps","name_short":"lon-3","host":"lon-1.uk.uncletopia.com","port":27035,"enabled":true,"region":"eu","cc":"gb","latitude":51.509865,"longitude":-0.118092,"reserved":0,"last_update":"0001-01-01T00:00:00Z","name_a2s":"Uncletopia | London | 3 | All Maps","protocol":17,"map":"pl_goldrush","folder":"tf","game":"Team Fortress","app_id":440,"player_count":24,"max_players":24,"Bots":0,"server_type":"Dedicated","server_os":"Linux","password":true,"vac":true,"version":"7757534","steam_id":85568392924510192,"keywords":["nocrits","nodmgspread","payload","uncletopia"],"game_id":440,"stv_port":27036,"stv_name":"Uncletopia | London | 3 | All Maps | STV","players":[{"user_id":100,"name":"Chicker","steam_id":76561198809697283,"connected_time":183000000000,"state":"active","ping":49},{"user_id":77,"name":"Codex","steam_id":76561198068748584,"connected_time":1427000000000,"state":"active","ping":49},{"user_id":26,"name":"Dedeil","steam_id":76561198254839532,"connected_time":3100000000000,"state":"active","ping":51},{"user_id":88,"name":"LuCroGi","steam_id":76561198057283891,"connected_time":695000000000,"state":"active","ping":60},{"user_id":102,"name":"Le p√®re Volca","steam_id":76561198235814492,"connected_time":71000000000,"state":"active","ping":82},{"user_id":59,"name":"Hunter64","steam_id":76561199121947938,"connected_time":2012000000000,"state":"active","ping":48},{"user_id":29,"name":"LVIXX","steam_id":76561198188767928,"connected_time":3016000000000,"state":"active","ping":72},{"user_id":97,"name":"grandpa's post-mortem photo","steam_id":76561198130116078,"connected_time":288000000000,"state":"active","ping":104},{"user_id":91,"name":"KeithStone","steam_id":76561197986083582,"connected_time":593000000000,"state":"active","ping":168},{"user_id":101,"name":"los.pollos.hermanos.tf2","steam_id":76561199225518205,"connected_time":122000000000,"state":"active","ping":59},{"user_id":65,"name":"r06u3 #SummerUpdate_Coming","steam_id":76561198254099253,"connected_time":1962000000000,"state":"active","ping":171},{"user_id":93,"name":"Rowan Atkinson","steam_id":76561199378865926,"connected_time":392000000000,"state":"active","ping":87},{"user_id":37,"name":"–ø—É–±–µ—Ä—Ç–∞—Ç–Ω–∞—è —è–∑–≤–∞","steam_id":76561198984352973,"connected_time":2777000000000,"state":"active","ping":122},{"user_id":98,"name":"ÀêmissingÀê","steam_id":76561198080541279,"connected_time":211000000000,"state":"active","ping":82},{"user_id":99,"name":"Tomfool","steam_id":76561197993256481,"connected_time":208000000000,"state":"active","ping":86},{"user_id":84,"name":"hero","steam_id":76561198338943416,"connected_time":903000000000,"state":"active","ping":45},{"user_id":96,"name":"Jello","steam_id":76561198093180757,"connected_time":321000000000,"state":"active","ping":74},{"user_id":75,"name":"pineapple","steam_id":76561199006566423,"connected_time":1449000000000,"state":"active","ping":79},{"user_id":67,"name":"–†–ï–ë–Ø–¢–ê, I shit my pants","steam_id":76561198815695193,"connected_time":1942000000000,"state":"active","ping":119},{"user_id":64,"name":"Weegee","steam_id":76561198150308523,"connected_time":1971000000000,"state":"active","ping":46},{"user_id":73,"name":"Circular","steam_id":76561198001536710,"connected_time":1558000000000,"state":"active","ping":48},{"user_id":55,"name":"AleXandriX","steam_id":76561198035203950,"connected_time":2262000000000,"state":"active","ping":71},{"user_id":76,"name":"[GM]","steam_id":76561198014733498,"connected_time":1445000000000,"state":"active","ping":138},{"user_id":90,"name":"Fifourche","steam_id":76561198078209480,"connected_time":618000000000,"state":"active","ping":53}]},{"server_id":321,"name":"Uncletopia | London | 4 | All Maps","name_short":"lon-4","host":"lon-1.uk.uncletopia.com","port":27045,"enabled":true,"region":"eu","cc":"gb","latitude":51.509865,"longitude":-0.118092,"reserved":0,"last_update":"0001-01-01T00:00:00Z","name_a2s":"Uncletopia | London | 4 | All Maps","protocol":17,"map":"pl_snowycoast","folder":"tf","game":"Team Fortress","app_id":440,"player_count":22,"max_players":24,"Bots":0,"server_type":"Dedicated","server_os":"Linux","password":true,"vac":true,"version":"7757534","steam_id":85568392924510193,"keywords":["nocrits","nodmgspread","payload","uncletopia"],"game_id":440,"stv_port":27046,"stv_name":"Uncletopia | London | 4 | All Maps | STV","players":[{"user_id":130,"name":"bungus","steam_id":76561198825341377,"connected_time":674000000000,"state":"active","ping":105},{"user_id":127,"name":"Spliffendor","steam_id":76561198144020209,"connected_time":760000000000,"state":"active","ping":40},{"user_id":131,"name":"The 4th Doctor","steam_id":76561198191516706,"connected_time":671000000000,"state":"active","ping":76},{"user_id":152,"name":"i love tf2!","steam_id":76561198050220225,"connected_time":44000000000,"state":"active","ping":122},{"user_id":68,"name":"MtnDew","steam_id":76561199100059743,"connected_time":6095000000000,"state":"active","ping":132},{"user_id":84,"name":"gabagool","steam_id":76561198307111838,"connected_time":4629000000000,"state":"active","ping":46},{"user_id":90,"name":"Hussite","steam_id":76561199293036742,"connected_time":4008000000000,"state":"active","ping":59},{"user_id":136,"name":"Sus Fring","steam_id":76561198821542489,"connected_time":590000000000,"state":"active","ping":99},{"user_id":71,"name":"After8","steam_id":76561198090750865,"connected_time":5265000000000,"state":"active","ping":76},{"user_id":125,"name":"cislastar","steam_id":76561198027202375,"connected_time":1056000000000,"state":"active","ping":58},{"user_id":118,"name":"Dlaf'rferg (she/her)","steam_id":76561198284744735,"connected_time":1722000000000,"state":"active","ping":55},{"user_id":128,"name":"MAKENTAKEN","steam_id":76561199127359587,"connected_time":739000000000,"state":"active","ping":101},{"user_id":148,"name":"Laurie","steam_id":76561198082951750,"connected_time":331000000000,"state":"active","ping":51},{"user_id":77,"name":"Big Al","steam_id":76561198079585198,"connected_time":4789000000000,"state":"active","ping":54},{"user_id":138,"name":"Valentine","steam_id":76561198121343565,"connected_time":586000000000,"state":"active","ping":59},{"user_id":112,"name":"a Cat that cry","steam_id":76561198134378108,"connected_time":1945000000000,"state":"active","ping":75},{"user_id":126,"name":"Arti","steam_id":76561197983352845,"connected_time":972000000000,"state":"active","ping":56},{"user_id":79,"name":"Me When New Update Confirmed","steam_id":76561199229682408,"connected_time":4779000000000,"state":"active","ping":39},{"user_id":139,"name":"Jughead","steam_id":76561198000355410,"connected_time":582000000000,"state":"active","ping":43},{"user_id":140,"name":"I am inside your mother","steam_id":76561198173218318,"connected_time":547000000000,"state":"active","ping":45},{"user_id":142,"name":"s","steam_id":76561198257383813,"connected_time":492000000000,"state":"active","ping":56},{"user_id":145,"name":"John Noob","steam_id":76561197999170026,"connected_time":397000000000,"state":"active","ping":95}]},{"server_id":21,"name":"Uncletopia | London | 5 | All Maps","name_short":"lon-5","host":"lon-1.uk.uncletopia.com","port":27055,"enabled":true,"region":"eu","cc":"gb","latitude":51.509865,"longitude":-0.118092,"reserved":0,"last_update":"0001-01-01T00:00:00Z","name_a2s":"Uncletopia | London | 5 | All Maps","protocol":17,"map":"pl_frontier_final","folder":"tf","game":"Team Fortress","app_id":440,"player_count":22,"max_players":24,"Bots":0,"server_type":"Dedicated","server_os":"Linux","password":true,"vac":true,"version":"7757534","steam_id":85568392924742829,"keywords":["nocrits","nodmgspread","payload","uncletopia"],"game_id":440,"stv_port":27056,"stv_name":"Uncletopia | London | 5 | All Maps | STV","players":[{"user_id":490,"name":"biohazard.pt","steam_id":76561198088367808,"connected_time":237000000000,"state":"active","ping":99},{"user_id":491,"name":"BONK-TEC!","steam_id":76561198272667029,"connected_time":230000000000,"state":"active","ping":49},{"user_id":476,"name":"p!ke","steam_id":76561198416081952,"connected_time":875000000000,"state":"active","ping":63},{"user_id":489,"name":"nickmj","steam_id":76561197974712474,"connected_time":297000000000,"state":"active","ping":66},{"user_id":477,"name":"Over here saw bones","steam_id":76561198320506848,"connected_time":857000000000,"state":"active","ping":36},{"user_id":484,"name":"Noob_with_source","steam_id":76561198870362103,"connected_time":688000000000,"state":"active","ping":59},{"user_id":479,"name":"Jackriz","steam_id":76561198024882111,"connected_time":848000000000,"state":"active","ping":75},{"user_id":470,"name":"Cl√©o #TransRights","steam_id":76561198035674852,"connected_time":1212000000000,"state":"active","ping":54},{"user_id":472,"name":"No hat enjoyer","steam_id":76561198274105878,"connected_time":1041000000000,"state":"active","ping":92},{"user_id":454,"name":"Pancreas Enjoyer","steam_id":76561199438598904,"connected_time":2321000000000,"state":"active","ping":168},{"user_id":455,"name":".::[SerafeTTiN]::.","steam_id":76561198009471724,"connected_time":2280000000000,"state":"active","ping":104},{"user_id":443,"name":"Cosmetic brain","steam_id":76561198055936410,"connected_time":3310000000000,"state":"active","ping":87},{"user_id":456,"name":"rz-/Atomic Punch","steam_id":76561199195508541,"connected_time":2232000000000,"state":"active","ping":76},{"user_id":457,"name":"Vikud","steam_id":76561199110575856,"connected_time":2215000000000,"state":"active","ping":151},{"user_id":414,"name":"quickfast","steam_id":76561199438900919,"connected_time":4948000000000,"state":"active","ping":45},{"user_id":485,"name":"Zinnia_64","steam_id":76561199158994121,"connected_time":601000000000,"state":"active","ping":147},{"user_id":458,"name":"Seail_M","steam_id":76561198002405605,"connected_time":2211000000000,"state":"active","ping":62},{"user_id":473,"name":"epty15","steam_id":76561199247944716,"connected_time":938000000000,"state":"active","ping":68},{"user_id":445,"name":"Whiskey \u0026 Coffee Connoisseur","steam_id":76561198239265962,"connected_time":3195000000000,"state":"active","ping":66},{"user_id":460,"name":"SolidSalt","steam_id":76561198334789026,"connected_time":2163000000000,"state":"active","ping":41},{"user_id":471,"name":"A stripper","steam_id":76561198034865891,"connected_time":1133000000000,"state":"active","ping":62},{"user_id":402,"name":"Cuthbert","steam_id":76561198204649481,"connected_time":5857000000000,"state":"active","ping":109}]},{"server_id":22,"name":"Uncletopia | London | 6 | All Maps","name_short":"lon-6","host":"lon-1.uk.uncletopia.com","port":27065,"enabled":true,"region":"eu","cc":"gb","latitude":51.509865,"longitude":-0.118092,"reserved":0,"last_update":"0001-01-01T00:00:00Z","name_a2s":"Uncletopia | London | 6 | All Maps","protocol":17,"map":"pl_snowycoast","folder":"tf","game":"Team Fortress","app_id":440,"player_count":24,"max_players":24,"Bots":0,"server_type":"Dedicated","server_os":"Linux","password":true,"vac":true,"version":"7757534","steam_id":85568392924742830,"keywords":["nocrits","nodmgspread","payload","uncletopia"],"game_id":440,"stv_port":27066,"stv_name":"Uncletopia | London | 6 | All Maps | STV","players":[{"user_id":6,"name":"HIDEOUS DISFIGUREMENTS","steam_id":76561198036730191,"connected_time":3738000000000,"state":"active","ping":29},{"user_id":7,"name":"jukseb√∏llesnillmaker","steam_id":76561199060683386,"connected_time":3668000000000,"state":"active","ping":72},{"user_id":14,"name":"Drekad√≥ttir","steam_id":76561198119979169,"connected_time":1309000000000,"state":"active","ping":85},{"user_id":54,"name":"not drunk","steam_id":76561199184873889,"connected_time":348000000000,"state":"active","ping":115},{"user_id":11,"name":"TheWildKirby","steam_id":76561198836027309,"connected_time":1760000000000,"state":"active","ping":53},{"user_id":38,"name":"funkliner","steam_id":76561198436902492,"connected_time":1014000000000,"state":"active","ping":113},{"user_id":26,"name":"K.V. #RemoveRandomCrits","steam_id":76561197994832993,"connected_time":1162000000000,"state":"active","ping":82},{"user_id":55,"name":"Sometimes my mouse stops workin","steam_id":76561199233979726,"connected_time":325000000000,"state":"active","ping":91},{"user_id":53,"name":"LukeLeal","steam_id":76561198049822995,"connected_time":693000000000,"state":"active","ping":178},{"user_id":23,"name":"Practice","steam_id":76561198104765420,"connected_time":1192000000000,"state":"active","ping":55},{"user_id":56,"name":"Mayor Wank from Wanker Town","steam_id":76561197998253588,"connected_time":302000000000,"state":"active","ping":57},{"user_id":51,"name":"ice eater","steam_id":76561198356368580,"connected_time":796000000000,"state":"active","ping":78},{"user_id":57,"name":"Blossom the cat eater","steam_id":76561198870873962,"connected_time":206000000000,"state":"active","ping":59},{"user_id":29,"name":"Roda","steam_id":76561198212181011,"connected_time":1138000000000,"state":"active","ping":74},{"user_id":58,"name":"jazztree14","steam_id":76561199239395356,"connected_time":197000000000,"state":"active","ping":165},{"user_id":47,"name":"Kamanie","steam_id":76561198135448255,"connected_time":909000000000,"state":"active","ping":61},{"user_id":52,"name":"Penis Contortionist","steam_id":76561198073663784,"connected_time":725000000000,"state":"active","ping":36},{"user_id":36,"name":"Hightower Enthusiast","steam_id":76561198358029722,"connected_time":1061000000000,"state":"active","ping":70},{"user_id":37,"name":"Dagda","steam_id":76561198871136698,"connected_time":1035000000000,"state":"active","ping":43},{"user_id":39,"name":"Eggcracker","steam_id":76561199274850641,"connected_time":1009000000000,"state":"active","ping":90},{"user_id":59,"name":"Clockey","steam_id":76561198386319583,"connected_time":183000000000,"state":"active","ping":146},{"user_id":43,"name":"vani","steam_id":76561197991778291,"connected_time":966000000000,"state":"active","ping":75},{"user_id":60,"name":"benibachi","steam_id":76561198190816499,"connected_time":178000000000,"state":"active","ping":86},{"user_id":46,"name":"SupLemon","steam_id":76561199147537491,"connected_time":922000000000,"state":"active","ping":90}]},{"server_id":40,"name":"Uncletopia | London | 7 | No Payload","name_short":"lon-7","host":"lon-1.uk.uncletopia.com","port":27075,"enabled":true,"region":"eu","cc":"gb","latitude":51.509865,"longitude":-0.118092,"reserved":0,"last_update":"0001-01-01T00:00:00Z","name_a2s":"Uncletopia | London | 7 | No Payload","protocol":17,"map":"cp_foundry","folder":"tf","game":"Team Fortress","app_id":440,"player_count":0,"max_players":24,"Bots":0,"server_type":"Dedicated","server_os":"Linux","password":true,"vac":true,"version":"7757534","steam_id":85568392924964314,"keywords":["cp","nocrits","nodmgspread","uncletopia"],"game_id":440,"stv_port":27076,"stv_name":"Uncletopia | London | 7 | No Payload | STV","players":null},{"server_id":41,"name":"Uncletopia | London | 8 | Community","name_short":"lon-8","host":"lon-1.uk.uncletopia.com","port":27085,"enabled":true,"region":"eu","cc":"gb","latitude":51.509865,"longitude":-0.118092,"reserved":0,"last_update":"0001-01-01T00:00:00Z","name_a2s":"Uncletopia | London | 8 | Community","protocol":17,"map":"workshop/cp_snowbase_b18.ugc2081770490","folder":"tf","game":"Team Fortress","app_id":440,"player_count":0,"max_players":24,"Bots":0,"server_type":"Dedicated","server_os":"Linux","password":true,"vac":true,"version":"7757534","steam_id":85568392924964315,"keywords":["cp","nocrits","nodmgspread","uncletopia"],"game_id":440,"stv_port":27086,"stv_name":"Uncletopia | London | 8 | Community | STV","players":null},{"server_id":300,"name":"Uncletopia | Montr√©al | 1 | All Maps","name_short":"mtl-1","host":"mtl-1.ca.uncletopia.com","port":27015,"enabled":true,"region":"us-east","cc":"ca","latitude":45.50889,"longitude":-73.56167,"reserved":0,"last_update":"0001-01-01T00:00:00Z","name_a2s":"Uncletopia | Montr√©al | 1 | All Maps","protocol":17,"map":"pl_badwater","folder":"tf","game":"Team Fortress","app_id":440,"player_count":11,"max_players":24,"Bots":0,"server_type":"Dedicated","server_os":"Linux","password":true,"vac":true,"version":"7757534","steam_id":85568392924500087,"keywords":["nocrits","nodmgspread","payload","uncletopia"],"game_id":440,"stv_port":27016,"stv_name":"Uncletopia | Montr√©al | 1 | All Maps | STV","players":[{"user_id":24,"name":"Hotswee","steam_id":76561198873419675,"connected_time":425000000000,"state":"active","ping":73},{"user_id":4,"name":"Transformers Cybertron Theme","steam_id":76561198172746751,"connected_time":3830000000000,"state":"active","ping":46},{"user_id":8,"name":"Raizen","steam_id":76561199092445367,"connected_time":2396000000000,"state":"active","ping":45},{"user_id":13,"name":"grimace mcdonald (real)","steam_id":76561199056802747,"connected_time":1632000000000,"state":"active","ping":80},{"user_id":11,"name":"cabannoahn","steam_id":76561199232960410,"connected_time":1890000000000,"state":"active","ping":140},{"user_id":25,"name":"sploosh","steam_id":76561199202858212,"connected_time":370000000000,"state":"active","ping":56},{"user_id":26,"name":"mobo2112","steam_id":76561197971549777,"connected_time":356000000000,"state":"active","ping":66},{"user_id":27,"name":"Nukem","steam_id":76561198166236574,"connected_time":318000000000,"state":"active","ping":79},{"user_id":28,"name":"radiation","steam_id":76561198001157602,"connected_time":218000000000,"state":"active","ping":72},{"user_id":29,"name":"carrot cake","steam_id":76561198055174915,"connected_time":139000000000,"state":"active","ping":77},{"user_id":30,"name":"Peri","steam_id":76561198255311543,"connected_time":42000000000,"state":"active","ping":83}]},{"server_id":301,"name":"Uncletopia | Montr√©al | 2 | All Maps","name_short":"mtl-2","host":"mtl-1.ca.uncletopia.com","port":27025,"enabled":true,"region":"us-east","cc":"ca","latitude":45.50889,"longitude":-73.56167,"reserved":0,"last_update":"0001-01-01T00:00:00Z","name_a2s":"Uncletopia | Montr√©al | 2 | All Maps","protocol":17,"map":"pl_snowycoast","folder":"tf","game":"Team Fortress","app_id":440,"player_count":0,"max_players":24,"Bots":0,"server_type":"Dedicated","server_os":"Linux","password":true,"vac":true,"version":"7757534","steam_id":85568392924500088,"keywords":["nocrits","nodmgspread","payload","uncletopia"],"game_id":440,"stv_port":27026,"stv_name":"Uncletopia | Montr√©al | 2 | All Maps | STV","players":null},{"server_id":302,"name":"Uncletopia | Montr√©al | 3 | All Maps","name_short":"mtl-3","host":"mtl-1.ca.uncletopia.com","port":27035,"enabled":true,"region":"us-east","cc":"ca","latitude":45.50889,"longitude":-73.56167,"reserved":0,"last_update":"0001-01-01T00:00:00Z","name_a2s":"Uncletopia | Montr√©al | 3 | All Maps","protocol":17,"map":"pl_swiftwater_final1","folder":"tf","game":"Team Fortress","app_id":440,"player_count":0,"max_players":24,"Bots":0,"server_type":"Dedicated","server_os":"Linux","password":true,"vac":true,"version":"7757534","steam_id":85568392924500089,"keywords":["nocrits","nodmgspread","payload","uncletopia"],"game_id":440,"stv_port":27036,"stv_name":"Uncletopia | Montr√©al | 3 | All Maps | STV","players":null},{"server_id":303,"name":"Uncletopia | Montr√©al | 4 | No Payload","name_short":"mtl-4","host":"mtl-1.ca.uncletopia.com","port":27045,"enabled":true,"region":"us-east","cc":"ca","latitude":45.50889,"longitude":-73.56167,"reserved":0,"last_update":"0001-01-01T00:00:00Z","name_a2s":"Uncletopia | Montr√©al | 4 | No Payload","protocol":17,"map":"pl_pier","folder":"tf","game":"Team Fortress","app_id":440,"player_count":0,"max_players":24,"Bots":0,"server_type":"Dedicated","server_os":"Linux","password":true,"vac":true,"version":"7757534","steam_id":85568392924500090,"keywords":["nocrits","nodmgspread","payload","uncletopia"],"game_id":440,"stv_port":27046,"stv_name":"Uncletopia | Montr√©al | 4 | No Payload | STV","players":null},{"server_id":13,"name":"Uncletopia | New York City | 1 | All Maps","name_short":"nyc-1","host":"nyc-1.us.uncletopia.com","port":27015,"enabled":true,"region":"us-east","cc":"us","latitude":40.73061,"longitude":-73.93524,"reserved":0,"last_update":"0001-01-01T00:00:00Z","name_a2s":"Uncletopia | New York City | 1 | All Maps","protocol":17,"map":"koth_viaduct","folder":"tf","game":"Team Fortress","app_id":440,"player_count":0,"max_players":24,"Bots":0,"server_type":"Dedicated","server_os":"Linux","password":true,"vac":true,"version":"7757534","steam_id":85568392924469993,"keywords":["cp","nocrits","nodmgspread","uncletopia"],"game_id":440,"stv_port":27016,"stv_name":"Uncletopia | New York City | 1 | All Maps | STV","players":null},{"server_id":14,"name":"Uncletopia | New York City | 2 | All Maps","name_short":"nyc-2","host":"nyc-1.us.uncletopia.com","port":27025,"enabled":true,"region":"us-east","cc":"us","latitude":40.73061,"longitude":-73.93524,"reserved":0,"last_update":"0001-01-01T00:00:00Z","name_a2s":"Uncletopia | New York City | 2 | All Maps","protocol":17,"map":"cp_5gorge","folder":"tf","game":"Team Fortress","app_id":440,"player_count":24,"max_players":24,"Bots":0,"server_type":"Dedicated","server_os":"Linux","password":true,"vac":true,"version":"7757534","steam_id":85568392924469994,"keywords":["cp","nocrits","nodmgspread","uncletopia"],"game_id":440,"stv_port":27026,"stv_name":"Uncletopia | New York City | 2 | All Maps | STV","players":[{"user_id":79,"name":"Happy Tree Friends","steam_id":76561198110694072,"connected_time":5554000000000,"state":"active","ping":63},{"user_id":151,"name":"Decs","steam_id":76561198825197974,"connected_time":326000000000,"state":"active","ping":127},{"user_id":147,"name":"Deefect","steam_id":76561198094559788,"connected_time":364000000000,"state":"active","ping":104},{"user_id":139,"name":"women (1/4,095 chance)","steam_id":76561198261007627,"connected_time":1351000000000,"state":"active","ping":69},{"user_id":132,"name":"One Chill Daddio","steam_id":76561198074026282,"connected_time":1900000000000,"state":"active","ping":57},{"user_id":23,"name":"connie kins","steam_id":76561198074701151,"connected_time":8897000000000,"state":"active","ping":116},{"user_id":125,"name":"Tangible Mango's","steam_id":76561199192910349,"connected_time":2312000000000,"state":"active","ping":102},{"user_id":140,"name":"Hotdog Goblin","steam_id":76561198004133638,"connected_time":1338000000000,"state":"active","ping":113},{"user_id":135,"name":"Sprit ‚ô•","steam_id":76561198268780781,"connected_time":1675000000000,"state":"active","ping":59},{"user_id":143,"name":"‚ô° Michelle ‚ô° [bitch/b1mb0]","steam_id":76561197969766746,"connected_time":711000000000,"state":"active","ping":74},{"user_id":156,"name":"Fishstall","steam_id":76561198038126034,"connected_time":44000000000,"state":"active","ping":86},{"user_id":35,"name":"Dairy Queen","steam_id":76561198285298576,"connected_time":8163000000000,"state":"active","ping":86},{"user_id":145,"name":"Pickle Chips","steam_id":76561198271951504,"connected_time":635000000000,"state":"active","ping":45},{"user_id":119,"name":"Ltn. What's-his-Nuts","steam_id":76561198133834262,"connected_time":3116000000000,"state":"active","ping":92},{"user_id":150,"name":"TheChickenChuck","steam_id":76561199192686708,"connected_time":338000000000,"state":"active","ping":105},{"user_id":108,"name":"Wahooka","steam_id":76561197962240925,"connected_time":3799000000000,"state":"active","ping":44},{"user_id":134,"name":"pepper","steam_id":76561198353002983,"connected_time":1839000000000,"state":"active","ping":62},{"user_id":152,"name":"Gallowglass07","steam_id":76561199286102917,"connected_time":280000000000,"state":"active","ping":94},{"user_id":127,"name":"DualiTea","steam_id":76561198081733870,"connected_time":2296000000000,"state":"active","ping":75},{"user_id":149,"name":"Fus in Boots","steam_id":76561198053897722,"connected_time":356000000000,"state":"active","ping":116},{"user_id":120,"name":"Pete The \"Plummer\"","steam_id":76561199097450685,"connected_time":3057000000000,"state":"active","ping":110},{"user_id":146,"name":"LunarrD","steam_id":76561198811220107,"connected_time":451000000000,"state":"active","ping":66},{"user_id":154,"name":"Callie Splatoon ( Real )","steam_id":76561198151391486,"connected_time":275000000000,"state":"active","ping":104},{"user_id":137,"name":"CornDog","steam_id":76561198249446918,"connected_time":1480000000000,"state":"active","ping":38}]},{"server_id":15,"name":"Uncletopia | New York City | 3 | Stopwatch Beta","name_short":"nyc-3","host":"nyc-1.us.uncletopia.com","port":27035,"enabled":true,"region":"us-east","cc":"us","latitude":40.73061,"longitude":-73.93524,"reserved":0,"last_update":"0001-01-01T00:00:00Z","name_a2s":"Uncletopia | New York City | 3 | Stopwatch Beta","protocol":17,"map":"pl_upward","folder":"tf","game":"Team Fortress","app_id":440,"player_count":0,"max_players":24,"Bots":0,"server_type":"Dedicated","server_os":"Linux","password":true,"vac":true,"version":"7757534","steam_id":85568392924742820,"keywords":["nocrits","nodmgspread","payload","uncletopia"],"game_id":440,"stv_port":27036,"stv_name":"Uncletopia | New York City | 3 | Stopwatch Beta | STV","players":null},{"server_id":16,"name":"Uncletopia | New York City | 4 | Community","name_short":"nyc-4","host":"nyc-1.us.uncletopia.com","port":27045,"enabled":true,"region":"us-east","cc":"us","latitude":40.73061,"longitude":-73.93524,"reserved":0,"last_update":"0001-01-01T00:00:00Z","name_a2s":"Uncletopia | New York City | 4 | Community","protocol":17,"map":"pl_swiftwater_final1","folder":"tf","game":"Team Fortress","app_id":440,"player_count":0,"max_players":24,"Bots":0,"server_type":"Dedicated","server_os":"Linux","password":true,"vac":true,"version":"7757534","steam_id":85568392924742821,"keywords":["nocrits","nodmgspread","payload","uncletopia"],"game_id":440,"stv_port":27046,"stv_name":"Uncletopia | New York City | 4 | Community | STV","players":null},{"server_id":142,"name":"Uncletopia | S√£o Paulo | 1 | All Maps","name_short":"sao-1","host":"sao-1.br.uncletopia.com","port":27015,"enabled":true,"region":"sa","cc":"br","latitude":-23.533773,"longitude":-46.62529,"reserved":0,"last_update":"0001-01-01T00:00:00Z","name_a2s":"Uncletopia | S√£o Paulo | 1 | All Maps","protocol":17,"map":"koth_lakeside_final","folder":"tf","game":"Team Fortress","app_id":440,"player_count":0,"max_players":24,"Bots":0,"server_type":"Dedicated","server_os":"Linux","password":true,"vac":true,"version":"7757534","steam_id":85568392924469996,"keywords":["cp","nocrits","nodmgspread","uncletopia"],"game_id":440,"stv_port":27016,"stv_name":"Uncletopia | S√£o Paulo | 1 | All Maps | STV","players":null},{"server_id":143,"name":"Uncletopia | S√£o Paulo | 2 | All Maps","name_short":"sao-2","host":"sao-2.br.uncletopia.com","port":27015,"enabled":true,"region":"sa","cc":"br","latitude":-23.533773,"longitude":-46.62529,"reserved":0,"last_update":"0001-01-01T00:00:00Z","name_a2s":"Uncletopia | S√£o Paulo | 2 | All Maps","protocol":17,"map":"pl_borneo","folder":"tf","game":"Team Fortress","app_id":440,"player_count":0,"max_players":24,"Bots":0,"server_type":"Dedicated","server_os":"Linux","password":true,"vac":true,"version":"7757534","steam_id":85568392924485349,"keywords":["nocrits","nodmgspread","payload","uncletopia"],"game_id":440,"stv_port":27016,"stv_name":"Uncletopia | S√£o Paulo | 2 | All Maps | STV","players":null},{"server_id":7,"name":"Uncletopia | Seattle | 1 | All Maps","name_short":"sea-1","host":"sea-1.us.uncletopia.com","port":27015,"enabled":true,"region":"us-west","cc":"us","latitude":47.608013,"longitude":-122.33517,"reserved":0,"last_update":"0001-01-01T00:00:00Z","name_a2s":"Uncletopia | Seattle | 1 | All Maps","protocol":17,"map":"pl_barnblitz","folder":"tf","game":"Team Fortress","app_id":440,"player_count":24,"max_players":24,"Bots":0,"server_type":"Dedicated","server_os":"Linux","password":true,"vac":true,"version":"7757534","steam_id":85568392924469997,"keywords":["nocrits","nodmgspread","payload","uncletopia"],"game_id":440,"stv_port":27016,"stv_name":"Uncletopia | Seattle | 1 | All Maps | STV","players":[{"user_id":63,"name":"THE CUMEST LORD","steam_id":76561198061412592,"connected_time":863000000000,"state":"active","ping":124},{"user_id":47,"name":"Kazel","steam_id":76561197989757682,"connected_time":1649000000000,"state":"active","ping":112},{"user_id":13,"name":"we300men","steam_id":76561198060549722,"connected_time":4121000000000,"state":"active","ping":77},{"user_id":69,"name":"ElJorgos","steam_id":76561199095382410,"connected_time":48000000000,"state":"active","ping":116},{"user_id":21,"name":"T.TV/WhatsWater","steam_id":76561198036410259,"connected_time":3906000000000,"state":"active","ping":64},{"user_id":43,"name":"mobe","steam_id":76561198121633820,"connected_time":2443000000000,"state":"active","ping":63},{"user_id":68,"name":"TheGreatDong","steam_id":76561198000634178,"connected_time":59000000000,"state":"active","ping":65},{"user_id":55,"name":"DotA Psychologist","steam_id":76561198052171640,"connected_time":1248000000000,"state":"active","ping":93},{"user_id":15,"name":"SadFapping","steam_id":76561198076651049,"connected_time":4088000000000,"state":"active","ping":57},{"user_id":56,"name":"Hoodis","steam_id":76561198180576118,"connected_time":1071000000000,"state":"active","ping":84},{"user_id":52,"name":"nivekuil","steam_id":76561198043892129,"connected_time":1461000000000,"state":"active","ping":50},{"user_id":18,"name":"fox","steam_id":76561198079646701,"connected_time":3996000000000,"state":"active","ping":115},{"user_id":19,"name":"Sakisano","steam_id":76561198245814880,"connected_time":3970000000000,"state":"active","ping":77},{"user_id":20,"name":"Mer Mer","steam_id":76561197967143665,"connected_time":3968000000000,"state":"active","ping":101},{"user_id":22,"name":"HOODEDLAWYER285","steam_id":76561198156496197,"connected_time":3877000000000,"state":"active","ping":104},{"user_id":57,"name":"Dob Bole","steam_id":76561198056367220,"connected_time":1071000000000,"state":"active","ping":62},{"user_id":24,"name":"QueenPinharam","steam_id":76561199015626409,"connected_time":3810000000000,"state":"active","ping":112},{"user_id":66,"name":"Ventastega","steam_id":76561197999366317,"connected_time":362000000000,"state":"active","ping":132},{"user_id":26,"name":"Emails","steam_id":76561198836919458,"connected_time":3793000000000,"state":"active","ping":128},{"user_id":62,"name":"A Shiny Meat Bicycle","steam_id":76561198358757709,"connected_time":875000000000,"state":"active","ping":166},{"user_id":61,"name":"FISH_EGG","steam_id":76561198881794548,"connected_time":959000000000,"state":"active","ping":183},{"user_id":67,"name":"Dumpy Grimbo","steam_id":76561198132576882,"connected_time":137000000000,"state":"active","ping":68},{"user_id":51,"name":"Titocheeto","steam_id":76561198994684924,"connected_time":1534000000000,"state":"active","ping":75},{"user_id":31,"name":"Quickxdeathx02","steam_id":76561198396771470,"connected_time":3701000000000,"state":"active","ping":61}]},{"server_id":119,"name":"Uncletopia | Seattle | 2 | All Maps","name_short":"sea-2","host":"sea-1.us.uncletopia.com","port":27025,"enabled":true,"region":"us-west","cc":"us","latitude":47.608013,"longitude":-122.33517,"reserved":0,"last_update":"0001-01-01T00:00:00Z","name_a2s":"Uncletopia | Seattle | 2 | All Maps","protocol":17,"map":"pl_barnblitz","folder":"tf","game":"Team Fortress","app_id":440,"player_count":0,"max_players":24,"Bots":0,"server_type":"Dedicated","server_os":"Linux","password":true,"vac":true,"version":"7757534","steam_id":85568392924469998,"keywords":["nocrits","nodmgspread","payload","uncletopia"],"game_id":440,"stv_port":27026,"stv_name":"Uncletopia | Seattle | 2 | All Maps | STV","players":null},{"server_id":406,"name":"Uncletopia | Seattle | 3 | Stopwatch Beta","name_short":"sea-3","host":"sea-1.us.uncletopia.com","port":27035,"enabled":true,"region":"us-west","cc":"us","latitude":47.608013,"longitude":-122.33517,"reserved":0,"last_update":"0001-01-01T00:00:00Z","name_a2s":"Uncletopia | Seattle | 3 | Stopwatch Beta","protocol":17,"map":"cp_dustbowl","folder":"tf","game":"Team Fortress","app_id":440,"player_count":0,"max_players":24,"Bots":0,"server_type":"Dedicated","server_os":"Linux","password":true,"vac":true,"version":"7757534","steam_id":85568392924515217,"keywords":["cp","nocrits","nodmgspread","uncletopia"],"game_id":440,"stv_port":27036,"stv_name":"Uncletopia | Seattle | 3 | Stopwatch Beta | STV","players":null},{"server_id":17,"name":"Uncletopia | San Francisco | 1 | All Maps","name_short":"sfo-1","host":"sfo-1.us.uncletopia.com","port":27015,"enabled":true,"region":"us-west","cc":"us","latitude":37.77397,"longitude":-122.4313,"reserved":0,"last_update":"0001-01-01T00:00:00Z","name_a2s":"Uncletopia | San Francisco | 1 | All Maps","protocol":17,"map":"koth_lakeside_final","folder":"tf","game":"Team Fortress","app_id":440,"player_count":6,"max_players":24,"Bots":0,"server_type":"Dedicated","server_os":"Linux","password":true,"vac":true,"version":"7757534","steam_id":85568392924469999,"keywords":["cp","nocrits","nodmgspread","uncletopia"],"game_id":440,"stv_port":27016,"stv_name":"Uncletopia | San Francisco | 1 | All Maps | STV","players":[{"user_id":30,"name":"Giselle","steam_id":76561198162593640,"connected_time":334000000000,"state":"active","ping":101},{"user_id":31,"name":"san3","steam_id":76561198088208048,"connected_time":173000000000,"state":"active","ping":219},{"user_id":10,"name":"Kopenich","steam_id":76561198066205245,"connected_time":4257000000000,"state":"active","ping":55},{"user_id":32,"name":"DonJam√≥n","steam_id":76561198319090131,"connected_time":121000000000,"state":"active","ping":74},{"user_id":7,"name":"Wacks","steam_id":76561198079476100,"connected_time":4360000000000,"state":"active","ping":42},{"user_id":33,"name":"iusegtx-1060","steam_id":76561199205066271,"connected_time":85000000000,"state":"active","ping":103}]},{"server_id":18,"name":"Uncletopia | San Francisco | 2 | All Maps","name_short":"sfo-2","host":"sfo-1.us.uncletopia.com","port":27025,"enabled":true,"region":"us-west","cc":"us","latitude":37.77397,"longitude":-122.4313,"reserved":0,"last_update":"0001-01-01T00:00:00Z","name_a2s":"Uncletopia | San Francisco | 2 | All Maps","protocol":17,"map":"koth_highpass","folder":"tf","game":"Team Fortress","app_id":440,"player_count":0,"max_players":24,"Bots":0,"server_type":"Dedicated","server_os":"Linux","password":true,"vac":true,"version":"7757534","steam_id":85568392924470000,"keywords":["cp","nocrits","nodmgspread","uncletopia"],"game_id":440,"stv_port":27026,"stv_name":"Uncletopia | San Francisco | 2 | All Maps | STV","players":null},{"server_id":19,"name":"Uncletopia | San Francisco | 3 | Stopwatch Beta","name_short":"sfo-3","host":"sfo-1.us.uncletopia.com","port":27035,"enabled":true,"region":"us-west","cc":"us","latitude":37.77397,"longitude":-122.4313,"reserved":0,"last_update":"0001-01-01T00:00:00Z","name_a2s":"Uncletopia | San Francisco | 3 | Stopwatch Beta","protocol":17,"map":"koth_lakeside_final","folder":"tf","game":"Team Fortress","app_id":440,"player_count":0,"max_players":24,"Bots":0,"server_type":"Dedicated","server_os":"Linux","password":true,"vac":true,"version":"7757534","steam_id":85568392924742824,"keywords":["cp","nocrits","nodmgspread","uncletopia"],"game_id":440,"stv_port":27036,"stv_name":"Uncletopia | San Francisco | 3 | Stopwatch Beta | STV","players":null},{"server_id":20,"name":"Uncletopia | San Francisco | 4 | Community","name_short":"sfo-4","host":"sfo-1.us.uncletopia.com","port":27045,"enabled":true,"region":"us-west","cc":"us","latitude":37.77397,"longitude":-122.4313,"reserved":0,"last_update":"0001-01-01T00:00:00Z","name_a2s":"Uncletopia | San Francisco | 4 | Community","protocol":17,"map":"cp_altitude","folder":"tf","game":"Team Fortress","app_id":440,"player_count":0,"max_players":24,"Bots":0,"server_type":"Dedicated","server_os":"Linux","password":true,"vac":true,"version":"7757534","steam_id":85568392924742826,"keywords":["cp","nocrits","nodmgspread","uncletopia"],"game_id":440,"stv_port":27046,"stv_name":"Uncletopia | San Francisco | 4 | Community | STV","players":null},{"server_id":141,"name":"Uncletopia | Sydney | 1 | All Maps","name_short":"syd-1","host":"syd-1.au.uncletopia.com","port":27015,"enabled":true,"region":"au","cc":"au","latitude":-33.865143,"longitude":151.2099,"reserved":0,"last_update":"0001-01-01T00:00:00Z","name_a2s":"Uncletopia | Sydney | 1 | All Maps","protocol":17,"map":"pl_pier","folder":"tf","game":"Team Fortress","app_id":440,"player_count":0,"max_players":24,"Bots":0,"server_type":"Dedicated","server_os":"Linux","password":true,"vac":true,"version":"7757534","steam_id":85568392924470001,"keywords":["nocrits","nodmgspread","payload","uncletopia"],"game_id":440,"stv_port":27016,"stv_name":"Uncletopia | Sydney | 1 | All Maps | STV","players":null},{"server_id":123,"name":"Uncletopia | Sydney | 2 | All Maps","name_short":"syd-2","host":"syd-1.au.uncletopia.com","port":27025,"enabled":true,"region":"au","cc":"au","latitude":-33.865143,"longitude":151.2099,"reserved":0,"last_update":"0001-01-01T00:00:00Z","name_a2s":"Uncletopia | Sydney | 2 | All Maps","protocol":17,"map":"cp_sunshine","folder":"tf","game":"Team Fortress","app_id":440,"player_count":9,"max_players":24,"Bots":0,"server_type":"Dedicated","server_os":"Linux","password":true,"vac":true,"version":"7757534","steam_id":85568392924470002,"keywords":["cp","nocrits","nodmgspread","uncletopia"],"game_id":440,"stv_port":27026,"stv_name":"Uncletopia | Sydney | 2 | All Maps | STV","players":[{"user_id":144,"name":"Raznov","steam_id":76561198279929362,"connected_time":2740000000000,"state":"active","ping":67},{"user_id":173,"name":"Nzzy","steam_id":76561198988551236,"connected_time":710000000000,"state":"active","ping":252},{"user_id":130,"name":"Hotspots","steam_id":76561198162631088,"connected_time":4150000000000,"state":"active","ping":50},{"user_id":175,"name":"Gamma","steam_id":76561198281131757,"connected_time":262000000000,"state":"active","ping":60},{"user_id":177,"name":"Lincoln2603","steam_id":76561198170236666,"connected_time":46000000000,"state":"active","ping":37},{"user_id":146,"name":"BenzeneMan","steam_id":76561198868639677,"connected_time":2657000000000,"state":"active","ping":74},{"user_id":178,"name":"itsjustmarvin77","steam_id":76561199375656301,"connected_time":31000000000,"state":"active","ping":74},{"user_id":158,"name":"Justus","steam_id":76561198148675561,"connected_time":1451000000000,"state":"active","ping":60},{"user_id":169,"name":"Captain Canadia","steam_id":76561198167967735,"connected_time":846000000000,"state":"active","ping":47}]},{"server_id":395,"name":"Uncletopia | Sydney | 3 | All Maps","name_short":"syd-3","host":"syd-1.au.uncletopia.com","port":27035,"enabled":true,"region":"au","cc":"au","latitude":-33.865143,"longitude":151.2099,"reserved":0,"last_update":"0001-01-01T00:00:00Z","name_a2s":"Uncletopia | Sydney | 3 | All Maps","protocol":17,"map":"koth_highpass","folder":"tf","game":"Team Fortress","app_id":440,"player_count":0,"max_players":24,"Bots":0,"server_type":"Dedicated","server_os":"Linux","password":true,"vac":true,"version":"7757534","steam_id":85568392925194467,"keywords":["cp","nocrits","nodmgspread","uncletopia"],"game_id":440,"stv_port":27036,"stv_name":"Uncletopia | Sydney | 3 | All Maps | STV","players":null},{"server_id":396,"name":"Uncletopia | Sydney | 4 | All Maps","name_short":"syd-4","host":"syd-1.au.uncletopia.com","port":27045,"enabled":true,"region":"au","cc":"au","latitude":-33.865143,"longitude":151.2099,"reserved":0,"last_update":"0001-01-01T00:00:00Z","name_a2s":"Uncletopia | Sydney | 4 | All Maps","protocol":17,"map":"koth_viaduct","folder":"tf","game":"Team Fortress","app_id":440,"player_count":0,"max_players":24,"Bots":0,"server_type":"Dedicated","server_os":"Linux","password":true,"vac":true,"version":"7757534","steam_id":85568392925397958,"keywords":["cp","nocrits","nodmgspread","uncletopia"],"game_id":440,"stv_port":27046,"stv_name":"Uncletopia | Sydney | 4 | All Maps | STV","players":null},{"server_id":58,"name":"Uncletopia | Sydney | 5 | Stopwatch Beta","name_short":"syd-5","host":"syd-1.au.uncletopia.com","port":27055,"enabled":true,"region":"au","cc":"au","latitude":-33.865143,"longitude":151.2099,"reserved":0,"last_update":"0001-01-01T00:00:00Z","name_a2s":"Uncletopia | Sydney | 5 | Stopwatch Beta","protocol":17,"map":"pl_borneo","folder":"tf","game":"Team Fortress","app_id":440,"player_count":0,"max_players":24,"Bots":0,"server_type":"Dedicated","server_os":"Linux","password":true,"vac":true,"version":"7757534","steam_id":85568392925397959,"keywords":["nocrits","nodmgspread","payload","uncletopia"],"game_id":440,"stv_port":27056,"stv_name":"Uncletopia | Sydney | 5 | Stopwatch Beta | STV","players":null},{"server_id":59,"name":"Uncletopia | Sydney | 6 | Community","name_short":"syd-6","host":"syd-1.au.uncletopia.com","port":27065,"enabled":true,"region":"au","cc":"au","latitude":-33.865143,"longitude":151.2099,"reserved":0,"last_update":"0001-01-01T00:00:00Z","name_a2s":"Uncletopia | Sydney | 6 | Community","protocol":17,"map":"workshop/cp_glacier_rc6.ugc2905735376","folder":"tf","game":"Team Fortress","app_id":440,"player_count":0,"max_players":24,"Bots":0,"server_type":"Dedicated","server_os":"Linux","password":true,"vac":true,"version":"7757534","steam_id":85568392925397960,"keywords":["cp","nocrits","nodmgspread","uncletopia"],"game_id":440,"stv_port":27066,"stv_name":"Uncletopia | Sydney | 6 | Community | STV","players":null},{"server_id":49,"name":"Uncletopia | Warsaw | 1 | All Maps","name_short":"waw-1","host":"waw-1.pl.uncletopia.com","port":27015,"enabled":true,"region":"eu","cc":"pl","latitude":52.2297,"longitude":21.017532,"reserved":0,"last_update":"0001-01-01T00:00:00Z","name_a2s":"","protocol":0,"map":"","folder":"","game":"","app_id":0,"player_count":0,"max_players":0,"Bots":0,"server_type":"","server_os":"","password":false,"vac":false,"version":"","steam_id":0,"keywords":null,"game_id":0,"stv_port":0,"stv_name":"","players":null},{"server_id":50,"name":"Uncletopia | Warsaw | 2 | All Maps","name_short":"waw-2","host":"waw-1.pl.uncletopia.com","port":27025,"enabled":true,"region":"eu","cc":"pl","latitude":52.2297,"longitude":21.017532,"reserved":0,"last_update":"0001-01-01T00:00:00Z","name_a2s":"Uncletopia | Warsaw | 2 | All Maps","protocol":17,"map":"koth_viaduct","folder":"tf","game":"Team Fortress","app_id":440,"player_count":0,"max_players":24,"Bots":0,"server_type":"Dedicated","server_os":"Linux","password":true,"vac":true,"version":"7757534","steam_id":85568392925397851,"keywords":["cp","nocrits","nodmgspread","uncletopia"],"game_id":440,"stv_port":27026,"stv_name":"Uncletopia | Warsaw | 2 | All Maps | STV","players":null},{"server_id":51,"name":"Uncletopia | Warsaw | 3 | All Maps","name_short":"waw-3","host":"waw-1.pl.uncletopia.com","port":27035,"enabled":true,"region":"eu","cc":"pl","latitude":52.2297,"longitude":21.017532,"reserved":0,"last_update":"0001-01-01T00:00:00Z","name_a2s":"Uncletopia | Warsaw | 3 | All Maps","protocol":17,"map":"pl_borneo","folder":"tf","game":"Team Fortress","app_id":440,"player_count":6,"max_players":24,"Bots":0,"server_type":"Dedicated","server_os":"Linux","password":true,"vac":true,"version":"7757534","steam_id":85568392925397852,"keywords":["nocrits","nodmgspread","payload","uncletopia"],"game_id":440,"stv_port":27036,"stv_name":"Uncletopia | Warsaw | 3 | All Maps | STV","players":[{"user_id":6,"name":"Truegr","steam_id":76561198811912339,"connected_time":1247000000000,"state":"active","ping":71},{"user_id":7,"name":"epic party rat","steam_id":76561199100632053,"connected_time":1206000000000,"state":"active","ping":89},{"user_id":8,"name":"ashsbhop","steam_id":76561199155075476,"connected_time":900000000000,"state":"active","ping":60},{"user_id":10,"name":"Azurh","steam_id":76561199330143102,"connected_time":372000000000,"state":"active","ping":54},{"user_id":12,"name":"Loading","steam_id":76561198419201273,"connected_time":325000000000,"state":"active","ping":100},{"user_id":13,"name":"Packeter","steam_id":76561198976148473,"connected_time":145000000000,"state":"active","ping":137}]},{"server_id":52,"name":"Uncletopia | Warsaw | 4 | All Maps","name_short":"waw-4","host":"waw-1.pl.uncletopia.com","port":27045,"enabled":true,"region":"eu","cc":"pl","latitude":52.2297,"longitude":21.017532,"reserved":0,"last_update":"0001-01-01T00:00:00Z","name_a2s":"Uncletopia | Warsaw | 4 | All Maps","protocol":17,"map":"koth_lakeside_final","folder":"tf","game":"Team Fortress","app_id":440,"player_count":0,"max_players":24,"Bots":0,"server_type":"Dedicated","server_os":"Linux","password":true,"vac":true,"version":"7757534","steam_id":85568392925397853,"keywords":["cp","nocrits","nodmgspread","uncletopia"],"game_id":440,"stv_port":27046,"stv_name":"Uncletopia | Warsaw | 4 | All Maps | STV","players":null},{"server_id":53,"name":"Uncletopia | Warsaw | 5 | Stopwatch Beta","name_short":"waw-5","host":"waw-1.pl.uncletopia.com","port":27055,"enabled":true,"region":"eu","cc":"pl","latitude":52.2297,"longitude":21.017532,"reserved":0,"last_update":"0001-01-01T00:00:00Z","name_a2s":"Uncletopia | Warsaw | 5 | Stopwatch Beta","protocol":17,"map":"pl_borneo","folder":"tf","game":"Team Fortress","app_id":440,"player_count":0,"max_players":24,"Bots":0,"server_type":"Dedicated","server_os":"Linux","password":true,"vac":true,"version":"7757534","steam_id":85568392925397854,"keywords":["nocrits","nodmgspread","payload","uncletopia"],"game_id":440,"stv_port":27056,"stv_name":"Uncletopia | Warsaw | 5 | Stopwatch Beta | STV","players":null},{"server_id":54,"name":"Uncletopia | Warsaw | 6 | Community","name_short":"waw-6","host":"waw-1.pl.uncletopia.com","port":27065,"enabled":true,"region":"eu","cc":"pl","latitude":52.2297,"longitude":21.017532,"reserved":0,"last_update":"0001-01-01T00:00:00Z","name_a2s":"Uncletopia | Warsaw | 6 | Community","protocol":17,"map":"koth_lakeside_final","folder":"tf","game":"Team Fortress","app_id":440,"player_count":0,"max_players":24,"Bots":0,"server_type":"Dedicated","server_os":"Linux","password":true,"vac":true,"version":"7757534","steam_id":85568392925397856,"keywords":["cp","nocrits","nodmgspread","uncletopia"],"game_id":440,"stv_port":27066,"stv_name":"Uncletopia | Warsaw | 6 | Community | STV","players":null}]}