{"status":true,"message":"","result":[{"server_id":9,"name":"Uncletopia | Atlanta | 1 | All Maps","name_short":"atl-1","host":"atl-1.us.uncletopia.com","port":27015,"enabled":true,"region":"us-east","cc":"us","latitude":33.753746,"longitude":-84.38633,"reserved":0,"last_update":"0001-01-01T00:00:00Z","name_a2s":"Uncletopia | Atlanta | 1 | All Maps","protocol":17,"map":"pl_frontier_final","folder":"tf","game":"Team Fortress","app_id":440,"player_count":24,"max_players":24,"Bots":0,"server_type":"Dedicated","server_os":"Linux","password":true,"vac":true,"version":"7723704","steam_id":85568392924469982,"keywords":["nocrits","nodmgspread","payload","uncletopia"],"game_id":440,"stv_port":27016,"stv_name":"Uncletopia | Atlanta | 1 | All Maps | STV","players":[{"user_id":1000,"name":"ATL0 Dedi Le4n!!!","steam_id":76561198045522596,"connected_time":4990000000000,"state":"active","ping":70},{"user_id":932,"name":"stink","steam_id":76561198099318923,"connected_time":6380000000000,"state":"active","ping":75},{"user_id":1108,"name":"ra","steam_id":76561198147277460,"connected_time":622000000000,"state":"active","ping":154},{"user_id":900,"name":"ena - d","steam_id":76561198072329335,"connected_time":7296000000000,"state":"active","ping":161},{"user_id":1097,"name":"ATL1 | J O V A","steam_id":76561198090333536,"connected_time":2350000000000,"state":"active","ping":75},{"user_id":1105,"name":"joe","steam_id":76561198045781320,"connected_time":1024000000000,"state":"active","ping":65},{"user_id":1085,"name":"Luigi4tl","steam_id":76561198051862389,"connected_time":4084000000000,"state":"active","ping":62},{"user_id":1106,"name":"ATL1 | on my hunting trip","steam_id":76561198315341646,"connected_time":813000000000,"state":"active","ping":70},{"user_id":1098,"name":"ATL1 | Kramer","steam_id":76561198083595936,"connected_time":1914000000000,"state":"active","ping":97},{"user_id":983,"name":"craf","steam_id":76561198163535075,"connected_time":5287000000000,"state":"active","ping":72},{"user_id":683,"name":"ATL1 | eish","steam_id":76561198089463603,"connected_time":16350000000000,"state":"active","ping":124},{"user_id":1109,"name":"Minion Bob","steam_id":76561198023938170,"connected_time":581000000000,"state":"active","ping":94},{"user_id":1110,"name":"ayaya?","steam_id":76561199000188109,"connected_time":579000000000,"state":"active","ping":95},{"user_id":1107,"name":"mommy claus","steam_id":76561199230929836,"connected_time":662000000000,"state":"active","ping":86},{"user_id":1111,"name":"Mortadella","steam_id":76561198057716113,"connected_time":552000000000,"state":"active","ping":150},{"user_id":1116,"name":"cy","steam_id":76561198885893295,"connected_time":188000000000,"state":"active","ping":71},{"user_id":1112,"name":"SuperFresh","steam_id":76561198200723198,"connected_time":542000000000,"state":"active","ping":53},{"user_id":1104,"name":"[txc] milk and cookies","steam_id":76561198127457787,"connected_time":1119000000000,"state":"active","ping":79},{"user_id":1113,"name":"Santa Claus","steam_id":76561199012771039,"connected_time":524000000000,"state":"active","ping":74},{"user_id":1092,"name":"☙ Corrupt ❧","steam_id":76561197977631915,"connected_time":3389000000000,"state":"active","ping":69},{"user_id":698,"name":"Twa","steam_id":76561198295529541,"connected_time":14671000000000,"state":"active","ping":68},{"user_id":1115,"name":"The Builder","steam_id":76561198093432863,"connected_time":401000000000,"state":"active","ping":70},{"user_id":942,"name":"vid_","steam_id":76561198065159053,"connected_time":6114000000000,"state":"active","ping":49}]},{"server_id":400,"name":"Uncletopia | Atlanta | 3 | Stopwatch Beta","name_short":"atl-3","host":"atl-1.us.uncletopia.com","port":27035,"enabled":true,"region":"us-east","cc":"us","latitude":33.753746,"longitude":-84.38633,"reserved":0,"last_update":"0001-01-01T00:00:00Z","name_a2s":"Uncletopia | Atlanta | 3 | Stopwatch Beta","protocol":17,"map":"pl_borneo","folder":"tf","game":"Team Fortress","app_id":440,"player_count":4,"max_players":24,"Bots":0,"server_type":"Dedicated","server_os":"Linux","password":true,"vac":true,"version":"7723704","steam_id":85568392924515187,"keywords":["nocrits","nodmgspread","payload","uncletopia"],"game_id":440,"stv_port":27036,"stv_name":"Uncletopia | Atlanta | 3 | Stopwatch Beta | STV","players":[{"user_id":188,"name":"1965tobydowd","steam_id":76561198858551969,"connected_time":1449000000000,"state":"active","ping":88},{"user_id":190,"name":"Re-Loaded_Game","steam_id":76561199097136515,"connected_time":1350000000000,"state":"active","ping":67},{"user_id":195,"name":"1000 Ping","steam_id":76561198098330939,"connected_time":699000000000,"state":"active","ping":105},{"user_id":134,"name":"Lorelius Hogglefart","steam_id":76561198936120487,"connected_time":5169000000000,"state":"active","ping":119}]},{"server_id":401,"name":"Uncletopia | Atlanta | 4 | No Payload","name_short":"atl-4","host":"atl-1.us.uncletopia.com","port":27045,"enabled":true,"region":"us-east","cc":"us","latitude":33.753746,"longitude":-84.38633,"reserved":0,"last_update":"0001-01-01T00:00:00Z","name_a2s":"Uncletopia | Atlanta | 4 | No Payload","protocol":17,"map":"koth_badlands","folder":"tf","game":"Team Fortress","app_id":440,"player_count":0,"max_players":24,"Bots":0,"server_type":"Dedicated","server_os":"Linux","password":true,"vac":true,"version":"7723704","steam_id":85568392924515188,"keywords":["cp","nocrits","nodmgspread","uncletopia"],"game_id":440,"stv_port":27046,"stv_name":"Uncletopia | Atlanta | 4 | No Payload | STV","players":null},{"server_id":2,"name":"Uncletopia | Chicago | 1 | All Maps","name_short":"chi-1","host":"chi-1.us.uncletopia.com","port":27015,"enabled":true,"region":"us-central","cc":"us","latitude":41.881832,"longitude":-87.62318,"reserved":0,"last_update":"0001-01-01T00:00:00Z","name_a2s":"Uncletopia | Chicago | 1 | All Maps","protocol":17,"map":"cp_steel","folder":"tf","game":"Team Fortress","app_id":440,"player_count":24,"max_players":24,"Bots":0,"server_type":"Dedicated","server_os":"Linux","password":true,"vac":true,"version":"7723704","steam_id":85568392924469984,"keywords":["cp","nocrits","nodmgspread","uncletopia"],"game_id":440,"stv_port":27016,"stv_name":"Uncletopia | Chicago | 1 | All Maps | STV","players":[{"user_id":705,"name":"Mitchu The Bidness Man","steam_id":76561198102494381,"connected_time":552000000000,"state":"active","ping":62},{"user_id":700,"name":"Rear Admiral Crunch","steam_id":76561198020007558,"connected_time":876000000000,"state":"active","ping":65},{"user_id":664,"name":"doofenshmirtz","steam_id":76561198447100051,"connected_time":3337000000000,"state":"active","ping":60},{"user_id":685,"name":"Tom","steam_id":76561198139202942,"connected_time":1400000000000,"state":"active","ping":79},{"user_id":690,"name":"Jackmon","steam_id":76561198108058017,"connected_time":1206000000000,"state":"active","ping":66},{"user_id":672,"name":"IDKonnie","steam_id":76561198317602350,"connected_time":2658000000000,"state":"active","ping":82},{"user_id":703,"name":"Bloodx","steam_id":76561197971439068,"connected_time":773000000000,"state":"active","ping":64},{"user_id":694,"name":"Zelumie","steam_id":76561198147335801,"connected_time":949000000000,"state":"active","ping":50},{"user_id":701,"name":"Architect","steam_id":76561198015242016,"connected_time":869000000000,"state":"active","ping":44},{"user_id":702,"name":"BOT Bot","steam_id":76561197995225620,"connected_time":811000000000,"state":"active","ping":74},{"user_id":706,"name":"Man Time","steam_id":76561198151147218,"connected_time":410000000000,"state":"active","ping":74},{"user_id":689,"name":"Morbi","steam_id":76561198126853838,"connected_time":1313000000000,"state":"active","ping":67},{"user_id":680,"name":"Smet19","steam_id":76561198118455606,"connected_time":1612000000000,"state":"active","ping":56},{"user_id":669,"name":"Torque","steam_id":76561197997551936,"connected_time":3220000000000,"state":"active","ping":75},{"user_id":678,"name":"Jacck916","steam_id":76561198176874157,"connected_time":1677000000000,"state":"active","ping":110},{"user_id":576,"name":"Now I'm a Little Motivated","steam_id":76561198069580305,"connected_time":10146000000000,"state":"active","ping":46},{"user_id":567,"name":"pie gaming","steam_id":76561198072592880,"connected_time":10887000000000,"state":"active","ping":44},{"user_id":707,"name":"a crazy hobo","steam_id":76561198289650060,"connected_time":283000000000,"state":"active","ping":86},{"user_id":681,"name":"Daksuki","steam_id":76561198084127751,"connected_time":1545000000000,"state":"active","ping":75},{"user_id":691,"name":"Dragozulu","steam_id":76561198076356931,"connected_time":1183000000000,"state":"active","ping":61},{"user_id":696,"name":"Degmac","steam_id":76561198100163166,"connected_time":943000000000,"state":"active","ping":52},{"user_id":660,"name":"Phillip Jeffries","steam_id":76561198064052174,"connected_time":3973000000000,"state":"active","ping":64},{"user_id":708,"name":"weaponized nae nae","steam_id":76561198151719184,"connected_time":260000000000,"state":"active","ping":72},{"user_id":525,"name":"Astoriæ!","steam_id":76561199090168858,"connected_time":13723000000000,"state":"active","ping":60}]},{"server_id":106,"name":"Uncletopia | Chicago | 2 | All Maps","name_short":"chi-2","host":"chi-1.us.uncletopia.com","port":27025,"enabled":true,"region":"us-central","cc":"us","latitude":41.881832,"longitude":-87.62318,"reserved":0,"last_update":"0001-01-01T00:00:00Z","name_a2s":"Uncletopia | Chicago | 2 | All Maps","protocol":17,"map":"cp_dustbowl","folder":"tf","game":"Team Fortress","app_id":440,"player_count":24,"max_players":24,"Bots":0,"server_type":"Dedicated","server_os":"Linux","password":true,"vac":true,"version":"7723704","steam_id":85568392924469985,"keywords":["cp","nocrits","nodmgspread","uncletopia"],"game_id":440,"stv_port":27026,"stv_name":"Uncletopia | Chicago | 2 | All Maps | STV","players":[{"user_id":558,"name":"MedRed™ #IATAH","steam_id":76561198002962970,"connected_time":1817000000000,"state":"active","ping":98},{"user_id":575,"name":"Mury","steam_id":76561198069743049,"connected_time":1109000000000,"state":"active","ping":94},{"user_id":552,"name":"300 Ping Gaming [WLP]","steam_id":76561199042160997,"connected_time":3100000000000,"state":"active","ping":126},{"user_id":503,"name":"Bear bird","steam_id":76561198166769479,"connected_time":7922000000000,"state":"active","ping":88},{"user_id":518,"name":"Space⭐Taffy","steam_id":76561198002271720,"connected_time":6628000000000,"state":"active","ping":57},{"user_id":548,"name":"「Saint」","steam_id":76561198241943070,"connected_time":3777000000000,"state":"active","ping":76},{"user_id":559,"name":"superplayer1113","steam_id":76561199446688578,"connected_time":1816000000000,"state":"active","ping":73},{"user_id":544,"name":"oakosaurus rex","steam_id":76561198092135570,"connected_time":3819000000000,"state":"active","ping":60},{"user_id":579,"name":"Soul_Intern","steam_id":76561198310238109,"connected_time":585000000000,"state":"active","ping":119},{"user_id":580,"name":"poey","steam_id":76561198865346767,"connected_time":580000000000,"state":"active","ping":91},{"user_id":572,"name":"rlty","steam_id":76561198009395055,"connected_time":1302000000000,"state":"active","ping":66},{"user_id":564,"name":"Lots0","steam_id":76561198043143145,"connected_time":1678000000000,"state":"active","ping":83},{"user_id":546,"name":"McNamJam","steam_id":76561198028128686,"connected_time":3807000000000,"state":"active","ping":101},{"user_id":563,"name":"Ze_Über_Nerd","steam_id":76561198091148675,"connected_time":1682000000000,"state":"active","ping":75},{"user_id":581,"name":"Justice John Robots","steam_id":76561198266960876,"connected_time":383000000000,"state":"active","ping":77},{"user_id":576,"name":"Pim","steam_id":76561198046050375,"connected_time":874000000000,"state":"active","ping":113},{"user_id":555,"name":"Blake Belladonna","steam_id":76561198010169911,"connected_time":1897000000000,"state":"active","ping":81},{"user_id":577,"name":"Swash","steam_id":76561197969421355,"connected_time":619000000000,"state":"active","ping":59},{"user_id":514,"name":"Piyono","steam_id":76561197962188504,"connected_time":6849000000000,"state":"active","ping":63},{"user_id":556,"name":"riley","steam_id":76561198133142520,"connected_time":1863000000000,"state":"active","ping":75},{"user_id":582,"name":"Apetometrist","steam_id":76561198045391635,"connected_time":233000000000,"state":"active","ping":64},{"user_id":570,"name":"WitheringLeo","steam_id":76561198046722918,"connected_time":1474000000000,"state":"active","ping":72},{"user_id":515,"name":"hej","steam_id":76561197996366940,"connected_time":6841000000000,"state":"active","ping":65},{"user_id":571,"name":"Cyberbrunk","steam_id":76561198034163103,"connected_time":1468000000000,"state":"active","ping":50}]},{"server_id":402,"name":"Uncletopia | Chicago | 3 | All Maps","name_short":"chi-3","host":"chi-1.us.uncletopia.com","port":27035,"enabled":true,"region":"us-central","cc":"us","latitude":41.881832,"longitude":-87.62318,"reserved":0,"last_update":"0001-01-01T00:00:00Z","name_a2s":"Uncletopia | Chicago | 3 | All Maps","protocol":17,"map":"cp_dustbowl","folder":"tf","game":"Team Fortress","app_id":440,"player_count":24,"max_players":24,"Bots":0,"server_type":"Dedicated","server_os":"Linux","password":true,"vac":true,"version":"7723704","steam_id":85568392924515191,"keywords":["cp","nocrits","nodmgspread","uncletopia"],"game_id":440,"stv_port":27036,"stv_name":"Uncletopia | Chicago | 3 | All Maps | STV","players":[{"user_id":469,"name":"stealthy","steam_id":76561198071386492,"connected_time":582000000000,"state":"active","ping":60},{"user_id":467,"name":"Kohi","steam_id":76561198062142245,"connected_time":810000000000,"state":"active","ping":45},{"user_id":339,"name":"Santa","steam_id":76561198044130442,"connected_time":8562000000000,"state":"active","ping":66},{"user_id":471,"name":"GCharizard","steam_id":76561198094202921,"connected_time":179000000000,"state":"active","ping":49},{"user_id":459,"name":"Ch4rl33","steam_id":76561198037008621,"connected_time":897000000000,"state":"active","ping":46},{"user_id":472,"name":"Captmerica15","steam_id":76561198074696817,"connected_time":125000000000,"state":"spawning","ping":82},{"user_id":468,"name":"YOU SHOULD KILLBIND.. NOW!","steam_id":76561198190710739,"connected_time":736000000000,"state":"active","ping":47},{"user_id":443,"name":"Fisherman","steam_id":76561198071026825,"connected_time":2158000000000,"state":"active","ping":60},{"user_id":413,"name":"atserc","steam_id":76561197997570349,"connected_time":4852000000000,"state":"active","ping":89},{"user_id":454,"name":"Skelitor ✪","steam_id":76561198043885634,"connected_time":1435000000000,"state":"active","ping":73},{"user_id":453,"name":"Dahrealjerry","steam_id":76561199114254890,"connected_time":1763000000000,"state":"active","ping":121},{"user_id":460,"name":"KingTinkerer","steam_id":76561198226856548,"connected_time":897000000000,"state":"active","ping":80},{"user_id":444,"name":"Parpa","steam_id":76561198066252787,"connected_time":2149000000000,"state":"active","ping":60},{"user_id":455,"name":"IIP","steam_id":76561198286102406,"connected_time":1362000000000,"state":"active","ping":66},{"user_id":462,"name":"ooBah!","steam_id":76561198133684216,"connected_time":869000000000,"state":"active","ping":64},{"user_id":414,"name":"SRV","steam_id":76561198026589960,"connected_time":4746000000000,"state":"active","ping":47},{"user_id":473,"name":"kermitcreeper(ZAZA)","steam_id":76561199222829972,"connected_time":111000000000,"state":"active","ping":58},{"user_id":463,"name":"jakegus","steam_id":76561199060022512,"connected_time":868000000000,"state":"active","ping":112},{"user_id":457,"name":"Lunartik","steam_id":76561199004827382,"connected_time":1283000000000,"state":"active","ping":47},{"user_id":430,"name":"Dougtherouge","steam_id":76561198211300573,"connected_time":3595000000000,"state":"active","ping":66},{"user_id":448,"name":"footoftheday","steam_id":76561198052712449,"connected_time":2098000000000,"state":"active","ping":75},{"user_id":449,"name":"Liquid Oxycodone","steam_id":76561198154162664,"connected_time":2096000000000,"state":"active","ping":66},{"user_id":465,"name":"DeadPixels #SaveTF2","steam_id":76561198312934516,"connected_time":860000000000,"state":"active","ping":47},{"user_id":434,"name":"BigBeefinDong","steam_id":76561198864096803,"connected_time":3560000000000,"state":"active","ping":78}]},{"server_id":403,"name":"Uncletopia | Chicago | 4 | All Maps","name_short":"chi-4","host":"chi-1.us.uncletopia.com","port":27045,"enabled":true,"region":"us-central","cc":"us","latitude":41.881832,"longitude":-87.62318,"reserved":0,"last_update":"0001-01-01T00:00:00Z","name_a2s":"Uncletopia | Chicago | 4 | All Maps","protocol":17,"map":"cp_sunshine","folder":"tf","game":"Team Fortress","app_id":440,"player_count":24,"max_players":24,"Bots":0,"server_type":"Dedicated","server_os":"Linux","password":true,"vac":true,"version":"7723704","steam_id":85568392924515193,"keywords":["cp","nocrits","nodmgspread","uncletopia"],"game_id":440,"stv_port":27046,"stv_name":"Uncletopia | Chicago | 4 | All Maps | STV","players":[{"user_id":431,"name":"shrive","steam_id":76561198070063578,"connected_time":1293000000000,"state":"active","ping":51},{"user_id":446,"name":"Billy Shears","steam_id":76561199002125668,"connected_time":657000000000,"state":"active","ping":44},{"user_id":415,"name":"maS","steam_id":76561198033846407,"connected_time":2429000000000,"state":"active","ping":46},{"user_id":450,"name":"LucaX","steam_id":76561198430603830,"connected_time":189000000000,"state":"active","ping":95},{"user_id":433,"name":"That Dude","steam_id":76561198980486227,"connected_time":1181000000000,"state":"active","ping":127},{"user_id":428,"name":"Alt","steam_id":76561197992591984,"connected_time":1676000000000,"state":"active","ping":59},{"user_id":408,"name":"mrshruggie","steam_id":76561198274278694,"connected_time":3336000000000,"state":"active","ping":47},{"user_id":449,"name":"Drilly22","steam_id":76561198068838338,"connected_time":461000000000,"state":"active","ping":90},{"user_id":445,"name":"Leftbones","steam_id":76561198039430412,"connected_time":661000000000,"state":"active","ping":59},{"user_id":434,"name":"IxMic88","steam_id":76561198018552479,"connected_time":1168000000000,"state":"active","ping":74},{"user_id":429,"name":"Lumpy","steam_id":76561198058840585,"connected_time":1653000000000,"state":"active","ping":70},{"user_id":437,"name":"terrapieseven","steam_id":76561198072062415,"connected_time":1103000000000,"state":"active","ping":76},{"user_id":424,"name":"a soul must somehow strive","steam_id":76561198096806703,"connected_time":2251000000000,"state":"active","ping":75},{"user_id":333,"name":"TheToastingToaster","steam_id":76561198439391966,"connected_time":9348000000000,"state":"active","ping":60},{"user_id":420,"name":"dan","steam_id":76561198061589465,"connected_time":2316000000000,"state":"active","ping":98},{"user_id":305,"name":"(◔) Neville","steam_id":76561198025637970,"connected_time":11504000000000,"state":"active","ping":74},{"user_id":451,"name":"logos","steam_id":76561198038080028,"connected_time":188000000000,"state":"active","ping":90},{"user_id":447,"name":"Money Collector","steam_id":76561198046249467,"connected_time":607000000000,"state":"active","ping":58},{"user_id":421,"name":"nox","steam_id":76561198054390505,"connected_time":2294000000000,"state":"active","ping":51},{"user_id":448,"name":"sketchesgallore","steam_id":76561198331254794,"connected_time":572000000000,"state":"active","ping":98},{"user_id":440,"name":"judas from the binding of isaac","steam_id":76561199068993168,"connected_time":1026000000000,"state":"active","ping":76},{"user_id":441,"name":"zyr","steam_id":76561198069979962,"connected_time":995000000000,"state":"active","ping":59},{"user_id":452,"name":"your xmas forecast","steam_id":76561198042243083,"connected_time":171000000000,"state":"active","ping":60},{"user_id":387,"name":"Camtec","steam_id":76561198110562804,"connected_time":4961000000000,"state":"active","ping":77}]},{"server_id":36,"name":"Uncletopia | Chicago | 5 | All Maps","name_short":"chi-5","host":"chi-2.us.uncletopia.com","port":27015,"enabled":true,"region":"us-central","cc":"us","latitude":41.881832,"longitude":-87.62318,"reserved":0,"last_update":"0001-01-01T00:00:00Z","name_a2s":"Uncletopia | Chicago | 5 | All Maps","protocol":17,"map":"pl_snowycoast","folder":"tf","game":"Team Fortress","app_id":440,"player_count":24,"max_players":24,"Bots":0,"server_type":"Dedicated","server_os":"Linux","password":true,"vac":true,"version":"7723704","steam_id":85568392924866362,"keywords":["nocrits","nodmgspread","payload","uncletopia"],"game_id":440,"stv_port":27016,"stv_name":"Uncletopia | Chicago | 5 | All Maps | STV","players":[{"user_id":189,"name":"who ate the cheese","steam_id":76561198275408467,"connected_time":3344000000000,"state":"active","ping":47},{"user_id":212,"name":"Squid","steam_id":76561198197045587,"connected_time":1017000000000,"state":"active","ping":84},{"user_id":196,"name":"انتحر يا ابن المت","steam_id":76561198326987939,"connected_time":2392000000000,"state":"active","ping":75},{"user_id":165,"name":"Vladikr1","steam_id":76561198401495362,"connected_time":5765000000000,"state":"active","ping":52},{"user_id":207,"name":"pastry","steam_id":76561198063164349,"connected_time":1311000000000,"state":"active","ping":58},{"user_id":192,"name":"Bee","steam_id":76561198074681324,"connected_time":2793000000000,"state":"active","ping":65},{"user_id":198,"name":"black power","steam_id":76561198172046883,"connected_time":2377000000000,"state":"active","ping":59},{"user_id":186,"name":"sky_guy","steam_id":76561198058668342,"connected_time":3444000000000,"state":"active","ping":74},{"user_id":208,"name":"Jeremy","steam_id":76561198286240347,"connected_time":1303000000000,"state":"active","ping":53},{"user_id":215,"name":"playr","steam_id":76561198354622099,"connected_time":288000000000,"state":"active","ping":69},{"user_id":193,"name":"Doug Dimmadamndimmadimmadougdim","steam_id":76561198136169355,"connected_time":2520000000000,"state":"active","ping":50},{"user_id":206,"name":"Lion","steam_id":76561198848879603,"connected_time":1496000000000,"state":"active","ping":67},{"user_id":209,"name":"kris736","steam_id":76561198038208255,"connected_time":1296000000000,"state":"active","ping":55},{"user_id":181,"name":"Strange Festive Femboy","steam_id":76561198050385093,"connected_time":4217000000000,"state":"active","ping":81},{"user_id":214,"name":"raduski","steam_id":76561198795699119,"connected_time":629000000000,"state":"active","ping":89},{"user_id":112,"name":"C papi","steam_id":76561198027779564,"connected_time":10132000000000,"state":"active","ping":58},{"user_id":210,"name":"turnip","steam_id":76561197999375941,"connected_time":1286000000000,"state":"active","ping":79},{"user_id":202,"name":"pigman3000","steam_id":76561198020374829,"connected_time":2069000000000,"state":"active","ping":63},{"user_id":89,"name":"merry trapmas","steam_id":76561198402801140,"connected_time":12082000000000,"state":"active","ping":62},{"user_id":211,"name":"Rabbitone","steam_id":76561198132691749,"connected_time":1262000000000,"state":"active","ping":97},{"user_id":86,"name":"daemon","steam_id":76561198001541433,"connected_time":12367000000000,"state":"active","ping":58},{"user_id":183,"name":"mr. wonderful","steam_id":76561198083175190,"connected_time":3973000000000,"state":"active","ping":60},{"user_id":180,"name":"Bird","steam_id":76561198247484514,"connected_time":4427000000000,"state":"active","ping":75},{"user_id":141,"name":"Team Fortress 2","steam_id":76561198330697854,"connected_time":6489000000000,"state":"active","ping":174}]},{"server_id":37,"name":"Uncletopia | Chicago | 6 | All Maps","name_short":"chi-6","host":"chi-2.us.uncletopia.com","port":27025,"enabled":true,"region":"us-central","cc":"us","latitude":41.881832,"longitude":-87.62318,"reserved":0,"last_update":"0001-01-01T00:00:00Z","name_a2s":"Uncletopia | Chicago | 6 | All Maps","protocol":17,"map":"koth_cascade","folder":"tf","game":"Team Fortress","app_id":440,"player_count":0,"max_players":24,"Bots":0,"server_type":"Dedicated","server_os":"Linux","password":true,"vac":true,"version":"7723704","steam_id":85568392924866363,"keywords":["cp","nocrits","nodmgspread","uncletopia"],"game_id":440,"stv_port":27026,"stv_name":"Uncletopia | Chicago | 6 | All Maps | STV","players":null},{"server_id":38,"name":"Uncletopia | Chicago | 7 | Stopwatch Beta","name_short":"chi-7","host":"chi-2.us.uncletopia.com","port":27035,"enabled":true,"region":"us-central","cc":"us","latitude":41.881832,"longitude":-87.62318,"reserved":0,"last_update":"0001-01-01T00:00:00Z","name_a2s":"Uncletopia | Chicago | 7 | Stopwatch Beta","protocol":17,"map":"workshop/koth_clearcut_b15.ugc2107050255","folder":"tf","game":"Team Fortress","app_id":440,"player_count":0,"max_players":24,"Bots":0,"server_type":"Dedicated","server_os":"Linux","password":true,"vac":true,"version":"7723704","steam_id":85568392924866364,"keywords":["cp","nocrits","nodmgspread","uncletopia"],"game_id":440,"stv_port":27036,"stv_name":"Uncletopia | Chicago | 7 | Stopwatch Beta | STV","players":null},{"server_id":39,"name":"Uncletopia | Chicago | 8 | Community","name_short":"chi-8","host":"chi-2.us.uncletopia.com","port":27045,"enabled":true,"region":"us-central","cc":"us","latitude":41.881832,"longitude":-87.62318,"reserved":0,"last_update":"0001-01-01T00:00:00Z","name_a2s":"Uncletopia | Chicago | 8 | Community","protocol":17,"map":"workshop/cp_overgrown_rc7b.ugc503939302","folder":"tf","game":"Team Fortress","app_id":440,"player_count":0,"max_players":24,"Bots":0,"server_type":"Dedicated","server_os":"Linux","password":true,"vac":true,"version":"7723704","steam_id":85568392924866365,"keywords":["cp","nocrits","nodmgspread","uncletopia"],"game_id":440,"stv_port":27046,"stv_name":"Uncletopia | Chicago | 8 | Community | STV","players":null},{"server_id":8,"name":"Uncletopia | Dallas | 1 | All Maps","name_short":"dal-1","host":"dal-1.us.uncletopia.com","port":27015,"enabled":true,"region":"us-central","cc":"us","latitude":32.779167,"longitude":-96.80889,"reserved":0,"last_update":"0001-01-01T00:00:00Z","name_a2s":"Uncletopia | Dallas | 1 | All Maps","protocol":17,"map":"cp_snakewater_final1","folder":"tf","game":"Team Fortress","app_id":440,"player_count":24,"max_players":24,"Bots":0,"server_type":"Dedicated","server_os":"Linux","password":true,"vac":true,"version":"7723704","steam_id":85568392924469986,"keywords":["cp","nocrits","nodmgspread","uncletopia"],"game_id":440,"stv_port":27016,"stv_name":"Uncletopia | Dallas | 1 | All Maps | STV","players":[{"user_id":668,"name":"R","steam_id":76561198278030353,"connected_time":2703000000000,"state":"active","ping":75},{"user_id":709,"name":"BasedChaser69","steam_id":76561198317394272,"connected_time":112000000000,"state":"active","ping":115},{"user_id":711,"name":"Adawnby","steam_id":76561198103057295,"connected_time":68000000000,"state":"active","ping":57},{"user_id":698,"name":"Dinger","steam_id":76561198030119710,"connected_time":616000000000,"state":"active","ping":97},{"user_id":654,"name":"JimmY","steam_id":76561198386339252,"connected_time":3161000000000,"state":"active","ping":98},{"user_id":704,"name":"kirbothebrony","steam_id":76561198971911330,"connected_time":437000000000,"state":"active","ping":67},{"user_id":712,"name":"Snuuuz","steam_id":76561198289051061,"connected_time":68000000000,"state":"active","ping":81},{"user_id":701,"name":"{0} CRAM","steam_id":76561198402400424,"connected_time":499000000000,"state":"active","ping":207},{"user_id":703,"name":"Big Smoke","steam_id":76561198278375987,"connected_time":466000000000,"state":"active","ping":60},{"user_id":633,"name":"gyroFSnoob","steam_id":76561198158404683,"connected_time":4673000000000,"state":"active","ping":107},{"user_id":705,"name":"Joker Joestar","steam_id":76561198115696839,"connected_time":268000000000,"state":"active","ping":65},{"user_id":706,"name":"Level 1 Crook","steam_id":76561198441098132,"connected_time":263000000000,"state":"active","ping":75},{"user_id":680,"name":"The Krinkler","steam_id":76561198020308956,"connected_time":1833000000000,"state":"active","ping":63},{"user_id":662,"name":"ObiWonJacobi","steam_id":76561198041921071,"connected_time":2841000000000,"state":"active","ping":52},{"user_id":663,"name":"Piper","steam_id":76561198059054032,"connected_time":2835000000000,"state":"active","ping":53},{"user_id":681,"name":"SuckDicker3499","steam_id":76561198848989773,"connected_time":1826000000000,"state":"active","ping":91},{"user_id":713,"name":"Sarbanes-Oxley","steam_id":76561197975898479,"connected_time":59000000000,"state":"active","ping":53},{"user_id":665,"name":"timestew","steam_id":76561198367583372,"connected_time":2755000000000,"state":"active","ping":91},{"user_id":710,"name":"Tritium","steam_id":76561198043305626,"connected_time":93000000000,"state":"active","ping":98},{"user_id":714,"name":"Skeleton Bones Ghoulie","steam_id":76561199138772722,"connected_time":20000000000,"state":"spawning","ping":142},{"user_id":683,"name":"Wendy's Four for Four","steam_id":76561198872639861,"connected_time":1820000000000,"state":"active","ping":66},{"user_id":687,"name":"paper","steam_id":76561199075241499,"connected_time":1685000000000,"state":"active","ping":59},{"user_id":691,"name":"HLG Max","steam_id":76561198116542339,"connected_time":747000000000,"state":"active","ping":77},{"user_id":697,"name":"FW","steam_id":76561198207940136,"connected_time":627000000000,"state":"active","ping":53}]},{"server_id":108,"name":"Uncletopia | Dallas | 2 | All Maps","name_short":"dal-2","host":"dal-1.us.uncletopia.com","port":27025,"enabled":true,"region":"us-central","cc":"us","latitude":32.779167,"longitude":-96.80889,"reserved":0,"last_update":"0001-01-01T00:00:00Z","name_a2s":"Uncletopia | Dallas | 2 | All Maps","protocol":17,"map":"pl_pier","folder":"tf","game":"Team Fortress","app_id":440,"player_count":24,"max_players":24,"Bots":0,"server_type":"Dedicated","server_os":"Linux","password":true,"vac":true,"version":"7723704","steam_id":85568392924469988,"keywords":["nocrits","nodmgspread","payload","uncletopia"],"game_id":440,"stv_port":27026,"stv_name":"Uncletopia | Dallas | 2 | All Maps | STV","players":[{"user_id":518,"name":"Gloomy Vader","steam_id":76561199201592365,"connected_time":5793000000000,"state":"active","ping":58},{"user_id":551,"name":"Teh Lemon","steam_id":76561199223429767,"connected_time":2441000000000,"state":"active","ping":102},{"user_id":586,"name":"DragonHeart","steam_id":76561198013245625,"connected_time":633000000000,"state":"active","ping":65},{"user_id":570,"name":"Ostrich","steam_id":76561198068553779,"connected_time":1510000000000,"state":"active","ping":67},{"user_id":568,"name":"Jag_Samurott","steam_id":76561198262036126,"connected_time":1763000000000,"state":"active","ping":71},{"user_id":582,"name":"Ifrit","steam_id":76561198044730782,"connected_time":831000000000,"state":"active","ping":70},{"user_id":587,"name":"hills","steam_id":76561198041643833,"connected_time":610000000000,"state":"active","ping":57},{"user_id":590,"name":"josh","steam_id":76561198111565081,"connected_time":381000000000,"state":"active","ping":84},{"user_id":516,"name":"iluvtoust","steam_id":76561198869269207,"connected_time":5869000000000,"state":"active","ping":45},{"user_id":571,"name":"Atlas","steam_id":76561198127975050,"connected_time":1484000000000,"state":"active","ping":76},{"user_id":558,"name":"mola","steam_id":76561198036283992,"connected_time":2286000000000,"state":"active","ping":77},{"user_id":572,"name":"carrion goat","steam_id":76561198262064871,"connected_time":1426000000000,"state":"active","ping":80},{"user_id":520,"name":"Zultrafury","steam_id":76561198099284163,"connected_time":5733000000000,"state":"active","ping":67},{"user_id":546,"name":"rumes","steam_id":76561198349219467,"connected_time":3233000000000,"state":"active","ping":70},{"user_id":583,"name":"Britches the Bridges","steam_id":76561198024339158,"connected_time":797000000000,"state":"active","ping":75},{"user_id":575,"name":"white woman","steam_id":76561199116679777,"connected_time":1329000000000,"state":"active","ping":87},{"user_id":524,"name":"You're Bad","steam_id":76561198051812661,"connected_time":5525000000000,"state":"active","ping":116},{"user_id":576,"name":"Farseer Ulwithy","steam_id":76561197965179245,"connected_time":1316000000000,"state":"active","ping":107},{"user_id":578,"name":"daud","steam_id":76561198172714142,"connected_time":1262000000000,"state":"active","ping":75},{"user_id":589,"name":"Booty Eating Bandit","steam_id":76561198353072216,"connected_time":390000000000,"state":"active","ping":62},{"user_id":585,"name":"k1tty","steam_id":76561198869348268,"connected_time":707000000000,"state":"active","ping":74},{"user_id":522,"name":"MaximusPrime","steam_id":76561198114949521,"connected_time":5717000000000,"state":"active","ping":101},{"user_id":591,"name":"amagicowl","steam_id":76561199060487814,"connected_time":374000000000,"state":"active","ping":75},{"user_id":577,"name":"pee pee poo poo","steam_id":76561198930017260,"connected_time":1303000000000,"state":"active","ping":107}]},{"server_id":5,"name":"Uncletopia | Frankfurt | 1 | All Maps","name_short":"frk-1","host":"frk-1.de.uncletopia.com","port":27015,"enabled":true,"region":"eu","cc":"de","latitude":50.110924,"longitude":8.682127,"reserved":0,"last_update":"0001-01-01T00:00:00Z","name_a2s":"Uncletopia | Frankfurt | 1 | All Maps","protocol":17,"map":"koth_viaduct","folder":"tf","game":"Team Fortress","app_id":440,"player_count":0,"max_players":24,"Bots":0,"server_type":"Dedicated","server_os":"Linux","password":true,"vac":true,"version":"7723704","steam_id":85568392924469989,"keywords":["cp","nocrits","nodmgspread","uncletopia"],"game_id":440,"stv_port":27016,"stv_name":"Uncletopia | Frankfurt | 1 | All Maps | STV","players":null},{"server_id":110,"name":"Uncletopia | Frankfurt | 2 | All Maps","name_short":"frk-2","host":"frk-1.de.uncletopia.com","port":27025,"enabled":true,"region":"eu","cc":"de","latitude":50.110924,"longitude":8.682127,"reserved":0,"last_update":"0001-01-01T00:00:00Z","name_a2s":"Uncletopia | Frankfurt | 2 | All Maps","protocol":17,"map":"koth_viaduct","folder":"tf","game":"Team Fortress","app_id":440,"player_count":0,"max_players":24,"Bots":0,"server_type":"Dedicated","server_os":"Linux","password":true,"vac":true,"version":"7723704","steam_id":85568392924469990,"keywords":["cp","nocrits","nodmgspread","uncletopia"],"game_id":440,"stv_port":27026,"stv_name":"Uncletopia | Frankfurt | 2 | All Maps | STV","players":null},{"server_id":308,"name":"Uncletopia | Frankfurt | 3 | All Maps","name_short":"frk-3","host":"frk-1.de.uncletopia.com","port":27035,"enabled":true,"region":"eu","cc":"de","latitude":50.110924,"longitude":8.682127,"reserved":0,"last_update":"0001-01-01T00:00:00Z","name_a2s":"Uncletopia | Frankfurt | 3 | All Maps","protocol":17,"map":"pl_pier","folder":"tf","game":"Team Fortress","app_id":440,"player_count":0,"max_players":24,"Bots":0,"server_type":"Dedicated","server_os":"Linux","password":true,"vac":true,"version":"7723704","steam_id":85568392924504274,"keywords":["nocrits","nodmgspread","payload","uncletopia"],"game_id":440,"stv_port":27036,"stv_name":"Uncletopia | Frankfurt | 3 | All Maps | STV","players":null},{"server_id":309,"name":"Uncletopia | Frankfurt | 4 | All Maps","name_short":"frk-4","host":"frk-1.de.uncletopia.com","port":27045,"enabled":true,"region":"eu","cc":"de","latitude":50.110924,"longitude":8.682127,"reserved":0,"last_update":"0001-01-01T00:00:00Z","name_a2s":"Uncletopia | Frankfurt | 4 | All Maps","protocol":17,"map":"cp_altitude","folder":"tf","game":"Team Fortress","app_id":440,"player_count":0,"max_players":24,"Bots":0,"server_type":"Dedicated","server_os":"Linux","password":true,"vac":true,"version":"7723704","steam_id":85568392924504275,"keywords":["cp","nocrits","nodmgspread","uncletopia"],"game_id":440,"stv_port":27046,"stv_name":"Uncletopia | Frankfurt | 4 | All Maps | STV","players":null},{"server_id":310,"name":"Uncletopia | Frankfurt | 5 | All Maps","name_short":"frk-5","host":"frk-1.de.uncletopia.com","port":27055,"enabled":true,"region":"eu","cc":"de","latitude":50.110924,"longitude":8.682127,"reserved":0,"last_update":"0001-01-01T00:00:00Z","name_a2s":"Uncletopia | Frankfurt | 5 | All Maps","protocol":17,"map":"cp_dustbowl","folder":"tf","game":"Team Fortress","app_id":440,"player_count":0,"max_players":24,"Bots":0,"server_type":"Dedicated","server_os":"Linux","password":true,"vac":true,"version":"7723704","steam_id":85568392924504277,"keywords":["cp","nocrits","nodmgspread","uncletopia"],"game_id":440,"stv_port":27056,"stv_name":"Uncletopia | Frankfurt | 5 | All Maps | STV","players":null},{"server_id":311,"name":"Uncletopia | Frankfurt | 6 | All Maps","name_short":"frk-6","host":"frk-1.de.uncletopia.com","port":27065,"enabled":true,"region":"eu","cc":"de","latitude":50.110924,"longitude":8.682127,"reserved":0,"last_update":"0001-01-01T00:00:00Z","name_a2s":"Uncletopia | Frankfurt | 6 | All Maps","protocol":17,"map":"pl_barnblitz","folder":"tf","game":"Team Fortress","app_id":440,"player_count":0,"max_players":24,"Bots":0,"server_type":"Dedicated","server_os":"Linux","password":true,"vac":true,"version":"7723704","steam_id":85568392924504278,"keywords":["nocrits","nodmgspread","payload","uncletopia"],"game_id":440,"stv_port":27066,"stv_name":"Uncletopia | Frankfurt | 6 | All Maps | STV","players":null},{"server_id":23,"name":"Uncletopia | Frankfurt | 7 | Stopwatch Beta","name_short":"frk-7","host":"frk-1.de.uncletopia.com","port":27075,"enabled":true,"region":"eu","cc":"de","latitude":50.110924,"longitude":8.682127,"reserved":0,"last_update":"0001-01-01T00:00:00Z","name_a2s":"Uncletopia | Frankfurt | 7 | Stopwatch Beta","protocol":17,"map":"workshop/pl_barnblitz_pro7.ugc582280235","folder":"tf","game":"Team Fortress","app_id":440,"player_count":0,"max_players":24,"Bots":0,"server_type":"Dedicated","server_os":"Linux","password":true,"vac":true,"version":"7723704","steam_id":85568392924742827,"keywords":["nocrits","nodmgspread","payload","uncletopia"],"game_id":440,"stv_port":27076,"stv_name":"Uncletopia | Frankfurt | 7 | Stopwatch Beta | STV","players":null},{"server_id":24,"name":"Uncletopia | Frankfurt | 8 | Community","name_short":"frk-8","host":"frk-1.de.uncletopia.com","port":27085,"enabled":true,"region":"eu","cc":"de","latitude":50.110924,"longitude":8.682127,"reserved":0,"last_update":"0001-01-01T00:00:00Z","name_a2s":"Uncletopia | Frankfurt | 8 | Community","protocol":17,"map":"workshop/koth_synthetic_rc6a.ugc1549817316","folder":"tf","game":"Team Fortress","app_id":440,"player_count":0,"max_players":24,"Bots":0,"server_type":"Dedicated","server_os":"Linux","password":true,"vac":true,"version":"7723704","steam_id":85568392924742828,"keywords":["cp","nocrits","nodmgspread","uncletopia"],"game_id":440,"stv_port":27086,"stv_name":"Uncletopia | Frankfurt | 8 | Community | STV","players":null},{"server_id":202,"name":"Uncletopia | Hong Kong | 1 | All Maps","name_short":"hgk-1","host":"hgk-1.hk.uncletopia.com","port":27015,"enabled":true,"region":"asia","cc":"hk","latitude":22.302711,"longitude":114.177216,"reserved":0,"last_update":"0001-01-01T00:00:00Z","name_a2s":"Uncletopia | Hong Kong | 1 | All Maps","protocol":17,"map":"cp_dustbowl","folder":"tf","game":"Team Fortress","app_id":440,"player_count":24,"max_players":24,"Bots":0,"server_type":"Dedicated","server_os":"Linux","password":true,"vac":true,"version":"7723704","steam_id":85568392924494504,"keywords":["cp","nocrits","nodmgspread","uncletopia"],"game_id":440,"stv_port":27016,"stv_name":"Uncletopia | Hong Kong | 1 | All Maps | STV","players":[{"user_id":152,"name":"iLikeMudrock ᗜ‸ᗜ","steam_id":76561199352285088,"connected_time":598000000000,"state":"active","ping":84},{"user_id":125,"name":"Festive Sev","steam_id":76561198864660173,"connected_time":2297000000000,"state":"active","ping":100},{"user_id":115,"name":"JayJ","steam_id":76561198324008555,"connected_time":2745000000000,"state":"active","ping":54},{"user_id":153,"name":"Mechanic from tc2","steam_id":76561199198665314,"connected_time":548000000000,"state":"active","ping":73},{"user_id":126,"name":"StoopidGaming","steam_id":76561199233358565,"connected_time":2292000000000,"state":"active","ping":91},{"user_id":127,"name":"BOK","steam_id":76561198095872644,"connected_time":2281000000000,"state":"active","ping":82},{"user_id":109,"name":"DC","steam_id":76561198837122605,"connected_time":3095000000000,"state":"active","ping":59},{"user_id":139,"name":"LocalF2P","steam_id":76561198346335595,"connected_time":1525000000000,"state":"active","ping":84},{"user_id":154,"name":"3wfFbdrjEze5d2G","steam_id":76561198435900451,"connected_time":511000000000,"state":"active","ping":74},{"user_id":116,"name":"o2","steam_id":76561199262570913,"connected_time":2743000000000,"state":"active","ping":91},{"user_id":71,"name":"vintage","steam_id":76561198230213828,"connected_time":5866000000000,"state":"active","ping":66},{"user_id":117,"name":"Lym0n","steam_id":76561199192420260,"connected_time":2716000000000,"state":"active","ping":105},{"user_id":155,"name":"AAww","steam_id":76561199220320583,"connected_time":511000000000,"state":"active","ping":81},{"user_id":151,"name":"monkeyman536","steam_id":76561197997717737,"connected_time":602000000000,"state":"active","ping":126},{"user_id":131,"name":"Festive Redmond :D","steam_id":76561198056390902,"connected_time":2058000000000,"state":"active","ping":58},{"user_id":148,"name":"screaming sniper","steam_id":76561199085568674,"connected_time":872000000000,"state":"active","ping":72},{"user_id":135,"name":"no more half measures waltuh","steam_id":76561199232769556,"connected_time":1909000000000,"state":"active","ping":126},{"user_id":149,"name":"P","steam_id":76561198304514505,"connected_time":861000000000,"state":"active","ping":75},{"user_id":137,"name":"Me is gaming","steam_id":76561199025438331,"connected_time":1807000000000,"state":"active","ping":61},{"user_id":141,"name":"Krayken","steam_id":76561197997933283,"connected_time":1419000000000,"state":"active","ping":81},{"user_id":142,"name":"Rexors","steam_id":76561199102085328,"connected_time":1271000000000,"state":"active","ping":101},{"user_id":55,"name":"Lud","steam_id":76561198828840546,"connected_time":6573000000000,"state":"active","ping":73},{"user_id":143,"name":"apollo","steam_id":76561198823374287,"connected_time":1262000000000,"state":"active","ping":76},{"user_id":144,"name":"itrash","steam_id":76561199068229379,"connected_time":1242000000000,"state":"active","ping":67}]},{"server_id":1,"name":"Uncletopia | Los Angeles | 1 | All Maps","name_short":"lax-1","host":"lax-1.us.uncletopia.com","port":27015,"enabled":true,"region":"us-west","cc":"us","latitude":33.94279,"longitude":-118.41004,"reserved":0,"last_update":"0001-01-01T00:00:00Z","name_a2s":"Uncletopia | Los Angeles | 1 | All Maps","protocol":17,"map":"pl_barnblitz","folder":"tf","game":"Team Fortress","app_id":440,"player_count":24,"max_players":24,"Bots":0,"server_type":"Dedicated","server_os":"Linux","password":true,"vac":true,"version":"7723704","steam_id":85568392924469991,"keywords":["nocrits","nodmgspread","payload","uncletopia"],"game_id":440,"stv_port":27016,"stv_name":"Uncletopia | Los Angeles | 1 | All Maps | STV","players":[{"user_id":307,"name":"Seriously Bruh","steam_id":76561198070408485,"connected_time":7455000000000,"state":"active","ping":92},{"user_id":373,"name":"The Bad Samaritan","steam_id":76561198044079084,"connected_time":1022000000000,"state":"active","ping":50},{"user_id":370,"name":"mr.edderkopper","steam_id":76561198152614478,"connected_time":1346000000000,"state":"active","ping":104},{"user_id":361,"name":"WalkinMan","steam_id":76561198047941142,"connected_time":2419000000000,"state":"active","ping":49},{"user_id":354,"name":"CFGU || RAWRWAFL","steam_id":76561198032118386,"connected_time":2704000000000,"state":"active","ping":101},{"user_id":328,"name":"sun sugar","steam_id":76561198385085005,"connected_time":6152000000000,"state":"active","ping":56},{"user_id":355,"name":"Bär","steam_id":76561198072172678,"connected_time":2650000000000,"state":"active","ping":70},{"user_id":326,"name":"SmallErection","steam_id":76561198071770147,"connected_time":6219000000000,"state":"active","ping":92},{"user_id":350,"name":"LOL","steam_id":76561198081568692,"connected_time":2919000000000,"state":"active","ping":52},{"user_id":351,"name":"zogs","steam_id":76561198323491654,"connected_time":2864000000000,"state":"active","ping":74},{"user_id":376,"name":"Painkiller","steam_id":76561198049787400,"connected_time":610000000000,"state":"active","ping":59},{"user_id":357,"name":"Mr Baseball","steam_id":76561198960521363,"connected_time":2589000000000,"state":"active","ping":72},{"user_id":321,"name":"Sleeping_Penguin❤","steam_id":76561198424771117,"connected_time":6614000000000,"state":"active","ping":66},{"user_id":330,"name":"COLLECT YOUR FACE AS TITHE","steam_id":76561198011675372,"connected_time":6117000000000,"state":"active","ping":80},{"user_id":367,"name":"Infentdegree211","steam_id":76561198385234127,"connected_time":1940000000000,"state":"active","ping":57},{"user_id":363,"name":"Coyote Bongwater (coffee addict","steam_id":76561199375501871,"connected_time":2022000000000,"state":"active","ping":53},{"user_id":375,"name":"ImaLilWeirdo","steam_id":76561198171653353,"connected_time":866000000000,"state":"active","ping":88},{"user_id":369,"name":"OLE SAINTE NICKE HIMSELVE","steam_id":76561198103331056,"connected_time":1448000000000,"state":"active","ping":75},{"user_id":374,"name":"❅Queen Catgirl Viper❅","steam_id":76561199106077003,"connected_time":966000000000,"state":"active","ping":90},{"user_id":346,"name":"tN|SpiritofLight","steam_id":76561197967936643,"connected_time":3766000000000,"state":"active","ping":65},{"user_id":372,"name":"SIMP SUPREME","steam_id":76561198070550009,"connected_time":1152000000000,"state":"active","ping":67},{"user_id":368,"name":"The Biggest Nobody of Them All","steam_id":76561198168730243,"connected_time":1653000000000,"state":"active","ping":58},{"user_id":365,"name":"santa christ","steam_id":76561198183894834,"connected_time":2017000000000,"state":"active","ping":56},{"user_id":379,"name":"Pluto","steam_id":76561198012630802,"connected_time":93000000000,"state":"active","ping":63}]},{"server_id":112,"name":"Uncletopia | Los Angeles | 2 | All Maps","name_short":"lax-2","host":"lax-1.us.uncletopia.com","port":27025,"enabled":true,"region":"us-west","cc":"us","latitude":33.94279,"longitude":-118.41004,"reserved":0,"last_update":"0001-01-01T00:00:00Z","name_a2s":"Uncletopia | Los Angeles | 2 | All Maps","protocol":17,"map":"cp_sunshine","folder":"tf","game":"Team Fortress","app_id":440,"player_count":0,"max_players":24,"Bots":0,"server_type":"Dedicated","server_os":"Linux","password":true,"vac":true,"version":"7723704","steam_id":85568392924469992,"keywords":["cp","nocrits","nodmgspread","uncletopia"],"game_id":440,"stv_port":27026,"stv_name":"Uncletopia | Los Angeles | 2 | All Maps | STV","players":null},{"server_id":324,"name":"Uncletopia | Los Angeles | 3 | All Maps","name_short":"lax-3","host":"lax-1.us.uncletopia.com","port":27035,"enabled":true,"region":"us-west","cc":"us","latitude":33.94279,"longitude":-118.41004,"reserved":0,"last_update":"0001-01-01T00:00:00Z","name_a2s":"Uncletopia | Los Angeles | 3 | All Maps","protocol":17,"map":"pl_borneo","folder":"tf","game":"Team Fortress","app_id":440,"player_count":23,"max_players":24,"Bots":0,"server_type":"Dedicated","server_os":"Linux","password":true,"vac":true,"version":"7723704","steam_id":85568392924510198,"keywords":["nocrits","nodmgspread","payload","uncletopia"],"game_id":440,"stv_port":27036,"stv_name":"Uncletopia | Los Angeles | 3 | All Maps | STV","players":[{"user_id":245,"name":"RainbowHeavy","steam_id":76561198070800159,"connected_time":2340000000000,"state":"active","ping":55},{"user_id":282,"name":"Gaming","steam_id":76561198327632113,"connected_time":87000000000,"state":"active","ping":77},{"user_id":265,"name":"moe","steam_id":76561198929586245,"connected_time":1085000000000,"state":"active","ping":47},{"user_id":279,"name":"Fresh","steam_id":76561198068565728,"connected_time":297000000000,"state":"active","ping":46},{"user_id":242,"name":"jazztree14","steam_id":76561199239395356,"connected_time":2654000000000,"state":"active","ping":105},{"user_id":288,"name":"LYTEWERK","steam_id":76561198002819791,"connected_time":27000000000,"state":"active","ping":86},{"user_id":260,"name":"FiddyFoMike","steam_id":76561198057072581,"connected_time":1691000000000,"state":"active","ping":47},{"user_id":267,"name":"The Collective","steam_id":76561198170423483,"connected_time":1002000000000,"state":"active","ping":110},{"user_id":277,"name":"Perididdle","steam_id":76561198056864606,"connected_time":501000000000,"state":"active","ping":70},{"user_id":229,"name":"rimble","steam_id":76561198150137369,"connected_time":3077000000000,"state":"active","ping":45},{"user_id":197,"name":"lili.winters","steam_id":76561199391478575,"connected_time":5107000000000,"state":"active","ping":91},{"user_id":257,"name":"Sir Severus","steam_id":76561198061295188,"connected_time":2132000000000,"state":"active","ping":90},{"user_id":284,"name":"dandy","steam_id":76561197967362217,"connected_time":70000000000,"state":"active","ping":47},{"user_id":266,"name":"festive jester","steam_id":76561198079609974,"connected_time":1076000000000,"state":"active","ping":49},{"user_id":286,"name":"infamouscheese","steam_id":76561198334122936,"connected_time":56000000000,"state":"active","ping":153},{"user_id":287,"name":"festive to the bone","steam_id":76561198128244031,"connected_time":52000000000,"state":"active","ping":105},{"user_id":275,"name":"SD","steam_id":76561198217410988,"connected_time":610000000000,"state":"active","ping":46},{"user_id":191,"name":"cielael","steam_id":76561198043971956,"connected_time":5336000000000,"state":"active","ping":49},{"user_id":289,"name":"agolem3214","steam_id":76561198121844002,"connected_time":5000000000,"state":"spawning","ping":43},{"user_id":281,"name":"Blitzy","steam_id":76561198149472890,"connected_time":213000000000,"state":"active","ping":91},{"user_id":269,"name":"Noob-a-tron","steam_id":76561197970555113,"connected_time":960000000000,"state":"active","ping":48},{"user_id":278,"name":"selvhat","steam_id":76561198114225509,"connected_time":497000000000,"state":"active","ping":53},{"user_id":271,"name":"darkonion","steam_id":76561198088355688,"connected_time":952000000000,"state":"active","ping":54}]},{"server_id":25,"name":"Uncletopia | Los Angeles | 4 | Stopwatch Beta","name_short":"lax-4","host":"lax-1.us.uncletopia.com","port":27045,"enabled":true,"region":"us-west","cc":"us","latitude":33.94279,"longitude":-118.41004,"reserved":0,"last_update":"0001-01-01T00:00:00Z","name_a2s":"Uncletopia | Los Angeles | 4 | Stopwatch Beta","protocol":17,"map":"workshop/pl_barnblitz_pro7.ugc582280235","folder":"tf","game":"Team Fortress","app_id":440,"player_count":0,"max_players":24,"Bots":0,"server_type":"Dedicated","server_os":"Linux","password":true,"vac":true,"version":"7723704","steam_id":85568392924510199,"keywords":["nocrits","nodmgspread","payload","uncletopia"],"game_id":440,"stv_port":27046,"stv_name":"Uncletopia | Los Angeles | 4 | Stopwatch Beta | STV","players":null},{"server_id":11,"name":"Uncletopia | London | 1 | All Maps","name_short":"lon-1","host":"lon-1.uk.uncletopia.com","port":27015,"enabled":true,"region":"eu","cc":"gb","latitude":51.509865,"longitude":-0.118092,"reserved":0,"last_update":"0001-01-01T00:00:00Z","name_a2s":"Uncletopia | London | 1 | All Maps","protocol":17,"map":"cp_process_final","folder":"tf","game":"Team Fortress","app_id":440,"player_count":0,"max_players":24,"Bots":0,"server_type":"Dedicated","server_os":"Linux","password":true,"vac":true,"version":"7723704","steam_id":85568392924367362,"keywords":["cp","nocrits","nodmgspread","uncletopia"],"game_id":440,"stv_port":27016,"stv_name":"Uncletopia | London | 1 | All Maps | STV","players":null},{"server_id":114,"name":"Uncletopia | London | 2 | All Maps","name_short":"lon-2","host":"lon-1.uk.uncletopia.com","port":27025,"enabled":true,"region":"eu","cc":"gb","latitude":51.509865,"longitude":-0.118092,"reserved":0,"last_update":"0001-01-01T00:00:00Z","name_a2s":"Uncletopia | London | 2 | All Maps","protocol":17,"map":"pl_wutville_event","folder":"tf","game":"Team Fortress","app_id":440,"player_count":0,"max_players":24,"Bots":0,"server_type":"Dedicated","server_os":"Linux","password":true,"vac":true,"version":"7723704","steam_id":85568392924470941,"keywords":["nocrits","nodmgspread","payload","uncletopia"],"game_id":440,"stv_port":27026,"stv_name":"Uncletopia | London | 2 | All Maps | STV","players":null},{"server_id":320,"name":"Uncletopia | London | 3 | All Maps","name_short":"lon-3","host":"lon-1.uk.uncletopia.com","port":27035,"enabled":true,"region":"eu","cc":"gb","latitude":51.509865,"longitude":-0.118092,"reserved":0,"last_update":"0001-01-01T00:00:00Z","name_a2s":"Uncletopia | London | 3 | All Maps","protocol":17,"map":"pl_barnblitz","folder":"tf","game":"Team Fortress","app_id":440,"player_count":0,"max_players":24,"Bots":0,"server_type":"Dedicated","server_os":"Linux","password":true,"vac":true,"version":"7723704","steam_id":85568392924510192,"keywords":["nocrits","nodmgspread","payload","uncletopia"],"game_id":440,"stv_port":27036,"stv_name":"Uncletopia | London | 3 | All Maps | STV","players":null},{"server_id":321,"name":"Uncletopia | London | 4 | All Maps","name_short":"lon-4","host":"lon-1.uk.uncletopia.com","port":27045,"enabled":true,"region":"eu","cc":"gb","latitude":51.509865,"longitude":-0.118092,"reserved":0,"last_update":"0001-01-01T00:00:00Z","name_a2s":"Uncletopia | London | 4 | All Maps","protocol":17,"map":"pl_badwater","folder":"tf","game":"Team Fortress","app_id":440,"player_count":0,"max_players":24,"Bots":0,"server_type":"Dedicated","server_os":"Linux","password":true,"vac":true,"version":"7723704","steam_id":85568392924510193,"keywords":["nocrits","nodmgspread","payload","uncletopia"],"game_id":440,"stv_port":27046,"stv_name":"Uncletopia | London | 4 | All Maps | STV","players":null},{"server_id":21,"name":"Uncletopia | London | 5 | All Maps","name_short":"lon-5","host":"lon-1.uk.uncletopia.com","port":27055,"enabled":true,"region":"eu","cc":"gb","latitude":51.509865,"longitude":-0.118092,"reserved":0,"last_update":"0001-01-01T00:00:00Z","name_a2s":"Uncletopia | London | 5 | All Maps","protocol":17,"map":"pl_frontier_final","folder":"tf","game":"Team Fortress","app_id":440,"player_count":0,"max_players":24,"Bots":0,"server_type":"Dedicated","server_os":"Linux","password":true,"vac":true,"version":"7723704","steam_id":85568392924742829,"keywords":["nocrits","nodmgspread","payload","uncletopia"],"game_id":440,"stv_port":27056,"stv_name":"Uncletopia | London | 5 | All Maps | STV","players":null},{"server_id":22,"name":"Uncletopia | London | 6 | All Maps","name_short":"lon-6","host":"lon-1.uk.uncletopia.com","port":27065,"enabled":true,"region":"eu","cc":"gb","latitude":51.509865,"longitude":-0.118092,"reserved":0,"last_update":"0001-01-01T00:00:00Z","name_a2s":"Uncletopia | London | 6 | All Maps","protocol":17,"map":"pl_snowycoast","folder":"tf","game":"Team Fortress","app_id":440,"player_count":0,"max_players":24,"Bots":0,"server_type":"Dedicated","server_os":"Linux","password":true,"vac":true,"version":"7723704","steam_id":85568392924742830,"keywords":["nocrits","nodmgspread","payload","uncletopia"],"game_id":440,"stv_port":27066,"stv_name":"Uncletopia | London | 6 | All Maps | STV","players":null},{"server_id":40,"name":"Uncletopia | London | 7 | No Payload","name_short":"lon-7","host":"lon-1.uk.uncletopia.com","port":27075,"enabled":true,"region":"eu","cc":"gb","latitude":51.509865,"longitude":-0.118092,"reserved":0,"last_update":"0001-01-01T00:00:00Z","name_a2s":"Uncletopia | London | 7 | No Payload","protocol":17,"map":"koth_lazarus","folder":"tf","game":"Team Fortress","app_id":440,"player_count":0,"max_players":24,"Bots":0,"server_type":"Dedicated","server_os":"Linux","password":true,"vac":true,"version":"7723704","steam_id":85568392924964314,"keywords":["cp","nocrits","nodmgspread","uncletopia"],"game_id":440,"stv_port":27076,"stv_name":"Uncletopia | London | 7 | No Payload | STV","players":null},{"server_id":41,"name":"Uncletopia | London | 8 | Community","name_short":"lon-8","host":"lon-1.uk.uncletopia.com","port":27085,"enabled":true,"region":"eu","cc":"gb","latitude":51.509865,"longitude":-0.118092,"reserved":0,"last_update":"0001-01-01T00:00:00Z","name_a2s":"Uncletopia | London | 8 | Community","protocol":17,"map":"workshop/koth_bagel_rc5.ugc2514036946","folder":"tf","game":"Team Fortress","app_id":440,"player_count":0,"max_players":24,"Bots":0,"server_type":"Dedicated","server_os":"Linux","password":true,"vac":true,"version":"7723704","steam_id":85568392924964315,"keywords":["cp","nocrits","nodmgspread","uncletopia"],"game_id":440,"stv_port":27086,"stv_name":"Uncletopia | London | 8 | Community | STV","players":null},{"server_id":300,"name":"Uncletopia | Montréal | 1 | All Maps","name_short":"mtl-1","host":"mtl-1.ca.uncletopia.com","port":27015,"enabled":true,"region":"us-east","cc":"ca","latitude":45.50889,"longitude":-73.56167,"reserved":0,"last_update":"0001-01-01T00:00:00Z","name_a2s":"Uncletopia | Montréal | 1 | All Maps","protocol":17,"map":"koth_cascade","folder":"tf","game":"Team Fortress","app_id":440,"player_count":0,"max_players":24,"Bots":0,"server_type":"Dedicated","server_os":"Linux","password":true,"vac":true,"version":"7723704","steam_id":85568392924500087,"keywords":["cp","nocrits","nodmgspread","uncletopia"],"game_id":440,"stv_port":27016,"stv_name":"Uncletopia | Montréal | 1 | All Maps | STV","players":null},{"server_id":301,"name":"Uncletopia | Montréal | 2 | All Maps","name_short":"mtl-2","host":"mtl-1.ca.uncletopia.com","port":27025,"enabled":true,"region":"us-east","cc":"ca","latitude":45.50889,"longitude":-73.56167,"reserved":0,"last_update":"0001-01-01T00:00:00Z","name_a2s":"Uncletopia | Montréal | 2 | All Maps","protocol":17,"map":"koth_cascade","folder":"tf","game":"Team Fortress","app_id":440,"player_count":0,"max_players":24,"Bots":0,"server_type":"Dedicated","server_os":"Linux","password":true,"vac":true,"version":"7723704","steam_id":85568392924500088,"keywords":["cp","nocrits","nodmgspread","uncletopia"],"game_id":440,"stv_port":27026,"stv_name":"Uncletopia | Montréal | 2 | All Maps | STV","players":null},{"server_id":302,"name":"Uncletopia | Montréal | 3 | All Maps","name_short":"mtl-3","host":"mtl-1.ca.uncletopia.com","port":27035,"enabled":true,"region":"us-east","cc":"ca","latitude":45.50889,"longitude":-73.56167,"reserved":0,"last_update":"0001-01-01T00:00:00Z","name_a2s":"Uncletopia | Montréal | 3 | All Maps","protocol":17,"map":"pl_barnblitz","folder":"tf","game":"Team Fortress","app_id":440,"player_count":0,"max_players":24,"Bots":0,"server_type":"Dedicated","server_os":"Linux","password":true,"vac":true,"version":"7723704","steam_id":85568392924500089,"keywords":["nocrits","nodmgspread","payload","uncletopia"],"game_id":440,"stv_port":27036,"stv_name":"Uncletopia | Montréal | 3 | All Maps | STV","players":null},{"server_id":303,"name":"Uncletopia | Montréal | 4 | No Payload","name_short":"mtl-4","host":"mtl-1.ca.uncletopia.com","port":27045,"enabled":true,"region":"us-east","cc":"ca","latitude":45.50889,"longitude":-73.56167,"reserved":0,"last_update":"0001-01-01T00:00:00Z","name_a2s":"Uncletopia | Montréal | 4 | No Payload","protocol":17,"map":"koth_cascade","folder":"tf","game":"Team Fortress","app_id":440,"player_count":0,"max_players":24,"Bots":0,"server_type":"Dedicated","server_os":"Linux","password":true,"vac":true,"version":"7723704","steam_id":85568392924500090,"keywords":["cp","nocrits","nodmgspread","uncletopia"],"game_id":440,"stv_port":27046,"stv_name":"Uncletopia | Montréal | 4 | No Payload | STV","players":null},{"server_id":13,"name":"Uncletopia | New York City | 1 | All Maps","name_short":"nyc-1","host":"nyc-1.us.uncletopia.com","port":27015,"enabled":true,"region":"us-east","cc":"us","latitude":40.73061,"longitude":-73.93524,"reserved":0,"last_update":"0001-01-01T00:00:00Z","name_a2s":"Uncletopia | New York City | 1 | All Maps","protocol":17,"map":"ctf_2fort","folder":"tf","game":"Team Fortress","app_id":440,"player_count":24,"max_players":24,"Bots":0,"server_type":"Dedicated","server_os":"Linux","password":true,"vac":true,"version":"7723704","steam_id":85568392924469993,"keywords":["ctf","nocrits","nodmgspread","uncletopia"],"game_id":440,"stv_port":27016,"stv_name":"Uncletopia | New York City | 1 | All Maps | STV","players":[{"user_id":283,"name":"megaboi796","steam_id":76561198122995438,"connected_time":2290000000000,"state":"active","ping":63},{"user_id":315,"name":"dog","steam_id":76561198066521617,"connected_time":783000000000,"state":"active","ping":59},{"user_id":312,"name":"Thr33boys","steam_id":76561198035639627,"connected_time":935000000000,"state":"active","ping":60},{"user_id":298,"name":"Reggievich","steam_id":76561198173252835,"connected_time":1249000000000,"state":"active","ping":61},{"user_id":321,"name":"Cloamker","steam_id":76561199135621544,"connected_time":277000000000,"state":"active","ping":62},{"user_id":331,"name":"sockslol","steam_id":76561198837938385,"connected_time":7000000000,"state":"spawning","ping":74},{"user_id":303,"name":"Antwan","steam_id":76561198246200638,"connected_time":1078000000000,"state":"active","ping":87},{"user_id":253,"name":"Luis wid a mic","steam_id":76561198349570006,"connected_time":3516000000000,"state":"active","ping":37},{"user_id":313,"name":"M249 | Spectre","steam_id":76561198118334485,"connected_time":815000000000,"state":"active","ping":54},{"user_id":300,"name":"Nilantive","steam_id":76561198177565082,"connected_time":1155000000000,"state":"active","ping":51},{"user_id":301,"name":"THGAwesome","steam_id":76561198162847218,"connected_time":1142000000000,"state":"active","ping":55},{"user_id":302,"name":"school_boy_16","steam_id":76561198060630107,"connected_time":1115000000000,"state":"active","ping":106},{"user_id":318,"name":"Chilidestroy","steam_id":76561199101551797,"connected_time":590000000000,"state":"active","ping":77},{"user_id":326,"name":"Chicken_God","steam_id":76561198119425964,"connected_time":73000000000,"state":"active","ping":96},{"user_id":322,"name":"[C.I.A MEMBER]luzi otako","steam_id":76561199094134214,"connected_time":260000000000,"state":"active","ping":81},{"user_id":327,"name":"drezzo","steam_id":76561198028444359,"connected_time":71000000000,"state":"active","ping":131},{"user_id":309,"name":"theoreminegaming","steam_id":76561198175573917,"connected_time":983000000000,"state":"active","ping":62},{"user_id":328,"name":"ADHDking","steam_id":76561198116099017,"connected_time":68000000000,"state":"active","ping":45},{"user_id":242,"name":"stop","steam_id":76561198268686419,"connected_time":4633000000000,"state":"active","ping":87},{"user_id":314,"name":"AliCat","steam_id":76561198308360862,"connected_time":789000000000,"state":"active","ping":106},{"user_id":329,"name":"tobo","steam_id":76561199366968526,"connected_time":61000000000,"state":"active","ping":109},{"user_id":317,"name":"Kurcha","steam_id":76561198048572011,"connected_time":746000000000,"state":"active","ping":164},{"user_id":324,"name":"FlakkerSaber","steam_id":76561198103503066,"connected_time":225000000000,"state":"active","ping":92},{"user_id":330,"name":"Nepeta Gamer","steam_id":76561198964321336,"connected_time":43000000000,"state":"active","ping":76}]},{"server_id":14,"name":"Uncletopia | New York City | 2 | All Maps","name_short":"nyc-2","host":"nyc-1.us.uncletopia.com","port":27025,"enabled":true,"region":"us-east","cc":"us","latitude":40.73061,"longitude":-73.93524,"reserved":0,"last_update":"0001-01-01T00:00:00Z","name_a2s":"Uncletopia | New York City | 2 | All Maps","protocol":17,"map":"pl_barnblitz","folder":"tf","game":"Team Fortress","app_id":440,"player_count":24,"max_players":24,"Bots":0,"server_type":"Dedicated","server_os":"Linux","password":true,"vac":true,"version":"7723704","steam_id":85568392924469994,"keywords":["nocrits","nodmgspread","payload","uncletopia"],"game_id":440,"stv_port":27026,"stv_name":"Uncletopia | New York City | 2 | All Maps | STV","players":[{"user_id":181,"name":"Mr. Kracks, CBT Enjoyer","steam_id":76561198081394903,"connected_time":2226000000000,"state":"active","ping":69},{"user_id":165,"name":"WhoIsFrosty","steam_id":76561198880588117,"connected_time":3395000000000,"state":"active","ping":81},{"user_id":190,"name":"stainless steel dog water","steam_id":76561198124931793,"connected_time":1044000000000,"state":"active","ping":81},{"user_id":153,"name":"AlecTheNefarious","steam_id":76561198035291230,"connected_time":4861000000000,"state":"active","ping":80},{"user_id":179,"name":"Phantasm","steam_id":76561198036954108,"connected_time":2252000000000,"state":"active","ping":75},{"user_id":180,"name":"Scufflemallet 1910","steam_id":76561198029919214,"connected_time":2242000000000,"state":"active","ping":91},{"user_id":182,"name":"NyansuPantsu","steam_id":76561198128008770,"connected_time":2016000000000,"state":"active","ping":62},{"user_id":159,"name":"hashmap","steam_id":76561198043794014,"connected_time":3923000000000,"state":"active","ping":56},{"user_id":140,"name":"Monkey","steam_id":76561198031015186,"connected_time":5847000000000,"state":"active","ping":54},{"user_id":170,"name":"java","steam_id":76561198030276792,"connected_time":3326000000000,"state":"active","ping":62},{"user_id":193,"name":"Dusty Bucket","steam_id":76561198037064732,"connected_time":665000000000,"state":"active","ping":50},{"user_id":183,"name":"Insayne","steam_id":76561199237951955,"connected_time":1994000000000,"state":"active","ping":66},{"user_id":174,"name":"wepry","steam_id":76561198114091417,"connected_time":2902000000000,"state":"active","ping":92},{"user_id":196,"name":"Sideshow Penguin","steam_id":76561198128024135,"connected_time":147000000000,"state":"active","ping":48},{"user_id":195,"name":"Ceiling Man","steam_id":76561198003959902,"connected_time":416000000000,"state":"active","ping":44},{"user_id":164,"name":"King","steam_id":76561198010019214,"connected_time":3458000000000,"state":"active","ping":43},{"user_id":194,"name":"IMPACT CPU","steam_id":76561198001344879,"connected_time":455000000000,"state":"active","ping":61},{"user_id":166,"name":"Subway Fan","steam_id":76561198336372790,"connected_time":3389000000000,"state":"active","ping":51},{"user_id":168,"name":"phil mias","steam_id":76561198000564263,"connected_time":3355000000000,"state":"active","ping":75},{"user_id":189,"name":"Ronin Grinch","steam_id":76561198041439581,"connected_time":1049000000000,"state":"active","ping":55},{"user_id":192,"name":"a table","steam_id":76561198158461279,"connected_time":781000000000,"state":"active","ping":82},{"user_id":185,"name":"Rein","steam_id":76561198300340427,"connected_time":1871000000000,"state":"active","ping":71},{"user_id":186,"name":"ButterFries","steam_id":76561198066995436,"connected_time":1832000000000,"state":"active","ping":75},{"user_id":152,"name":"lanoc","steam_id":76561198055415367,"connected_time":4872000000000,"state":"active","ping":69}]},{"server_id":15,"name":"Uncletopia | New York City | 3 | Stopwatch Beta","name_short":"nyc-3","host":"nyc-1.us.uncletopia.com","port":27035,"enabled":true,"region":"us-east","cc":"us","latitude":40.73061,"longitude":-73.93524,"reserved":0,"last_update":"0001-01-01T00:00:00Z","name_a2s":"Uncletopia | New York City | 3 | Stopwatch Beta","protocol":17,"map":"cp_sunshine","folder":"tf","game":"Team Fortress","app_id":440,"player_count":0,"max_players":24,"Bots":0,"server_type":"Dedicated","server_os":"Linux","password":true,"vac":true,"version":"7723704","steam_id":85568392924742820,"keywords":["cp","nocrits","nodmgspread","uncletopia"],"game_id":440,"stv_port":27036,"stv_name":"Uncletopia | New York City | 3 | Stopwatch Beta | STV","players":null},{"server_id":16,"name":"Uncletopia | New York City | 4 | Community","name_short":"nyc-4","host":"nyc-1.us.uncletopia.com","port":27045,"enabled":true,"region":"us-east","cc":"us","latitude":40.73061,"longitude":-73.93524,"reserved":0,"last_update":"0001-01-01T00:00:00Z","name_a2s":"Uncletopia | New York City | 4 | Community","protocol":17,"map":"workshop/koth_synthetic_rc6a.ugc1549817316","folder":"tf","game":"Team Fortress","app_id":440,"player_count":0,"max_players":24,"Bots":0,"server_type":"Dedicated","server_os":"Linux","password":true,"vac":true,"version":"7723704","steam_id":85568392924742821,"keywords":["cp","nocrits","nodmgspread","uncletopia"],"game_id":440,"stv_port":27046,"stv_name":"Uncletopia | New York City | 4 | Community | STV","players":null},{"server_id":142,"name":"Uncletopia | São Paulo | 1 | All Maps","name_short":"sao-1","host":"sao-1.br.uncletopia.com","port":27015,"enabled":true,"region":"sa","cc":"br","latitude":-23.533773,"longitude":-46.62529,"reserved":0,"last_update":"0001-01-01T00:00:00Z","name_a2s":"Uncletopia | São Paulo | 1 | All Maps","protocol":17,"map":"koth_lakeside_final","folder":"tf","game":"Team Fortress","app_id":440,"player_count":0,"max_players":24,"Bots":0,"server_type":"Dedicated","server_os":"Linux","password":true,"vac":true,"version":"7723704","steam_id":85568392924469996,"keywords":["cp","nocrits","nodmgspread","uncletopia"],"game_id":440,"stv_port":27016,"stv_name":"Uncletopia | São Paulo | 1 | All Maps | STV","players":null},{"server_id":143,"name":"Uncletopia | São Paulo | 2 | All Maps","name_short":"sao-2","host":"sao-2.br.uncletopia.com","port":27015,"enabled":true,"region":"sa","cc":"br","latitude":-23.533773,"longitude":-46.62529,"reserved":0,"last_update":"0001-01-01T00:00:00Z","name_a2s":"Uncletopia | São Paulo | 2 | All Maps","protocol":17,"map":"koth_lakeside_final","folder":"tf","game":"Team Fortress","app_id":440,"player_count":4,"max_players":24,"Bots":0,"server_type":"Dedicated","server_os":"Linux","password":true,"vac":true,"version":"7723704","steam_id":85568392924485349,"keywords":["cp","nocrits","nodmgspread","uncletopia"],"game_id":440,"stv_port":27016,"stv_name":"Uncletopia | São Paulo | 2 | All Maps | STV","players":[{"user_id":164,"name":"dulce de leche","steam_id":76561199158907231,"connected_time":5846000000000,"state":"active","ping":82},{"user_id":167,"name":"Queso Crema","steam_id":76561198842538871,"connected_time":5196000000000,"state":"active","ping":69},{"user_id":168,"name":"Space bar ©","steam_id":76561199405318831,"connected_time":2545000000000,"state":"active","ping":209},{"user_id":169,"name":"Deadhead","steam_id":76561198929887980,"connected_time":1898000000000,"state":"active","ping":56}]},{"server_id":7,"name":"Uncletopia | Seattle | 1 | All Maps","name_short":"sea-1","host":"sea-1.us.uncletopia.com","port":27015,"enabled":true,"region":"us-west","cc":"us","latitude":47.608013,"longitude":-122.33517,"reserved":0,"last_update":"0001-01-01T00:00:00Z","name_a2s":"Uncletopia | Seattle | 1 | All Maps","protocol":17,"map":"pl_badwater","folder":"tf","game":"Team Fortress","app_id":440,"player_count":24,"max_players":24,"Bots":0,"server_type":"Dedicated","server_os":"Linux","password":true,"vac":true,"version":"7723704","steam_id":85568392924469997,"keywords":["nocrits","nodmgspread","payload","uncletopia"],"game_id":440,"stv_port":27016,"stv_name":"Uncletopia | Seattle | 1 | All Maps | STV","players":[{"user_id":825,"name":"squash","steam_id":76561198150281353,"connected_time":3628000000000,"state":"active","ping":57},{"user_id":823,"name":"Raniel Dicciardo","steam_id":76561198053859538,"connected_time":4513000000000,"state":"active","ping":76},{"user_id":789,"name":"bbbbb","steam_id":76561198095480838,"connected_time":6581000000000,"state":"active","ping":46},{"user_id":851,"name":"Empyrean","steam_id":76561198116398716,"connected_time":777000000000,"state":"active","ping":86},{"user_id":855,"name":"oil","steam_id":76561198099980149,"connected_time":266000000000,"state":"active","ping":76},{"user_id":845,"name":"Mouth Tea","steam_id":76561198285054047,"connected_time":1930000000000,"state":"active","ping":78},{"user_id":848,"name":"A Fruit","steam_id":76561198951830050,"connected_time":1484000000000,"state":"active","ping":98},{"user_id":833,"name":"Protato","steam_id":76561198053117503,"connected_time":2947000000000,"state":"active","ping":60},{"user_id":843,"name":"Crake","steam_id":76561198001959071,"connected_time":2337000000000,"state":"active","ping":54},{"user_id":835,"name":"rat gets the cheese","steam_id":76561198031234032,"connected_time":2762000000000,"state":"active","ping":100},{"user_id":844,"name":"Joy in A Box","steam_id":76561198156820753,"connected_time":2188000000000,"state":"active","ping":179},{"user_id":820,"name":"dougrocks421","steam_id":76561198165063918,"connected_time":4705000000000,"state":"active","ping":51},{"user_id":806,"name":"TheCowledWiz","steam_id":76561198016735868,"connected_time":4969000000000,"state":"active","ping":57},{"user_id":854,"name":"timmy","steam_id":76561198063322988,"connected_time":620000000000,"state":"active","ping":46},{"user_id":720,"name":"Hermit not Kermit","steam_id":76561198106182525,"connected_time":10806000000000,"state":"active","ping":64},{"user_id":852,"name":"GreenApples","steam_id":76561198120559543,"connected_time":755000000000,"state":"active","ping":61},{"user_id":832,"name":"Sniff","steam_id":76561198010270922,"connected_time":3015000000000,"state":"active","ping":45},{"user_id":829,"name":"Korey","steam_id":76561198210734407,"connected_time":3464000000000,"state":"active","ping":120},{"user_id":812,"name":"BUFF THE SCORCH SHOT","steam_id":76561198042899484,"connected_time":4886000000000,"state":"active","ping":60},{"user_id":853,"name":"WitherJK","steam_id":76561198061918541,"connected_time":749000000000,"state":"active","ping":115},{"user_id":836,"name":"Cheezbeargur","steam_id":76561198164702899,"connected_time":2760000000000,"state":"active","ping":63},{"user_id":817,"name":"[DATS➡] Sugar Meowth","steam_id":76561197995251793,"connected_time":4794000000000,"state":"active","ping":45},{"user_id":819,"name":"DonoC","steam_id":76561198274473338,"connected_time":4769000000000,"state":"active","ping":102},{"user_id":802,"name":"shane","steam_id":76561198060491451,"connected_time":5464000000000,"state":"active","ping":88}]},{"server_id":119,"name":"Uncletopia | Seattle | 2 | All Maps","name_short":"sea-2","host":"sea-1.us.uncletopia.com","port":27025,"enabled":true,"region":"us-west","cc":"us","latitude":47.608013,"longitude":-122.33517,"reserved":0,"last_update":"0001-01-01T00:00:00Z","name_a2s":"Uncletopia | Seattle | 2 | All Maps","protocol":17,"map":"pl_badwater","folder":"tf","game":"Team Fortress","app_id":440,"player_count":25,"max_players":24,"Bots":0,"server_type":"Dedicated","server_os":"Linux","password":true,"vac":true,"version":"7723704","steam_id":85568392924469998,"keywords":["nocrits","nodmgspread","payload","uncletopia"],"game_id":440,"stv_port":27026,"stv_name":"Uncletopia | Seattle | 2 | All Maps | STV","players":[{"user_id":297,"name":"UneditedAndy","steam_id":76561198982544947,"connected_time":1551000000000,"state":"active","ping":72},{"user_id":309,"name":"Cardjitsu Blackbelt","steam_id":76561199099203623,"connected_time":435000000000,"state":"active","ping":99},{"user_id":304,"name":"kenZino","steam_id":76561197967971192,"connected_time":1038000000000,"state":"active","ping":45},{"user_id":315,"name":"Jimbabway Buswaka Wilson","steam_id":76561198071460071,"connected_time":168000000000,"state":"active","ping":136},{"user_id":314,"name":"UV","steam_id":76561198083936918,"connected_time":239000000000,"state":"active","ping":56},{"user_id":273,"name":"krootonitron","steam_id":76561198114113037,"connected_time":2972000000000,"state":"active","ping":62},{"user_id":268,"name":"DeadlyAnomalies","steam_id":76561198125818085,"connected_time":3613000000000,"state":"active","ping":72},{"user_id":296,"name":"incineratedbread","steam_id":76561198133619079,"connected_time":1795000000000,"state":"active","ping":65},{"user_id":294,"name":"Cosmosis Jones","steam_id":76561198970097093,"connected_time":1858000000000,"state":"active","ping":106},{"user_id":306,"name":"c0wb0y","steam_id":76561199076182855,"connected_time":843000000000,"state":"active","ping":128},{"user_id":271,"name":"Canaan ❤","steam_id":76561198044337051,"connected_time":3038000000000,"state":"active","ping":89},{"user_id":313,"name":"Rix FPV","steam_id":76561198299320893,"connected_time":274000000000,"state":"active","ping":109},{"user_id":240,"name":"Court Wizard, Sir Dr. Clydesdal","steam_id":76561198149267697,"connected_time":6876000000000,"state":"active","ping":62},{"user_id":301,"name":"TROY","steam_id":76561197983852176,"connected_time":1389000000000,"state":"active","ping":83},{"user_id":290,"name":"[FOX] Fat Man","steam_id":76561197990901476,"connected_time":2236000000000,"state":"active","ping":109},{"user_id":298,"name":"General Fisticuffs","steam_id":76561198255721392,"connected_time":1496000000000,"state":"active","ping":104},{"user_id":277,"name":"LordMorphesus","steam_id":76561198026995104,"connected_time":2854000000000,"state":"active","ping":42},{"user_id":311,"name":"Agentnickel","steam_id":76561199186723516,"connected_time":389000000000,"state":"active","ping":77},{"user_id":282,"name":"Soap Man","steam_id":76561198000490235,"connected_time":2770000000000,"state":"active","ping":65},{"user_id":288,"name":"Tom Skirrett","steam_id":76561198014600788,"connected_time":2335000000000,"state":"active","ping":68},{"user_id":295,"name":"oo","steam_id":76561198119626492,"connected_time":1799000000000,"state":"active","ping":97},{"user_id":292,"name":"What are you doing?!","steam_id":76561198405248691,"connected_time":1973000000000,"state":"active","ping":74},{"user_id":312,"name":"Frongus","steam_id":76561197979056451,"connected_time":388000000000,"state":"active","ping":48},{"user_id":269,"name":"Ashanti Clan","steam_id":76561198032651105,"connected_time":3603000000000,"state":"active","ping":54},{"user_id":316,"name":"rorytherednosedreindeer","steam_id":76561198065825165,"connected_time":26000000000,"state":"spawning","ping":88}]},{"server_id":406,"name":"Uncletopia | Seattle | 3 | Stopwatch Beta","name_short":"sea-3","host":"sea-1.us.uncletopia.com","port":27035,"enabled":true,"region":"us-west","cc":"us","latitude":47.608013,"longitude":-122.33517,"reserved":0,"last_update":"0001-01-01T00:00:00Z","name_a2s":"Uncletopia | Seattle | 3 | Stopwatch Beta","protocol":17,"map":"cp_altitude","folder":"tf","game":"Team Fortress","app_id":440,"player_count":0,"max_players":24,"Bots":0,"server_type":"Dedicated","server_os":"Linux","password":true,"vac":false,"version":"7723704","steam_id":0,"keywords":["cp","nocrits","nodmgspread","uncletopia"],"game_id":440,"stv_port":27036,"stv_name":"Uncletopia | Seattle | 3 | Stopwatch Beta | STV","players":null},{"server_id":17,"name":"Uncletopia | San Francisco | 1 | All Maps","name_short":"sfo-1","host":"sfo-1.us.uncletopia.com","port":27015,"enabled":true,"region":"us-west","cc":"us","latitude":37.77397,"longitude":-122.4313,"reserved":0,"last_update":"0001-01-01T00:00:00Z","name_a2s":"Uncletopia | San Francisco | 1 | All Maps","protocol":17,"map":"cp_dustbowl","folder":"tf","game":"Team Fortress","app_id":440,"player_count":24,"max_players":24,"Bots":0,"server_type":"Dedicated","server_os":"Linux","password":true,"vac":true,"version":"7723704","steam_id":85568392924469999,"keywords":["cp","nocrits","nodmgspread","uncletopia"],"game_id":440,"stv_port":27016,"stv_name":"Uncletopia | San Francisco | 1 | All Maps | STV","players":[{"user_id":299,"name":"Flyingcat9000","steam_id":76561198179561797,"connected_time":2349000000000,"state":"active","ping":39},{"user_id":326,"name":"ネート","steam_id":76561198212969373,"connected_time":651000000000,"state":"active","ping":52},{"user_id":305,"name":"Loki❤","steam_id":76561198280150602,"connected_time":2252000000000,"state":"active","ping":76},{"user_id":327,"name":"Whapper","steam_id":76561198044029606,"connected_time":600000000000,"state":"active","ping":51},{"user_id":328,"name":"WDG 1-S","steam_id":76561199057827299,"connected_time":598000000000,"state":"active","ping":94},{"user_id":306,"name":"That Guy","steam_id":76561197997444126,"connected_time":2214000000000,"state":"active","ping":69},{"user_id":329,"name":"kr1tsurf3r","steam_id":76561198076402476,"connected_time":566000000000,"state":"active","ping":59},{"user_id":313,"name":"tweet","steam_id":76561198166515735,"connected_time":1954000000000,"state":"active","ping":47},{"user_id":338,"name":"IV","steam_id":76561198208996573,"connected_time":263000000000,"state":"active","ping":60},{"user_id":292,"name":"playboicartifan2017","steam_id":76561198345528370,"connected_time":2641000000000,"state":"active","ping":38},{"user_id":300,"name":"Chafn","steam_id":76561197969386702,"connected_time":2348000000000,"state":"active","ping":62},{"user_id":340,"name":"shoes","steam_id":76561198044104086,"connected_time":65000000000,"state":"active","ping":60},{"user_id":314,"name":"Psychromaniac","steam_id":76561198012215214,"connected_time":1925000000000,"state":"active","ping":78},{"user_id":337,"name":"nap","steam_id":76561198162714624,"connected_time":393000000000,"state":"active","ping":85},{"user_id":339,"name":"sniffy","steam_id":76561198184933255,"connected_time":249000000000,"state":"active","ping":54},{"user_id":333,"name":"Aurifex","steam_id":76561198151843849,"connected_time":518000000000,"state":"active","ping":50},{"user_id":334,"name":"ArnoldGaming","steam_id":76561198040140247,"connected_time":495000000000,"state":"active","ping":135},{"user_id":335,"name":"MrLeftTurn","steam_id":76561198856743969,"connected_time":492000000000,"state":"active","ping":98},{"user_id":315,"name":"piñacoladita","steam_id":76561198843013810,"connected_time":1918000000000,"state":"active","ping":83},{"user_id":316,"name":"pyro sucks","steam_id":76561199431553789,"connected_time":1859000000000,"state":"active","ping":83},{"user_id":319,"name":"MistakesWereMade","steam_id":76561199059220481,"connected_time":1707000000000,"state":"active","ping":58},{"user_id":317,"name":"AKKAWI","steam_id":76561198203159952,"connected_time":1827000000000,"state":"active","ping":56},{"user_id":336,"name":"Turtle","steam_id":76561198262110064,"connected_time":490000000000,"state":"active","ping":108},{"user_id":283,"name":"t","steam_id":76561198175988929,"connected_time":3749000000000,"state":"active","ping":76}]},{"server_id":18,"name":"Uncletopia | San Francisco | 2 | All Maps","name_short":"sfo-2","host":"sfo-1.us.uncletopia.com","port":27025,"enabled":true,"region":"us-west","cc":"us","latitude":37.77397,"longitude":-122.4313,"reserved":0,"last_update":"0001-01-01T00:00:00Z","name_a2s":"Uncletopia | San Francisco | 2 | All Maps","protocol":17,"map":"pl_snowycoast","folder":"tf","game":"Team Fortress","app_id":440,"player_count":0,"max_players":24,"Bots":0,"server_type":"Dedicated","server_os":"Linux","password":true,"vac":true,"version":"7723704","steam_id":85568392924470000,"keywords":["nocrits","nodmgspread","payload","uncletopia"],"game_id":440,"stv_port":27026,"stv_name":"Uncletopia | San Francisco | 2 | All Maps | STV","players":null},{"server_id":19,"name":"Uncletopia | San Francisco | 3 | Stopwatch Beta","name_short":"sfo-3","host":"sfo-1.us.uncletopia.com","port":27035,"enabled":true,"region":"us-west","cc":"us","latitude":37.77397,"longitude":-122.4313,"reserved":0,"last_update":"0001-01-01T00:00:00Z","name_a2s":"Uncletopia | San Francisco | 3 | Stopwatch Beta","protocol":17,"map":"pl_pier","folder":"tf","game":"Team Fortress","app_id":440,"player_count":0,"max_players":24,"Bots":0,"server_type":"Dedicated","server_os":"Linux","password":true,"vac":true,"version":"7723704","steam_id":85568392924742824,"keywords":["nocrits","nodmgspread","payload","uncletopia"],"game_id":440,"stv_port":27036,"stv_name":"Uncletopia | San Francisco | 3 | Stopwatch Beta | STV","players":null},{"server_id":20,"name":"Uncletopia | San Francisco | 4 | Community","name_short":"sfo-4","host":"sfo-1.us.uncletopia.com","port":27045,"enabled":true,"region":"us-west","cc":"us","latitude":37.77397,"longitude":-122.4313,"reserved":0,"last_update":"0001-01-01T00:00:00Z","name_a2s":"Uncletopia | San Francisco | 4 | Community","protocol":17,"map":"workshop/cp_logjam_rc12.ugc454812035","folder":"tf","game":"Team Fortress","app_id":440,"player_count":4,"max_players":24,"Bots":0,"server_type":"Dedicated","server_os":"Linux","password":true,"vac":true,"version":"7723704","steam_id":85568392924742826,"keywords":["cp","nocrits","nodmgspread","uncletopia"],"game_id":440,"stv_port":27046,"stv_name":"Uncletopia | San Francisco | 4 | Community | STV","players":[{"user_id":68,"name":"a cat plushie","steam_id":76561198080046542,"connected_time":4720000000000,"state":"active","ping":59},{"user_id":69,"name":"SwampHen8005","steam_id":76561199389957336,"connected_time":3479000000000,"state":"spawning","ping":264},{"user_id":70,"name":"CrackedSanity","steam_id":76561198279841251,"connected_time":3381000000000,"state":"active","ping":45},{"user_id":77,"name":"johnman gooberguy","steam_id":76561199014859764,"connected_time":365000000000,"state":"active","ping":47}]},{"server_id":141,"name":"Uncletopia | Sydney | 1 | All Maps","name_short":"syd-1","host":"syd-1.au.uncletopia.com","port":27015,"enabled":true,"region":"au","cc":"au","latitude":-33.865143,"longitude":151.2099,"reserved":0,"last_update":"0001-01-01T00:00:00Z","name_a2s":"Uncletopia | Sydney | 1 | All Maps","protocol":17,"map":"pl_borneo","folder":"tf","game":"Team Fortress","app_id":440,"player_count":24,"max_players":24,"Bots":0,"server_type":"Dedicated","server_os":"Linux","password":true,"vac":true,"version":"7723704","steam_id":85568392924470001,"keywords":["nocrits","nodmgspread","payload","uncletopia"],"game_id":440,"stv_port":27016,"stv_name":"Uncletopia | Sydney | 1 | All Maps | STV","players":[{"user_id":198,"name":"Rob-Roy","steam_id":76561198012749888,"connected_time":1964000000000,"state":"active","ping":113},{"user_id":210,"name":"Tomatolaxatives","steam_id":76561198165184407,"connected_time":900000000000,"state":"active","ping":39},{"user_id":169,"name":"Teflon","steam_id":76561198001224301,"connected_time":4540000000000,"state":"active","ping":69},{"user_id":208,"name":"Jim","steam_id":76561198866338513,"connected_time":1163000000000,"state":"active","ping":105},{"user_id":203,"name":"The Goodnight Kiwi","steam_id":76561198866433807,"connected_time":1605000000000,"state":"active","ping":60},{"user_id":211,"name":"Slippo","steam_id":76561198079649290,"connected_time":894000000000,"state":"active","ping":48},{"user_id":218,"name":"Ben","steam_id":76561198008829355,"connected_time":626000000000,"state":"active","ping":48},{"user_id":193,"name":"Macca","steam_id":76561198010207998,"connected_time":2587000000000,"state":"active","ping":57},{"user_id":206,"name":"jumpscare","steam_id":76561198170693338,"connected_time":1264000000000,"state":"active","ping":84},{"user_id":207,"name":"Glockenspe (She/Her)","steam_id":76561199184115241,"connected_time":1167000000000,"state":"active","ping":40},{"user_id":165,"name":"DOINBA","steam_id":76561197965566926,"connected_time":4969000000000,"state":"active","ping":39},{"user_id":170,"name":"TW_light2022","steam_id":76561199393566784,"connected_time":4515000000000,"state":"active","ping":62},{"user_id":199,"name":"hobo","steam_id":76561199046481213,"connected_time":1799000000000,"state":"active","ping":60},{"user_id":217,"name":"Raypest","steam_id":76561197980678745,"connected_time":658000000000,"state":"active","ping":45},{"user_id":204,"name":"The Sopranos","steam_id":76561198069602169,"connected_time":1582000000000,"state":"active","ping":57},{"user_id":182,"name":"Duality","steam_id":76561198050614167,"connected_time":3436000000000,"state":"active","ping":58},{"user_id":209,"name":"jcoll444","steam_id":76561198143025380,"connected_time":1008000000000,"state":"active","ping":60},{"user_id":83,"name":"helix","steam_id":76561198046509091,"connected_time":9612000000000,"state":"active","ping":56},{"user_id":194,"name":"Phoish","steam_id":76561198442526296,"connected_time":2581000000000,"state":"active","ping":73},{"user_id":92,"name":"Local Trash Expert","steam_id":76561198145598622,"connected_time":9397000000000,"state":"active","ping":77},{"user_id":95,"name":"speed bomb","steam_id":76561198277363788,"connected_time":9176000000000,"state":"active","ping":70},{"user_id":195,"name":"kaz","steam_id":76561198141532452,"connected_time":2560000000000,"state":"active","ping":53},{"user_id":173,"name":"Zort","steam_id":76561198056414289,"connected_time":4351000000000,"state":"active","ping":62},{"user_id":220,"name":"The Zoo (They/Them)","steam_id":76561198061713340,"connected_time":227000000000,"state":"active","ping":59}]},{"server_id":123,"name":"Uncletopia | Sydney | 2 | All Maps","name_short":"syd-2","host":"syd-1.au.uncletopia.com","port":27025,"enabled":true,"region":"au","cc":"au","latitude":-33.865143,"longitude":151.2099,"reserved":0,"last_update":"0001-01-01T00:00:00Z","name_a2s":"Uncletopia | Sydney | 2 | All Maps","protocol":17,"map":"cp_altitude","folder":"tf","game":"Team Fortress","app_id":440,"player_count":0,"max_players":24,"Bots":0,"server_type":"Dedicated","server_os":"Linux","password":true,"vac":true,"version":"7723704","steam_id":85568392924470002,"keywords":["cp","nocrits","nodmgspread","uncletopia"],"game_id":440,"stv_port":27026,"stv_name":"Uncletopia | Sydney | 2 | All Maps | STV","players":null},{"server_id":395,"name":"Uncletopia | Sydney | 3 | All Maps","name_short":"syd-3","host":"syd-1.au.uncletopia.com","port":27035,"enabled":true,"region":"au","cc":"au","latitude":-33.865143,"longitude":151.2099,"reserved":0,"last_update":"0001-01-01T00:00:00Z","name_a2s":"Uncletopia | Sydney | 3 | All Maps","protocol":17,"map":"pl_barnblitz","folder":"tf","game":"Team Fortress","app_id":440,"player_count":0,"max_players":24,"Bots":0,"server_type":"Dedicated","server_os":"Linux","password":true,"vac":true,"version":"7723704","steam_id":85568392925194467,"keywords":["nocrits","nodmgspread","payload","uncletopia"],"game_id":440,"stv_port":27036,"stv_name":"Uncletopia | Sydney | 3 | All Maps | STV","players":null},{"server_id":396,"name":"Uncletopia | Sydney | 4 | All Maps","name_short":"syd-4","host":"syd-1.au.uncletopia.com","port":27045,"enabled":true,"region":"au","cc":"au","latitude":-33.865143,"longitude":151.2099,"reserved":0,"last_update":"0001-01-01T00:00:00Z","name_a2s":"Uncletopia | Sydney | 4 | All Maps","protocol":17,"map":"cp_process_final","folder":"tf","game":"Team Fortress","app_id":440,"player_count":2,"max_players":24,"Bots":0,"server_type":"Dedicated","server_os":"Linux","password":true,"vac":true,"version":"7723704","steam_id":85568392925397958,"keywords":["cp","nocrits","nodmgspread","uncletopia"],"game_id":440,"stv_port":27046,"stv_name":"Uncletopia | Sydney | 4 | All Maps | STV","players":[{"user_id":12,"name":"The Inked Rabbit","steam_id":76561199158680285,"connected_time":50000000000,"state":"active","ping":138},{"user_id":13,"name":"LazyGuyEythan (SethEythan)","steam_id":76561198100007906,"connected_time":16000000000,"state":"spawning","ping":179}]},{"server_id":58,"name":"Uncletopia | Sydney | 5 | Stopwatch Beta","name_short":"syd-5","host":"syd-1.au.uncletopia.com","port":27055,"enabled":true,"region":"au","cc":"au","latitude":-33.865143,"longitude":151.2099,"reserved":0,"last_update":"0001-01-01T00:00:00Z","name_a2s":"Uncletopia | Sydney | 5 | Stopwatch Beta","protocol":17,"map":"cp_altitude","folder":"tf","game":"Team Fortress","app_id":440,"player_count":0,"max_players":24,"Bots":0,"server_type":"Dedicated","server_os":"Linux","password":true,"vac":true,"version":"7723704","steam_id":85568392925397959,"keywords":["cp","nocrits","nodmgspread","uncletopia"],"game_id":440,"stv_port":27056,"stv_name":"Uncletopia | Sydney | 5 | Stopwatch Beta | STV","players":null},{"server_id":59,"name":"Uncletopia | Sydney | 6 | Community","name_short":"syd-6","host":"syd-1.au.uncletopia.com","port":27065,"enabled":true,"region":"au","cc":"au","latitude":-33.865143,"longitude":151.2099,"reserved":0,"last_update":"0001-01-01T00:00:00Z","name_a2s":"Uncletopia | Sydney | 6 | Community","protocol":17,"map":"workshop/pl_fifthcurve_rc1.ugc648227046","folder":"tf","game":"Team Fortress","app_id":440,"player_count":0,"max_players":24,"Bots":0,"server_type":"Dedicated","server_os":"Linux","password":true,"vac":true,"version":"7723704","steam_id":85568392925397960,"keywords":["nocrits","nodmgspread","payload","uncletopia"],"game_id":440,"stv_port":27066,"stv_name":"Uncletopia | Sydney | 6 | Community | STV","players":null},{"server_id":49,"name":"Uncletopia | Warsaw | 1 | All Maps","name_short":"waw-1","host":"waw-1.pl.uncletopia.com","port":27015,"enabled":true,"region":"eu","cc":"pl","latitude":52.2297,"longitude":21.017532,"reserved":0,"last_update":"0001-01-01T00:00:00Z","name_a2s":"Uncletopia | Warsaw | 1 | All Maps","protocol":17,"map":"koth_cascade","folder":"tf","game":"Team Fortress","app_id":440,"player_count":0,"max_players":24,"Bots":0,"server_type":"Dedicated","server_os":"Linux","password":true,"vac":true,"version":"7723704","steam_id":85568392925397850,"keywords":["cp","nocrits","nodmgspread","uncletopia"],"game_id":440,"stv_port":27016,"stv_name":"Uncletopia | Warsaw | 1 | All Maps | STV","players":null},{"server_id":50,"name":"Uncletopia | Warsaw | 2 | All Maps","name_short":"waw-2","host":"waw-1.pl.uncletopia.com","port":27025,"enabled":true,"region":"eu","cc":"pl","latitude":52.2297,"longitude":21.017532,"reserved":0,"last_update":"0001-01-01T00:00:00Z","name_a2s":"Uncletopia | Warsaw | 2 | All Maps","protocol":17,"map":"koth_viaduct","folder":"tf","game":"Team Fortress","app_id":440,"player_count":0,"max_players":24,"Bots":0,"server_type":"Dedicated","server_os":"Linux","password":true,"vac":true,"version":"7723704","steam_id":85568392925397851,"keywords":["cp","nocrits","nodmgspread","uncletopia"],"game_id":440,"stv_port":27026,"stv_name":"Uncletopia | Warsaw | 2 | All Maps | STV","players":null},{"server_id":51,"name":"Uncletopia | Warsaw | 3 | All Maps","name_short":"waw-3","host":"waw-1.pl.uncletopia.com","port":27035,"enabled":true,"region":"eu","cc":"pl","latitude":52.2297,"longitude":21.017532,"reserved":0,"last_update":"0001-01-01T00:00:00Z","name_a2s":"Uncletopia | Warsaw | 3 | All Maps","protocol":17,"map":"koth_viaduct","folder":"tf","game":"Team Fortress","app_id":440,"player_count":0,"max_players":24,"Bots":0,"server_type":"Dedicated","server_os":"Linux","password":true,"vac":true,"version":"7723704","steam_id":85568392925397852,"keywords":["cp","nocrits","nodmgspread","uncletopia"],"game_id":440,"stv_port":27036,"stv_name":"Uncletopia | Warsaw | 3 | All Maps | STV","players":null},{"server_id":52,"name":"Uncletopia | Warsaw | 4 | All Maps","name_short":"waw-4","host":"waw-1.pl.uncletopia.com","port":27045,"enabled":true,"region":"eu","cc":"pl","latitude":52.2297,"longitude":21.017532,"reserved":0,"last_update":"0001-01-01T00:00:00Z","name_a2s":"Uncletopia | Warsaw | 4 | All Maps","protocol":17,"map":"koth_viaduct","folder":"tf","game":"Team Fortress","app_id":440,"player_count":0,"max_players":24,"Bots":0,"server_type":"Dedicated","server_os":"Linux","password":true,"vac":true,"version":"7723704","steam_id":85568392925397853,"keywords":["cp","nocrits","nodmgspread","uncletopia"],"game_id":440,"stv_port":27046,"stv_name":"Uncletopia | Warsaw | 4 | All Maps | STV","players":null},{"server_id":53,"name":"Uncletopia | Warsaw | 5 | Stopwatch Beta","name_short":"waw-5","host":"waw-1.pl.uncletopia.com","port":27055,"enabled":true,"region":"eu","cc":"pl","latitude":52.2297,"longitude":21.017532,"reserved":0,"last_update":"0001-01-01T00:00:00Z","name_a2s":"Uncletopia | Warsaw | 5 | Stopwatch Beta","protocol":17,"map":"cp_sunshine","folder":"tf","game":"Team Fortress","app_id":440,"player_count":0,"max_players":24,"Bots":0,"server_type":"Dedicated","server_os":"Linux","password":true,"vac":true,"version":"7723704","steam_id":85568392925397854,"keywords":["cp","nocrits","nodmgspread","uncletopia"],"game_id":440,"stv_port":27056,"stv_name":"Uncletopia | Warsaw | 5 | Stopwatch Beta | STV","players":null},{"server_id":54,"name":"Uncletopia | Warsaw | 6 | Community","name_short":"waw-6","host":"waw-1.pl.uncletopia.com","port":27065,"enabled":true,"region":"eu","cc":"pl","latitude":52.2297,"longitude":21.017532,"reserved":0,"last_update":"0001-01-01T00:00:00Z","name_a2s":"Uncletopia | Warsaw | 6 | Community","protocol":17,"map":"workshop/koth_slaughter_rc1.ugc1712845210","folder":"tf","game":"Team Fortress","app_id":440,"player_count":0,"max_players":24,"Bots":0,"server_type":"Dedicated","server_os":"Linux","password":true,"vac":true,"version":"7723704","steam_id":85568392925397856,"keywords":["cp","nocrits","nodmgspread","uncletopia"],"game_id":440,"stv_port":27066,"stv_name":"Uncletopia | Warsaw | 6 | Community | STV","players":null}]}