{"status":true,"message":"","result":[{"server_id":9,"name":"Uncletopia | Atlanta | 1 | All Maps","name_short":"atl-1","host":"atl-1.us.uncletopia.com","port":27015,"enabled":true,"region":"us-east","cc":"us","latitude":33.753746,"longitude":-84.38633,"reserved":0,"last_update":"0001-01-01T00:00:00Z","name_a2s":"Uncletopia | Atlanta | 1 | All Maps","protocol":17,"map":"koth_highpass","folder":"tf","game":"Team Fortress","app_id":440,"player_count":0,"max_players":24,"Bots":0,"server_type":"Dedicated","server_os":"Linux","password":true,"vac":true,"version":"7742253","steam_id":85568392924469982,"keywords":["cp","nocrits","nodmgspread","uncletopia"],"game_id":440,"stv_port":27016,"stv_name":"Uncletopia | Atlanta | 1 | All Maps | STV","players":null},{"server_id":400,"name":"Uncletopia | Atlanta | 3 | Stopwatch Beta","name_short":"atl-3","host":"atl-1.us.uncletopia.com","port":27035,"enabled":true,"region":"us-east","cc":"us","latitude":33.753746,"longitude":-84.38633,"reserved":0,"last_update":"0001-01-01T00:00:00Z","name_a2s":"Uncletopia | Atlanta | 3 | Stopwatch Beta","protocol":17,"map":"pl_upward","folder":"tf","game":"Team Fortress","app_id":440,"player_count":0,"max_players":24,"Bots":0,"server_type":"Dedicated","server_os":"Linux","password":true,"vac":true,"version":"7742253","steam_id":85568392924515187,"keywords":["nocrits","nodmgspread","payload","uncletopia"],"game_id":440,"stv_port":27036,"stv_name":"Uncletopia | Atlanta | 3 | Stopwatch Beta | STV","players":null},{"server_id":401,"name":"Uncletopia | Atlanta | 4 | No Payload","name_short":"atl-4","host":"atl-1.us.uncletopia.com","port":27045,"enabled":true,"region":"us-east","cc":"us","latitude":33.753746,"longitude":-84.38633,"reserved":0,"last_update":"0001-01-01T00:00:00Z","name_a2s":"Uncletopia | Atlanta | 4 | No Payload","protocol":17,"map":"pl_pier","folder":"tf","game":"Team Fortress","app_id":440,"player_count":0,"max_players":24,"Bots":0,"server_type":"Dedicated","server_os":"Linux","password":true,"vac":true,"version":"7723704","steam_id":85568392924515188,"keywords":["nocrits","nodmgspread","payload","uncletopia"],"game_id":440,"stv_port":27046,"stv_name":"Uncletopia | Atlanta | 4 | No Payload | STV","players":null},{"server_id":2,"name":"Uncletopia | Chicago | 1 | All Maps","name_short":"chi-1","host":"chi-1.us.uncletopia.com","port":27015,"enabled":true,"region":"us-central","cc":"us","latitude":41.881832,"longitude":-87.62318,"reserved":0,"last_update":"0001-01-01T00:00:00Z","name_a2s":"Uncletopia | Chicago | 1 | All Maps","protocol":17,"map":"koth_viaduct","folder":"tf","game":"Team Fortress","app_id":440,"player_count":4,"max_players":24,"Bots":0,"server_type":"Dedicated","server_os":"Linux","password":true,"vac":true,"version":"7742253","steam_id":85568392924469984,"keywords":["cp","nocrits","nodmgspread","uncletopia"],"game_id":440,"stv_port":27016,"stv_name":"Uncletopia | Chicago | 1 | All Maps | STV","players":[{"user_id":875,"name":"pomson'ed","steam_id":76561198041219202,"connected_time":1832000000000,"state":"active","ping":52},{"user_id":876,"name":"Synth","steam_id":76561198251990612,"connected_time":1741000000000,"state":"active","ping":69},{"user_id":877,"name":"CrackedSanity","steam_id":76561198279841251,"connected_time":828000000000,"state":"active","ping":124},{"user_id":879,"name":"DenverDSnail","steam_id":76561198182543578,"connected_time":14000000000,"state":"spawning","ping":93}]},{"server_id":106,"name":"Uncletopia | Chicago | 2 | All Maps","name_short":"chi-2","host":"chi-1.us.uncletopia.com","port":27025,"enabled":true,"region":"us-central","cc":"us","latitude":41.881832,"longitude":-87.62318,"reserved":0,"last_update":"0001-01-01T00:00:00Z","name_a2s":"Uncletopia | Chicago | 2 | All Maps","protocol":17,"map":"koth_cascade","folder":"tf","game":"Team Fortress","app_id":440,"player_count":0,"max_players":24,"Bots":0,"server_type":"Dedicated","server_os":"Linux","password":true,"vac":true,"version":"7742253","steam_id":85568392924469985,"keywords":["cp","nocrits","nodmgspread","uncletopia"],"game_id":440,"stv_port":27026,"stv_name":"Uncletopia | Chicago | 2 | All Maps | STV","players":null},{"server_id":402,"name":"Uncletopia | Chicago | 3 | All Maps","name_short":"chi-3","host":"chi-1.us.uncletopia.com","port":27035,"enabled":true,"region":"us-central","cc":"us","latitude":41.881832,"longitude":-87.62318,"reserved":0,"last_update":"0001-01-01T00:00:00Z","name_a2s":"Uncletopia | Chicago | 3 | All Maps","protocol":17,"map":"koth_harvest_final","folder":"tf","game":"Team Fortress","app_id":440,"player_count":0,"max_players":24,"Bots":0,"server_type":"Dedicated","server_os":"Linux","password":true,"vac":true,"version":"7742253","steam_id":85568392924515191,"keywords":["cp","nocrits","nodmgspread","uncletopia"],"game_id":440,"stv_port":27036,"stv_name":"Uncletopia | Chicago | 3 | All Maps | STV","players":null},{"server_id":403,"name":"Uncletopia | Chicago | 4 | All Maps","name_short":"chi-4","host":"chi-1.us.uncletopia.com","port":27045,"enabled":true,"region":"us-central","cc":"us","latitude":41.881832,"longitude":-87.62318,"reserved":0,"last_update":"0001-01-01T00:00:00Z","name_a2s":"Uncletopia | Chicago | 4 | All Maps","protocol":17,"map":"pl_barnblitz","folder":"tf","game":"Team Fortress","app_id":440,"player_count":24,"max_players":24,"Bots":0,"server_type":"Dedicated","server_os":"Linux","password":true,"vac":true,"version":"7742253","steam_id":85568392924515193,"keywords":["nocrits","nodmgspread","payload","uncletopia"],"game_id":440,"stv_port":27046,"stv_name":"Uncletopia | Chicago | 4 | All Maps | STV","players":[{"user_id":527,"name":"mommy hog","steam_id":76561199230929836,"connected_time":3175000000000,"state":"active","ping":96},{"user_id":550,"name":"Dannnnnn","steam_id":76561198442700385,"connected_time":811000000000,"state":"active","ping":180},{"user_id":497,"name":"vedett","steam_id":76561198055433423,"connected_time":6392000000000,"state":"active","ping":99},{"user_id":547,"name":"E1M1","steam_id":76561198165542681,"connected_time":895000000000,"state":"active","ping":48},{"user_id":557,"name":"stop","steam_id":76561198268686419,"connected_time":272000000000,"state":"active","ping":52},{"user_id":504,"name":"zilly „ÉÑ","steam_id":76561198043873119,"connected_time":5575000000000,"state":"active","ping":52},{"user_id":537,"name":"lagzer","steam_id":76561198029295449,"connected_time":2265000000000,"state":"active","ping":161},{"user_id":526,"name":"Mythius","steam_id":76561198401392472,"connected_time":3288000000000,"state":"active","ping":75},{"user_id":538,"name":"Lonely Pumpkin","steam_id":76561199058243841,"connected_time":1799000000000,"state":"active","ping":172},{"user_id":548,"name":"rlty","steam_id":76561198009395055,"connected_time":889000000000,"state":"active","ping":72},{"user_id":467,"name":"More yellow $keez","steam_id":76561198074956732,"connected_time":8340000000000,"state":"active","ping":136},{"user_id":415,"name":"NovaSc6ut","steam_id":76561198277163301,"connected_time":13086000000000,"state":"active","ping":83},{"user_id":531,"name":"Sex Luthor \u0026 the Legion of Poon","steam_id":76561198043246437,"connected_time":3058000000000,"state":"active","ping":71},{"user_id":549,"name":"Jelqing Table","steam_id":76561198051373750,"connected_time":819000000000,"state":"active","ping":66},{"user_id":551,"name":"DSM-IVCE","steam_id":76561199438515797,"connected_time":808000000000,"state":"active","ping":116},{"user_id":552,"name":"ùîÅ√∏ùìëùìõ4ùìíùìö","steam_id":76561198403055175,"connected_time":790000000000,"state":"active","ping":76},{"user_id":543,"name":"Burning Monk","steam_id":76561198040700875,"connected_time":1209000000000,"state":"active","ping":58},{"user_id":553,"name":"goofy","steam_id":76561198124998397,"connected_time":749000000000,"state":"active","ping":72},{"user_id":496,"name":"Gamut","steam_id":76561199185822800,"connected_time":6424000000000,"state":"active","ping":73},{"user_id":542,"name":"Brown $keez","steam_id":76561198053621664,"connected_time":1551000000000,"state":"active","ping":59},{"user_id":498,"name":"Yellow $keez","steam_id":76561198049461668,"connected_time":6392000000000,"state":"active","ping":48},{"user_id":535,"name":"tuturu üéµ","steam_id":76561198093687851,"connected_time":2717000000000,"state":"active","ping":90},{"user_id":556,"name":"Steven ‚ò≠","steam_id":76561197999653804,"connected_time":417000000000,"state":"active","ping":112},{"user_id":437,"name":"MR. MODE","steam_id":76561198046775352,"connected_time":11406000000000,"state":"active","ping":90}]},{"server_id":36,"name":"Uncletopia | Chicago | 5 | All Maps","name_short":"chi-5","host":"chi-2.us.uncletopia.com","port":27015,"enabled":true,"region":"us-central","cc":"us","latitude":41.881832,"longitude":-87.62318,"reserved":0,"last_update":"0001-01-01T00:00:00Z","name_a2s":"Uncletopia | Chicago | 5 | All Maps","protocol":17,"map":"koth_highpass","folder":"tf","game":"Team Fortress","app_id":440,"player_count":0,"max_players":24,"Bots":0,"server_type":"Dedicated","server_os":"Linux","password":true,"vac":true,"version":"7742253","steam_id":85568392924866362,"keywords":["cp","nocrits","nodmgspread","uncletopia"],"game_id":440,"stv_port":27016,"stv_name":"Uncletopia | Chicago | 5 | All Maps | STV","players":null},{"server_id":37,"name":"Uncletopia | Chicago | 6 | All Maps","name_short":"chi-6","host":"chi-2.us.uncletopia.com","port":27025,"enabled":true,"region":"us-central","cc":"us","latitude":41.881832,"longitude":-87.62318,"reserved":0,"last_update":"0001-01-01T00:00:00Z","name_a2s":"Uncletopia | Chicago | 6 | All Maps","protocol":17,"map":"koth_cascade","folder":"tf","game":"Team Fortress","app_id":440,"player_count":0,"max_players":24,"Bots":0,"server_type":"Dedicated","server_os":"Linux","password":true,"vac":true,"version":"7742253","steam_id":85568392924866363,"keywords":["cp","nocrits","nodmgspread","uncletopia"],"game_id":440,"stv_port":27026,"stv_name":"Uncletopia | Chicago | 6 | All Maps | STV","players":null},{"server_id":38,"name":"Uncletopia | Chicago | 7 | Stopwatch Beta","name_short":"chi-7","host":"chi-2.us.uncletopia.com","port":27035,"enabled":true,"region":"us-central","cc":"us","latitude":41.881832,"longitude":-87.62318,"reserved":0,"last_update":"0001-01-01T00:00:00Z","name_a2s":"Uncletopia | Chicago | 7 | Stopwatch Beta","protocol":17,"map":"cp_altitude","folder":"tf","game":"Team Fortress","app_id":440,"player_count":0,"max_players":24,"Bots":0,"server_type":"Dedicated","server_os":"Linux","password":true,"vac":true,"version":"7742253","steam_id":85568392924866364,"keywords":["cp","nocrits","nodmgspread","uncletopia"],"game_id":440,"stv_port":27036,"stv_name":"Uncletopia | Chicago | 7 | Stopwatch Beta | STV","players":null},{"server_id":39,"name":"Uncletopia | Chicago | 8 | Community","name_short":"chi-8","host":"chi-2.us.uncletopia.com","port":27045,"enabled":true,"region":"us-central","cc":"us","latitude":41.881832,"longitude":-87.62318,"reserved":0,"last_update":"0001-01-01T00:00:00Z","name_a2s":"Uncletopia | Chicago | 8 | Community","protocol":17,"map":"workshop/koth_product_final.ugc454272353","folder":"tf","game":"Team Fortress","app_id":440,"player_count":0,"max_players":24,"Bots":0,"server_type":"Dedicated","server_os":"Linux","password":true,"vac":true,"version":"7742253","steam_id":85568392924866365,"keywords":["cp","nocrits","nodmgspread","uncletopia"],"game_id":440,"stv_port":27046,"stv_name":"Uncletopia | Chicago | 8 | Community | STV","players":null},{"server_id":8,"name":"Uncletopia | Dallas | 1 | All Maps","name_short":"dal-1","host":"dal-1.us.uncletopia.com","port":27015,"enabled":true,"region":"us-central","cc":"us","latitude":32.779167,"longitude":-96.80889,"reserved":0,"last_update":"0001-01-01T00:00:00Z","name_a2s":"Uncletopia | Dallas | 1 | All Maps","protocol":17,"map":"koth_highpass","folder":"tf","game":"Team Fortress","app_id":440,"player_count":0,"max_players":24,"Bots":0,"server_type":"Dedicated","server_os":"Linux","password":true,"vac":true,"version":"7742253","steam_id":85568392924469986,"keywords":["cp","nocrits","nodmgspread","uncletopia"],"game_id":440,"stv_port":27016,"stv_name":"Uncletopia | Dallas | 1 | All Maps | STV","players":null},{"server_id":108,"name":"Uncletopia | Dallas | 2 | All Maps","name_short":"dal-2","host":"dal-1.us.uncletopia.com","port":27025,"enabled":true,"region":"us-central","cc":"us","latitude":32.779167,"longitude":-96.80889,"reserved":0,"last_update":"0001-01-01T00:00:00Z","name_a2s":"Uncletopia | Dallas | 2 | All Maps","protocol":17,"map":"pl_borneo","folder":"tf","game":"Team Fortress","app_id":440,"player_count":0,"max_players":24,"Bots":0,"server_type":"Dedicated","server_os":"Linux","password":true,"vac":true,"version":"7742253","steam_id":85568392924469988,"keywords":["nocrits","nodmgspread","payload","uncletopia"],"game_id":440,"stv_port":27026,"stv_name":"Uncletopia | Dallas | 2 | All Maps | STV","players":null},{"server_id":5,"name":"Uncletopia | Frankfurt | 1 | All Maps","name_short":"frk-1","host":"frk-1.de.uncletopia.com","port":27015,"enabled":true,"region":"eu","cc":"de","latitude":50.110924,"longitude":8.682127,"reserved":0,"last_update":"0001-01-01T00:00:00Z","name_a2s":"Uncletopia | Frankfurt | 1 | All Maps","protocol":17,"map":"koth_highpass","folder":"tf","game":"Team Fortress","app_id":440,"player_count":1,"max_players":24,"Bots":0,"server_type":"Dedicated","server_os":"Linux","password":true,"vac":true,"version":"7742253","steam_id":85568392924469989,"keywords":["cp","nocrits","nodmgspread","uncletopia"],"game_id":440,"stv_port":27016,"stv_name":"Uncletopia | Frankfurt | 1 | All Maps | STV","players":[{"user_id":12,"name":"charlag_khan","steam_id":76561197991768268,"connected_time":49000000000,"state":"active","ping":46}]},{"server_id":110,"name":"Uncletopia | Frankfurt | 2 | All Maps","name_short":"frk-2","host":"frk-1.de.uncletopia.com","port":27025,"enabled":true,"region":"eu","cc":"de","latitude":50.110924,"longitude":8.682127,"reserved":0,"last_update":"0001-01-01T00:00:00Z","name_a2s":"Uncletopia | Frankfurt | 2 | All Maps","protocol":17,"map":"pl_barnblitz","folder":"tf","game":"Team Fortress","app_id":440,"player_count":24,"max_players":24,"Bots":0,"server_type":"Dedicated","server_os":"Linux","password":true,"vac":true,"version":"7742253","steam_id":85568392924469990,"keywords":["nocrits","nodmgspread","payload","uncletopia"],"game_id":440,"stv_port":27026,"stv_name":"Uncletopia | Frankfurt | 2 | All Maps | STV","players":[{"user_id":167,"name":"certified hood classic","steam_id":76561198991661832,"connected_time":2477000000000,"state":"active","ping":70},{"user_id":138,"name":"Liba","steam_id":76561198118006754,"connected_time":4692000000000,"state":"active","ping":75},{"user_id":127,"name":"zaza","steam_id":76561198890409949,"connected_time":5934000000000,"state":"active","ping":100},{"user_id":181,"name":"Mayor Wank from Wanker Town","steam_id":76561197998253588,"connected_time":1433000000000,"state":"active","ping":48},{"user_id":189,"name":"Johnny","steam_id":76561198880265246,"connected_time":978000000000,"state":"active","ping":82},{"user_id":172,"name":"stinkyeseses","steam_id":76561198402218127,"connected_time":2292000000000,"state":"active","ping":91},{"user_id":164,"name":"The all seeing four eye","steam_id":76561198372971096,"connected_time":2523000000000,"state":"active","ping":80},{"user_id":149,"name":"PhantomStriker","steam_id":76561199116689935,"connected_time":3800000000000,"state":"active","ping":63},{"user_id":150,"name":"Toothpaste Milkshake","steam_id":76561198982674420,"connected_time":3752000000000,"state":"active","ping":49},{"user_id":190,"name":"Aydin Channel","steam_id":76561198138031624,"connected_time":964000000000,"state":"active","ping":118},{"user_id":100,"name":"sway","steam_id":76561199031840977,"connected_time":9183000000000,"state":"active","ping":101},{"user_id":165,"name":"Frog","steam_id":76561198043981067,"connected_time":2503000000000,"state":"active","ping":73},{"user_id":163,"name":"Avoonix","steam_id":76561198186954897,"connected_time":2583000000000,"state":"active","ping":61},{"user_id":187,"name":"ugly","steam_id":76561199050412617,"connected_time":1016000000000,"state":"active","ping":118},{"user_id":186,"name":"ashley","steam_id":76561198056152479,"connected_time":1152000000000,"state":"active","ping":60},{"user_id":101,"name":"Mike Doe","steam_id":76561198331251922,"connected_time":9027000000000,"state":"active","ping":61},{"user_id":182,"name":"Have A Holly Jolly Christmas!","steam_id":76561198061717986,"connected_time":1341000000000,"state":"active","ping":57},{"user_id":179,"name":"joni","steam_id":76561198413766717,"connected_time":1508000000000,"state":"active","ping":135},{"user_id":173,"name":"Paulie Walnuts","steam_id":76561198146194820,"connected_time":2188000000000,"state":"active","ping":51},{"user_id":169,"name":"AviSheepie","steam_id":76561198154361272,"connected_time":2456000000000,"state":"active","ping":93},{"user_id":185,"name":"Use The Finger","steam_id":76561198050203563,"connected_time":1286000000000,"state":"active","ping":72},{"user_id":191,"name":"ToniGAM3S","steam_id":76561198128605351,"connected_time":953000000000,"state":"active","ping":62},{"user_id":188,"name":"Swiss Angel","steam_id":76561198032059287,"connected_time":1014000000000,"state":"active","ping":59},{"user_id":194,"name":"bekagaltam","steam_id":76561198046777197,"connected_time":395000000000,"state":"active","ping":86}]},{"server_id":308,"name":"Uncletopia | Frankfurt | 3 | All Maps","name_short":"frk-3","host":"frk-1.de.uncletopia.com","port":27035,"enabled":true,"region":"eu","cc":"de","latitude":50.110924,"longitude":8.682127,"reserved":0,"last_update":"0001-01-01T00:00:00Z","name_a2s":"Uncletopia | Frankfurt | 3 | All Maps","protocol":17,"map":"pl_borneo","folder":"tf","game":"Team Fortress","app_id":440,"player_count":24,"max_players":24,"Bots":0,"server_type":"Dedicated","server_os":"Linux","password":true,"vac":true,"version":"7742253","steam_id":85568392924504274,"keywords":["nocrits","nodmgspread","payload","uncletopia"],"game_id":440,"stv_port":27036,"stv_name":"Uncletopia | Frankfurt | 3 | All Maps | STV","players":[{"user_id":28,"name":"Rcki","steam_id":76561198164291462,"connected_time":6484000000000,"state":"active","ping":89},{"user_id":72,"name":"MtnDew","steam_id":76561199100059743,"connected_time":3628000000000,"state":"active","ping":111},{"user_id":98,"name":"dafydd","steam_id":76561198052200325,"connected_time":1852000000000,"state":"active","ping":74},{"user_id":101,"name":"Largo","steam_id":76561198844368927,"connected_time":1748000000000,"state":"active","ping":89},{"user_id":66,"name":"Taipan66","steam_id":76561198154094423,"connected_time":3923000000000,"state":"active","ping":71},{"user_id":56,"name":"tristan","steam_id":76561198096097448,"connected_time":4971000000000,"state":"active","ping":52},{"user_id":121,"name":"Mclovin567","steam_id":76561198799105302,"connected_time":219000000000,"state":"active","ping":55},{"user_id":126,"name":"2004 Kanye","steam_id":76561198189000841,"connected_time":60000000000,"state":"active","ping":82},{"user_id":118,"name":"kotamine","steam_id":76561198068907991,"connected_time":388000000000,"state":"active","ping":78},{"user_id":123,"name":"sv_MrGibbs","steam_id":76561198114071972,"connected_time":184000000000,"state":"active","ping":56},{"user_id":124,"name":"vojta","steam_id":76561198014138033,"connected_time":78000000000,"state":"active","ping":47},{"user_id":60,"name":"casual zyzz praiser","steam_id":76561198022382969,"connected_time":4774000000000,"state":"active","ping":77},{"user_id":77,"name":"An unnecessary Jojo reference","steam_id":76561198121764825,"connected_time":3450000000000,"state":"active","ping":58},{"user_id":119,"name":"cosmetical","steam_id":76561198444036574,"connected_time":317000000000,"state":"active","ping":72},{"user_id":76,"name":"ek1n","steam_id":76561198076219289,"connected_time":3493000000000,"state":"active","ping":60},{"user_id":81,"name":"Lessoz","steam_id":76561199211572036,"connected_time":3182000000000,"state":"active","ping":91},{"user_id":125,"name":"UnusualBrit","steam_id":76561198255679838,"connected_time":77000000000,"state":"active","ping":68},{"user_id":115,"name":"eeeeee","steam_id":76561198427092596,"connected_time":497000000000,"state":"active","ping":110},{"user_id":127,"name":"pepper","steam_id":76561198059782462,"connected_time":20000000000,"state":"active","ping":106},{"user_id":113,"name":"stun","steam_id":76561198276681691,"connected_time":910000000000,"state":"active","ping":59},{"user_id":104,"name":"PerskuleBenener","steam_id":76561198156899375,"connected_time":1364000000000,"state":"active","ping":76},{"user_id":103,"name":"Bumblebee","steam_id":76561198033551105,"connected_time":1483000000000,"state":"active","ping":65},{"user_id":96,"name":"Koli","steam_id":76561197992428783,"connected_time":1942000000000,"state":"active","ping":46},{"user_id":108,"name":"Pyr0s_Fx","steam_id":76561198057201503,"connected_time":1323000000000,"state":"active","ping":63}]},{"server_id":309,"name":"Uncletopia | Frankfurt | 4 | All Maps","name_short":"frk-4","host":"frk-1.de.uncletopia.com","port":27045,"enabled":true,"region":"eu","cc":"de","latitude":50.110924,"longitude":8.682127,"reserved":0,"last_update":"0001-01-01T00:00:00Z","name_a2s":"Uncletopia | Frankfurt | 4 | All Maps","protocol":17,"map":"pl_frontier_final","folder":"tf","game":"Team Fortress","app_id":440,"player_count":0,"max_players":24,"Bots":0,"server_type":"Dedicated","server_os":"Linux","password":true,"vac":true,"version":"7742253","steam_id":85568392924504275,"keywords":["nocrits","nodmgspread","payload","uncletopia"],"game_id":440,"stv_port":27046,"stv_name":"Uncletopia | Frankfurt | 4 | All Maps | STV","players":null},{"server_id":310,"name":"Uncletopia | Frankfurt | 5 | All Maps","name_short":"frk-5","host":"frk-1.de.uncletopia.com","port":27055,"enabled":true,"region":"eu","cc":"de","latitude":50.110924,"longitude":8.682127,"reserved":0,"last_update":"0001-01-01T00:00:00Z","name_a2s":"Uncletopia | Frankfurt | 5 | All Maps","protocol":17,"map":"cp_sunshine","folder":"tf","game":"Team Fortress","app_id":440,"player_count":6,"max_players":24,"Bots":0,"server_type":"Dedicated","server_os":"Linux","password":true,"vac":true,"version":"7742253","steam_id":85568392924504277,"keywords":["cp","nocrits","nodmgspread","uncletopia"],"game_id":440,"stv_port":27056,"stv_name":"Uncletopia | Frankfurt | 5 | All Maps | STV","players":[{"user_id":7,"name":"actual_mad_scientist","steam_id":76561198191501962,"connected_time":884000000000,"state":"active","ping":43},{"user_id":10,"name":"Yony","steam_id":76561199070569941,"connected_time":337000000000,"state":"active","ping":57},{"user_id":12,"name":"WRONG","steam_id":76561198962134341,"connected_time":291000000000,"state":"active","ping":71},{"user_id":13,"name":"Happy Di Piero","steam_id":76561199206603810,"connected_time":168000000000,"state":"active","ping":84},{"user_id":14,"name":"Xnd","steam_id":76561198236513156,"connected_time":13000000000,"state":"spawning","ping":149},{"user_id":15,"name":"shux","steam_id":76561198090625148,"connected_time":11000000000,"state":"spawning","ping":59}]},{"server_id":311,"name":"Uncletopia | Frankfurt | 6 | All Maps","name_short":"frk-6","host":"frk-1.de.uncletopia.com","port":27065,"enabled":true,"region":"eu","cc":"de","latitude":50.110924,"longitude":8.682127,"reserved":0,"last_update":"0001-01-01T00:00:00Z","name_a2s":"Uncletopia | Frankfurt | 6 | All Maps","protocol":17,"map":"pl_barnblitz","folder":"tf","game":"Team Fortress","app_id":440,"player_count":0,"max_players":24,"Bots":0,"server_type":"Dedicated","server_os":"Linux","password":true,"vac":true,"version":"7742253","steam_id":85568392924504278,"keywords":["nocrits","nodmgspread","payload","uncletopia"],"game_id":440,"stv_port":27066,"stv_name":"Uncletopia | Frankfurt | 6 | All Maps | STV","players":null},{"server_id":23,"name":"Uncletopia | Frankfurt | 7 | Stopwatch Beta","name_short":"frk-7","host":"frk-1.de.uncletopia.com","port":27075,"enabled":true,"region":"eu","cc":"de","latitude":50.110924,"longitude":8.682127,"reserved":0,"last_update":"0001-01-01T00:00:00Z","name_a2s":"Uncletopia | Frankfurt | 7 | Stopwatch Beta","protocol":17,"map":"workshop/koth_ramjam_v2_b2.ugc2865676487","folder":"tf","game":"Team Fortress","app_id":440,"player_count":0,"max_players":24,"Bots":0,"server_type":"Dedicated","server_os":"Linux","password":true,"vac":true,"version":"7742253","steam_id":85568392924742827,"keywords":["cp","nocrits","nodmgspread","uncletopia"],"game_id":440,"stv_port":27076,"stv_name":"Uncletopia | Frankfurt | 7 | Stopwatch Beta | STV","players":null},{"server_id":24,"name":"Uncletopia | Frankfurt | 8 | Community","name_short":"frk-8","host":"frk-1.de.uncletopia.com","port":27085,"enabled":true,"region":"eu","cc":"de","latitude":50.110924,"longitude":8.682127,"reserved":0,"last_update":"0001-01-01T00:00:00Z","name_a2s":"Uncletopia | Frankfurt | 8 | Community","protocol":17,"map":"pl_pier","folder":"tf","game":"Team Fortress","app_id":440,"player_count":0,"max_players":24,"Bots":0,"server_type":"Dedicated","server_os":"Linux","password":true,"vac":true,"version":"7742253","steam_id":85568392924742828,"keywords":["nocrits","nodmgspread","payload","uncletopia"],"game_id":440,"stv_port":27086,"stv_name":"Uncletopia | Frankfurt | 8 | Community | STV","players":null},{"server_id":202,"name":"Uncletopia | Hong Kong | 1 | All Maps","name_short":"hgk-1","host":"hgk-1.hk.uncletopia.com","port":27015,"enabled":true,"region":"asia","cc":"hk","latitude":22.302711,"longitude":114.177216,"reserved":0,"last_update":"0001-01-01T00:00:00Z","name_a2s":"Uncletopia | Hong Kong | 1 | All Maps","protocol":17,"map":"koth_lakeside_final","folder":"tf","game":"Team Fortress","app_id":440,"player_count":22,"max_players":24,"Bots":0,"server_type":"Dedicated","server_os":"Linux","password":true,"vac":true,"version":"7742253","steam_id":85568392924494504,"keywords":["cp","nocrits","nodmgspread","uncletopia"],"game_id":440,"stv_port":27016,"stv_name":"Uncletopia | Hong Kong | 1 | All Maps | STV","players":[{"user_id":395,"name":"Corhix","steam_id":76561198968706355,"connected_time":301000000000,"state":"active","ping":43},{"user_id":396,"name":"killman47","steam_id":76561198348487408,"connected_time":226000000000,"state":"active","ping":39},{"user_id":397,"name":"Dr. Piss Rat","steam_id":76561199074809838,"connected_time":225000000000,"state":"active","ping":63},{"user_id":363,"name":"momosneakeradventure","steam_id":76561199046440440,"connected_time":3494000000000,"state":"active","ping":53},{"user_id":327,"name":"Wx","steam_id":76561199217780897,"connected_time":7390000000000,"state":"active","ping":64},{"user_id":384,"name":"drd","steam_id":76561198149548170,"connected_time":1464000000000,"state":"active","ping":88},{"user_id":359,"name":"yw","steam_id":76561199382726488,"connected_time":3774000000000,"state":"active","ping":77},{"user_id":385,"name":"LOLGAL","steam_id":76561198347418251,"connected_time":1463000000000,"state":"active","ping":66},{"user_id":337,"name":"'","steam_id":76561198413116920,"connected_time":5814000000000,"state":"active","ping":76},{"user_id":380,"name":"oNyour","steam_id":76561198323259830,"connected_time":1608000000000,"state":"active","ping":106},{"user_id":383,"name":"Corn_Archer","steam_id":76561199185044554,"connected_time":1498000000000,"state":"active","ping":60},{"user_id":390,"name":"lettuce at 58p","steam_id":76561199401283123,"connected_time":952000000000,"state":"active","ping":85},{"user_id":370,"name":"Mystery cheese üßÄ","steam_id":76561198304002409,"connected_time":3125000000000,"state":"active","ping":74},{"user_id":391,"name":"Ocha","steam_id":76561199224096189,"connected_time":665000000000,"state":"active","ping":91},{"user_id":393,"name":"Sel","steam_id":76561198190923207,"connected_time":450000000000,"state":"active","ping":62},{"user_id":399,"name":"Smoulder","steam_id":76561199258175379,"connected_time":162000000000,"state":"active","ping":84},{"user_id":373,"name":"lillalune","steam_id":76561198230213828,"connected_time":2407000000000,"state":"active","ping":63},{"user_id":360,"name":"LudE","steam_id":76561198828840546,"connected_time":3723000000000,"state":"active","ping":74},{"user_id":368,"name":"yoda BOOL","steam_id":76561199099477033,"connected_time":3434000000000,"state":"active","ping":105},{"user_id":330,"name":"Wardaddy","steam_id":76561199229248492,"connected_time":6974000000000,"state":"active","ping":144},{"user_id":331,"name":"AmaiToxic","steam_id":76561199122491157,"connected_time":6832000000000,"state":"active","ping":61},{"user_id":354,"name":"TheSticky_Studio","steam_id":76561198428683022,"connected_time":4538000000000,"state":"active","ping":77}]},{"server_id":1,"name":"Uncletopia | Los Angeles | 1 | All Maps","name_short":"lax-1","host":"lax-1.us.uncletopia.com","port":27015,"enabled":true,"region":"us-west","cc":"us","latitude":33.94279,"longitude":-118.41004,"reserved":0,"last_update":"0001-01-01T00:00:00Z","name_a2s":"Uncletopia | Los Angeles | 1 | All Maps","protocol":17,"map":"koth_lakeside_final","folder":"tf","game":"Team Fortress","app_id":440,"player_count":0,"max_players":24,"Bots":0,"server_type":"Dedicated","server_os":"Linux","password":true,"vac":true,"version":"7742253","steam_id":85568392924469991,"keywords":["cp","nocrits","nodmgspread","uncletopia"],"game_id":440,"stv_port":27016,"stv_name":"Uncletopia | Los Angeles | 1 | All Maps | STV","players":null},{"server_id":112,"name":"Uncletopia | Los Angeles | 2 | All Maps","name_short":"lax-2","host":"lax-1.us.uncletopia.com","port":27025,"enabled":true,"region":"us-west","cc":"us","latitude":33.94279,"longitude":-118.41004,"reserved":0,"last_update":"0001-01-01T00:00:00Z","name_a2s":"Uncletopia | Los Angeles | 2 | All Maps","protocol":17,"map":"koth_sawmill","folder":"tf","game":"Team Fortress","app_id":440,"player_count":22,"max_players":24,"Bots":0,"server_type":"Dedicated","server_os":"Linux","password":true,"vac":true,"version":"7742253","steam_id":85568392924469992,"keywords":["cp","nocrits","nodmgspread","uncletopia"],"game_id":440,"stv_port":27026,"stv_name":"Uncletopia | Los Angeles | 2 | All Maps | STV","players":[{"user_id":499,"name":"Willy","steam_id":76561199240618325,"connected_time":55000000000,"state":"active","ping":111},{"user_id":484,"name":"GabetIV femboy","steam_id":76561198145700338,"connected_time":1886000000000,"state":"active","ping":99},{"user_id":500,"name":"Onna Shinkan","steam_id":76561198092314066,"connected_time":13000000000,"state":"spawning","ping":93},{"user_id":489,"name":"kool_aids3","steam_id":76561198314435679,"connected_time":1190000000000,"state":"active","ping":48},{"user_id":441,"name":"Vladikr1","steam_id":76561198401495362,"connected_time":4823000000000,"state":"active","ping":106},{"user_id":485,"name":"Umevol","steam_id":76561198082943489,"connected_time":1778000000000,"state":"active","ping":46},{"user_id":396,"name":"[Œ¥] Delta","steam_id":76561198287190116,"connected_time":7800000000000,"state":"active","ping":75},{"user_id":494,"name":"stevie","steam_id":76561198096144081,"connected_time":528000000000,"state":"active","ping":59},{"user_id":496,"name":"Xylemon","steam_id":76561197965297420,"connected_time":288000000000,"state":"active","ping":76},{"user_id":492,"name":"Doober","steam_id":76561198056661095,"connected_time":1143000000000,"state":"active","ping":77},{"user_id":493,"name":"Snowcen","steam_id":76561198346582597,"connected_time":1119000000000,"state":"active","ping":68},{"user_id":476,"name":"entirety of santas naughty list","steam_id":76561198295690725,"connected_time":2538000000000,"state":"active","ping":97},{"user_id":467,"name":"Bergabuu","steam_id":76561198117801925,"connected_time":3156000000000,"state":"active","ping":192},{"user_id":497,"name":"VulKaal","steam_id":76561198067882872,"connected_time":268000000000,"state":"active","ping":118},{"user_id":453,"name":"Jynx Ovr2","steam_id":76561198136487957,"connected_time":3810000000000,"state":"active","ping":93},{"user_id":457,"name":"teesung","steam_id":76561198054541387,"connected_time":3743000000000,"state":"active","ping":49},{"user_id":458,"name":"MistakesWereMade","steam_id":76561199059220481,"connected_time":3700000000000,"state":"active","ping":53},{"user_id":498,"name":"Battery_Included","steam_id":76561198067164431,"connected_time":161000000000,"state":"active","ping":43},{"user_id":427,"name":"C papi","steam_id":76561198027779564,"connected_time":5702000000000,"state":"active","ping":91},{"user_id":463,"name":"earthtraveler413","steam_id":76561198865139926,"connected_time":3343000000000,"state":"active","ping":72},{"user_id":464,"name":"Be Gay, Do Crimes, Smoke Weed!","steam_id":76561198092419868,"connected_time":3308000000000,"state":"active","ping":77},{"user_id":465,"name":"[K.Y.L.L.]Pup (she/they)","steam_id":76561198027321950,"connected_time":3306000000000,"state":"active","ping":75}]},{"server_id":324,"name":"Uncletopia | Los Angeles | 3 | All Maps","name_short":"lax-3","host":"lax-1.us.uncletopia.com","port":27035,"enabled":true,"region":"us-west","cc":"us","latitude":33.94279,"longitude":-118.41004,"reserved":0,"last_update":"0001-01-01T00:00:00Z","name_a2s":"Uncletopia | Los Angeles | 3 | All Maps","protocol":17,"map":"cp_dustbowl","folder":"tf","game":"Team Fortress","app_id":440,"player_count":0,"max_players":24,"Bots":0,"server_type":"Dedicated","server_os":"Linux","password":true,"vac":true,"version":"7742253","steam_id":85568392924510198,"keywords":["cp","nocrits","nodmgspread","uncletopia"],"game_id":440,"stv_port":27036,"stv_name":"Uncletopia | Los Angeles | 3 | All Maps | STV","players":null},{"server_id":25,"name":"Uncletopia | Los Angeles | 4 | Stopwatch Beta","name_short":"lax-4","host":"lax-1.us.uncletopia.com","port":27045,"enabled":true,"region":"us-west","cc":"us","latitude":33.94279,"longitude":-118.41004,"reserved":0,"last_update":"0001-01-01T00:00:00Z","name_a2s":"Uncletopia | Los Angeles | 4 | Stopwatch Beta","protocol":17,"map":"cp_process_final","folder":"tf","game":"Team Fortress","app_id":440,"player_count":0,"max_players":24,"Bots":0,"server_type":"Dedicated","server_os":"Linux","password":true,"vac":true,"version":"7742253","steam_id":85568392924510199,"keywords":["cp","nocrits","nodmgspread","uncletopia"],"game_id":440,"stv_port":27046,"stv_name":"Uncletopia | Los Angeles | 4 | Stopwatch Beta | STV","players":null},{"server_id":11,"name":"Uncletopia | London | 1 | All Maps","name_short":"lon-1","host":"lon-1.uk.uncletopia.com","port":27015,"enabled":true,"region":"eu","cc":"gb","latitude":51.509865,"longitude":-0.118092,"reserved":0,"last_update":"0001-01-01T00:00:00Z","name_a2s":"Uncletopia | London | 1 | All Maps","protocol":17,"map":"pl_borneo","folder":"tf","game":"Team Fortress","app_id":440,"player_count":0,"max_players":24,"Bots":0,"server_type":"Dedicated","server_os":"Linux","password":true,"vac":true,"version":"7742253","steam_id":85568392924367362,"keywords":["nocrits","nodmgspread","payload","uncletopia"],"game_id":440,"stv_port":27016,"stv_name":"Uncletopia | London | 1 | All Maps | STV","players":null},{"server_id":114,"name":"Uncletopia | London | 2 | All Maps","name_short":"lon-2","host":"lon-1.uk.uncletopia.com","port":27025,"enabled":true,"region":"eu","cc":"gb","latitude":51.509865,"longitude":-0.118092,"reserved":0,"last_update":"0001-01-01T00:00:00Z","name_a2s":"Uncletopia | London | 2 | All Maps","protocol":17,"map":"cp_altitude","folder":"tf","game":"Team Fortress","app_id":440,"player_count":0,"max_players":24,"Bots":0,"server_type":"Dedicated","server_os":"Linux","password":true,"vac":true,"version":"7742253","steam_id":85568392924470941,"keywords":["cp","nocrits","nodmgspread","uncletopia"],"game_id":440,"stv_port":27026,"stv_name":"Uncletopia | London | 2 | All Maps | STV","players":null},{"server_id":320,"name":"Uncletopia | London | 3 | All Maps","name_short":"lon-3","host":"lon-1.uk.uncletopia.com","port":27035,"enabled":true,"region":"eu","cc":"gb","latitude":51.509865,"longitude":-0.118092,"reserved":0,"last_update":"0001-01-01T00:00:00Z","name_a2s":"Uncletopia | London | 3 | All Maps","protocol":17,"map":"cp_process_final","folder":"tf","game":"Team Fortress","app_id":440,"player_count":0,"max_players":24,"Bots":0,"server_type":"Dedicated","server_os":"Linux","password":true,"vac":true,"version":"7742253","steam_id":85568392924510192,"keywords":["cp","nocrits","nodmgspread","uncletopia"],"game_id":440,"stv_port":27036,"stv_name":"Uncletopia | London | 3 | All Maps | STV","players":null},{"server_id":321,"name":"Uncletopia | London | 4 | All Maps","name_short":"lon-4","host":"lon-1.uk.uncletopia.com","port":27045,"enabled":true,"region":"eu","cc":"gb","latitude":51.509865,"longitude":-0.118092,"reserved":0,"last_update":"0001-01-01T00:00:00Z","name_a2s":"Uncletopia | London | 4 | All Maps","protocol":17,"map":"cp_snakewater_final1","folder":"tf","game":"Team Fortress","app_id":440,"player_count":0,"max_players":24,"Bots":0,"server_type":"Dedicated","server_os":"Linux","password":true,"vac":true,"version":"7742253","steam_id":85568392924510193,"keywords":["cp","nocrits","nodmgspread","uncletopia"],"game_id":440,"stv_port":27046,"stv_name":"Uncletopia | London | 4 | All Maps | STV","players":null},{"server_id":21,"name":"Uncletopia | London | 5 | All Maps","name_short":"lon-5","host":"lon-1.uk.uncletopia.com","port":27055,"enabled":true,"region":"eu","cc":"gb","latitude":51.509865,"longitude":-0.118092,"reserved":0,"last_update":"0001-01-01T00:00:00Z","name_a2s":"Uncletopia | London | 5 | All Maps","protocol":17,"map":"cp_process_final","folder":"tf","game":"Team Fortress","app_id":440,"player_count":0,"max_players":24,"Bots":0,"server_type":"Dedicated","server_os":"Linux","password":true,"vac":true,"version":"7742253","steam_id":85568392924742829,"keywords":["cp","nocrits","nodmgspread","uncletopia"],"game_id":440,"stv_port":27056,"stv_name":"Uncletopia | London | 5 | All Maps | STV","players":null},{"server_id":22,"name":"Uncletopia | London | 6 | All Maps","name_short":"lon-6","host":"lon-1.uk.uncletopia.com","port":27065,"enabled":true,"region":"eu","cc":"gb","latitude":51.509865,"longitude":-0.118092,"reserved":0,"last_update":"0001-01-01T00:00:00Z","name_a2s":"Uncletopia | London | 6 | All Maps","protocol":17,"map":"cp_mountainlab","folder":"tf","game":"Team Fortress","app_id":440,"player_count":0,"max_players":24,"Bots":0,"server_type":"Dedicated","server_os":"Linux","password":true,"vac":true,"version":"7742253","steam_id":85568392924742830,"keywords":["cp","nocrits","nodmgspread","uncletopia"],"game_id":440,"stv_port":27066,"stv_name":"Uncletopia | London | 6 | All Maps | STV","players":null},{"server_id":40,"name":"Uncletopia | London | 7 | No Payload","name_short":"lon-7","host":"lon-1.uk.uncletopia.com","port":27075,"enabled":true,"region":"eu","cc":"gb","latitude":51.509865,"longitude":-0.118092,"reserved":0,"last_update":"0001-01-01T00:00:00Z","name_a2s":"Uncletopia | London | 7 | No Payload","protocol":17,"map":"pl_borneo","folder":"tf","game":"Team Fortress","app_id":440,"player_count":0,"max_players":24,"Bots":0,"server_type":"Dedicated","server_os":"Linux","password":true,"vac":true,"version":"7742253","steam_id":85568392924964314,"keywords":["nocrits","nodmgspread","payload","uncletopia"],"game_id":440,"stv_port":27076,"stv_name":"Uncletopia | London | 7 | No Payload | STV","players":null},{"server_id":41,"name":"Uncletopia | London | 8 | Community","name_short":"lon-8","host":"lon-1.uk.uncletopia.com","port":27085,"enabled":true,"region":"eu","cc":"gb","latitude":51.509865,"longitude":-0.118092,"reserved":0,"last_update":"0001-01-01T00:00:00Z","name_a2s":"Uncletopia | London | 8 | Community","protocol":17,"map":"cp_process_final","folder":"tf","game":"Team Fortress","app_id":440,"player_count":0,"max_players":24,"Bots":0,"server_type":"Dedicated","server_os":"Linux","password":true,"vac":true,"version":"7742253","steam_id":85568392924964315,"keywords":["cp","nocrits","nodmgspread","uncletopia"],"game_id":440,"stv_port":27086,"stv_name":"Uncletopia | London | 8 | Community | STV","players":null},{"server_id":300,"name":"Uncletopia | Montr√©al | 1 | All Maps","name_short":"mtl-1","host":"mtl-1.ca.uncletopia.com","port":27015,"enabled":true,"region":"us-east","cc":"ca","latitude":45.50889,"longitude":-73.56167,"reserved":0,"last_update":"0001-01-01T00:00:00Z","name_a2s":"Uncletopia | Montr√©al | 1 | All Maps","protocol":17,"map":"cp_sunshine","folder":"tf","game":"Team Fortress","app_id":440,"player_count":0,"max_players":24,"Bots":0,"server_type":"Dedicated","server_os":"Linux","password":true,"vac":true,"version":"7742253","steam_id":85568392924500087,"keywords":["cp","nocrits","nodmgspread","uncletopia"],"game_id":440,"stv_port":27016,"stv_name":"Uncletopia | Montr√©al | 1 | All Maps | STV","players":null},{"server_id":301,"name":"Uncletopia | Montr√©al | 2 | All Maps","name_short":"mtl-2","host":"mtl-1.ca.uncletopia.com","port":27025,"enabled":true,"region":"us-east","cc":"ca","latitude":45.50889,"longitude":-73.56167,"reserved":0,"last_update":"0001-01-01T00:00:00Z","name_a2s":"Uncletopia | Montr√©al | 2 | All Maps","protocol":17,"map":"koth_lakeside_final","folder":"tf","game":"Team Fortress","app_id":440,"player_count":0,"max_players":24,"Bots":0,"server_type":"Dedicated","server_os":"Linux","password":true,"vac":true,"version":"7742253","steam_id":85568392924500088,"keywords":["cp","nocrits","nodmgspread","uncletopia"],"game_id":440,"stv_port":27026,"stv_name":"Uncletopia | Montr√©al | 2 | All Maps | STV","players":null},{"server_id":302,"name":"Uncletopia | Montr√©al | 3 | All Maps","name_short":"mtl-3","host":"mtl-1.ca.uncletopia.com","port":27035,"enabled":true,"region":"us-east","cc":"ca","latitude":45.50889,"longitude":-73.56167,"reserved":0,"last_update":"0001-01-01T00:00:00Z","name_a2s":"Uncletopia | Montr√©al | 3 | All Maps","protocol":17,"map":"pl_snowycoast","folder":"tf","game":"Team Fortress","app_id":440,"player_count":0,"max_players":24,"Bots":0,"server_type":"Dedicated","server_os":"Linux","password":true,"vac":true,"version":"7742253","steam_id":85568392924500089,"keywords":["nocrits","nodmgspread","payload","uncletopia"],"game_id":440,"stv_port":27036,"stv_name":"Uncletopia | Montr√©al | 3 | All Maps | STV","players":null},{"server_id":303,"name":"Uncletopia | Montr√©al | 4 | No Payload","name_short":"mtl-4","host":"mtl-1.ca.uncletopia.com","port":27045,"enabled":true,"region":"us-east","cc":"ca","latitude":45.50889,"longitude":-73.56167,"reserved":0,"last_update":"0001-01-01T00:00:00Z","name_a2s":"Uncletopia | Montr√©al | 4 | No Payload","protocol":17,"map":"cp_mercenarypark","folder":"tf","game":"Team Fortress","app_id":440,"player_count":0,"max_players":24,"Bots":0,"server_type":"Dedicated","server_os":"Linux","password":true,"vac":true,"version":"7742253","steam_id":85568392924500090,"keywords":["cp","nocrits","nodmgspread","uncletopia"],"game_id":440,"stv_port":27046,"stv_name":"Uncletopia | Montr√©al | 4 | No Payload | STV","players":null},{"server_id":13,"name":"Uncletopia | New York City | 1 | All Maps","name_short":"nyc-1","host":"nyc-1.us.uncletopia.com","port":27015,"enabled":true,"region":"us-east","cc":"us","latitude":40.73061,"longitude":-73.93524,"reserved":0,"last_update":"0001-01-01T00:00:00Z","name_a2s":"Uncletopia | New York City | 1 | All Maps","protocol":17,"map":"cp_altitude","folder":"tf","game":"Team Fortress","app_id":440,"player_count":0,"max_players":24,"Bots":0,"server_type":"Dedicated","server_os":"Linux","password":true,"vac":true,"version":"7742253","steam_id":85568392924469993,"keywords":["cp","nocrits","nodmgspread","uncletopia"],"game_id":440,"stv_port":27016,"stv_name":"Uncletopia | New York City | 1 | All Maps | STV","players":null},{"server_id":14,"name":"Uncletopia | New York City | 2 | All Maps","name_short":"nyc-2","host":"nyc-1.us.uncletopia.com","port":27025,"enabled":true,"region":"us-east","cc":"us","latitude":40.73061,"longitude":-73.93524,"reserved":0,"last_update":"0001-01-01T00:00:00Z","name_a2s":"Uncletopia | New York City | 2 | All Maps","protocol":17,"map":"cp_sunshine","folder":"tf","game":"Team Fortress","app_id":440,"player_count":0,"max_players":24,"Bots":0,"server_type":"Dedicated","server_os":"Linux","password":true,"vac":true,"version":"7742253","steam_id":85568392924469994,"keywords":["cp","nocrits","nodmgspread","uncletopia"],"game_id":440,"stv_port":27026,"stv_name":"Uncletopia | New York City | 2 | All Maps | STV","players":null},{"server_id":15,"name":"Uncletopia | New York City | 3 | Stopwatch Beta","name_short":"nyc-3","host":"nyc-1.us.uncletopia.com","port":27035,"enabled":true,"region":"us-east","cc":"us","latitude":40.73061,"longitude":-73.93524,"reserved":0,"last_update":"0001-01-01T00:00:00Z","name_a2s":"Uncletopia | New York City | 3 | Stopwatch Beta","protocol":17,"map":"cp_altitude","folder":"tf","game":"Team Fortress","app_id":440,"player_count":0,"max_players":24,"Bots":0,"server_type":"Dedicated","server_os":"Linux","password":true,"vac":true,"version":"7742253","steam_id":85568392924742820,"keywords":["cp","nocrits","nodmgspread","uncletopia"],"game_id":440,"stv_port":27036,"stv_name":"Uncletopia | New York City | 3 | Stopwatch Beta | STV","players":null},{"server_id":16,"name":"Uncletopia | New York City | 4 | Community","name_short":"nyc-4","host":"nyc-1.us.uncletopia.com","port":27045,"enabled":true,"region":"us-east","cc":"us","latitude":40.73061,"longitude":-73.93524,"reserved":0,"last_update":"0001-01-01T00:00:00Z","name_a2s":"Uncletopia | New York City | 4 | Community","protocol":17,"map":"workshop/cp_reckoner_rc6.ugc674719999","folder":"tf","game":"Team Fortress","app_id":440,"player_count":0,"max_players":24,"Bots":0,"server_type":"Dedicated","server_os":"Linux","password":true,"vac":true,"version":"7742253","steam_id":85568392924742821,"keywords":["cp","nocrits","nodmgspread","uncletopia"],"game_id":440,"stv_port":27046,"stv_name":"Uncletopia | New York City | 4 | Community | STV","players":null},{"server_id":142,"name":"Uncletopia | S√£o Paulo | 1 | All Maps","name_short":"sao-1","host":"sao-1.br.uncletopia.com","port":27015,"enabled":true,"region":"sa","cc":"br","latitude":-23.533773,"longitude":-46.62529,"reserved":0,"last_update":"0001-01-01T00:00:00Z","name_a2s":"Uncletopia | S√£o Paulo | 1 | All Maps","protocol":17,"map":"pl_upward","folder":"tf","game":"Team Fortress","app_id":440,"player_count":0,"max_players":24,"Bots":0,"server_type":"Dedicated","server_os":"Linux","password":true,"vac":true,"version":"7742253","steam_id":85568392924469996,"keywords":["nocrits","nodmgspread","payload","uncletopia"],"game_id":440,"stv_port":27016,"stv_name":"Uncletopia | S√£o Paulo | 1 | All Maps | STV","players":null},{"server_id":143,"name":"Uncletopia | S√£o Paulo | 2 | All Maps","name_short":"sao-2","host":"sao-2.br.uncletopia.com","port":27015,"enabled":true,"region":"sa","cc":"br","latitude":-23.533773,"longitude":-46.62529,"reserved":0,"last_update":"0001-01-01T00:00:00Z","name_a2s":"Uncletopia | S√£o Paulo | 2 | All Maps","protocol":17,"map":"pl_upward","folder":"tf","game":"Team Fortress","app_id":440,"player_count":0,"max_players":24,"Bots":0,"server_type":"Dedicated","server_os":"Linux","password":true,"vac":true,"version":"7742253","steam_id":85568392924485349,"keywords":["nocrits","nodmgspread","payload","uncletopia"],"game_id":440,"stv_port":27016,"stv_name":"Uncletopia | S√£o Paulo | 2 | All Maps | STV","players":null},{"server_id":7,"name":"Uncletopia | Seattle | 1 | All Maps","name_short":"sea-1","host":"sea-1.us.uncletopia.com","port":27015,"enabled":true,"region":"us-west","cc":"us","latitude":47.608013,"longitude":-122.33517,"reserved":0,"last_update":"0001-01-01T00:00:00Z","name_a2s":"Uncletopia | Seattle | 1 | All Maps","protocol":17,"map":"pl_badwater","folder":"tf","game":"Team Fortress","app_id":440,"player_count":20,"max_players":24,"Bots":0,"server_type":"Dedicated","server_os":"Linux","password":true,"vac":true,"version":"7742253","steam_id":85568392924469997,"keywords":["nocrits","nodmgspread","payload","uncletopia"],"game_id":440,"stv_port":27016,"stv_name":"Uncletopia | Seattle | 1 | All Maps | STV","players":[{"user_id":774,"name":"lavender","steam_id":76561199069518286,"connected_time":10717000000000,"state":"active","ping":72},{"user_id":839,"name":"Doctor‚Ñ¢","steam_id":76561198134309750,"connected_time":2150000000000,"state":"active","ping":98},{"user_id":840,"name":"pcplace","steam_id":76561198097987387,"connected_time":2148000000000,"state":"active","ping":42},{"user_id":834,"name":"BONG THREAT","steam_id":76561197988234127,"connected_time":2819000000000,"state":"active","ping":47},{"user_id":825,"name":"rat gets the cheese","steam_id":76561198031234032,"connected_time":3297000000000,"state":"active","ping":98},{"user_id":847,"name":"Batman Grant Williams","steam_id":76561198115458307,"connected_time":1629000000000,"state":"active","ping":75},{"user_id":861,"name":"Jack from Jack in The Box","steam_id":76561199083594971,"connected_time":254000000000,"state":"active","ping":83},{"user_id":853,"name":"Soap Man","steam_id":76561198000490235,"connected_time":825000000000,"state":"active","ping":65},{"user_id":858,"name":"notkadenk (ricky mode)","steam_id":76561198837454396,"connected_time":446000000000,"state":"active","ping":45},{"user_id":826,"name":"Maxx","steam_id":76561198045405304,"connected_time":3224000000000,"state":"active","ping":48},{"user_id":835,"name":"Patio","steam_id":76561197986082608,"connected_time":2792000000000,"state":"active","ping":51},{"user_id":855,"name":"Joy in A Box","steam_id":76561198156820753,"connected_time":783000000000,"state":"active","ping":177},{"user_id":856,"name":"bladees saddest, realest verse","steam_id":76561198098099826,"connected_time":702000000000,"state":"active","ping":95},{"user_id":841,"name":"Thysug","steam_id":76561199227593310,"connected_time":2138000000000,"state":"active","ping":127},{"user_id":755,"name":"Sweets","steam_id":76561198998446307,"connected_time":12237000000000,"state":"active","ping":65},{"user_id":832,"name":"cheese v2","steam_id":76561198271995672,"connected_time":3050000000000,"state":"active","ping":51},{"user_id":827,"name":"dosimeter","steam_id":76561198039608940,"connected_time":3206000000000,"state":"active","ping":53},{"user_id":859,"name":"Kraul","steam_id":76561198043682060,"connected_time":347000000000,"state":"active","ping":124},{"user_id":833,"name":"goldhed","steam_id":76561198051751133,"connected_time":2937000000000,"state":"active","ping":59},{"user_id":844,"name":"sweaterfan","steam_id":76561199389567214,"connected_time":1908000000000,"state":"active","ping":113}]},{"server_id":119,"name":"Uncletopia | Seattle | 2 | All Maps","name_short":"sea-2","host":"sea-1.us.uncletopia.com","port":27025,"enabled":true,"region":"us-west","cc":"us","latitude":47.608013,"longitude":-122.33517,"reserved":0,"last_update":"0001-01-01T00:00:00Z","name_a2s":"Uncletopia | Seattle | 2 | All Maps","protocol":17,"map":"pl_swiftwater_final1","folder":"tf","game":"Team Fortress","app_id":440,"player_count":0,"max_players":24,"Bots":0,"server_type":"Dedicated","server_os":"Linux","password":true,"vac":true,"version":"7742253","steam_id":85568392924469998,"keywords":["nocrits","nodmgspread","payload","uncletopia"],"game_id":440,"stv_port":27026,"stv_name":"Uncletopia | Seattle | 2 | All Maps | STV","players":null},{"server_id":406,"name":"Uncletopia | Seattle | 3 | Stopwatch Beta","name_short":"sea-3","host":"sea-1.us.uncletopia.com","port":27035,"enabled":true,"region":"us-west","cc":"us","latitude":47.608013,"longitude":-122.33517,"reserved":0,"last_update":"0001-01-01T00:00:00Z","name_a2s":"Uncletopia | Seattle | 3 | Stopwatch Beta","protocol":17,"map":"pl_upward","folder":"tf","game":"Team Fortress","app_id":440,"player_count":2,"max_players":24,"Bots":0,"server_type":"Dedicated","server_os":"Linux","password":true,"vac":false,"version":"7742253","steam_id":0,"keywords":["nocrits","nodmgspread","payload","uncletopia"],"game_id":440,"stv_port":27036,"stv_name":"Uncletopia | Seattle | 3 | Stopwatch Beta | STV","players":[{"user_id":10,"name":"N√©miscau","steam_id":76561198257979613,"connected_time":105000000000,"state":"active","ping":48},{"user_id":11,"name":"foura","steam_id":76561198181972739,"connected_time":101000000000,"state":"active","ping":58}]},{"server_id":17,"name":"Uncletopia | San Francisco | 1 | All Maps","name_short":"sfo-1","host":"sfo-1.us.uncletopia.com","port":27015,"enabled":true,"region":"us-west","cc":"us","latitude":37.77397,"longitude":-122.4313,"reserved":0,"last_update":"0001-01-01T00:00:00Z","name_a2s":"Uncletopia | San Francisco | 1 | All Maps","protocol":17,"map":"pl_upward","folder":"tf","game":"Team Fortress","app_id":440,"player_count":17,"max_players":24,"Bots":0,"server_type":"Dedicated","server_os":"Linux","password":true,"vac":true,"version":"7742253","steam_id":85568392924469999,"keywords":["nocrits","nodmgspread","payload","uncletopia"],"game_id":440,"stv_port":27016,"stv_name":"Uncletopia | San Francisco | 1 | All Maps | STV","players":[{"user_id":871,"name":"ÓÄò Bon ÓÄò","steam_id":76561199160366528,"connected_time":120000000000,"state":"active","ping":162},{"user_id":834,"name":"TheGibusGuy","steam_id":76561198437838940,"connected_time":3159000000000,"state":"active","ping":105},{"user_id":867,"name":"CatLike Pigeon","steam_id":76561198171716030,"connected_time":379000000000,"state":"active","ping":78},{"user_id":868,"name":"daddy","steam_id":76561199121976716,"connected_time":344000000000,"state":"active","ping":237},{"user_id":869,"name":"‚õßAlkahestry","steam_id":76561198109641497,"connected_time":342000000000,"state":"active","ping":59},{"user_id":872,"name":"—Ç–æ–ª—è","steam_id":76561199098518615,"connected_time":34000000000,"state":"active","ping":220},{"user_id":873,"name":"–í–∏—Ç—å–∫–∞","steam_id":76561198279798490,"connected_time":14000000000,"state":"spawning","ping":240},{"user_id":870,"name":"bla.z/e","steam_id":76561198250998822,"connected_time":302000000000,"state":"active","ping":60},{"user_id":801,"name":"Pacbub","steam_id":76561198165198874,"connected_time":6388000000000,"state":"active","ping":56},{"user_id":874,"name":"Mudkip","steam_id":76561198164192160,"connected_time":9000000000,"state":"spawning","ping":106},{"user_id":800,"name":"kebo","steam_id":76561198237159430,"connected_time":6513000000000,"state":"active","ping":48},{"user_id":802,"name":"toki","steam_id":76561199196943730,"connected_time":6387000000000,"state":"active","ping":58},{"user_id":832,"name":"üéÄ Mildred Speeb üéÄ","steam_id":76561198118740818,"connected_time":3520000000000,"state":"active","ping":126},{"user_id":844,"name":"Midwest emo is a gang","steam_id":76561198094281330,"connected_time":2431000000000,"state":"active","ping":112},{"user_id":861,"name":"LlamaSolace","steam_id":76561198184564821,"connected_time":1045000000000,"state":"active","ping":97},{"user_id":845,"name":"Acid","steam_id":76561199233285844,"connected_time":2410000000000,"state":"active","ping":63},{"user_id":853,"name":"Antonpirulero10","steam_id":76561198253036781,"connected_time":1885000000000,"state":"active","ping":81}]},{"server_id":18,"name":"Uncletopia | San Francisco | 2 | All Maps","name_short":"sfo-2","host":"sfo-1.us.uncletopia.com","port":27025,"enabled":true,"region":"us-west","cc":"us","latitude":37.77397,"longitude":-122.4313,"reserved":0,"last_update":"0001-01-01T00:00:00Z","name_a2s":"Uncletopia | San Francisco | 2 | All Maps","protocol":17,"map":"pl_borneo","folder":"tf","game":"Team Fortress","app_id":440,"player_count":0,"max_players":24,"Bots":0,"server_type":"Dedicated","server_os":"Linux","password":true,"vac":true,"version":"7742253","steam_id":85568392924470000,"keywords":["nocrits","nodmgspread","payload","uncletopia"],"game_id":440,"stv_port":27026,"stv_name":"Uncletopia | San Francisco | 2 | All Maps | STV","players":null},{"server_id":19,"name":"Uncletopia | San Francisco | 3 | Stopwatch Beta","name_short":"sfo-3","host":"sfo-1.us.uncletopia.com","port":27035,"enabled":true,"region":"us-west","cc":"us","latitude":37.77397,"longitude":-122.4313,"reserved":0,"last_update":"0001-01-01T00:00:00Z","name_a2s":"Uncletopia | San Francisco | 3 | Stopwatch Beta","protocol":17,"map":"cp_snakewater_final1","folder":"tf","game":"Team Fortress","app_id":440,"player_count":0,"max_players":24,"Bots":0,"server_type":"Dedicated","server_os":"Linux","password":true,"vac":true,"version":"7742253","steam_id":85568392924742824,"keywords":["cp","nocrits","nodmgspread","uncletopia"],"game_id":440,"stv_port":27036,"stv_name":"Uncletopia | San Francisco | 3 | Stopwatch Beta | STV","players":null},{"server_id":20,"name":"Uncletopia | San Francisco | 4 | Community","name_short":"sfo-4","host":"sfo-1.us.uncletopia.com","port":27045,"enabled":true,"region":"us-west","cc":"us","latitude":37.77397,"longitude":-122.4313,"reserved":0,"last_update":"0001-01-01T00:00:00Z","name_a2s":"Uncletopia | San Francisco | 4 | Community","protocol":17,"map":"workshop/koth_synthetic_rc6a.ugc1549817316","folder":"tf","game":"Team Fortress","app_id":440,"player_count":0,"max_players":24,"Bots":0,"server_type":"Dedicated","server_os":"Linux","password":true,"vac":true,"version":"7742253","steam_id":85568392924742826,"keywords":["cp","nocrits","nodmgspread","uncletopia"],"game_id":440,"stv_port":27046,"stv_name":"Uncletopia | San Francisco | 4 | Community | STV","players":null},{"server_id":141,"name":"Uncletopia | Sydney | 1 | All Maps","name_short":"syd-1","host":"syd-1.au.uncletopia.com","port":27015,"enabled":true,"region":"au","cc":"au","latitude":-33.865143,"longitude":151.2099,"reserved":0,"last_update":"0001-01-01T00:00:00Z","name_a2s":"Uncletopia | Sydney | 1 | All Maps","protocol":17,"map":"pl_barnblitz","folder":"tf","game":"Team Fortress","app_id":440,"player_count":21,"max_players":24,"Bots":0,"server_type":"Dedicated","server_os":"Linux","password":true,"vac":true,"version":"7742253","steam_id":85568392924470001,"keywords":["nocrits","nodmgspread","payload","uncletopia"],"game_id":440,"stv_port":27016,"stv_name":"Uncletopia | Sydney | 1 | All Maps | STV","players":[{"user_id":520,"name":"Ok Mate","steam_id":76561198254922035,"connected_time":2461000000000,"state":"active","ping":53},{"user_id":498,"name":"hawk","steam_id":76561198135164277,"connected_time":5029000000000,"state":"active","ping":55},{"user_id":408,"name":"nojnosbod11","steam_id":76561199176012151,"connected_time":12210000000000,"state":"active","ping":63},{"user_id":456,"name":"Average E Girl","steam_id":76561198354523762,"connected_time":7766000000000,"state":"active","ping":45},{"user_id":534,"name":"alt","steam_id":76561198302670452,"connected_time":1323000000000,"state":"active","ping":60},{"user_id":546,"name":"tinkaton from pokemon gen 9 UU","steam_id":76561198079345240,"connected_time":4000000000,"state":"spawning","ping":61},{"user_id":504,"name":"Dr Rags","steam_id":76561198179481430,"connected_time":4697000000000,"state":"active","ping":88},{"user_id":518,"name":"trash","steam_id":76561198110764631,"connected_time":3076000000000,"state":"active","ping":55},{"user_id":526,"name":"krandlez` (Any/All)","steam_id":76561198044839726,"connected_time":1913000000000,"state":"active","ping":44},{"user_id":517,"name":"Lv 9 Reborn Nubblet","steam_id":76561198069483103,"connected_time":3127000000000,"state":"active","ping":90},{"user_id":543,"name":"SWAG DRAGON","steam_id":76561197960279341,"connected_time":201000000000,"state":"active","ping":49},{"user_id":537,"name":"Selling Anti-Matter for $543","steam_id":76561198070708382,"connected_time":787000000000,"state":"active","ping":51},{"user_id":490,"name":"canned tuna","steam_id":76561198420727269,"connected_time":5545000000000,"state":"active","ping":45},{"user_id":538,"name":"Gravy","steam_id":76561198107110925,"connected_time":556000000000,"state":"active","ping":60},{"user_id":492,"name":"cimpact","steam_id":76561198452258917,"connected_time":5286000000000,"state":"active","ping":115},{"user_id":536,"name":"downloadmorememes.gov","steam_id":76561198043631770,"connected_time":1281000000000,"state":"active","ping":49},{"user_id":535,"name":"penis muncher","steam_id":76561198288259746,"connected_time":1317000000000,"state":"active","ping":123},{"user_id":540,"name":"LightningBlock","steam_id":76561198289997742,"connected_time":258000000000,"state":"active","ping":44},{"user_id":488,"name":"Jerry be packin","steam_id":76561199229962568,"connected_time":5633000000000,"state":"active","ping":61},{"user_id":533,"name":"April","steam_id":76561198848287180,"connected_time":1558000000000,"state":"active","ping":46},{"user_id":545,"name":"alex","steam_id":76561198053382248,"connected_time":165000000000,"state":"active","ping":46}]},{"server_id":123,"name":"Uncletopia | Sydney | 2 | All Maps","name_short":"syd-2","host":"syd-1.au.uncletopia.com","port":27025,"enabled":true,"region":"au","cc":"au","latitude":-33.865143,"longitude":151.2099,"reserved":0,"last_update":"0001-01-01T00:00:00Z","name_a2s":"Uncletopia | Sydney | 2 | All Maps","protocol":17,"map":"koth_lakeside_final","folder":"tf","game":"Team Fortress","app_id":440,"player_count":0,"max_players":24,"Bots":0,"server_type":"Dedicated","server_os":"Linux","password":true,"vac":true,"version":"7742253","steam_id":85568392924470002,"keywords":["cp","nocrits","nodmgspread","uncletopia"],"game_id":440,"stv_port":27026,"stv_name":"Uncletopia | Sydney | 2 | All Maps | STV","players":null},{"server_id":395,"name":"Uncletopia | Sydney | 3 | All Maps","name_short":"syd-3","host":"syd-1.au.uncletopia.com","port":27035,"enabled":true,"region":"au","cc":"au","latitude":-33.865143,"longitude":151.2099,"reserved":0,"last_update":"0001-01-01T00:00:00Z","name_a2s":"Uncletopia | Sydney | 3 | All Maps","protocol":17,"map":"cp_altitude","folder":"tf","game":"Team Fortress","app_id":440,"player_count":0,"max_players":24,"Bots":0,"server_type":"Dedicated","server_os":"Linux","password":true,"vac":true,"version":"7742253","steam_id":85568392925194467,"keywords":["cp","nocrits","nodmgspread","uncletopia"],"game_id":440,"stv_port":27036,"stv_name":"Uncletopia | Sydney | 3 | All Maps | STV","players":null},{"server_id":396,"name":"Uncletopia | Sydney | 4 | All Maps","name_short":"syd-4","host":"syd-1.au.uncletopia.com","port":27045,"enabled":true,"region":"au","cc":"au","latitude":-33.865143,"longitude":151.2099,"reserved":0,"last_update":"0001-01-01T00:00:00Z","name_a2s":"Uncletopia | Sydney | 4 | All Maps","protocol":17,"map":"koth_lakeside_final","folder":"tf","game":"Team Fortress","app_id":440,"player_count":0,"max_players":24,"Bots":0,"server_type":"Dedicated","server_os":"Linux","password":true,"vac":true,"version":"7742253","steam_id":85568392925397958,"keywords":["cp","nocrits","nodmgspread","uncletopia"],"game_id":440,"stv_port":27046,"stv_name":"Uncletopia | Sydney | 4 | All Maps | STV","players":null},{"server_id":58,"name":"Uncletopia | Sydney | 5 | Stopwatch Beta","name_short":"syd-5","host":"syd-1.au.uncletopia.com","port":27055,"enabled":true,"region":"au","cc":"au","latitude":-33.865143,"longitude":151.2099,"reserved":0,"last_update":"0001-01-01T00:00:00Z","name_a2s":"Uncletopia | Sydney | 5 | Stopwatch Beta","protocol":17,"map":"cp_snakewater_final1","folder":"tf","game":"Team Fortress","app_id":440,"player_count":0,"max_players":24,"Bots":0,"server_type":"Dedicated","server_os":"Linux","password":true,"vac":true,"version":"7742253","steam_id":85568392925397959,"keywords":["cp","nocrits","nodmgspread","uncletopia"],"game_id":440,"stv_port":27056,"stv_name":"Uncletopia | Sydney | 5 | Stopwatch Beta | STV","players":null},{"server_id":59,"name":"Uncletopia | Sydney | 6 | Community","name_short":"syd-6","host":"syd-1.au.uncletopia.com","port":27065,"enabled":true,"region":"au","cc":"au","latitude":-33.865143,"longitude":151.2099,"reserved":0,"last_update":"0001-01-01T00:00:00Z","name_a2s":"Uncletopia | Sydney | 6 | Community","protocol":17,"map":"workshop/koth_product_final.ugc454272353","folder":"tf","game":"Team Fortress","app_id":440,"player_count":4,"max_players":24,"Bots":0,"server_type":"Dedicated","server_os":"Linux","password":true,"vac":true,"version":"7742253","steam_id":85568392925397960,"keywords":["cp","nocrits","nodmgspread","uncletopia"],"game_id":440,"stv_port":27066,"stv_name":"Uncletopia | Sydney | 6 | Community | STV","players":[{"user_id":15,"name":"SoberOyster2","steam_id":76561198256716931,"connected_time":1009000000000,"state":"active","ping":52},{"user_id":16,"name":"Teneiryx","steam_id":76561198095113716,"connected_time":969000000000,"state":"active","ping":294},{"user_id":17,"name":"Gibbzy","steam_id":76561198118647707,"connected_time":549000000000,"state":"active","ping":63},{"user_id":18,"name":"BilboSwaggins79","steam_id":76561198984446872,"connected_time":476000000000,"state":"active","ping":47}]},{"server_id":49,"name":"Uncletopia | Warsaw | 1 | All Maps","name_short":"waw-1","host":"waw-1.pl.uncletopia.com","port":27015,"enabled":true,"region":"eu","cc":"pl","latitude":52.2297,"longitude":21.017532,"reserved":0,"last_update":"0001-01-01T00:00:00Z","name_a2s":"Uncletopia | Warsaw | 1 | All Maps","protocol":17,"map":"koth_lakeside_final","folder":"tf","game":"Team Fortress","app_id":440,"player_count":0,"max_players":24,"Bots":0,"server_type":"Dedicated","server_os":"Linux","password":true,"vac":true,"version":"7723704","steam_id":85568392925397850,"keywords":["cp","nocrits","nodmgspread","uncletopia"],"game_id":440,"stv_port":27016,"stv_name":"Uncletopia | Warsaw | 1 | All Maps | STV","players":null},{"server_id":50,"name":"Uncletopia | Warsaw | 2 | All Maps","name_short":"waw-2","host":"waw-1.pl.uncletopia.com","port":27025,"enabled":true,"region":"eu","cc":"pl","latitude":52.2297,"longitude":21.017532,"reserved":0,"last_update":"0001-01-01T00:00:00Z","name_a2s":"Uncletopia | Warsaw | 2 | All Maps","protocol":17,"map":"pl_frontier_final","folder":"tf","game":"Team Fortress","app_id":440,"player_count":0,"max_players":24,"Bots":0,"server_type":"Dedicated","server_os":"Linux","password":true,"vac":true,"version":"7742253","steam_id":85568392925397851,"keywords":["nocrits","nodmgspread","payload","uncletopia"],"game_id":440,"stv_port":27026,"stv_name":"Uncletopia | Warsaw | 2 | All Maps | STV","players":null},{"server_id":51,"name":"Uncletopia | Warsaw | 3 | All Maps","name_short":"waw-3","host":"waw-1.pl.uncletopia.com","port":27035,"enabled":true,"region":"eu","cc":"pl","latitude":52.2297,"longitude":21.017532,"reserved":0,"last_update":"0001-01-01T00:00:00Z","name_a2s":"Uncletopia | Warsaw | 3 | All Maps","protocol":17,"map":"pl_frontier_final","folder":"tf","game":"Team Fortress","app_id":440,"player_count":0,"max_players":24,"Bots":0,"server_type":"Dedicated","server_os":"Linux","password":true,"vac":true,"version":"7742253","steam_id":85568392925397852,"keywords":["nocrits","nodmgspread","payload","uncletopia"],"game_id":440,"stv_port":27036,"stv_name":"Uncletopia | Warsaw | 3 | All Maps | STV","players":null},{"server_id":52,"name":"Uncletopia | Warsaw | 4 | All Maps","name_short":"waw-4","host":"waw-1.pl.uncletopia.com","port":27045,"enabled":true,"region":"eu","cc":"pl","latitude":52.2297,"longitude":21.017532,"reserved":0,"last_update":"0001-01-01T00:00:00Z","name_a2s":"Uncletopia | Warsaw | 4 | All Maps","protocol":17,"map":"pl_swiftwater_final1","folder":"tf","game":"Team Fortress","app_id":440,"player_count":0,"max_players":24,"Bots":0,"server_type":"Dedicated","server_os":"Linux","password":true,"vac":true,"version":"7742253","steam_id":85568392925397853,"keywords":["nocrits","nodmgspread","payload","uncletopia"],"game_id":440,"stv_port":27046,"stv_name":"Uncletopia | Warsaw | 4 | All Maps | STV","players":null},{"server_id":53,"name":"Uncletopia | Warsaw | 5 | Stopwatch Beta","name_short":"waw-5","host":"waw-1.pl.uncletopia.com","port":27055,"enabled":true,"region":"eu","cc":"pl","latitude":52.2297,"longitude":21.017532,"reserved":0,"last_update":"0001-01-01T00:00:00Z","name_a2s":"Uncletopia | Warsaw | 5 | Stopwatch Beta","protocol":17,"map":"pl_pier","folder":"tf","game":"Team Fortress","app_id":440,"player_count":0,"max_players":24,"Bots":0,"server_type":"Dedicated","server_os":"Linux","password":true,"vac":true,"version":"7742253","steam_id":85568392925397854,"keywords":["nocrits","nodmgspread","payload","uncletopia"],"game_id":440,"stv_port":27056,"stv_name":"Uncletopia | Warsaw | 5 | Stopwatch Beta | STV","players":null},{"server_id":54,"name":"Uncletopia | Warsaw | 6 | Community","name_short":"waw-6","host":"waw-1.pl.uncletopia.com","port":27065,"enabled":true,"region":"eu","cc":"pl","latitude":52.2297,"longitude":21.017532,"reserved":0,"last_update":"0001-01-01T00:00:00Z","name_a2s":"Uncletopia | Warsaw | 6 | Community","protocol":17,"map":"cp_sunshine","folder":"tf","game":"Team Fortress","app_id":440,"player_count":0,"max_players":24,"Bots":0,"server_type":"Dedicated","server_os":"Linux","password":true,"vac":true,"version":"7742253","steam_id":85568392925397856,"keywords":["cp","nocrits","nodmgspread","uncletopia"],"game_id":440,"stv_port":27066,"stv_name":"Uncletopia | Warsaw | 6 | Community | STV","players":null}]}