{"status":true,"message":"","result":[{"server_id":9,"name":"Uncletopia | Atlanta | 1 | All Maps","name_short":"atl-1","host":"atl-1.us.uncletopia.com","port":27015,"enabled":true,"region":"us-east","cc":"us","latitude":33.753746,"longitude":-84.38633,"reserved":0,"last_update":"0001-01-01T00:00:00Z","name_a2s":"Uncletopia | Atlanta | 1 | All Maps","protocol":17,"map":"pl_snowycoast","folder":"tf","game":"Team Fortress","app_id":440,"player_count":24,"max_players":24,"Bots":0,"server_type":"Dedicated","server_os":"Linux","password":true,"vac":true,"version":"7961495","steam_id":85568392924469982,"keywords":["nocrits","nodmgspread","payload","uncletopia"],"game_id":440,"stv_port":27016,"stv_name":"Uncletopia | Atlanta | 1 | All Maps | STV","players":null},{"server_id":104,"name":"Uncletopia | Atlanta | 2 | All Maps","name_short":"atl-2","host":"atl-1.us.uncletopia.com","port":27025,"enabled":true,"region":"us-east","cc":"us","latitude":33.753746,"longitude":-84.38633,"reserved":0,"last_update":"0001-01-01T00:00:00Z","name_a2s":"Uncletopia | Atlanta | 2 | All Maps","protocol":17,"map":"cp_mountainlab","folder":"tf","game":"Team Fortress","app_id":440,"player_count":18,"max_players":24,"Bots":0,"server_type":"Dedicated","server_os":"Linux","password":true,"vac":true,"version":"7961495","steam_id":85568392924469983,"keywords":["cp","nocrits","nodmgspread","uncletopia"],"game_id":440,"stv_port":27026,"stv_name":"Uncletopia | Atlanta | 2 | All Maps | STV","players":null},{"server_id":400,"name":"Uncletopia | Atlanta | 3 | Stopwatch","name_short":"atl-3","host":"atl-1.us.uncletopia.com","port":27035,"enabled":true,"region":"us-east","cc":"us","latitude":33.753746,"longitude":-84.38633,"reserved":0,"last_update":"0001-01-01T00:00:00Z","name_a2s":"Uncletopia | Atlanta | 3 | Stopwatch","protocol":17,"map":"koth_clearcut_b15","folder":"tf","game":"Team Fortress","app_id":440,"player_count":2,"max_players":24,"Bots":0,"server_type":"Dedicated","server_os":"Linux","password":true,"vac":true,"version":"7961495","steam_id":85568392924515187,"keywords":["cp","nocrits","nodmgspread","uncletopia"],"game_id":440,"stv_port":27036,"stv_name":"Uncletopia | Atlanta | 3 | Stopwatch | STV","players":null},{"server_id":401,"name":"Uncletopia | Atlanta | 4 | Community","name_short":"atl-4","host":"atl-1.us.uncletopia.com","port":27045,"enabled":true,"region":"us-east","cc":"us","latitude":33.753746,"longitude":-84.38633,"reserved":0,"last_update":"0001-01-01T00:00:00Z","name_a2s":"Uncletopia | Atlanta | 4 | Community","protocol":17,"map":"pl_vigil_rc10","folder":"tf","game":"Team Fortress","app_id":440,"player_count":7,"max_players":24,"Bots":0,"server_type":"Dedicated","server_os":"Linux","password":true,"vac":true,"version":"7961495","steam_id":85568392924515188,"keywords":["nocrits","nodmgspread","payload","uncletopia"],"game_id":440,"stv_port":27046,"stv_name":"Uncletopia | Atlanta | 4 | Community | STV","players":null},{"server_id":2,"name":"Uncletopia | Chicago | 1 | All Maps","name_short":"chi-1","host":"chi-1.us.uncletopia.com","port":27015,"enabled":true,"region":"us-central","cc":"us","latitude":41.881832,"longitude":-87.62318,"reserved":0,"last_update":"0001-01-01T00:00:00Z","name_a2s":"Uncletopia | Chicago | 1 | All Maps","protocol":17,"map":"pl_pier","folder":"tf","game":"Team Fortress","app_id":440,"player_count":6,"max_players":24,"Bots":0,"server_type":"Dedicated","server_os":"Linux","password":true,"vac":true,"version":"7961495","steam_id":85568392924469984,"keywords":["nocrits","nodmgspread","payload","uncletopia"],"game_id":440,"stv_port":27016,"stv_name":"Uncletopia | Chicago | 1 | All Maps | STV","players":[{"user_id":369,"name":"Snivy","steam_id":76561198135488292,"connected_time":42000000000,"state":"active","ping":88},{"user_id":335,"name":"Pixel","steam_id":76561198129243055,"connected_time":2931000000000,"state":"active","ping":44},{"user_id":347,"name":"Snom","steam_id":76561198333827920,"connected_time":1307000000000,"state":"active","ping":95},{"user_id":356,"name":"Flyinglab","steam_id":76561198042161408,"connected_time":1004000000000,"state":"active","ping":62},{"user_id":363,"name":"Turbocat","steam_id":76561198145431353,"connected_time":563000000000,"state":"active","ping":61},{"user_id":343,"name":"Burny Sanders","steam_id":76561197961879048,"connected_time":2415000000000,"state":"active","ping":66}]},{"server_id":106,"name":"Uncletopia | Chicago | 2 | All Maps","name_short":"chi-2","host":"chi-1.us.uncletopia.com","port":27025,"enabled":true,"region":"us-central","cc":"us","latitude":41.881832,"longitude":-87.62318,"reserved":0,"last_update":"0001-01-01T00:00:00Z","name_a2s":"Uncletopia | Chicago | 2 | All Maps","protocol":17,"map":"pl_snowycoast","folder":"tf","game":"Team Fortress","app_id":440,"player_count":24,"max_players":24,"Bots":0,"server_type":"Dedicated","server_os":"Linux","password":true,"vac":true,"version":"7961495","steam_id":85568392924469985,"keywords":["nocrits","nodmgspread","payload","uncletopia"],"game_id":440,"stv_port":27026,"stv_name":"Uncletopia | Chicago | 2 | All Maps | STV","players":[{"user_id":668,"name":"shnowshner","steam_id":76561198066450438,"connected_time":1612000000000,"state":"active","ping":75},{"user_id":558,"name":"Ace Chromatica","steam_id":76561198042211131,"connected_time":9820000000000,"state":"active","ping":57},{"user_id":661,"name":"Maxini_","steam_id":76561198041077011,"connected_time":2841000000000,"state":"active","ping":57},{"user_id":643,"name":"GuyGoom","steam_id":76561198254522178,"connected_time":3911000000000,"state":"active","ping":59},{"user_id":694,"name":"lfty","steam_id":76561198283841707,"connected_time":11000000000,"state":"active","ping":125},{"user_id":656,"name":"Shirm","steam_id":76561198068455981,"connected_time":3074000000000,"state":"active","ping":70},{"user_id":640,"name":"Steuski","steam_id":76561199212297248,"connected_time":4031000000000,"state":"active","ping":72},{"user_id":691,"name":"Family Guy Funny Moments","steam_id":76561198847752839,"connected_time":572000000000,"state":"active","ping":104},{"user_id":671,"name":"Hog","steam_id":76561198297778412,"connected_time":1596000000000,"state":"active","ping":92},{"user_id":683,"name":"qory","steam_id":76561198152064890,"connected_time":924000000000,"state":"active","ping":59},{"user_id":667,"name":"Some Sinner","steam_id":76561198063331396,"connected_time":1743000000000,"state":"active","ping":45},{"user_id":688,"name":"Winter the Witchie","steam_id":76561198151971178,"connected_time":822000000000,"state":"active","ping":57},{"user_id":665,"name":"Shady Businessman","steam_id":76561198143855968,"connected_time":2281000000000,"state":"active","ping":94},{"user_id":666,"name":"Stavbearer","steam_id":76561198345488519,"connected_time":1879000000000,"state":"active","ping":104},{"user_id":677,"name":"rageheavy","steam_id":76561198053049210,"connected_time":1561000000000,"state":"active","ping":81},{"user_id":679,"name":"Nutty McNuts","steam_id":76561199382747995,"connected_time":1555000000000,"state":"active","ping":84},{"user_id":689,"name":"Legit_Jaxer","steam_id":76561198172234053,"connected_time":730000000000,"state":"active","ping":131},{"user_id":599,"name":"ViserOfOrder","steam_id":76561198137222506,"connected_time":7574000000000,"state":"active","ping":67},{"user_id":680,"name":"meatballfreak","steam_id":76561198374236066,"connected_time":1553000000000,"state":"active","ping":58},{"user_id":569,"name":"MR SKELTAL","steam_id":76561198031089598,"connected_time":8913000000000,"state":"active","ping":70},{"user_id":681,"name":"toes","steam_id":76561198221151676,"connected_time":1548000000000,"state":"active","ping":89},{"user_id":682,"name":"take a hit if i kill you","steam_id":76561198992237905,"connected_time":1546000000000,"state":"active","ping":105},{"user_id":684,"name":"spirit","steam_id":76561198102040731,"connected_time":879000000000,"state":"active","ping":50},{"user_id":695,"name":"dirty30","steam_id":76561198021226566,"connected_time":11000000000,"state":"active","ping":101}]},{"server_id":402,"name":"Uncletopia | Chicago | 3 | All Maps","name_short":"chi-3","host":"chi-1.us.uncletopia.com","port":27035,"enabled":true,"region":"us-central","cc":"us","latitude":41.881832,"longitude":-87.62318,"reserved":0,"last_update":"0001-01-01T00:00:00Z","name_a2s":"Uncletopia | Chicago | 3 | All Maps","protocol":17,"map":"pl_borneo","folder":"tf","game":"Team Fortress","app_id":440,"player_count":24,"max_players":24,"Bots":0,"server_type":"Dedicated","server_os":"Linux","password":true,"vac":true,"version":"7961495","steam_id":85568392924515191,"keywords":["nocrits","nodmgspread","payload","uncletopia"],"game_id":440,"stv_port":27036,"stv_name":"Uncletopia | Chicago | 3 | All Maps | STV","players":[{"user_id":523,"name":"DbrotLord","steam_id":76561198156461280,"connected_time":3251000000000,"state":"active","ping":78},{"user_id":556,"name":"frank n furter","steam_id":76561198308883028,"connected_time":910000000000,"state":"active","ping":110},{"user_id":542,"name":"microwavedmoldyminkmilk","steam_id":76561197972601902,"connected_time":1367000000000,"state":"active","ping":88},{"user_id":543,"name":"fart shitson","steam_id":76561198986534519,"connected_time":1361000000000,"state":"active","ping":90},{"user_id":524,"name":"Gingoguy","steam_id":76561198088931297,"connected_time":2757000000000,"state":"active","ping":53},{"user_id":520,"name":"chiswola","steam_id":76561198046920142,"connected_time":3675000000000,"state":"active","ping":72},{"user_id":547,"name":"non_ai","steam_id":76561198270951938,"connected_time":1266000000000,"state":"active","ping":61},{"user_id":545,"name":"ExplosiveGamer21","steam_id":76561198132370955,"connected_time":1331000000000,"state":"active","ping":113},{"user_id":497,"name":"big steve","steam_id":76561199037050183,"connected_time":6071000000000,"state":"active","ping":84},{"user_id":546,"name":"Hoovy","steam_id":76561198409907417,"connected_time":1291000000000,"state":"active","ping":110},{"user_id":476,"name":"guy","steam_id":76561198079925551,"connected_time":7908000000000,"state":"active","ping":62},{"user_id":473,"name":"aphexjh","steam_id":76561197985854658,"connected_time":8062000000000,"state":"active","ping":64},{"user_id":548,"name":"Six Piece Chicken McNobody","steam_id":76561198129848222,"connected_time":1265000000000,"state":"active","ping":70},{"user_id":558,"name":"hamvangolio","steam_id":76561198139588105,"connected_time":687000000000,"state":"active","ping":49},{"user_id":557,"name":"CommieKurtz","steam_id":76561198061687521,"connected_time":881000000000,"state":"active","ping":58},{"user_id":526,"name":"Anstorner","steam_id":76561198274026015,"connected_time":2719000000000,"state":"active","ping":101},{"user_id":549,"name":"RhythmRev","steam_id":76561198084964666,"connected_time":1214000000000,"state":"active","ping":110},{"user_id":550,"name":"gorp 4 (she/herr)","steam_id":76561199431553789,"connected_time":1153000000000,"state":"active","ping":159},{"user_id":551,"name":"arsenicCatnip","steam_id":76561198322969864,"connected_time":1148000000000,"state":"active","ping":82},{"user_id":505,"name":"spaghetti","steam_id":76561198069600113,"connected_time":5740000000000,"state":"active","ping":62},{"user_id":553,"name":"ISlamHooker","steam_id":76561198050136796,"connected_time":1108000000000,"state":"active","ping":90},{"user_id":554,"name":"Bearegard","steam_id":76561198061926542,"connected_time":1099000000000,"state":"active","ping":66},{"user_id":541,"name":"Swiig1ty","steam_id":76561198163402355,"connected_time":1400000000000,"state":"active","ping":56},{"user_id":555,"name":":3","steam_id":76561198077449460,"connected_time":1038000000000,"state":"active","ping":62}]},{"server_id":403,"name":"Uncletopia | Chicago | 4 | All Maps","name_short":"chi-4","host":"chi-1.us.uncletopia.com","port":27045,"enabled":true,"region":"us-central","cc":"us","latitude":41.881832,"longitude":-87.62318,"reserved":0,"last_update":"0001-01-01T00:00:00Z","name_a2s":"Uncletopia | Chicago | 4 | All Maps","protocol":17,"map":"pl_borneo","folder":"tf","game":"Team Fortress","app_id":440,"player_count":24,"max_players":24,"Bots":0,"server_type":"Dedicated","server_os":"Linux","password":true,"vac":true,"version":"7961495","steam_id":85568392924515193,"keywords":["nocrits","nodmgspread","payload","uncletopia"],"game_id":440,"stv_port":27046,"stv_name":"Uncletopia | Chicago | 4 | All Maps | STV","players":[{"user_id":434,"name":"Bella","steam_id":76561198373522196,"connected_time":479000000000,"state":"active","ping":66},{"user_id":393,"name":"TrashDargon","steam_id":76561198423900560,"connected_time":3765000000000,"state":"active","ping":74},{"user_id":425,"name":"mxgic","steam_id":76561198354656195,"connected_time":723000000000,"state":"active","ping":127},{"user_id":432,"name":"Chode Mode","steam_id":76561198353840477,"connected_time":540000000000,"state":"active","ping":58},{"user_id":426,"name":"Keyboardbreaker","steam_id":76561198372836132,"connected_time":721000000000,"state":"active","ping":108},{"user_id":354,"name":"The Professor","steam_id":76561198113760863,"connected_time":7896000000000,"state":"active","ping":60},{"user_id":423,"name":"killeroverscore123","steam_id":76561199168131321,"connected_time":748000000000,"state":"active","ping":95},{"user_id":438,"name":"NiteVisions","steam_id":76561198093618206,"connected_time":176000000000,"state":"active","ping":63},{"user_id":435,"name":"FatSweatyBlackMan","steam_id":76561199020244051,"connected_time":293000000000,"state":"active","ping":98},{"user_id":427,"name":"Ġ1 ♦ Synth","steam_id":76561198058660228,"connected_time":717000000000,"state":"active","ping":57},{"user_id":389,"name":"clue","steam_id":76561198299379768,"connected_time":4428000000000,"state":"active","ping":86},{"user_id":424,"name":"crunchy obama","steam_id":76561198044485217,"connected_time":740000000000,"state":"active","ping":112},{"user_id":420,"name":"Bee","steam_id":76561198074681324,"connected_time":1557000000000,"state":"active","ping":62},{"user_id":394,"name":"Moonshine Man","steam_id":76561198088010073,"connected_time":3750000000000,"state":"active","ping":82},{"user_id":401,"name":"PhantomArcade","steam_id":76561199075186597,"connected_time":3460000000000,"state":"active","ping":68},{"user_id":419,"name":"the album dariacore by leroy","steam_id":76561198061497429,"connected_time":1624000000000,"state":"active","ping":59},{"user_id":410,"name":"staks","steam_id":76561198059570070,"connected_time":2144000000000,"state":"active","ping":53},{"user_id":433,"name":"Zelumie","steam_id":76561198147335801,"connected_time":538000000000,"state":"active","ping":50},{"user_id":390,"name":"captainskullet","steam_id":76561198314597170,"connected_time":4391000000000,"state":"active","ping":72},{"user_id":431,"name":"on that zaza?","steam_id":76561198038713198,"connected_time":665000000000,"state":"active","ping":71},{"user_id":412,"name":"Blade Racer","steam_id":76561198155896703,"connected_time":2130000000000,"state":"active","ping":73},{"user_id":429,"name":"Diplodocus","steam_id":76561198023323121,"connected_time":685000000000,"state":"active","ping":114},{"user_id":436,"name":"rf","steam_id":76561198195359229,"connected_time":276000000000,"state":"active","ping":91},{"user_id":413,"name":"Dr. Pleasant","steam_id":76561198111945101,"connected_time":2123000000000,"state":"active","ping":83}]},{"server_id":36,"name":"Uncletopia | Chicago | 5 | All Maps","name_short":"chi-5","host":"chi-2.us.uncletopia.com","port":27015,"enabled":true,"region":"us-central","cc":"us","latitude":41.881832,"longitude":-87.62318,"reserved":0,"last_update":"0001-01-01T00:00:00Z","name_a2s":"Uncletopia | Chicago | 5 | All Maps","protocol":17,"map":"pl_enclosure_final","folder":"tf","game":"Team Fortress","app_id":440,"player_count":24,"max_players":24,"Bots":0,"server_type":"Dedicated","server_os":"Linux","password":true,"vac":true,"version":"7961495","steam_id":85568392924866362,"keywords":["nocrits","nodmgspread","payload","uncletopia"],"game_id":440,"stv_port":27016,"stv_name":"Uncletopia | Chicago | 5 | All Maps | STV","players":[{"user_id":349,"name":"Rufflemyster™","steam_id":76561198039282501,"connected_time":1579000000000,"state":"active","ping":79},{"user_id":370,"name":"PIPUPINE","steam_id":76561198805194554,"connected_time":498000000000,"state":"active","ping":81},{"user_id":371,"name":"Cunt Force Trauma","steam_id":76561198086121413,"connected_time":479000000000,"state":"active","ping":68},{"user_id":337,"name":"♠Noji♠","steam_id":76561198040056175,"connected_time":2031000000000,"state":"active","ping":94},{"user_id":333,"name":"[TF2Apples] Intense Green Apple","steam_id":76561198803561622,"connected_time":2227000000000,"state":"active","ping":88},{"user_id":312,"name":"wepry","steam_id":76561198114091417,"connected_time":3439000000000,"state":"active","ping":48},{"user_id":355,"name":"flappyflap2","steam_id":76561198285048973,"connected_time":1081000000000,"state":"active","ping":60},{"user_id":342,"name":"❤ Dolphiniz ❤","steam_id":76561199093367765,"connected_time":1866000000000,"state":"active","ping":101},{"user_id":372,"name":"Griffin Potato","steam_id":76561198957533080,"connected_time":376000000000,"state":"active","ping":118},{"user_id":367,"name":"vanilla latté","steam_id":76561198243990636,"connected_time":628000000000,"state":"active","ping":61},{"user_id":309,"name":"Piyono","steam_id":76561197962188504,"connected_time":3650000000000,"state":"active","ping":71},{"user_id":308,"name":"Lavender","steam_id":76561198142770666,"connected_time":3651000000000,"state":"active","ping":61},{"user_id":321,"name":"thorn648","steam_id":76561198012565777,"connected_time":2867000000000,"state":"active","ping":72},{"user_id":368,"name":"Decapitation Station","steam_id":76561198201796098,"connected_time":626000000000,"state":"active","ping":95},{"user_id":377,"name":"CORSAIR Vengeance RGB RT 32GB","steam_id":76561199144340440,"connected_time":216000000000,"state":"active","ping":62},{"user_id":374,"name":"zpalmtree","steam_id":76561198134307620,"connected_time":347000000000,"state":"active","ping":60},{"user_id":375,"name":"Shorty","steam_id":76561198044873248,"connected_time":342000000000,"state":"active","ping":45},{"user_id":350,"name":"Kaze","steam_id":76561199062949963,"connected_time":1544000000000,"state":"active","ping":85},{"user_id":378,"name":"City City The City City","steam_id":76561198046942778,"connected_time":175000000000,"state":"active","ping":98},{"user_id":348,"name":"Whyamidoingthisaaaa","steam_id":76561199168837342,"connected_time":1754000000000,"state":"active","ping":68},{"user_id":376,"name":"-chad","steam_id":76561197995556119,"connected_time":335000000000,"state":"active","ping":95},{"user_id":336,"name":"ｈｉｒｏｇｕｙ","steam_id":76561198043902761,"connected_time":2050000000000,"state":"active","ping":133},{"user_id":328,"name":"Speedy","steam_id":76561198080761661,"connected_time":2374000000000,"state":"active","ping":83},{"user_id":286,"name":"Toaster","steam_id":76561198152610412,"connected_time":6465000000000,"state":"active","ping":58}]},{"server_id":37,"name":"Uncletopia | Chicago | 6 | All Maps","name_short":"chi-6","host":"chi-2.us.uncletopia.com","port":27025,"enabled":true,"region":"us-central","cc":"us","latitude":41.881832,"longitude":-87.62318,"reserved":0,"last_update":"0001-01-01T00:00:00Z","name_a2s":"Uncletopia | Chicago | 6 | All Maps","protocol":17,"map":"pl_pier","folder":"tf","game":"Team Fortress","app_id":440,"player_count":24,"max_players":24,"Bots":0,"server_type":"Dedicated","server_os":"Linux","password":true,"vac":true,"version":"7961495","steam_id":85568392924866363,"keywords":["nocrits","nodmgspread","payload","uncletopia"],"game_id":440,"stv_port":27026,"stv_name":"Uncletopia | Chicago | 6 | All Maps | STV","players":[{"user_id":932,"name":"MedRed™ #IATAH","steam_id":76561198002962970,"connected_time":1919000000000,"state":"active","ping":99},{"user_id":915,"name":"Kreld","steam_id":76561198047794615,"connected_time":2993000000000,"state":"active","ping":168},{"user_id":952,"name":"The Notorious RBG","steam_id":76561198014275148,"connected_time":1076000000000,"state":"active","ping":74},{"user_id":856,"name":"SPIRE_FAN","steam_id":76561198001486573,"connected_time":7747000000000,"state":"active","ping":71},{"user_id":917,"name":"hittign dabong","steam_id":76561198097588802,"connected_time":2846000000000,"state":"active","ping":45},{"user_id":953,"name":"Dr. Medicine","steam_id":76561198111083447,"connected_time":1054000000000,"state":"active","ping":85},{"user_id":961,"name":"StudioMania (#SAVETF2)","steam_id":76561198211315795,"connected_time":229000000000,"state":"active","ping":69},{"user_id":928,"name":"alvöru","steam_id":76561198273488925,"connected_time":2556000000000,"state":"active","ping":75},{"user_id":918,"name":"salted pork","steam_id":76561199144640325,"connected_time":2844000000000,"state":"active","ping":66},{"user_id":949,"name":"hideyochest","steam_id":76561198090366059,"connected_time":1378000000000,"state":"active","ping":60},{"user_id":959,"name":"stinker","steam_id":76561198295640486,"connected_time":564000000000,"state":"active","ping":97},{"user_id":960,"name":"FireQuiz","steam_id":76561198107357249,"connected_time":334000000000,"state":"active","ping":101},{"user_id":943,"name":"t","steam_id":76561198175988929,"connected_time":1511000000000,"state":"active","ping":67},{"user_id":944,"name":"CHAIRMAN MAO GAMING","steam_id":76561198066018972,"connected_time":1484000000000,"state":"active","ping":70},{"user_id":948,"name":"Vapor Man","steam_id":76561198210173112,"connected_time":1418000000000,"state":"active","ping":113},{"user_id":939,"name":"dota player 74712","steam_id":76561198193746389,"connected_time":1775000000000,"state":"active","ping":85},{"user_id":924,"name":"JustAnotherHuman","steam_id":76561199018122924,"connected_time":2691000000000,"state":"active","ping":94},{"user_id":946,"name":"Wheetoz","steam_id":76561198062043775,"connected_time":1471000000000,"state":"active","ping":74},{"user_id":950,"name":"Jokergamma","steam_id":76561198807984541,"connected_time":1354000000000,"state":"active","ping":83},{"user_id":957,"name":"Happy Chappy w/ a Snappy Serape","steam_id":76561198015619945,"connected_time":984000000000,"state":"active","ping":78},{"user_id":860,"name":"Fiendish Frog","steam_id":76561198029478821,"connected_time":7142000000000,"state":"active","ping":73},{"user_id":941,"name":"a fuddruckers","steam_id":76561198092656099,"connected_time":1741000000000,"state":"active","ping":46},{"user_id":927,"name":"pee fartress poo","steam_id":76561198063152319,"connected_time":2626000000000,"state":"active","ping":71},{"user_id":912,"name":"Red_Hatkins","steam_id":76561198214004105,"connected_time":3296000000000,"state":"active","ping":92}]},{"server_id":38,"name":"Uncletopia | Chicago | 7 | Stopwatch","name_short":"chi-7","host":"chi-2.us.uncletopia.com","port":27035,"enabled":true,"region":"us-central","cc":"us","latitude":41.881832,"longitude":-87.62318,"reserved":0,"last_update":"0001-01-01T00:00:00Z","name_a2s":"Uncletopia | Chicago | 7 | Stopwatch","protocol":17,"map":"pl_swiftwater_final1","folder":"tf","game":"Team Fortress","app_id":440,"player_count":0,"max_players":24,"Bots":0,"server_type":"Dedicated","server_os":"Linux","password":true,"vac":true,"version":"7961495","steam_id":85568392924866364,"keywords":["nocrits","nodmgspread","payload","uncletopia"],"game_id":440,"stv_port":27036,"stv_name":"Uncletopia | Chicago | 7 | Stopwatch | STV","players":null},{"server_id":39,"name":"Uncletopia | Chicago | 8 | Community","name_short":"chi-8","host":"chi-2.us.uncletopia.com","port":27045,"enabled":true,"region":"us-central","cc":"us","latitude":41.881832,"longitude":-87.62318,"reserved":0,"last_update":"0001-01-01T00:00:00Z","name_a2s":"Uncletopia | Chicago | 8 | Community","protocol":17,"map":"workshop/pl_barnblitz_pro7.ugc582280235","folder":"tf","game":"Team Fortress","app_id":440,"player_count":24,"max_players":24,"Bots":0,"server_type":"Dedicated","server_os":"Linux","password":true,"vac":true,"version":"7961495","steam_id":85568392924866365,"keywords":["nocrits","nodmgspread","payload","uncletopia"],"game_id":440,"stv_port":27046,"stv_name":"Uncletopia | Chicago | 8 | Community | STV","players":[{"user_id":226,"name":"Jesse Bear","steam_id":76561198217075305,"connected_time":1733000000000,"state":"active","ping":84},{"user_id":229,"name":"Cyruktez","steam_id":76561198115876488,"connected_time":1458000000000,"state":"active","ping":64},{"user_id":241,"name":"Ditzy Doo","steam_id":76561198011199060,"connected_time":704000000000,"state":"active","ping":114},{"user_id":183,"name":"Man Man","steam_id":76561199068338634,"connected_time":4758000000000,"state":"active","ping":85},{"user_id":233,"name":"autism creature","steam_id":76561198385849310,"connected_time":1385000000000,"state":"active","ping":60},{"user_id":230,"name":"Ariel","steam_id":76561199072335323,"connected_time":1434000000000,"state":"active","ping":117},{"user_id":248,"name":"Grasshopper506","steam_id":76561198111633418,"connected_time":18000000000,"state":"spawning","ping":150},{"user_id":249,"name":"moosein","steam_id":76561198354272434,"connected_time":8000000000,"state":"spawning","ping":357},{"user_id":215,"name":"Lemonparty","steam_id":76561197974422168,"connected_time":2698000000000,"state":"active","ping":66},{"user_id":227,"name":"junebug","steam_id":76561198126662775,"connected_time":1678000000000,"state":"active","ping":51},{"user_id":228,"name":"Still Alive","steam_id":76561198042523000,"connected_time":1665000000000,"state":"active","ping":105},{"user_id":231,"name":"Thequirka","steam_id":76561198968058652,"connected_time":1426000000000,"state":"active","ping":96},{"user_id":211,"name":"Chagalicious","steam_id":76561198044128240,"connected_time":3417000000000,"state":"active","ping":82},{"user_id":167,"name":"he suckin on my rick til i mort","steam_id":76561198310711692,"connected_time":6341000000000,"state":"active","ping":177},{"user_id":232,"name":"Super Nae Nae Baby 2","steam_id":76561198141802482,"connected_time":1414000000000,"state":"active","ping":71},{"user_id":204,"name":"Chicken","steam_id":76561198855273194,"connected_time":3866000000000,"state":"active","ping":60},{"user_id":244,"name":"Loashes","steam_id":76561198119608299,"connected_time":630000000000,"state":"active","ping":85},{"user_id":245,"name":"[SEI]amike191","steam_id":76561198098094454,"connected_time":626000000000,"state":"active","ping":74},{"user_id":247,"name":"Selment","steam_id":76561198026489601,"connected_time":515000000000,"state":"active","ping":49},{"user_id":180,"name":"aisu","steam_id":76561198043768507,"connected_time":5027000000000,"state":"active","ping":64},{"user_id":240,"name":"Sleezy","steam_id":76561198839500707,"connected_time":769000000000,"state":"active","ping":98},{"user_id":214,"name":"CabezaGrande","steam_id":76561197972555502,"connected_time":2770000000000,"state":"active","ping":63},{"user_id":237,"name":"roddy ricch - ballin","steam_id":76561198111290441,"connected_time":1212000000000,"state":"active","ping":60},{"user_id":238,"name":"Engideer","steam_id":76561198145733164,"connected_time":1037000000000,"state":"active","ping":74}]},{"server_id":8,"name":"Uncletopia | Dallas | 1 | All Maps","name_short":"dal-1","host":"dal-1.us.uncletopia.com","port":27015,"enabled":true,"region":"us-central","cc":"us","latitude":32.779167,"longitude":-96.80889,"reserved":0,"last_update":"0001-01-01T00:00:00Z","name_a2s":"Uncletopia | Dallas | 1 | All Maps","protocol":17,"map":"pl_upward","folder":"tf","game":"Team Fortress","app_id":440,"player_count":24,"max_players":24,"Bots":0,"server_type":"Dedicated","server_os":"Linux","password":true,"vac":true,"version":"7961495","steam_id":85568392924469986,"keywords":["nocrits","nodmgspread","payload","uncletopia"],"game_id":440,"stv_port":27016,"stv_name":"Uncletopia | Dallas | 1 | All Maps | STV","players":[{"user_id":464,"name":"bogdagod","steam_id":76561198286968297,"connected_time":86000000000,"state":"active","ping":104},{"user_id":462,"name":"BehindYou","steam_id":76561198987222560,"connected_time":197000000000,"state":"active","ping":68},{"user_id":465,"name":"Paulie Walnuts","steam_id":76561198066568730,"connected_time":46000000000,"state":"active","ping":72},{"user_id":461,"name":"tim","steam_id":76561198075510786,"connected_time":226000000000,"state":"active","ping":66},{"user_id":456,"name":"NabeAkechii","steam_id":76561198086385861,"connected_time":1056000000000,"state":"active","ping":145},{"user_id":415,"name":"LampMan","steam_id":76561198079857527,"connected_time":4919000000000,"state":"active","ping":47},{"user_id":457,"name":"banana gaming","steam_id":76561198334907218,"connected_time":687000000000,"state":"active","ping":61},{"user_id":453,"name":"ZILICON","steam_id":76561199044705592,"connected_time":1139000000000,"state":"active","ping":111},{"user_id":414,"name":"Rob","steam_id":76561199187786660,"connected_time":4981000000000,"state":"active","ping":49},{"user_id":454,"name":"SpundoDundo","steam_id":76561199165999947,"connected_time":1128000000000,"state":"active","ping":109},{"user_id":427,"name":"J3X","steam_id":76561198184753858,"connected_time":4565000000000,"state":"active","ping":99},{"user_id":443,"name":"flippercurve","steam_id":76561199238295034,"connected_time":3204000000000,"state":"active","ping":68},{"user_id":460,"name":"Soap","steam_id":76561197994893383,"connected_time":431000000000,"state":"active","ping":75},{"user_id":410,"name":"Two-Ton Heavy Thing","steam_id":76561198201724274,"connected_time":5270000000000,"state":"active","ping":90},{"user_id":436,"name":"Acuzik","steam_id":76561198045453400,"connected_time":3527000000000,"state":"active","ping":70},{"user_id":428,"name":"Jarnold","steam_id":76561198090434537,"connected_time":4445000000000,"state":"active","ping":59},{"user_id":445,"name":"mbell1199","steam_id":76561198827517736,"connected_time":2336000000000,"state":"active","ping":55},{"user_id":466,"name":"californjoe","steam_id":76561197965047795,"connected_time":42000000000,"state":"active","ping":77},{"user_id":423,"name":"trash beast","steam_id":76561198015792736,"connected_time":4783000000000,"state":"active","ping":75},{"user_id":446,"name":"Sweet Tooth","steam_id":76561198830158092,"connected_time":1512000000000,"state":"active","ping":85},{"user_id":431,"name":"Gary Busey","steam_id":76561197970096950,"connected_time":4084000000000,"state":"active","ping":45},{"user_id":458,"name":"cringeass nae-nae girl","steam_id":76561198108753857,"connected_time":676000000000,"state":"active","ping":91},{"user_id":437,"name":"Toskasha|ttv","steam_id":76561198044647017,"connected_time":3505000000000,"state":"active","ping":100},{"user_id":435,"name":"Braingoo Hex","steam_id":76561198083094783,"connected_time":3839000000000,"state":"active","ping":84}]},{"server_id":108,"name":"Uncletopia | Dallas | 2 | All Maps","name_short":"dal-2","host":"dal-1.us.uncletopia.com","port":27025,"enabled":true,"region":"us-central","cc":"us","latitude":32.779167,"longitude":-96.80889,"reserved":0,"last_update":"0001-01-01T00:00:00Z","name_a2s":"Uncletopia | Dallas | 2 | All Maps","protocol":17,"map":"cp_process_final","folder":"tf","game":"Team Fortress","app_id":440,"player_count":23,"max_players":24,"Bots":0,"server_type":"Dedicated","server_os":"Linux","password":true,"vac":true,"version":"7961495","steam_id":85568392924469988,"keywords":["cp","nocrits","nodmgspread","uncletopia"],"game_id":440,"stv_port":27026,"stv_name":"Uncletopia | Dallas | 2 | All Maps | STV","players":[{"user_id":627,"name":"Biden Blast","steam_id":76561198366729030,"connected_time":1794000000000,"state":"active","ping":75},{"user_id":642,"name":"Dad","steam_id":76561198089213897,"connected_time":753000000000,"state":"active","ping":73},{"user_id":645,"name":"BLØRG","steam_id":76561198036126673,"connected_time":618000000000,"state":"active","ping":75},{"user_id":643,"name":"Sean","steam_id":76561199367470003,"connected_time":699000000000,"state":"active","ping":98},{"user_id":644,"name":"jon pickle water","steam_id":76561199036212135,"connected_time":697000000000,"state":"active","ping":118},{"user_id":646,"name":"tacofever","steam_id":76561198010966507,"connected_time":613000000000,"state":"active","ping":81},{"user_id":651,"name":"loser","steam_id":76561198259380127,"connected_time":345000000000,"state":"active","ping":75},{"user_id":647,"name":"Charles","steam_id":76561198155322277,"connected_time":579000000000,"state":"active","ping":96},{"user_id":587,"name":"the","steam_id":76561198345810744,"connected_time":4293000000000,"state":"active","ping":73},{"user_id":636,"name":"jasus","steam_id":76561198088035919,"connected_time":1127000000000,"state":"active","ping":99},{"user_id":631,"name":"Spaghettios","steam_id":76561198070323656,"connected_time":1708000000000,"state":"active","ping":52},{"user_id":640,"name":"Kng","steam_id":76561198993248203,"connected_time":862000000000,"state":"active","ping":96},{"user_id":619,"name":"Skiddy","steam_id":76561198125942665,"connected_time":2173000000000,"state":"active","ping":90},{"user_id":656,"name":"Salt","steam_id":76561198418001135,"connected_time":197000000000,"state":"active","ping":75},{"user_id":639,"name":"chimpin","steam_id":76561198858089300,"connected_time":984000000000,"state":"active","ping":99},{"user_id":648,"name":"Dirtbike rider","steam_id":76561198030457066,"connected_time":570000000000,"state":"active","ping":62},{"user_id":655,"name":"Genetic Komodo (He/Him)","steam_id":76561198174806758,"connected_time":258000000000,"state":"active","ping":42},{"user_id":632,"name":"garlic boi","steam_id":76561198052960274,"connected_time":1703000000000,"state":"active","ping":48},{"user_id":649,"name":"Not Giga Chad","steam_id":76561198059785363,"connected_time":563000000000,"state":"active","ping":65},{"user_id":624,"name":"Surfing Garchomp","steam_id":76561199107236884,"connected_time":1963000000000,"state":"active","ping":106},{"user_id":573,"name":"Toasterduds","steam_id":76561198163477584,"connected_time":5343000000000,"state":"active","ping":85},{"user_id":638,"name":"Pope John","steam_id":76561199092229681,"connected_time":1047000000000,"state":"active","ping":93},{"user_id":653,"name":"Sly_1087.TTV","steam_id":76561198188900013,"connected_time":320000000000,"state":"active","ping":116}]},{"server_id":404,"name":"Uncletopia | Dallas | 3 | All Maps","name_short":"dal-3","host":"dal-1.us.uncletopia.com","port":27035,"enabled":true,"region":"us-central","cc":"us","latitude":32.779167,"longitude":-96.80889,"reserved":0,"last_update":"0001-01-01T00:00:00Z","name_a2s":"Uncletopia | Dallas | 3 | All Maps","protocol":17,"map":"pl_frontier_final","folder":"tf","game":"Team Fortress","app_id":440,"player_count":18,"max_players":24,"Bots":0,"server_type":"Dedicated","server_os":"Linux","password":true,"vac":true,"version":"7961495","steam_id":85568392924515219,"keywords":["nocrits","nodmgspread","payload","uncletopia"],"game_id":440,"stv_port":27036,"stv_name":"Uncletopia | Dallas | 3 | All Maps | STV","players":[{"user_id":240,"name":"Voodo133","steam_id":76561198042670351,"connected_time":1770000000000,"state":"active","ping":99},{"user_id":219,"name":"bad spy player","steam_id":76561198873699671,"connected_time":3208000000000,"state":"active","ping":109},{"user_id":205,"name":"DudeBergs","steam_id":76561198399777833,"connected_time":4746000000000,"state":"active","ping":62},{"user_id":182,"name":"doughboy","steam_id":76561198219012928,"connected_time":6859000000000,"state":"active","ping":74},{"user_id":257,"name":"supcupman","steam_id":76561198051513866,"connected_time":363000000000,"state":"active","ping":120},{"user_id":250,"name":"Captain Underbelly","steam_id":76561198811270935,"connected_time":1013000000000,"state":"active","ping":92},{"user_id":199,"name":"Elder Titan","steam_id":76561198025397370,"connected_time":5418000000000,"state":"active","ping":77},{"user_id":247,"name":"❤ Ashley ❤","steam_id":76561198056428303,"connected_time":1351000000000,"state":"active","ping":76},{"user_id":245,"name":"self sufficient kitten","steam_id":76561197960592612,"connected_time":1365000000000,"state":"active","ping":94},{"user_id":254,"name":"blademiss","steam_id":76561198062083019,"connected_time":882000000000,"state":"active","ping":153},{"user_id":209,"name":"woooflet","steam_id":76561199208387179,"connected_time":4637000000000,"state":"active","ping":44},{"user_id":146,"name":"tail slap +36 (4d12+18)","steam_id":76561198040425096,"connected_time":10604000000000,"state":"active","ping":66},{"user_id":226,"name":"Lincs","steam_id":76561198049851872,"connected_time":3163000000000,"state":"active","ping":77},{"user_id":227,"name":"+","steam_id":76561198262422184,"connected_time":3151000000000,"state":"active","ping":46},{"user_id":244,"name":"cuppajoeman","steam_id":76561198095720174,"connected_time":1393000000000,"state":"active","ping":65},{"user_id":255,"name":"Ugly Princess","steam_id":76561198151044270,"connected_time":738000000000,"state":"active","ping":92},{"user_id":236,"name":"Sweatshirt","steam_id":76561198087631219,"connected_time":1998000000000,"state":"active","ping":105},{"user_id":253,"name":"CherryPieRed2023","steam_id":76561198998007496,"connected_time":892000000000,"state":"active","ping":90}]},{"server_id":405,"name":"Uncletopia | Dallas | 4 | Community","name_short":"dal-4","host":"dal-1.us.uncletopia.com","port":27045,"enabled":true,"region":"us-central","cc":"us","latitude":32.779167,"longitude":-96.80889,"reserved":0,"last_update":"0001-01-01T00:00:00Z","name_a2s":"Uncletopia | Dallas | 4 | Community","protocol":17,"map":"workshop/cp_mannbase_rc2a.ugc1900737467","folder":"tf","game":"Team Fortress","app_id":440,"player_count":0,"max_players":24,"Bots":0,"server_type":"Dedicated","server_os":"Linux","password":true,"vac":true,"version":"7961495","steam_id":85568392924515220,"keywords":["cp","nocrits","nodmgspread","uncletopia"],"game_id":440,"stv_port":27046,"stv_name":"Uncletopia | Dallas | 4 | Community | STV","players":null},{"server_id":5,"name":"Uncletopia | Frankfurt | 1 | All Maps","name_short":"frk-1","host":"frk-1.de.uncletopia.com","port":27015,"enabled":true,"region":"eu","cc":"de","latitude":50.110924,"longitude":8.682127,"reserved":0,"last_update":"0001-01-01T00:00:00Z","name_a2s":"Uncletopia | Frankfurt | 1 | All Maps","protocol":17,"map":"koth_highpass","folder":"tf","game":"Team Fortress","app_id":440,"player_count":0,"max_players":24,"Bots":0,"server_type":"Dedicated","server_os":"Linux","password":true,"vac":true,"version":"7961495","steam_id":85568392924469989,"keywords":["cp","nocrits","nodmgspread","uncletopia"],"game_id":440,"stv_port":27016,"stv_name":"Uncletopia | Frankfurt | 1 | All Maps | STV","players":null},{"server_id":110,"name":"Uncletopia | Frankfurt | 2 | All Maps","name_short":"frk-2","host":"frk-1.de.uncletopia.com","port":27025,"enabled":true,"region":"eu","cc":"de","latitude":50.110924,"longitude":8.682127,"reserved":0,"last_update":"0001-01-01T00:00:00Z","name_a2s":"Uncletopia | Frankfurt | 2 | All Maps","protocol":17,"map":"cp_dustbowl","folder":"tf","game":"Team Fortress","app_id":440,"player_count":0,"max_players":24,"Bots":0,"server_type":"Dedicated","server_os":"Linux","password":true,"vac":true,"version":"7961495","steam_id":85568392924469990,"keywords":["cp","nocrits","nodmgspread","uncletopia"],"game_id":440,"stv_port":27026,"stv_name":"Uncletopia | Frankfurt | 2 | All Maps | STV","players":null},{"server_id":308,"name":"Uncletopia | Frankfurt | 3 | All Maps","name_short":"frk-3","host":"frk-1.de.uncletopia.com","port":27035,"enabled":true,"region":"eu","cc":"de","latitude":50.110924,"longitude":8.682127,"reserved":0,"last_update":"0001-01-01T00:00:00Z","name_a2s":"Uncletopia | Frankfurt | 3 | All Maps","protocol":17,"map":"pl_barnblitz","folder":"tf","game":"Team Fortress","app_id":440,"player_count":0,"max_players":24,"Bots":0,"server_type":"Dedicated","server_os":"Linux","password":true,"vac":true,"version":"7961495","steam_id":85568392924504274,"keywords":["nocrits","nodmgspread","payload","uncletopia"],"game_id":440,"stv_port":27036,"stv_name":"Uncletopia | Frankfurt | 3 | All Maps | STV","players":null},{"server_id":309,"name":"Uncletopia | Frankfurt | 4 | All Maps","name_short":"frk-4","host":"frk-1.de.uncletopia.com","port":27045,"enabled":true,"region":"eu","cc":"de","latitude":50.110924,"longitude":8.682127,"reserved":0,"last_update":"0001-01-01T00:00:00Z","name_a2s":"Uncletopia | Frankfurt | 4 | All Maps","protocol":17,"map":"koth_highpass","folder":"tf","game":"Team Fortress","app_id":440,"player_count":0,"max_players":24,"Bots":0,"server_type":"Dedicated","server_os":"Linux","password":true,"vac":true,"version":"7961495","steam_id":85568392924504275,"keywords":["cp","nocrits","nodmgspread","uncletopia"],"game_id":440,"stv_port":27046,"stv_name":"Uncletopia | Frankfurt | 4 | All Maps | STV","players":null},{"server_id":310,"name":"Uncletopia | Frankfurt | 5 | All Maps","name_short":"frk-5","host":"frk-1.de.uncletopia.com","port":27055,"enabled":true,"region":"eu","cc":"de","latitude":50.110924,"longitude":8.682127,"reserved":0,"last_update":"0001-01-01T00:00:00Z","name_a2s":"Uncletopia | Frankfurt | 5 | All Maps","protocol":17,"map":"pl_badwater","folder":"tf","game":"Team Fortress","app_id":440,"player_count":0,"max_players":24,"Bots":0,"server_type":"Dedicated","server_os":"Linux","password":true,"vac":true,"version":"7961495","steam_id":85568392924504277,"keywords":["nocrits","nodmgspread","payload","uncletopia"],"game_id":440,"stv_port":27056,"stv_name":"Uncletopia | Frankfurt | 5 | All Maps | STV","players":null},{"server_id":311,"name":"Uncletopia | Frankfurt | 6 | All Maps","name_short":"frk-6","host":"frk-1.de.uncletopia.com","port":27065,"enabled":true,"region":"eu","cc":"de","latitude":50.110924,"longitude":8.682127,"reserved":0,"last_update":"0001-01-01T00:00:00Z","name_a2s":"Uncletopia | Frankfurt | 6 | All Maps","protocol":17,"map":"cp_altitude","folder":"tf","game":"Team Fortress","app_id":440,"player_count":0,"max_players":24,"Bots":0,"server_type":"Dedicated","server_os":"Linux","password":true,"vac":true,"version":"7961495","steam_id":85568392924504278,"keywords":["cp","nocrits","nodmgspread","uncletopia"],"game_id":440,"stv_port":27066,"stv_name":"Uncletopia | Frankfurt | 6 | All Maps | STV","players":null},{"server_id":23,"name":"Uncletopia | Frankfurt | 7 | Stopwatch","name_short":"frk-7","host":"frk-1.de.uncletopia.com","port":27075,"enabled":true,"region":"eu","cc":"de","latitude":50.110924,"longitude":8.682127,"reserved":0,"last_update":"0001-01-01T00:00:00Z","name_a2s":"Uncletopia | Frankfurt | 7 | Stopwatch","protocol":17,"map":"pl_frontier_final","folder":"tf","game":"Team Fortress","app_id":440,"player_count":0,"max_players":24,"Bots":0,"server_type":"Dedicated","server_os":"Linux","password":true,"vac":true,"version":"7961495","steam_id":85568392924742827,"keywords":["nocrits","nodmgspread","payload","uncletopia"],"game_id":440,"stv_port":27076,"stv_name":"Uncletopia | Frankfurt | 7 | Stopwatch | STV","players":null},{"server_id":24,"name":"Uncletopia | Frankfurt | 8 | Community","name_short":"frk-8","host":"frk-1.de.uncletopia.com","port":27085,"enabled":true,"region":"eu","cc":"de","latitude":50.110924,"longitude":8.682127,"reserved":0,"last_update":"0001-01-01T00:00:00Z","name_a2s":"Uncletopia | Frankfurt | 8 | Community","protocol":17,"map":"cp_mountainlab","folder":"tf","game":"Team Fortress","app_id":440,"player_count":0,"max_players":24,"Bots":0,"server_type":"Dedicated","server_os":"Linux","password":true,"vac":true,"version":"7961495","steam_id":85568392924742828,"keywords":["cp","nocrits","nodmgspread","uncletopia"],"game_id":440,"stv_port":27086,"stv_name":"Uncletopia | Frankfurt | 8 | Community | STV","players":null},{"server_id":202,"name":"Uncletopia | Hong Kong | 1 | All Maps","name_short":"hgk-1","host":"hgk-1.hk.uncletopia.com","port":27015,"enabled":true,"region":"asia","cc":"hk","latitude":22.302711,"longitude":114.177216,"reserved":0,"last_update":"0001-01-01T00:00:00Z","name_a2s":"Uncletopia | Hong Kong | 1 | All Maps","protocol":17,"map":"pl_frontier_final","folder":"tf","game":"Team Fortress","app_id":440,"player_count":2,"max_players":24,"Bots":0,"server_type":"Dedicated","server_os":"Linux","password":true,"vac":true,"version":"7961495","steam_id":85568392924494504,"keywords":["nocrits","nodmgspread","payload","uncletopia"],"game_id":440,"stv_port":27016,"stv_name":"Uncletopia | Hong Kong | 1 | All Maps | STV","players":[{"user_id":4,"name":"gothem need me","steam_id":76561198294958967,"connected_time":710000000000,"state":"active","ping":60},{"user_id":7,"name":"SPAHS","steam_id":76561198854322723,"connected_time":600000000000,"state":"active","ping":90}]},{"server_id":1,"name":"Uncletopia | Los Angeles | 1 | All Maps","name_short":"lax-1","host":"lax-1.us.uncletopia.com","port":27015,"enabled":true,"region":"us-west","cc":"us","latitude":33.94279,"longitude":-118.41004,"reserved":0,"last_update":"0001-01-01T00:00:00Z","name_a2s":"Uncletopia | Los Angeles | 1 | All Maps","protocol":17,"map":"pl_upward","folder":"tf","game":"Team Fortress","app_id":440,"player_count":24,"max_players":24,"Bots":0,"server_type":"Dedicated","server_os":"Linux","password":true,"vac":true,"version":"7961495","steam_id":85568392924469991,"keywords":["nocrits","nodmgspread","payload","uncletopia"],"game_id":440,"stv_port":27016,"stv_name":"Uncletopia | Los Angeles | 1 | All Maps | STV","players":[{"user_id":46,"name":"WoodsRunner","steam_id":76561198121812870,"connected_time":2363000000000,"state":"active","ping":103},{"user_id":75,"name":"Schully__","steam_id":76561198041329791,"connected_time":95000000000,"state":"active","ping":47},{"user_id":56,"name":"Skribbles","steam_id":76561198373073766,"connected_time":1403000000000,"state":"active","ping":54},{"user_id":31,"name":"Mocha Josie","steam_id":76561198066452726,"connected_time":3087000000000,"state":"active","ping":58},{"user_id":47,"name":"Therapy Goth","steam_id":76561198048448497,"connected_time":2355000000000,"state":"active","ping":114},{"user_id":52,"name":"[CK] VickySof","steam_id":76561198036604171,"connected_time":2327000000000,"state":"active","ping":54},{"user_id":32,"name":"JohnnyGitGud","steam_id":76561198401455467,"connected_time":2859000000000,"state":"active","ping":54},{"user_id":73,"name":"Satori Komeiji","steam_id":76561198158211423,"connected_time":259000000000,"state":"active","ping":45},{"user_id":74,"name":"⛧Alkahestry","steam_id":76561198109641497,"connected_time":107000000000,"state":"active","ping":45},{"user_id":76,"name":"LogicalFurret","steam_id":76561198350604657,"connected_time":95000000000,"state":"active","ping":66},{"user_id":63,"name":"D.A.V.I.D","steam_id":76561199443570634,"connected_time":1239000000000,"state":"active","ping":100},{"user_id":64,"name":"Dan","steam_id":76561199236719411,"connected_time":1078000000000,"state":"active","ping":116},{"user_id":29,"name":"Wub-Zero","steam_id":76561198321416241,"connected_time":3161000000000,"state":"active","ping":52},{"user_id":65,"name":"blazen","steam_id":76561198921007863,"connected_time":1031000000000,"state":"active","ping":78},{"user_id":70,"name":"MantisToboggan","steam_id":76561197969447887,"connected_time":501000000000,"state":"active","ping":101},{"user_id":61,"name":"aqua","steam_id":76561198120437478,"connected_time":1354000000000,"state":"active","ping":60},{"user_id":68,"name":"Marvelzombie","steam_id":76561198129951058,"connected_time":806000000000,"state":"active","ping":115},{"user_id":40,"name":"Pyrotek⁴","steam_id":76561198072747672,"connected_time":2462000000000,"state":"active","ping":43},{"user_id":62,"name":"turnip","steam_id":76561197999375941,"connected_time":1347000000000,"state":"active","ping":92},{"user_id":43,"name":"transbian disaster","steam_id":76561198407600762,"connected_time":2425000000000,"state":"active","ping":74},{"user_id":44,"name":"Nine Inch Иipples","steam_id":76561198149413947,"connected_time":2405000000000,"state":"active","ping":71},{"user_id":77,"name":"Whapper","steam_id":76561198044029606,"connected_time":75000000000,"state":"active","ping":63},{"user_id":72,"name":"bong fellow","steam_id":76561198334044006,"connected_time":369000000000,"state":"active","ping":45},{"user_id":78,"name":"Firedust19","steam_id":76561198153238631,"connected_time":63000000000,"state":"active","ping":60}]},{"server_id":112,"name":"Uncletopia | Los Angeles | 2 | All Maps","name_short":"lax-2","host":"lax-1.us.uncletopia.com","port":27025,"enabled":true,"region":"us-west","cc":"us","latitude":33.94279,"longitude":-118.41004,"reserved":0,"last_update":"0001-01-01T00:00:00Z","name_a2s":"Uncletopia | Los Angeles | 2 | All Maps","protocol":17,"map":"cp_altitude","folder":"tf","game":"Team Fortress","app_id":440,"player_count":24,"max_players":24,"Bots":0,"server_type":"Dedicated","server_os":"Linux","password":true,"vac":true,"version":"7961495","steam_id":85568392924469992,"keywords":["cp","nocrits","nodmgspread","uncletopia"],"game_id":440,"stv_port":27026,"stv_name":"Uncletopia | Los Angeles | 2 | All Maps | STV","players":[{"user_id":189,"name":"Canned Bread","steam_id":76561198354916213,"connected_time":1218000000000,"state":"active","ping":72},{"user_id":191,"name":"Crazy Hungarian","steam_id":76561198025498172,"connected_time":1209000000000,"state":"active","ping":82},{"user_id":201,"name":"techchase rorschach test","steam_id":76561198408159536,"connected_time":814000000000,"state":"active","ping":103},{"user_id":186,"name":"GreenApples","steam_id":76561198120559543,"connected_time":1716000000000,"state":"active","ping":54},{"user_id":171,"name":"Owl_eyes","steam_id":76561198066199203,"connected_time":2662000000000,"state":"active","ping":63},{"user_id":155,"name":"Goon","steam_id":76561198147155900,"connected_time":3083000000000,"state":"active","ping":46},{"user_id":212,"name":"Dcoyotzi","steam_id":76561199124707627,"connected_time":181000000000,"state":"active","ping":78},{"user_id":156,"name":"Boxcars","steam_id":76561198120978767,"connected_time":3063000000000,"state":"active","ping":55},{"user_id":125,"name":"MonkeyNobody","steam_id":76561199451266605,"connected_time":5693000000000,"state":"active","ping":56},{"user_id":192,"name":"shitass (Reaping and Sowing)","steam_id":76561198210572481,"connected_time":1203000000000,"state":"active","ping":45},{"user_id":206,"name":"Disc0","steam_id":76561198067337267,"connected_time":311000000000,"state":"active","ping":76},{"user_id":203,"name":"Jinpachiro","steam_id":76561198072760969,"connected_time":713000000000,"state":"active","ping":45},{"user_id":208,"name":"RC","steam_id":76561198048127881,"connected_time":267000000000,"state":"active","ping":45},{"user_id":209,"name":"Human Resources Manager","steam_id":76561198066386411,"connected_time":258000000000,"state":"active","ping":60},{"user_id":172,"name":"Velgrauder","steam_id":76561198848526938,"connected_time":2651000000000,"state":"active","ping":101},{"user_id":67,"name":"SuperSX","steam_id":76561199230865085,"connected_time":8597000000000,"state":"active","ping":84},{"user_id":204,"name":"wawa","steam_id":76561199498563597,"connected_time":549000000000,"state":"active","ping":111},{"user_id":176,"name":"Ian","steam_id":76561198159334435,"connected_time":2339000000000,"state":"active","ping":168},{"user_id":210,"name":"Squash","steam_id":76561198200037217,"connected_time":255000000000,"state":"active","ping":114},{"user_id":185,"name":"Dullahan","steam_id":76561198119668908,"connected_time":1883000000000,"state":"active","ping":59},{"user_id":173,"name":"TheGhostThatWas","steam_id":76561198055836483,"connected_time":2638000000000,"state":"active","ping":106},{"user_id":211,"name":"Loogey03","steam_id":76561198155483586,"connected_time":241000000000,"state":"active","ping":97},{"user_id":134,"name":"TheBeepMann","steam_id":76561198156230733,"connected_time":5206000000000,"state":"active","ping":42},{"user_id":199,"name":"FROYO b4nny","steam_id":76561197970669109,"connected_time":1093000000000,"state":"active","ping":56}]},{"server_id":324,"name":"Uncletopia | Los Angeles | 3 | All Maps","name_short":"lax-3","host":"lax-1.us.uncletopia.com","port":27035,"enabled":true,"region":"us-west","cc":"us","latitude":33.94279,"longitude":-118.41004,"reserved":0,"last_update":"0001-01-01T00:00:00Z","name_a2s":"Uncletopia | Los Angeles | 3 | All Maps","protocol":17,"map":"cp_mountainlab","folder":"tf","game":"Team Fortress","app_id":440,"player_count":1,"max_players":24,"Bots":0,"server_type":"Dedicated","server_os":"Linux","password":true,"vac":true,"version":"7961495","steam_id":85568392924510198,"keywords":["cp","nocrits","nodmgspread","uncletopia"],"game_id":440,"stv_port":27036,"stv_name":"Uncletopia | Los Angeles | 3 | All Maps | STV","players":[{"user_id":11,"name":"StarGuyVI","steam_id":76561199366304746,"connected_time":426000000000,"state":"active","ping":101}]},{"server_id":25,"name":"Uncletopia | Los Angeles | 4 | Stopwatch","name_short":"lax-4","host":"lax-1.us.uncletopia.com","port":27045,"enabled":true,"region":"us-west","cc":"us","latitude":33.94279,"longitude":-118.41004,"reserved":0,"last_update":"0001-01-01T00:00:00Z","name_a2s":"Uncletopia | Los Angeles | 4 | Stopwatch","protocol":17,"map":"workshop/pl_badwater_pro_v12.ugc2142942074","folder":"tf","game":"Team Fortress","app_id":440,"player_count":5,"max_players":24,"Bots":0,"server_type":"Dedicated","server_os":"Linux","password":true,"vac":true,"version":"7961495","steam_id":85568392924510199,"keywords":["nocrits","nodmgspread","payload","uncletopia"],"game_id":440,"stv_port":27046,"stv_name":"Uncletopia | Los Angeles | 4 | Stopwatch | STV","players":[{"user_id":7,"name":"Cerberus","steam_id":76561199078766047,"connected_time":2739000000000,"state":"active","ping":73},{"user_id":10,"name":"NC 2nd place flanker","steam_id":76561199467334502,"connected_time":1857000000000,"state":"active","ping":60},{"user_id":17,"name":"Frank Accardi","steam_id":76561198017275707,"connected_time":143000000000,"state":"active","ping":67},{"user_id":15,"name":"Pie Eater 9000","steam_id":76561198003791564,"connected_time":753000000000,"state":"active","ping":97},{"user_id":14,"name":"Schnitz","steam_id":76561198265484253,"connected_time":832000000000,"state":"active","ping":61}]},{"server_id":11,"name":"Uncletopia | London | 1 | All Maps","name_short":"lon-1","host":"lon-1.uk.uncletopia.com","port":27015,"enabled":true,"region":"eu","cc":"gb","latitude":51.509865,"longitude":-0.118092,"reserved":0,"last_update":"0001-01-01T00:00:00Z","name_a2s":"Uncletopia | London | 1 | All Maps","protocol":17,"map":"koth_harvest_final","folder":"tf","game":"Team Fortress","app_id":440,"player_count":0,"max_players":24,"Bots":0,"server_type":"Dedicated","server_os":"Linux","password":true,"vac":true,"version":"7961495","steam_id":85568392924367362,"keywords":["cp","nocrits","nodmgspread","uncletopia"],"game_id":440,"stv_port":27016,"stv_name":"Uncletopia | London | 1 | All Maps | STV","players":null},{"server_id":114,"name":"Uncletopia | London | 2 | All Maps","name_short":"lon-2","host":"lon-1.uk.uncletopia.com","port":27025,"enabled":true,"region":"eu","cc":"gb","latitude":51.509865,"longitude":-0.118092,"reserved":0,"last_update":"0001-01-01T00:00:00Z","name_a2s":"Uncletopia | London | 2 | All Maps","protocol":17,"map":"pl_upward","folder":"tf","game":"Team Fortress","app_id":440,"player_count":9,"max_players":24,"Bots":0,"server_type":"Dedicated","server_os":"Linux","password":true,"vac":true,"version":"7961495","steam_id":85568392924470941,"keywords":["nocrits","nodmgspread","payload","uncletopia"],"game_id":440,"stv_port":27026,"stv_name":"Uncletopia | London | 2 | All Maps | STV","players":[{"user_id":628,"name":"Zerfesh","steam_id":76561198117534358,"connected_time":14802000000000,"state":"active","ping":101},{"user_id":764,"name":"󠀡󠀡","steam_id":76561198399390201,"connected_time":1146000000000,"state":"active","ping":86},{"user_id":669,"name":"Perpetual Pub Push","steam_id":76561198256714846,"connected_time":11431000000000,"state":"active","ping":44},{"user_id":767,"name":"Daquer","steam_id":76561199109170893,"connected_time":412000000000,"state":"active","ping":84},{"user_id":753,"name":"Orphan Crippla","steam_id":76561199064805524,"connected_time":2329000000000,"state":"active","ping":56},{"user_id":745,"name":"Opigufyt","steam_id":76561198016838575,"connected_time":2979000000000,"state":"active","ping":38},{"user_id":758,"name":"king k rool","steam_id":76561199179040672,"connected_time":2011000000000,"state":"active","ping":49},{"user_id":740,"name":"george","steam_id":76561198443632133,"connected_time":3407000000000,"state":"active","ping":106},{"user_id":689,"name":"gamerweed5","steam_id":76561198087651151,"connected_time":9054000000000,"state":"active","ping":35}]},{"server_id":320,"name":"Uncletopia | London | 3 | All Maps","name_short":"lon-3","host":"lon-1.uk.uncletopia.com","port":27035,"enabled":true,"region":"eu","cc":"gb","latitude":51.509865,"longitude":-0.118092,"reserved":0,"last_update":"0001-01-01T00:00:00Z","name_a2s":"Uncletopia | London | 3 | All Maps","protocol":17,"map":"pl_frontier_final","folder":"tf","game":"Team Fortress","app_id":440,"player_count":0,"max_players":24,"Bots":0,"server_type":"Dedicated","server_os":"Linux","password":true,"vac":true,"version":"7961495","steam_id":85568392924510192,"keywords":["nocrits","nodmgspread","payload","uncletopia"],"game_id":440,"stv_port":27036,"stv_name":"Uncletopia | London | 3 | All Maps | STV","players":null},{"server_id":321,"name":"Uncletopia | London | 4 | All Maps","name_short":"lon-4","host":"lon-1.uk.uncletopia.com","port":27045,"enabled":true,"region":"eu","cc":"gb","latitude":51.509865,"longitude":-0.118092,"reserved":0,"last_update":"0001-01-01T00:00:00Z","name_a2s":"Uncletopia | London | 4 | All Maps","protocol":17,"map":"koth_highpass","folder":"tf","game":"Team Fortress","app_id":440,"player_count":0,"max_players":24,"Bots":0,"server_type":"Dedicated","server_os":"Linux","password":true,"vac":true,"version":"7961495","steam_id":85568392924510193,"keywords":["cp","nocrits","nodmgspread","uncletopia"],"game_id":440,"stv_port":27046,"stv_name":"Uncletopia | London | 4 | All Maps | STV","players":null},{"server_id":21,"name":"Uncletopia | London | 5 | All Maps","name_short":"lon-5","host":"lon-1.uk.uncletopia.com","port":27055,"enabled":true,"region":"eu","cc":"gb","latitude":51.509865,"longitude":-0.118092,"reserved":0,"last_update":"0001-01-01T00:00:00Z","name_a2s":"Uncletopia | London | 5 | All Maps","protocol":17,"map":"koth_viaduct","folder":"tf","game":"Team Fortress","app_id":440,"player_count":0,"max_players":24,"Bots":0,"server_type":"Dedicated","server_os":"Linux","password":true,"vac":true,"version":"7961495","steam_id":85568392924742829,"keywords":["cp","nocrits","nodmgspread","uncletopia"],"game_id":440,"stv_port":27056,"stv_name":"Uncletopia | London | 5 | All Maps | STV","players":null},{"server_id":22,"name":"Uncletopia | London | 6 | All Maps","name_short":"lon-6","host":"lon-1.uk.uncletopia.com","port":27065,"enabled":true,"region":"eu","cc":"gb","latitude":51.509865,"longitude":-0.118092,"reserved":0,"last_update":"0001-01-01T00:00:00Z","name_a2s":"Uncletopia | London | 6 | All Maps","protocol":17,"map":"cp_process_final","folder":"tf","game":"Team Fortress","app_id":440,"player_count":0,"max_players":24,"Bots":0,"server_type":"Dedicated","server_os":"Linux","password":true,"vac":true,"version":"7961495","steam_id":85568392924742830,"keywords":["cp","nocrits","nodmgspread","uncletopia"],"game_id":440,"stv_port":27066,"stv_name":"Uncletopia | London | 6 | All Maps | STV","players":null},{"server_id":40,"name":"Uncletopia | London | 7 | Stopwatch","name_short":"lon-7","host":"lon-1.uk.uncletopia.com","port":27075,"enabled":true,"region":"eu","cc":"gb","latitude":51.509865,"longitude":-0.118092,"reserved":0,"last_update":"0001-01-01T00:00:00Z","name_a2s":"Uncletopia | London | 7 | Stopwatch","protocol":17,"map":"pl_upward","folder":"tf","game":"Team Fortress","app_id":440,"player_count":0,"max_players":24,"Bots":0,"server_type":"Dedicated","server_os":"Linux","password":true,"vac":true,"version":"7961495","steam_id":85568392924964314,"keywords":["nocrits","nodmgspread","payload","uncletopia"],"game_id":440,"stv_port":27076,"stv_name":"Uncletopia | London | 7 | Stopwatch | STV","players":null},{"server_id":41,"name":"Uncletopia | London | 8 | Community","name_short":"lon-8","host":"lon-1.uk.uncletopia.com","port":27085,"enabled":true,"region":"eu","cc":"gb","latitude":51.509865,"longitude":-0.118092,"reserved":0,"last_update":"0001-01-01T00:00:00Z","name_a2s":"Uncletopia | London | 8 | Community","protocol":17,"map":"workshop/koth_bagel_rc6.ugc2514036946","folder":"tf","game":"Team Fortress","app_id":440,"player_count":0,"max_players":24,"Bots":0,"server_type":"Dedicated","server_os":"Linux","password":true,"vac":true,"version":"7961495","steam_id":85568392924964315,"keywords":["cp","nocrits","nodmgspread","uncletopia"],"game_id":440,"stv_port":27086,"stv_name":"Uncletopia | London | 8 | Community | STV","players":null},{"server_id":300,"name":"Uncletopia | Montréal | 1 | One Thousand Uncles","name_short":"mtl-1","host":"mtl-1.ca.uncletopia.com","port":27015,"enabled":true,"region":"us-east","cc":"ca","latitude":45.50889,"longitude":-73.56167,"reserved":0,"last_update":"0001-01-01T00:00:00Z","name_a2s":"","protocol":0,"map":"","folder":"","game":"","app_id":0,"player_count":0,"max_players":0,"Bots":0,"server_type":"","server_os":"","password":false,"vac":false,"version":"","steam_id":0,"keywords":null,"game_id":0,"stv_port":0,"stv_name":"","players":null},{"server_id":301,"name":"Uncletopia | Montréal | 2 | One Thousand Uncles","name_short":"mtl-2","host":"mtl-1.ca.uncletopia.com","port":27025,"enabled":true,"region":"us-east","cc":"ca","latitude":45.50889,"longitude":-73.56167,"reserved":0,"last_update":"0001-01-01T00:00:00Z","name_a2s":"","protocol":0,"map":"","folder":"","game":"","app_id":0,"player_count":0,"max_players":0,"Bots":0,"server_type":"","server_os":"","password":false,"vac":false,"version":"","steam_id":0,"keywords":null,"game_id":0,"stv_port":0,"stv_name":"","players":null},{"server_id":302,"name":"Uncletopia | Montréal | 3 | One Thousand Uncles","name_short":"mtl-3","host":"mtl-1.ca.uncletopia.com","port":27035,"enabled":true,"region":"us-east","cc":"ca","latitude":45.50889,"longitude":-73.56167,"reserved":0,"last_update":"0001-01-01T00:00:00Z","name_a2s":"","protocol":0,"map":"","folder":"","game":"","app_id":0,"player_count":3,"max_players":0,"Bots":0,"server_type":"","server_os":"","password":false,"vac":false,"version":"","steam_id":0,"keywords":null,"game_id":0,"stv_port":0,"stv_name":"","players":[{"user_id":393,"name":"St. Michael","steam_id":76561198037611052,"connected_time":3246000000000,"state":"active","ping":78},{"user_id":281,"name":"Captian Wobbs","steam_id":76561198142884936,"connected_time":11351000000000,"state":"active","ping":84},{"user_id":411,"name":"Soldie","steam_id":76561198118414372,"connected_time":2580000000000,"state":"active","ping":79}]},{"server_id":13,"name":"Uncletopia | New York City | 1 | All Maps","name_short":"nyc-1","host":"nyc-1.us.uncletopia.com","port":27015,"enabled":true,"region":"us-east","cc":"us","latitude":40.73061,"longitude":-73.93524,"reserved":0,"last_update":"0001-01-01T00:00:00Z","name_a2s":"Uncletopia | New York City | 1 | All Maps","protocol":17,"map":"cp_mountainlab","folder":"tf","game":"Team Fortress","app_id":440,"player_count":24,"max_players":24,"Bots":0,"server_type":"Dedicated","server_os":"Linux","password":true,"vac":true,"version":"7961495","steam_id":85568392924469993,"keywords":["cp","nocrits","nodmgspread","uncletopia"],"game_id":440,"stv_port":27016,"stv_name":"Uncletopia | New York City | 1 | All Maps | STV","players":[{"user_id":541,"name":"Gamba","steam_id":76561198069264650,"connected_time":308000000000,"state":"active","ping":84},{"user_id":502,"name":"Big Bill Haywood","steam_id":76561198142290733,"connected_time":3517000000000,"state":"active","ping":55},{"user_id":537,"name":"Scoob","steam_id":76561198078633301,"connected_time":825000000000,"state":"active","ping":47},{"user_id":542,"name":"king julian","steam_id":76561198119651530,"connected_time":279000000000,"state":"active","ping":50},{"user_id":526,"name":"laaghice","steam_id":76561198274021552,"connected_time":1353000000000,"state":"active","ping":101},{"user_id":512,"name":"King of Ping","steam_id":76561198278737470,"connected_time":2598000000000,"state":"active","ping":55},{"user_id":548,"name":"Shrimp Fried Rice","steam_id":76561198247688228,"connected_time":19000000000,"state":"spawning","ping":64},{"user_id":543,"name":"Sinta","steam_id":76561198098398841,"connected_time":277000000000,"state":"active","ping":48},{"user_id":517,"name":"klo.e","steam_id":76561198061808492,"connected_time":2326000000000,"state":"active","ping":59},{"user_id":505,"name":"Tri_Hunter","steam_id":76561198108176706,"connected_time":3483000000000,"state":"active","ping":50},{"user_id":547,"name":"Soupy Meal","steam_id":76561199056842761,"connected_time":79000000000,"state":"active","ping":120},{"user_id":432,"name":"Voracious Puma","steam_id":76561197963621649,"connected_time":9070000000000,"state":"active","ping":86},{"user_id":496,"name":"Bewen","steam_id":76561198325334261,"connected_time":3964000000000,"state":"active","ping":39},{"user_id":527,"name":"Mongoose","steam_id":76561198020361641,"connected_time":1347000000000,"state":"active","ping":149},{"user_id":531,"name":"Curly","steam_id":76561198052659818,"connected_time":1205000000000,"state":"active","ping":91},{"user_id":544,"name":"Echo","steam_id":76561198072092594,"connected_time":274000000000,"state":"active","ping":68},{"user_id":488,"name":"Meskoozy","steam_id":76561198102394479,"connected_time":4653000000000,"state":"active","ping":85},{"user_id":427,"name":"Brawns","steam_id":76561198045190199,"connected_time":9960000000000,"state":"active","ping":60},{"user_id":545,"name":"do you like beans?","steam_id":76561199184000745,"connected_time":257000000000,"state":"active","ping":145},{"user_id":494,"name":"Samrizo el Chorizo","steam_id":76561198009838162,"connected_time":4391000000000,"state":"active","ping":53},{"user_id":546,"name":"goodheartchris","steam_id":76561198045836210,"connected_time":251000000000,"state":"active","ping":77},{"user_id":532,"name":"TTV Hunter","steam_id":76561198115812405,"connected_time":1183000000000,"state":"active","ping":70},{"user_id":521,"name":"xX$VV@G_R3@P3R_$3X_$1\u0026Y3R_2008X","steam_id":76561198207215752,"connected_time":2186000000000,"state":"active","ping":74},{"user_id":510,"name":"GaydsIdit","steam_id":76561198827963575,"connected_time":2846000000000,"state":"active","ping":52}]},{"server_id":14,"name":"Uncletopia | New York City | 2 | All Maps","name_short":"nyc-2","host":"nyc-1.us.uncletopia.com","port":27025,"enabled":true,"region":"us-east","cc":"us","latitude":40.73061,"longitude":-73.93524,"reserved":0,"last_update":"0001-01-01T00:00:00Z","name_a2s":"Uncletopia | New York City | 2 | All Maps","protocol":17,"map":"pl_badwater","folder":"tf","game":"Team Fortress","app_id":440,"player_count":24,"max_players":24,"Bots":0,"server_type":"Dedicated","server_os":"Linux","password":true,"vac":true,"version":"7961495","steam_id":85568392924469994,"keywords":["nocrits","nodmgspread","payload","uncletopia"],"game_id":440,"stv_port":27026,"stv_name":"Uncletopia | New York City | 2 | All Maps | STV","players":[{"user_id":421,"name":"WaywardFinn","steam_id":76561198040391296,"connected_time":1252000000000,"state":"active","ping":69},{"user_id":417,"name":"ndvr","steam_id":76561199379200102,"connected_time":2793000000000,"state":"active","ping":41},{"user_id":331,"name":"YesMargaret","steam_id":76561198127971751,"connected_time":10285000000000,"state":"active","ping":75},{"user_id":419,"name":"♦♣Quadric♥♠","steam_id":76561198061003853,"connected_time":2557000000000,"state":"active","ping":54},{"user_id":418,"name":"A Puppy","steam_id":76561198828184456,"connected_time":2786000000000,"state":"active","ping":45},{"user_id":416,"name":"Servaos","steam_id":76561198113244990,"connected_time":2839000000000,"state":"active","ping":69},{"user_id":432,"name":"Spoingbob","steam_id":76561198040748520,"connected_time":516000000000,"state":"active","ping":62},{"user_id":422,"name":"Hellbound","steam_id":76561198319648930,"connected_time":1246000000000,"state":"active","ping":81},{"user_id":423,"name":"Unknownassassin0","steam_id":76561198969985854,"connected_time":1240000000000,"state":"active","ping":78},{"user_id":340,"name":"kmochi","steam_id":76561198023391988,"connected_time":9840000000000,"state":"active","ping":74},{"user_id":439,"name":"st3shk4a","steam_id":76561198025322638,"connected_time":129000000000,"state":"active","ping":69},{"user_id":376,"name":"Bobfleadip","steam_id":76561198043788642,"connected_time":6819000000000,"state":"active","ping":84},{"user_id":393,"name":"Lemoncurry","steam_id":76561198045356414,"connected_time":5076000000000,"state":"active","ping":89},{"user_id":424,"name":"FAKE TAXI PRANKS","steam_id":76561198136746987,"connected_time":1235000000000,"state":"active","ping":70},{"user_id":433,"name":"WardenCode","steam_id":76561198872023163,"connected_time":412000000000,"state":"active","ping":152},{"user_id":437,"name":"Cosmic Torgue","steam_id":76561198828724945,"connected_time":175000000000,"state":"active","ping":88},{"user_id":438,"name":"Hayden Jacobs","steam_id":76561198082200738,"connected_time":142000000000,"state":"active","ping":116},{"user_id":435,"name":"moeb","steam_id":76561197989281781,"connected_time":364000000000,"state":"active","ping":147},{"user_id":440,"name":"bengineer","steam_id":76561198171912174,"connected_time":104000000000,"state":"active","ping":118},{"user_id":346,"name":"Pokon","steam_id":76561198053113088,"connected_time":9600000000000,"state":"active","ping":74},{"user_id":442,"name":"The Annoying Alchemist","steam_id":76561198215704896,"connected_time":46000000000,"state":"active","ping":73},{"user_id":443,"name":"Asanez3","steam_id":76561198037381436,"connected_time":43000000000,"state":"active","ping":59},{"user_id":444,"name":"em0 cha0XD","steam_id":76561198100942212,"connected_time":29000000000,"state":"active","ping":80},{"user_id":446,"name":"Judge Judy and executioner","steam_id":76561198015235881,"connected_time":7000000000,"state":"active","ping":102}]},{"server_id":15,"name":"Uncletopia | New York City | 3 | Stopwatch","name_short":"nyc-3","host":"nyc-1.us.uncletopia.com","port":27035,"enabled":true,"region":"us-east","cc":"us","latitude":40.73061,"longitude":-73.93524,"reserved":0,"last_update":"0001-01-01T00:00:00Z","name_a2s":"Uncletopia | New York City | 3 | Stopwatch","protocol":17,"map":"pl_swiftwater_final1","folder":"tf","game":"Team Fortress","app_id":440,"player_count":0,"max_players":24,"Bots":0,"server_type":"Dedicated","server_os":"Linux","password":true,"vac":true,"version":"7961495","steam_id":85568392924742820,"keywords":["nocrits","nodmgspread","payload","uncletopia"],"game_id":440,"stv_port":27036,"stv_name":"Uncletopia | New York City | 3 | Stopwatch | STV","players":null},{"server_id":16,"name":"Uncletopia | New York City | 4 | Community","name_short":"nyc-4","host":"nyc-1.us.uncletopia.com","port":27045,"enabled":true,"region":"us-east","cc":"us","latitude":40.73061,"longitude":-73.93524,"reserved":0,"last_update":"0001-01-01T00:00:00Z","name_a2s":"Uncletopia | New York City | 4 | Community","protocol":17,"map":"workshop/koth_ramjam_rc1.ugc459778887","folder":"tf","game":"Team Fortress","app_id":440,"player_count":0,"max_players":24,"Bots":0,"server_type":"Dedicated","server_os":"Linux","password":true,"vac":true,"version":"7961495","steam_id":85568392924742821,"keywords":["cp","nocrits","nodmgspread","uncletopia"],"game_id":440,"stv_port":27046,"stv_name":"Uncletopia | New York City | 4 | Community | STV","players":null},{"server_id":142,"name":"Uncletopia | São Paulo | 1 | All Maps","name_short":"sao-1","host":"sao-1.br.uncletopia.com","port":27015,"enabled":true,"region":"sa","cc":"br","latitude":-23.533773,"longitude":-46.62529,"reserved":0,"last_update":"0001-01-01T00:00:00Z","name_a2s":"Uncletopia | São Paulo | 1 | All Maps","protocol":17,"map":"cp_dustbowl","folder":"tf","game":"Team Fortress","app_id":440,"player_count":0,"max_players":24,"Bots":0,"server_type":"Dedicated","server_os":"Linux","password":true,"vac":true,"version":"7961495","steam_id":85568392924469996,"keywords":["cp","nocrits","nodmgspread","uncletopia"],"game_id":440,"stv_port":27016,"stv_name":"Uncletopia | São Paulo | 1 | All Maps | STV","players":null},{"server_id":143,"name":"Uncletopia | São Paulo | 2 | Community","name_short":"sao-2","host":"sao-2.br.uncletopia.com","port":27015,"enabled":true,"region":"sa","cc":"br","latitude":-23.533773,"longitude":-46.62529,"reserved":0,"last_update":"0001-01-01T00:00:00Z","name_a2s":"Uncletopia | São Paulo | 2 | Community","protocol":17,"map":"workshop/koth_ramjam_rc1.ugc459778887","folder":"tf","game":"Team Fortress","app_id":440,"player_count":0,"max_players":24,"Bots":0,"server_type":"Dedicated","server_os":"Linux","password":true,"vac":true,"version":"7961495","steam_id":85568392924485349,"keywords":["cp","nocrits","nodmgspread","uncletopia"],"game_id":440,"stv_port":27016,"stv_name":"Uncletopia | São Paulo | 2 | Community | STV","players":null},{"server_id":7,"name":"Uncletopia | Seattle | 1 | All Maps","name_short":"sea-1","host":"sea-1.us.uncletopia.com","port":27015,"enabled":true,"region":"us-west","cc":"us","latitude":47.608013,"longitude":-122.33517,"reserved":0,"last_update":"0001-01-01T00:00:00Z","name_a2s":"Uncletopia | Seattle | 1 | All Maps","protocol":17,"map":"pl_snowycoast","folder":"tf","game":"Team Fortress","app_id":440,"player_count":24,"max_players":24,"Bots":0,"server_type":"Dedicated","server_os":"Linux","password":true,"vac":true,"version":"7961495","steam_id":85568392924469997,"keywords":["nocrits","nodmgspread","payload","uncletopia"],"game_id":440,"stv_port":27016,"stv_name":"Uncletopia | Seattle | 1 | All Maps | STV","players":[{"user_id":706,"name":"[TrC] Dackstrus","steam_id":76561197973518509,"connected_time":3989000000000,"state":"active","ping":60},{"user_id":669,"name":"Ayayayayayahuasca","steam_id":76561199002906056,"connected_time":8522000000000,"state":"active","ping":43},{"user_id":722,"name":"blest!","steam_id":76561198966232220,"connected_time":2678000000000,"state":"active","ping":56},{"user_id":742,"name":"KellyKapoor","steam_id":76561198040828123,"connected_time":672000000000,"state":"active","ping":53},{"user_id":714,"name":"Warlock","steam_id":76561199033164093,"connected_time":3329000000000,"state":"active","ping":49},{"user_id":709,"name":"[TrC] Nosy","steam_id":76561197978859310,"connected_time":3976000000000,"state":"active","ping":58},{"user_id":743,"name":"diamondskyir","steam_id":76561199223952268,"connected_time":627000000000,"state":"active","ping":32},{"user_id":739,"name":"HotHead","steam_id":76561198138468982,"connected_time":983000000000,"state":"active","ping":34},{"user_id":744,"name":"mohamy_19","steam_id":76561198075833698,"connected_time":612000000000,"state":"active","ping":80},{"user_id":748,"name":"Skabbety","steam_id":76561198168044257,"connected_time":258000000000,"state":"active","ping":37},{"user_id":641,"name":"Hindmost","steam_id":76561199081837220,"connected_time":10061000000000,"state":"active","ping":98},{"user_id":710,"name":"NEBULA","steam_id":76561198086878595,"connected_time":3973000000000,"state":"active","ping":76},{"user_id":741,"name":"mrow","steam_id":76561198171840525,"connected_time":680000000000,"state":"active","ping":53},{"user_id":749,"name":"pyrotechnic","steam_id":76561198043558709,"connected_time":237000000000,"state":"active","ping":46},{"user_id":672,"name":"The King of Piss World","steam_id":76561198082806956,"connected_time":8216000000000,"state":"active","ping":147},{"user_id":734,"name":"captain red","steam_id":76561198191587983,"connected_time":1708000000000,"state":"active","ping":75},{"user_id":726,"name":"Attrition","steam_id":76561197969881916,"connected_time":2233000000000,"state":"active","ping":60},{"user_id":747,"name":"Specter the Unchained","steam_id":76561198348354629,"connected_time":366000000000,"state":"active","ping":79},{"user_id":713,"name":"Subaru Outback","steam_id":76561197992007399,"connected_time":3405000000000,"state":"active","ping":51},{"user_id":719,"name":"Sniff","steam_id":76561198010270922,"connected_time":2881000000000,"state":"active","ping":60},{"user_id":733,"name":"rat gets the cheese","steam_id":76561198031234032,"connected_time":1736000000000,"state":"active","ping":100},{"user_id":689,"name":"soup","steam_id":76561198043209046,"connected_time":6496000000000,"state":"active","ping":65},{"user_id":728,"name":"CasemanTheBlondeBear","steam_id":76561198144862404,"connected_time":1935000000000,"state":"active","ping":53},{"user_id":699,"name":"soltuno","steam_id":76561198074430565,"connected_time":5313000000000,"state":"active","ping":82}]},{"server_id":119,"name":"Uncletopia | Seattle | 2 | All Maps","name_short":"sea-2","host":"sea-1.us.uncletopia.com","port":27025,"enabled":true,"region":"us-west","cc":"us","latitude":47.608013,"longitude":-122.33517,"reserved":0,"last_update":"0001-01-01T00:00:00Z","name_a2s":"Uncletopia | Seattle | 2 | All Maps","protocol":17,"map":"pl_snowycoast","folder":"tf","game":"Team Fortress","app_id":440,"player_count":24,"max_players":24,"Bots":0,"server_type":"Dedicated","server_os":"Linux","password":true,"vac":true,"version":"7961495","steam_id":85568392924469998,"keywords":["nocrits","nodmgspread","payload","uncletopia"],"game_id":440,"stv_port":27026,"stv_name":"Uncletopia | Seattle | 2 | All Maps | STV","players":[{"user_id":378,"name":"The Super Mario Bros. Movie","steam_id":76561198871692156,"connected_time":2276000000000,"state":"active","ping":80},{"user_id":400,"name":"BLANK3T [They/He femboy on THC]","steam_id":76561198028875624,"connected_time":872000000000,"state":"active","ping":57},{"user_id":402,"name":"Koopa Paratroopa","steam_id":76561198035448426,"connected_time":837000000000,"state":"active","ping":50},{"user_id":388,"name":"OneMisguidedSlyGuy","steam_id":76561198372243261,"connected_time":1819000000000,"state":"active","ping":70},{"user_id":396,"name":"Spicy Chicken","steam_id":76561198074209737,"connected_time":1469000000000,"state":"active","ping":90},{"user_id":290,"name":"a familiar cat","steam_id":76561198080046542,"connected_time":7482000000000,"state":"active","ping":46},{"user_id":387,"name":"Pre Pissed Pants","steam_id":76561198042143837,"connected_time":1847000000000,"state":"active","ping":71},{"user_id":409,"name":"Jovo","steam_id":76561197993265970,"connected_time":511000000000,"state":"active","ping":31},{"user_id":393,"name":"CashGordon","steam_id":76561197975594096,"connected_time":1673000000000,"state":"active","ping":45},{"user_id":404,"name":"Defeat","steam_id":76561198065203818,"connected_time":798000000000,"state":"active","ping":36},{"user_id":418,"name":"merlin","steam_id":76561198334511480,"connected_time":223000000000,"state":"active","ping":77},{"user_id":417,"name":"firulais","steam_id":76561198860460013,"connected_time":269000000000,"state":"active","ping":79},{"user_id":405,"name":"sleePI","steam_id":76561198450073779,"connected_time":783000000000,"state":"active","ping":45},{"user_id":394,"name":"dodecadron","steam_id":76561198027397222,"connected_time":1632000000000,"state":"active","ping":64},{"user_id":413,"name":"Nate","steam_id":76561198045186954,"connected_time":368000000000,"state":"active","ping":75},{"user_id":410,"name":"Captain Frank","steam_id":76561198802143478,"connected_time":449000000000,"state":"active","ping":82},{"user_id":399,"name":"Kayak","steam_id":76561198370429263,"connected_time":1000000000000,"state":"active","ping":147},{"user_id":412,"name":"NexFrost","steam_id":76561197985774837,"connected_time":385000000000,"state":"active","ping":91},{"user_id":414,"name":"Keamy","steam_id":76561199471434875,"connected_time":363000000000,"state":"active","ping":44},{"user_id":259,"name":"ilun","steam_id":76561198042913843,"connected_time":10485000000000,"state":"active","ping":52},{"user_id":415,"name":"Phytophis","steam_id":76561198039123895,"connected_time":351000000000,"state":"active","ping":45},{"user_id":50,"name":"Nom Skirrett","steam_id":76561198014600788,"connected_time":24678000000000,"state":"active","ping":75},{"user_id":416,"name":"«Dᵃʳᵏ.,,.Tᵉᵐᵖ»","steam_id":76561198018185884,"connected_time":350000000000,"state":"active","ping":43},{"user_id":398,"name":"DroidFreak36","steam_id":76561198028681032,"connected_time":1056000000000,"state":"active","ping":93}]},{"server_id":406,"name":"Uncletopia | Seattle | 3 | Stopwatch","name_short":"sea-3","host":"sea-1.us.uncletopia.com","port":27035,"enabled":true,"region":"us-west","cc":"us","latitude":47.608013,"longitude":-122.33517,"reserved":0,"last_update":"0001-01-01T00:00:00Z","name_a2s":"Uncletopia | Seattle | 3 | Stopwatch","protocol":17,"map":"workshop/koth_clearcut_b15.ugc2107050255","folder":"tf","game":"Team Fortress","app_id":440,"player_count":0,"max_players":24,"Bots":0,"server_type":"Dedicated","server_os":"Linux","password":true,"vac":true,"version":"7961495","steam_id":85568392924515217,"keywords":["cp","nocrits","nodmgspread","uncletopia"],"game_id":440,"stv_port":27036,"stv_name":"Uncletopia | Seattle | 3 | Stopwatch | STV","players":null},{"server_id":17,"name":"Uncletopia | San Francisco | 1 | All Maps","name_short":"sfo-1","host":"sfo-1.us.uncletopia.com","port":27015,"enabled":true,"region":"us-west","cc":"us","latitude":37.77397,"longitude":-122.4313,"reserved":0,"last_update":"0001-01-01T00:00:00Z","name_a2s":"Uncletopia | San Francisco | 1 | All Maps","protocol":17,"map":"pl_badwater","folder":"tf","game":"Team Fortress","app_id":440,"player_count":24,"max_players":24,"Bots":0,"server_type":"Dedicated","server_os":"Linux","password":true,"vac":true,"version":"7961495","steam_id":85568392924469999,"keywords":["nocrits","nodmgspread","payload","uncletopia"],"game_id":440,"stv_port":27016,"stv_name":"Uncletopia | San Francisco | 1 | All Maps | STV","players":[{"user_id":279,"name":"ohnocringe","steam_id":76561199381232082,"connected_time":2858000000000,"state":"active","ping":91},{"user_id":304,"name":"King","steam_id":76561199032040452,"connected_time":215000000000,"state":"active","ping":87},{"user_id":268,"name":"allahsdroptop","steam_id":76561198133195238,"connected_time":3231000000000,"state":"active","ping":58},{"user_id":305,"name":"Copy","steam_id":76561198025031590,"connected_time":206000000000,"state":"active","ping":74},{"user_id":252,"name":"Ralph Kramden (Slim Charles)","steam_id":76561197981687895,"connected_time":4876000000000,"state":"active","ping":68},{"user_id":286,"name":"panda","steam_id":76561198025214612,"connected_time":2209000000000,"state":"active","ping":72},{"user_id":299,"name":"wile","steam_id":76561198125261443,"connected_time":334000000000,"state":"active","ping":85},{"user_id":301,"name":"wdylm","steam_id":76561198206523304,"connected_time":308000000000,"state":"active","ping":71},{"user_id":278,"name":"EduardoLopez2005","steam_id":76561198188481309,"connected_time":2963000000000,"state":"active","ping":50},{"user_id":311,"name":"[BBC] myr","steam_id":76561198200786939,"connected_time":123000000000,"state":"active","ping":62},{"user_id":302,"name":"Irritated Duck","steam_id":76561198247792076,"connected_time":281000000000,"state":"active","ping":85},{"user_id":292,"name":"LIAM","steam_id":76561198324691143,"connected_time":1684000000000,"state":"active","ping":72},{"user_id":303,"name":"geekin and tweakin","steam_id":76561198095480838,"connected_time":276000000000,"state":"active","ping":60},{"user_id":306,"name":"blue duck the 2nd","steam_id":76561198263142765,"connected_time":203000000000,"state":"active","ping":127},{"user_id":296,"name":"Clorox Chugger 69","steam_id":76561198049508548,"connected_time":680000000000,"state":"active","ping":69},{"user_id":293,"name":"Petrivus","steam_id":76561198202152453,"connected_time":1556000000000,"state":"active","ping":73},{"user_id":265,"name":"Spaghettiguy6","steam_id":76561198261692989,"connected_time":3485000000000,"state":"active","ping":61},{"user_id":307,"name":"Antzen","steam_id":76561198041343470,"connected_time":199000000000,"state":"active","ping":45},{"user_id":246,"name":"Professor Sex","steam_id":76561198396414319,"connected_time":6160000000000,"state":"active","ping":60},{"user_id":308,"name":"Lawnmower","steam_id":76561198186680197,"connected_time":197000000000,"state":"active","ping":42},{"user_id":291,"name":"Cashmoney206","steam_id":76561198799288645,"connected_time":1757000000000,"state":"active","ping":80},{"user_id":309,"name":"Tideflat","steam_id":76561198179850851,"connected_time":189000000000,"state":"active","ping":81},{"user_id":310,"name":"for the king","steam_id":76561197973488858,"connected_time":189000000000,"state":"active","ping":91},{"user_id":313,"name":"Anthid","steam_id":76561198074493797,"connected_time":65000000000,"state":"active","ping":70}]},{"server_id":18,"name":"Uncletopia | San Francisco | 2 | All Maps","name_short":"sfo-2","host":"sfo-1.us.uncletopia.com","port":27025,"enabled":true,"region":"us-west","cc":"us","latitude":37.77397,"longitude":-122.4313,"reserved":0,"last_update":"0001-01-01T00:00:00Z","name_a2s":"Uncletopia | San Francisco | 2 | All Maps","protocol":17,"map":"pl_pier","folder":"tf","game":"Team Fortress","app_id":440,"player_count":24,"max_players":24,"Bots":0,"server_type":"Dedicated","server_os":"Linux","password":true,"vac":true,"version":"7961495","steam_id":85568392924470000,"keywords":["nocrits","nodmgspread","payload","uncletopia"],"game_id":440,"stv_port":27026,"stv_name":"Uncletopia | San Francisco | 2 | All Maps | STV","players":[{"user_id":238,"name":"i need to see your balls","steam_id":76561198168492250,"connected_time":574000000000,"state":"active","ping":58},{"user_id":240,"name":"Cookies","steam_id":76561199099061813,"connected_time":190000000000,"state":"active","ping":57},{"user_id":232,"name":"orangesuit1","steam_id":76561199020443017,"connected_time":1130000000000,"state":"active","ping":69},{"user_id":217,"name":"U ω U","steam_id":76561198118802562,"connected_time":2279000000000,"state":"active","ping":67},{"user_id":214,"name":"choochoo","steam_id":76561199122075275,"connected_time":2323000000000,"state":"active","ping":74},{"user_id":233,"name":"joly","steam_id":76561198999997811,"connected_time":879000000000,"state":"active","ping":65},{"user_id":244,"name":"postman","steam_id":76561198453203619,"connected_time":74000000000,"state":"active","ping":49},{"user_id":207,"name":":skull:","steam_id":76561199122005388,"connected_time":3003000000000,"state":"active","ping":54},{"user_id":216,"name":"H2OBourne","steam_id":76561198396293109,"connected_time":2303000000000,"state":"active","ping":103},{"user_id":239,"name":"enhanced with disney's FastPlay","steam_id":76561198164134387,"connected_time":442000000000,"state":"active","ping":76},{"user_id":228,"name":"Imabox","steam_id":76561199206177858,"connected_time":2009000000000,"state":"active","ping":70},{"user_id":219,"name":"Imabox's addiction therapist","steam_id":76561198208996573,"connected_time":2248000000000,"state":"active","ping":64},{"user_id":234,"name":"mwee machine","steam_id":76561198047126327,"connected_time":861000000000,"state":"active","ping":75},{"user_id":209,"name":"GarbbCan","steam_id":76561198927509821,"connected_time":2740000000000,"state":"active","ping":84},{"user_id":230,"name":"TüCold","steam_id":76561198111278197,"connected_time":1419000000000,"state":"active","ping":59},{"user_id":188,"name":"Choctoling","steam_id":76561198351622498,"connected_time":4371000000000,"state":"active","ping":49},{"user_id":242,"name":"Moleculemind","steam_id":76561198077788483,"connected_time":172000000000,"state":"active","ping":71},{"user_id":245,"name":"Johni3FireFly","steam_id":76561198089760607,"connected_time":54000000000,"state":"spawning","ping":68},{"user_id":195,"name":"Battle Bug","steam_id":76561198005793034,"connected_time":3956000000000,"state":"active","ping":65},{"user_id":243,"name":"base","steam_id":76561198046278452,"connected_time":164000000000,"state":"active","ping":75},{"user_id":236,"name":"Ronin","steam_id":76561198043400592,"connected_time":840000000000,"state":"active","ping":105},{"user_id":166,"name":"The Rock","steam_id":76561198433328517,"connected_time":6147000000000,"state":"active","ping":124},{"user_id":206,"name":"hypergressive","steam_id":76561198065860750,"connected_time":3150000000000,"state":"active","ping":57},{"user_id":225,"name":"alien","steam_id":76561198007464245,"connected_time":2173000000000,"state":"active","ping":105}]},{"server_id":19,"name":"Uncletopia | San Francisco | 3 | Stopwatch","name_short":"sfo-3","host":"sfo-1.us.uncletopia.com","port":27035,"enabled":true,"region":"us-west","cc":"us","latitude":37.77397,"longitude":-122.4313,"reserved":0,"last_update":"0001-01-01T00:00:00Z","name_a2s":"Uncletopia | San Francisco | 3 | Stopwatch","protocol":17,"map":"workshop/koth_ramjam_rc1.ugc459778887","folder":"tf","game":"Team Fortress","app_id":440,"player_count":0,"max_players":24,"Bots":0,"server_type":"Dedicated","server_os":"Linux","password":true,"vac":true,"version":"7961495","steam_id":85568392924742824,"keywords":["cp","nocrits","nodmgspread","uncletopia"],"game_id":440,"stv_port":27036,"stv_name":"Uncletopia | San Francisco | 3 | Stopwatch | STV","players":null},{"server_id":20,"name":"Uncletopia | San Francisco | 4 | Community","name_short":"sfo-4","host":"sfo-1.us.uncletopia.com","port":27045,"enabled":true,"region":"us-west","cc":"us","latitude":37.77397,"longitude":-122.4313,"reserved":0,"last_update":"0001-01-01T00:00:00Z","name_a2s":"Uncletopia | San Francisco | 4 | Community","protocol":17,"map":"workshop/koth_product_final.ugc454272353","folder":"tf","game":"Team Fortress","app_id":440,"player_count":0,"max_players":24,"Bots":0,"server_type":"Dedicated","server_os":"Linux","password":true,"vac":true,"version":"7961495","steam_id":85568392924742826,"keywords":["cp","nocrits","nodmgspread","uncletopia"],"game_id":440,"stv_port":27046,"stv_name":"Uncletopia | San Francisco | 4 | Community | STV","players":null},{"server_id":141,"name":"Uncletopia | Sydney | 1 | All Maps","name_short":"syd-1","host":"syd-1.au.uncletopia.com","port":27015,"enabled":true,"region":"au","cc":"au","latitude":-33.865143,"longitude":151.2099,"reserved":0,"last_update":"0001-01-01T00:00:00Z","name_a2s":"Uncletopia | Sydney | 1 | All Maps","protocol":17,"map":"koth_viaduct","folder":"tf","game":"Team Fortress","app_id":440,"player_count":0,"max_players":24,"Bots":0,"server_type":"Dedicated","server_os":"Linux","password":true,"vac":true,"version":"7961495","steam_id":85568392924470001,"keywords":["cp","nocrits","nodmgspread","uncletopia"],"game_id":440,"stv_port":27016,"stv_name":"Uncletopia | Sydney | 1 | All Maps | STV","players":null},{"server_id":123,"name":"Uncletopia | Sydney | 2 | All Maps","name_short":"syd-2","host":"syd-1.au.uncletopia.com","port":27025,"enabled":true,"region":"au","cc":"au","latitude":-33.865143,"longitude":151.2099,"reserved":0,"last_update":"0001-01-01T00:00:00Z","name_a2s":"Uncletopia | Sydney | 2 | All Maps","protocol":17,"map":"koth_lakeside_final","folder":"tf","game":"Team Fortress","app_id":440,"player_count":0,"max_players":24,"Bots":0,"server_type":"Dedicated","server_os":"Linux","password":true,"vac":true,"version":"7961495","steam_id":85568392924470002,"keywords":["cp","nocrits","nodmgspread","uncletopia"],"game_id":440,"stv_port":27026,"stv_name":"Uncletopia | Sydney | 2 | All Maps | STV","players":null},{"server_id":395,"name":"Uncletopia | Sydney | 3 | All Maps","name_short":"syd-3","host":"syd-1.au.uncletopia.com","port":27035,"enabled":true,"region":"au","cc":"au","latitude":-33.865143,"longitude":151.2099,"reserved":0,"last_update":"0001-01-01T00:00:00Z","name_a2s":"Uncletopia | Sydney | 3 | All Maps","protocol":17,"map":"pl_frontier_final","folder":"tf","game":"Team Fortress","app_id":440,"player_count":0,"max_players":24,"Bots":0,"server_type":"Dedicated","server_os":"Linux","password":true,"vac":true,"version":"7961495","steam_id":85568392925194467,"keywords":["nocrits","nodmgspread","payload","uncletopia"],"game_id":440,"stv_port":27036,"stv_name":"Uncletopia | Sydney | 3 | All Maps | STV","players":null},{"server_id":396,"name":"Uncletopia | Sydney | 4 | All Maps","name_short":"syd-4","host":"syd-1.au.uncletopia.com","port":27045,"enabled":true,"region":"au","cc":"au","latitude":-33.865143,"longitude":151.2099,"reserved":0,"last_update":"0001-01-01T00:00:00Z","name_a2s":"Uncletopia | Sydney | 4 | All Maps","protocol":17,"map":"cp_process_final","folder":"tf","game":"Team Fortress","app_id":440,"player_count":0,"max_players":24,"Bots":0,"server_type":"Dedicated","server_os":"Linux","password":true,"vac":true,"version":"7961495","steam_id":85568392925397958,"keywords":["cp","nocrits","nodmgspread","uncletopia"],"game_id":440,"stv_port":27046,"stv_name":"Uncletopia | Sydney | 4 | All Maps | STV","players":null},{"server_id":58,"name":"Uncletopia | Sydney | 5 | Stopwatch","name_short":"syd-5","host":"syd-1.au.uncletopia.com","port":27055,"enabled":true,"region":"au","cc":"au","latitude":-33.865143,"longitude":151.2099,"reserved":0,"last_update":"0001-01-01T00:00:00Z","name_a2s":"Uncletopia | Sydney | 5 | Stopwatch","protocol":17,"map":"pl_frontier_final","folder":"tf","game":"Team Fortress","app_id":440,"player_count":0,"max_players":24,"Bots":0,"server_type":"Dedicated","server_os":"Linux","password":true,"vac":true,"version":"7961495","steam_id":85568392925397959,"keywords":["nocrits","nodmgspread","payload","uncletopia"],"game_id":440,"stv_port":27056,"stv_name":"Uncletopia | Sydney | 5 | Stopwatch | STV","players":null},{"server_id":59,"name":"Uncletopia | Sydney | 6 | Community","name_short":"syd-6","host":"syd-1.au.uncletopia.com","port":27065,"enabled":true,"region":"au","cc":"au","latitude":-33.865143,"longitude":151.2099,"reserved":0,"last_update":"0001-01-01T00:00:00Z","name_a2s":"Uncletopia | Sydney | 6 | Community","protocol":17,"map":"workshop/cp_sulfur_rc2.ugc619869471","folder":"tf","game":"Team Fortress","app_id":440,"player_count":0,"max_players":24,"Bots":0,"server_type":"Dedicated","server_os":"Linux","password":true,"vac":true,"version":"7961495","steam_id":85568392925397960,"keywords":["cp","nocrits","nodmgspread","uncletopia"],"game_id":440,"stv_port":27066,"stv_name":"Uncletopia | Sydney | 6 | Community | STV","players":null},{"server_id":49,"name":"Uncletopia | Warsaw | 1 | One Thousand Uncles","name_short":"waw-1","host":"waw-1.pl.uncletopia.com","port":27015,"enabled":true,"region":"eu","cc":"pl","latitude":52.2297,"longitude":21.017532,"reserved":0,"last_update":"0001-01-01T00:00:00Z","name_a2s":"Uncletopia | Warsaw | 1 | One Thousand Uncles","protocol":17,"map":"koth_highpass","folder":"tf","game":"Team Fortress","app_id":440,"player_count":0,"max_players":32,"Bots":0,"server_type":"Dedicated","server_os":"Linux","password":true,"vac":true,"version":"7961495","steam_id":85568392925397850,"keywords":["alltalk","cp","danepve","increased_maxplayers","nocrits","norespawntime","uncletopia"],"game_id":440,"stv_port":0,"stv_name":"","players":null},{"server_id":50,"name":"Uncletopia | Warsaw | 2 | One Thousand Uncles","name_short":"waw-2","host":"waw-1.pl.uncletopia.com","port":27025,"enabled":true,"region":"eu","cc":"pl","latitude":52.2297,"longitude":21.017532,"reserved":0,"last_update":"0001-01-01T00:00:00Z","name_a2s":"Uncletopia | Warsaw | 2 | One Thousand Uncles","protocol":17,"map":"pl_goldrush","folder":"tf","game":"Team Fortress","app_id":440,"player_count":0,"max_players":32,"Bots":0,"server_type":"Dedicated","server_os":"Linux","password":true,"vac":true,"version":"7961495","steam_id":85568392925397851,"keywords":["alltalk","danepve","increased_maxplayers","nocrits","norespawntime","payload","uncletopia"],"game_id":440,"stv_port":0,"stv_name":"","players":null},{"server_id":51,"name":"Uncletopia | Warsaw | 3 | All Maps","name_short":"waw-3","host":"waw-1.pl.uncletopia.com","port":27035,"enabled":true,"region":"eu","cc":"pl","latitude":52.2297,"longitude":21.017532,"reserved":0,"last_update":"0001-01-01T00:00:00Z","name_a2s":"Uncletopia | Warsaw | 3 | All Maps","protocol":17,"map":"plr_pipeline","folder":"tf","game":"Team Fortress","app_id":440,"player_count":0,"max_players":24,"Bots":0,"server_type":"Dedicated","server_os":"Linux","password":true,"vac":true,"version":"7961495","steam_id":85568392925397852,"keywords":["nocrits","nodmgspread","payload","uncletopia"],"game_id":440,"stv_port":27036,"stv_name":"Uncletopia | Warsaw | 3 | All Maps | STV","players":null},{"server_id":52,"name":"Uncletopia | Warsaw | 4 | All Maps","name_short":"waw-4","host":"waw-1.pl.uncletopia.com","port":27045,"enabled":true,"region":"eu","cc":"pl","latitude":52.2297,"longitude":21.017532,"reserved":0,"last_update":"0001-01-01T00:00:00Z","name_a2s":"Uncletopia | Warsaw | 4 | All Maps","protocol":17,"map":"cp_coldfront","folder":"tf","game":"Team Fortress","app_id":440,"player_count":0,"max_players":24,"Bots":0,"server_type":"Dedicated","server_os":"Linux","password":true,"vac":true,"version":"7961495","steam_id":85568392925397853,"keywords":["cp","nocrits","nodmgspread","uncletopia"],"game_id":440,"stv_port":27046,"stv_name":"Uncletopia | Warsaw | 4 | All Maps | STV","players":null},{"server_id":53,"name":"Uncletopia | Warsaw | 5 | Stopwatch","name_short":"waw-5","host":"waw-1.pl.uncletopia.com","port":27055,"enabled":true,"region":"eu","cc":"pl","latitude":52.2297,"longitude":21.017532,"reserved":0,"last_update":"0001-01-01T00:00:00Z","name_a2s":"Uncletopia | Warsaw | 5 | Stopwatch","protocol":17,"map":"workshop/koth_bagel_rc6.ugc2514036946","folder":"tf","game":"Team Fortress","app_id":440,"player_count":0,"max_players":24,"Bots":0,"server_type":"Dedicated","server_os":"Linux","password":true,"vac":true,"version":"7961495","steam_id":85568392925397854,"keywords":["cp","nocrits","nodmgspread","uncletopia"],"game_id":440,"stv_port":27056,"stv_name":"Uncletopia | Warsaw | 5 | Stopwatch | STV","players":null},{"server_id":54,"name":"Uncletopia | Warsaw | 6 | Community","name_short":"waw-6","host":"waw-1.pl.uncletopia.com","port":27065,"enabled":true,"region":"eu","cc":"pl","latitude":52.2297,"longitude":21.017532,"reserved":0,"last_update":"0001-01-01T00:00:00Z","name_a2s":"Uncletopia | Warsaw | 6 | Community","protocol":17,"map":"workshop/pl_badwater_pro_v12.ugc2142942074","folder":"tf","game":"Team Fortress","app_id":440,"player_count":0,"max_players":24,"Bots":0,"server_type":"Dedicated","server_os":"Linux","password":true,"vac":true,"version":"7961495","steam_id":85568392925397856,"keywords":["nocrits","nodmgspread","payload","uncletopia"],"game_id":440,"stv_port":27066,"stv_name":"Uncletopia | Warsaw | 6 | Community | STV","players":null}]}