{"status":true,"message":"","result":[{"server_id":9,"name":"Uncletopia | Atlanta | 1 | All Maps","name_short":"atl-1","host":"atl-1.us.uncletopia.com","port":27015,"enabled":true,"region":"us-east","cc":"us","latitude":33.753746,"longitude":-84.38633,"reserved":0,"last_update":"0001-01-01T00:00:00Z","name_a2s":"Uncletopia | Atlanta | 1 | All Maps","protocol":17,"map":"pl_snowycoast","folder":"tf","game":"Team Fortress","app_id":440,"player_count":25,"max_players":24,"Bots":0,"server_type":"Dedicated","server_os":"Linux","password":true,"vac":true,"version":"7695204","steam_id":85568392924469982,"keywords":["nocrits","nodmgspread","payload","uncletopia"],"game_id":440,"stv_port":27016,"stv_name":"Uncletopia | Atlanta | 1 | All Maps | STV","players":[{"user_id":138,"name":"ATL1 | p4ka","steam_id":76561198315291317,"connected_time":836000000000,"state":"active","ping":70},{"user_id":103,"name":"Drygongames","steam_id":76561198250418424,"connected_time":3933000000000,"state":"active","ping":49},{"user_id":116,"name":"FancyBones","steam_id":76561198180198885,"connected_time":3338000000000,"state":"active","ping":68},{"user_id":109,"name":"Griffin","steam_id":76561198159339442,"connected_time":3618000000000,"state":"active","ping":94},{"user_id":145,"name":"Meatwad","steam_id":76561198803721236,"connected_time":349000000000,"state":"active","ping":63},{"user_id":129,"name":"boopis","steam_id":76561198422891994,"connected_time":2197000000000,"state":"active","ping":151},{"user_id":19,"name":"Abbashea","steam_id":76561199182136969,"connected_time":7379000000000,"state":"active","ping":97},{"user_id":20,"name":"froyo banny","steam_id":76561198331245460,"connected_time":7156000000000,"state":"active","ping":74},{"user_id":104,"name":"Eins","steam_id":76561199030343810,"connected_time":3914000000000,"state":"active","ping":43},{"user_id":130,"name":"krerdly truther","steam_id":76561198377555279,"connected_time":2180000000000,"state":"active","ping":65},{"user_id":117,"name":"BLOCKHEAD04","steam_id":76561198808224331,"connected_time":3303000000000,"state":"active","ping":125},{"user_id":135,"name":"Assilio","steam_id":76561198371102414,"connected_time":1610000000000,"state":"active","ping":61},{"user_id":136,"name":"p_picklelol","steam_id":76561198129434533,"connected_time":1419000000000,"state":"active","ping":67},{"user_id":144,"name":"floofy","steam_id":76561198389769098,"connected_time":553000000000,"state":"active","ping":82},{"user_id":126,"name":"Towns","steam_id":76561198984662863,"connected_time":2703000000000,"state":"active","ping":62},{"user_id":34,"name":"Talos","steam_id":76561198022362861,"connected_time":6552000000000,"state":"active","ping":63},{"user_id":142,"name":"wombgaming","steam_id":76561198063116981,"connected_time":578000000000,"state":"active","ping":83},{"user_id":137,"name":"sansa musa","steam_id":76561198163723555,"connected_time":1257000000000,"state":"active","ping":75},{"user_id":146,"name":"ehs","steam_id":76561198431048339,"connected_time":215000000000,"state":"active","ping":108},{"user_id":148,"name":"Bali","steam_id":76561198038693845,"connected_time":10000000000,"state":"spawning","ping":119},{"user_id":143,"name":"Toripollo","steam_id":76561198251665862,"connected_time":577000000000,"state":"active","ping":89},{"user_id":133,"name":"Jen Shine","steam_id":76561198127039453,"connected_time":2112000000000,"state":"active","ping":98},{"user_id":127,"name":"A_Malebolgia","steam_id":76561198097722818,"connected_time":2393000000000,"state":"active","ping":94},{"user_id":149,"name":"breather","steam_id":76561198135452478,"connected_time":9000000000,"state":"spawning","ping":113},{"user_id":89,"name":"Burilo","steam_id":76561198014445055,"connected_time":5035000000000,"state":"active","ping":167}]},{"server_id":400,"name":"Uncletopia | Atlanta | 3 | All Maps","name_short":"atl-3","host":"atl-1.us.uncletopia.com","port":27035,"enabled":true,"region":"us-east","cc":"us","latitude":33.753746,"longitude":-84.38633,"reserved":0,"last_update":"0001-01-01T00:00:00Z","name_a2s":"Uncletopia | Atlanta | 3 | All Maps","protocol":17,"map":"pl_frontier_final","folder":"tf","game":"Team Fortress","app_id":440,"player_count":0,"max_players":24,"Bots":0,"server_type":"Dedicated","server_os":"Linux","password":true,"vac":true,"version":"7695204","steam_id":85568392924515187,"keywords":["nocrits","nodmgspread","payload","uncletopia"],"game_id":440,"stv_port":0,"stv_name":"","players":null},{"server_id":401,"name":"Uncletopia | Atlanta | 4 | No Payload","name_short":"atl-4","host":"atl-1.us.uncletopia.com","port":27045,"enabled":true,"region":"us-east","cc":"us","latitude":33.753746,"longitude":-84.38633,"reserved":0,"last_update":"0001-01-01T00:00:00Z","name_a2s":"Uncletopia | Atlanta | 4 | No Payload","protocol":17,"map":"koth_harvest_final","folder":"tf","game":"Team Fortress","app_id":440,"player_count":0,"max_players":24,"Bots":0,"server_type":"Dedicated","server_os":"Linux","password":true,"vac":true,"version":"7695204","steam_id":85568392924515188,"keywords":["cp","nocrits","nodmgspread","uncletopia"],"game_id":440,"stv_port":27046,"stv_name":"Uncletopia | Atlanta | 4 | No Payload | STV","players":null},{"server_id":2,"name":"Uncletopia | Chicago | 1 | All Maps","name_short":"chi-1","host":"chi-1.us.uncletopia.com","port":27015,"enabled":true,"region":"us-central","cc":"us","latitude":41.881832,"longitude":-87.62318,"reserved":0,"last_update":"0001-01-01T00:00:00Z","name_a2s":"Uncletopia | Chicago | 1 | All Maps","protocol":17,"map":"pl_borneo","folder":"tf","game":"Team Fortress","app_id":440,"player_count":24,"max_players":24,"Bots":0,"server_type":"Dedicated","server_os":"Linux","password":true,"vac":true,"version":"7695204","steam_id":85568392924469984,"keywords":["nocrits","nodmgspread","payload","uncletopia"],"game_id":440,"stv_port":27016,"stv_name":"Uncletopia | Chicago | 1 | All Maps | STV","players":[{"user_id":152,"name":"Jackie_Lope","steam_id":76561198048297412,"connected_time":2757000000000,"state":"active","ping":56},{"user_id":159,"name":"Walmus","steam_id":76561198111416393,"connected_time":2635000000000,"state":"active","ping":87},{"user_id":148,"name":"gilgy","steam_id":76561198855810297,"connected_time":2918000000000,"state":"active","ping":78},{"user_id":160,"name":"Veir≈´ Viseris","steam_id":76561197989857176,"connected_time":2217000000000,"state":"active","ping":163},{"user_id":153,"name":"Le","steam_id":76561198817754233,"connected_time":2747000000000,"state":"active","ping":52},{"user_id":154,"name":"Bandit","steam_id":76561198328421159,"connected_time":2743000000000,"state":"active","ping":66},{"user_id":172,"name":"Xodium","steam_id":76561199009403605,"connected_time":611000000000,"state":"active","ping":72},{"user_id":168,"name":"Simmy","steam_id":76561198419501006,"connected_time":1145000000000,"state":"active","ping":95},{"user_id":167,"name":"Mallard","steam_id":76561198877447349,"connected_time":1486000000000,"state":"active","ping":88},{"user_id":132,"name":"Rornir","steam_id":76561198081829615,"connected_time":3916000000000,"state":"active","ping":37},{"user_id":163,"name":"Figro 2","steam_id":76561199141228637,"connected_time":1540000000000,"state":"active","ping":62},{"user_id":137,"name":"sammy","steam_id":76561199001307670,"connected_time":3888000000000,"state":"active","ping":100},{"user_id":124,"name":"Doctor Emerald(real)","steam_id":76561199123003872,"connected_time":4579000000000,"state":"active","ping":81},{"user_id":106,"name":"Odin","steam_id":76561199417970238,"connected_time":6065000000000,"state":"active","ping":154},{"user_id":165,"name":"Mixomin","steam_id":76561198295061570,"connected_time":1515000000000,"state":"active","ping":58},{"user_id":134,"name":"Argorat","steam_id":76561198353725622,"connected_time":3902000000000,"state":"active","ping":77},{"user_id":144,"name":"Uzai","steam_id":76561198142786404,"connected_time":3615000000000,"state":"active","ping":69},{"user_id":169,"name":"Ras","steam_id":76561198123546775,"connected_time":903000000000,"state":"active","ping":59},{"user_id":135,"name":"roller","steam_id":76561198091233439,"connected_time":3902000000000,"state":"active","ping":54},{"user_id":151,"name":"Comrade","steam_id":76561199056721863,"connected_time":2851000000000,"state":"active","ping":80},{"user_id":174,"name":"Winter the Witchie","steam_id":76561198151971178,"connected_time":304000000000,"state":"active","ping":52},{"user_id":175,"name":"Rukks","steam_id":76561197993918954,"connected_time":288000000000,"state":"active","ping":73},{"user_id":136,"name":"Jimothy","steam_id":76561198848110907,"connected_time":3896000000000,"state":"active","ping":72},{"user_id":166,"name":"giant_dork","steam_id":76561199105606956,"connected_time":1515000000000,"state":"active","ping":64}]},{"server_id":106,"name":"Uncletopia | Chicago | 2 | All Maps","name_short":"chi-2","host":"chi-1.us.uncletopia.com","port":27025,"enabled":true,"region":"us-central","cc":"us","latitude":41.881832,"longitude":-87.62318,"reserved":0,"last_update":"0001-01-01T00:00:00Z","name_a2s":"Uncletopia | Chicago | 2 | All Maps","protocol":17,"map":"pl_badwater","folder":"tf","game":"Team Fortress","app_id":440,"player_count":24,"max_players":24,"Bots":0,"server_type":"Dedicated","server_os":"Linux","password":true,"vac":true,"version":"7695204","steam_id":85568392924469985,"keywords":["nocrits","nodmgspread","payload","uncletopia"],"game_id":440,"stv_port":27026,"stv_name":"Uncletopia | Chicago | 2 | All Maps | STV","players":[{"user_id":42,"name":"solar light wannabe","steam_id":76561198886960554,"connected_time":1883000000000,"state":"active","ping":32},{"user_id":75,"name":"slimjim557","steam_id":76561199094710853,"connected_time":736000000000,"state":"active","ping":65},{"user_id":83,"name":"no","steam_id":76561198248853140,"connected_time":49000000000,"state":"active","ping":94},{"user_id":16,"name":"Nate","steam_id":76561198068225765,"connected_time":2395000000000,"state":"active","ping":62},{"user_id":80,"name":"Rein","steam_id":76561198300340427,"connected_time":405000000000,"state":"active","ping":61},{"user_id":76,"name":"Hemiphix","steam_id":76561198329316429,"connected_time":687000000000,"state":"active","ping":65},{"user_id":60,"name":"CapnKris22","steam_id":76561198049010994,"connected_time":1479000000000,"state":"active","ping":57},{"user_id":50,"name":"baguette","steam_id":76561198066048980,"connected_time":1611000000000,"state":"active","ping":40},{"user_id":71,"name":"pablo.gonzales.2004","steam_id":76561199217620385,"connected_time":1128000000000,"state":"active","ping":73},{"user_id":81,"name":"Temper","steam_id":76561198044123690,"connected_time":295000000000,"state":"active","ping":60},{"user_id":53,"name":"The Local Drug Dealer","steam_id":76561199147118923,"connected_time":1576000000000,"state":"active","ping":82},{"user_id":56,"name":"Rohi Mig","steam_id":76561198113623627,"connected_time":1513000000000,"state":"active","ping":58},{"user_id":44,"name":"Latmild","steam_id":76561198042549377,"connected_time":1831000000000,"state":"active","ping":80},{"user_id":57,"name":"coolkid #sextf2","steam_id":76561198072600034,"connected_time":1501000000000,"state":"active","ping":117},{"user_id":45,"name":"fortnite.jimmy.2014","steam_id":76561199177672325,"connected_time":1764000000000,"state":"active","ping":61},{"user_id":46,"name":"Billy Bong Thorton","steam_id":76561198075779335,"connected_time":1719000000000,"state":"active","ping":108},{"user_id":62,"name":"Ursus Ludius","steam_id":76561198025470722,"connected_time":1454000000000,"state":"active","ping":83},{"user_id":82,"name":"crippling fumo addiction","steam_id":76561198115874625,"connected_time":293000000000,"state":"active","ping":69},{"user_id":65,"name":"09ou7","steam_id":76561199440401458,"connected_time":1361000000000,"state":"active","ping":167},{"user_id":74,"name":"Jr Rolly","steam_id":76561199060340794,"connected_time":970000000000,"state":"active","ping":107},{"user_id":67,"name":"Motreir","steam_id":76561198151717946,"connected_time":1303000000000,"state":"active","ping":80},{"user_id":68,"name":"TaintedCap","steam_id":76561199115792397,"connected_time":1282000000000,"state":"active","ping":74},{"user_id":73,"name":"‚ö°Mr.Muff ·Éö‡πä","steam_id":76561198217103553,"connected_time":1066000000000,"state":"active","ping":67},{"user_id":79,"name":"spaceman rooki","steam_id":76561198355396766,"connected_time":618000000000,"state":"active","ping":111}]},{"server_id":402,"name":"Uncletopia | Chicago | 3 | All Maps","name_short":"chi-3","host":"chi-1.us.uncletopia.com","port":27035,"enabled":true,"region":"us-central","cc":"us","latitude":41.881832,"longitude":-87.62318,"reserved":0,"last_update":"0001-01-01T00:00:00Z","name_a2s":"Uncletopia | Chicago | 3 | All Maps","protocol":17,"map":"pl_badwater","folder":"tf","game":"Team Fortress","app_id":440,"player_count":0,"max_players":24,"Bots":0,"server_type":"Dedicated","server_os":"Linux","password":true,"vac":true,"version":"7695204","steam_id":85568392924515191,"keywords":["nocrits","nodmgspread","payload","uncletopia"],"game_id":440,"stv_port":27036,"stv_name":"Uncletopia | Chicago | 3 | All Maps | STV","players":null},{"server_id":403,"name":"Uncletopia | Chicago | 4 | All Maps","name_short":"chi-4","host":"chi-1.us.uncletopia.com","port":27045,"enabled":true,"region":"us-central","cc":"us","latitude":41.881832,"longitude":-87.62318,"reserved":0,"last_update":"0001-01-01T00:00:00Z","name_a2s":"Uncletopia | Chicago | 4 | All Maps","protocol":17,"map":"pl_chilly","folder":"tf","game":"Team Fortress","app_id":440,"player_count":24,"max_players":24,"Bots":0,"server_type":"Dedicated","server_os":"Linux","password":true,"vac":true,"version":"7695204","steam_id":85568392924515193,"keywords":["nocrits","nodmgspread","payload","uncletopia"],"game_id":440,"stv_port":27046,"stv_name":"Uncletopia | Chicago | 4 | All Maps | STV","players":[{"user_id":6,"name":"motorized bar of soap","steam_id":76561198882404753,"connected_time":6551000000000,"state":"active","ping":80},{"user_id":66,"name":"festive delky","steam_id":76561198035504258,"connected_time":2388000000000,"state":"active","ping":70},{"user_id":74,"name":"PeopleOrderOurPatties","steam_id":76561198323144922,"connected_time":1611000000000,"state":"active","ping":49},{"user_id":97,"name":"slurpcoin","steam_id":76561198086615208,"connected_time":69000000000,"state":"active","ping":54},{"user_id":84,"name":"Spaceboy Zero","steam_id":76561198171087158,"connected_time":1028000000000,"state":"active","ping":68},{"user_id":81,"name":"ùñóùñçùñî","steam_id":76561198840405572,"connected_time":1286000000000,"state":"active","ping":71},{"user_id":23,"name":"John Darksoul","steam_id":76561198031675881,"connected_time":5420000000000,"state":"active","ping":46},{"user_id":91,"name":"yaldabaoth","steam_id":76561198084606869,"connected_time":163000000000,"state":"active","ping":43},{"user_id":80,"name":"imaginatorisdreaming","steam_id":76561199384832492,"connected_time":1363000000000,"state":"active","ping":104},{"user_id":79,"name":"Ta5K","steam_id":76561198939558155,"connected_time":1476000000000,"state":"active","ping":45},{"user_id":93,"name":"Candy Sparkles","steam_id":76561198126871264,"connected_time":149000000000,"state":"active","ping":77},{"user_id":98,"name":"Hydrus","steam_id":76561198190469854,"connected_time":58000000000,"state":"active","ping":75},{"user_id":57,"name":"Krono","steam_id":76561198263071902,"connected_time":3109000000000,"state":"active","ping":137},{"user_id":95,"name":"Christoph Waltz eating a burger","steam_id":76561199215811448,"connected_time":127000000000,"state":"active","ping":67},{"user_id":87,"name":"Bottle","steam_id":76561198044031558,"connected_time":930000000000,"state":"active","ping":64},{"user_id":88,"name":"party rock velk.ca","steam_id":76561198272403721,"connected_time":817000000000,"state":"active","ping":95},{"user_id":38,"name":"GRONT","steam_id":76561198040464533,"connected_time":5004000000000,"state":"active","ping":65},{"user_id":99,"name":"Renecup","steam_id":76561199021666883,"connected_time":46000000000,"state":"active","ping":59},{"user_id":69,"name":"Lady Duckland","steam_id":76561198077092840,"connected_time":2306000000000,"state":"active","ping":48},{"user_id":90,"name":"Poopnutz","steam_id":76561198407577922,"connected_time":520000000000,"state":"active","ping":77},{"user_id":53,"name":"Dunmaglass","steam_id":76561198128928443,"connected_time":4134000000000,"state":"active","ping":66},{"user_id":94,"name":"floppy muppet","steam_id":76561198003076261,"connected_time":144000000000,"state":"active","ping":82},{"user_id":63,"name":"Mattron1","steam_id":76561198012270524,"connected_time":2674000000000,"state":"active","ping":66},{"user_id":96,"name":"Chimpish","steam_id":76561199263493270,"connected_time":123000000000,"state":"active","ping":89}]},{"server_id":36,"name":"Uncletopia | Chicago | 5 | All Maps","name_short":"chi-5","host":"chi-2.us.uncletopia.com","port":27015,"enabled":true,"region":"us-central","cc":"us","latitude":41.881832,"longitude":-87.62318,"reserved":0,"last_update":"0001-01-01T00:00:00Z","name_a2s":"Uncletopia | Chicago | 5 | All Maps","protocol":17,"map":"pl_borneo","folder":"tf","game":"Team Fortress","app_id":440,"player_count":0,"max_players":24,"Bots":0,"server_type":"Dedicated","server_os":"Linux","password":true,"vac":true,"version":"7695204","steam_id":85568392924866362,"keywords":["nocrits","nodmgspread","payload","uncletopia"],"game_id":440,"stv_port":27016,"stv_name":"Uncletopia | Chicago | 5 | All Maps | STV","players":null},{"server_id":37,"name":"Uncletopia | Chicago | 6 | All Maps","name_short":"chi-6","host":"chi-2.us.uncletopia.com","port":27025,"enabled":true,"region":"us-central","cc":"us","latitude":41.881832,"longitude":-87.62318,"reserved":0,"last_update":"0001-01-01T00:00:00Z","name_a2s":"Uncletopia | Chicago | 6 | All Maps","protocol":17,"map":"pl_upward","folder":"tf","game":"Team Fortress","app_id":440,"player_count":24,"max_players":24,"Bots":0,"server_type":"Dedicated","server_os":"Linux","password":true,"vac":true,"version":"7695204","steam_id":85568392924866363,"keywords":["nocrits","nodmgspread","payload","uncletopia"],"game_id":440,"stv_port":27026,"stv_name":"Uncletopia | Chicago | 6 | All Maps | STV","players":[{"user_id":30,"name":"nemesis","steam_id":76561198115050507,"connected_time":782000000000,"state":"active","ping":63},{"user_id":16,"name":"Pyro Named Finger","steam_id":76561198354798324,"connected_time":2188000000000,"state":"active","ping":82},{"user_id":19,"name":"Grease monkey","steam_id":76561199229169396,"connected_time":1796000000000,"state":"active","ping":63},{"user_id":18,"name":"aimboat","steam_id":76561198218131923,"connected_time":2104000000000,"state":"active","ping":60},{"user_id":20,"name":"The World's Softest Sandwich","steam_id":76561198015577707,"connected_time":1476000000000,"state":"active","ping":76},{"user_id":21,"name":"bustam0v","steam_id":76561198062001355,"connected_time":1435000000000,"state":"active","ping":84},{"user_id":22,"name":"Quick-Fix Fan","steam_id":76561198872845740,"connected_time":1268000000000,"state":"active","ping":65},{"user_id":25,"name":"Dr.Eggman","steam_id":76561198070858815,"connected_time":1069000000000,"state":"active","ping":59},{"user_id":33,"name":"A 7th level kobold ranger","steam_id":76561198060342804,"connected_time":586000000000,"state":"active","ping":73},{"user_id":26,"name":"Fresh Lychee","steam_id":76561198045399559,"connected_time":987000000000,"state":"active","ping":57},{"user_id":28,"name":"SmissmasGamer","steam_id":76561198144049265,"connected_time":863000000000,"state":"active","ping":62},{"user_id":29,"name":"matt thong","steam_id":76561198273714368,"connected_time":862000000000,"state":"active","ping":95},{"user_id":31,"name":"TuckMan321","steam_id":76561198171690594,"connected_time":748000000000,"state":"active","ping":66},{"user_id":32,"name":"Rashin","steam_id":76561198154010198,"connected_time":743000000000,"state":"active","ping":60},{"user_id":34,"name":"Phillip Jeffries","steam_id":76561198064052174,"connected_time":557000000000,"state":"active","ping":66},{"user_id":35,"name":"GrittyEggs","steam_id":76561199177185664,"connected_time":555000000000,"state":"active","ping":75},{"user_id":36,"name":"Just one more thing","steam_id":76561198268225109,"connected_time":526000000000,"state":"active","ping":86},{"user_id":37,"name":"Depression Generator","steam_id":76561199027576969,"connected_time":514000000000,"state":"active","ping":161},{"user_id":38,"name":"Nasteen27","steam_id":76561199159513164,"connected_time":512000000000,"state":"active","ping":84},{"user_id":39,"name":"Dreamzapp","steam_id":76561199084936632,"connected_time":499000000000,"state":"active","ping":112},{"user_id":40,"name":"ww","steam_id":76561198088564990,"connected_time":494000000000,"state":"active","ping":96},{"user_id":41,"name":"Skittlez","steam_id":76561198299660707,"connected_time":480000000000,"state":"active","ping":76},{"user_id":44,"name":"stop","steam_id":76561198268686419,"connected_time":462000000000,"state":"active","ping":47},{"user_id":43,"name":"Kebab","steam_id":76561199075899115,"connected_time":474000000000,"state":"active","ping":102}]},{"server_id":38,"name":"Uncletopia | Chicago | 7 | No Payload","name_short":"chi-7","host":"chi-2.us.uncletopia.com","port":27035,"enabled":true,"region":"us-central","cc":"us","latitude":41.881832,"longitude":-87.62318,"reserved":0,"last_update":"0001-01-01T00:00:00Z","name_a2s":"Uncletopia | Chicago | 7 | No Payload","protocol":17,"map":"cp_altitude","folder":"tf","game":"Team Fortress","app_id":440,"player_count":0,"max_players":24,"Bots":0,"server_type":"Dedicated","server_os":"Linux","password":true,"vac":true,"version":"7695204","steam_id":85568392924866364,"keywords":["cp","nocrits","nodmgspread","uncletopia"],"game_id":440,"stv_port":0,"stv_name":"","players":null},{"server_id":39,"name":"Uncletopia | Chicago | 8 | Community","name_short":"chi-8","host":"chi-2.us.uncletopia.com","port":27045,"enabled":true,"region":"us-central","cc":"us","latitude":41.881832,"longitude":-87.62318,"reserved":0,"last_update":"0001-01-01T00:00:00Z","name_a2s":"Uncletopia | Chicago | 8 | Community","protocol":17,"map":"cp_altitude","folder":"tf","game":"Team Fortress","app_id":440,"player_count":0,"max_players":24,"Bots":0,"server_type":"Dedicated","server_os":"Linux","password":true,"vac":true,"version":"7695204","steam_id":85568392924866365,"keywords":["cp","nocrits","nodmgspread","uncletopia"],"game_id":440,"stv_port":0,"stv_name":"","players":null},{"server_id":8,"name":"Uncletopia | Dallas | 1 | All Maps","name_short":"dal-1","host":"dal-1.us.uncletopia.com","port":27015,"enabled":true,"region":"us-central","cc":"us","latitude":32.779167,"longitude":-96.80889,"reserved":0,"last_update":"0001-01-01T00:00:00Z","name_a2s":"Uncletopia | Dallas | 1 | All Maps","protocol":17,"map":"pl_badwater","folder":"tf","game":"Team Fortress","app_id":440,"player_count":24,"max_players":24,"Bots":0,"server_type":"Dedicated","server_os":"Linux","password":true,"vac":true,"version":"7695204","steam_id":85568392924469986,"keywords":["nocrits","nodmgspread","payload","uncletopia"],"game_id":440,"stv_port":27016,"stv_name":"Uncletopia | Dallas | 1 | All Maps | STV","players":[{"user_id":302,"name":"teatimesukka","steam_id":76561198978749594,"connected_time":768000000000,"state":"active","ping":34},{"user_id":286,"name":"Duo34","steam_id":76561198000464258,"connected_time":2115000000000,"state":"active","ping":99},{"user_id":279,"name":"The Animated Gamer","steam_id":76561198120639995,"connected_time":3089000000000,"state":"active","ping":73},{"user_id":297,"name":"NoU(f2p)","steam_id":76561198973344727,"connected_time":1474000000000,"state":"active","ping":44},{"user_id":301,"name":"TriM","steam_id":76561198048332533,"connected_time":981000000000,"state":"active","ping":64},{"user_id":296,"name":"EMG","steam_id":76561197965885715,"connected_time":1495000000000,"state":"active","ping":82},{"user_id":304,"name":"You Don't Nomi.","steam_id":76561197969137836,"connected_time":343000000000,"state":"active","ping":84},{"user_id":308,"name":"beans","steam_id":76561199132406388,"connected_time":313000000000,"state":"active","ping":101},{"user_id":287,"name":"Tenma","steam_id":76561198296557689,"connected_time":2091000000000,"state":"active","ping":80},{"user_id":305,"name":"Bingus Gaming","steam_id":76561198035619419,"connected_time":339000000000,"state":"active","ping":93},{"user_id":298,"name":"Sigiferd","steam_id":76561198148788110,"connected_time":1237000000000,"state":"active","ping":126},{"user_id":310,"name":"Lemur","steam_id":76561198065300466,"connected_time":162000000000,"state":"active","ping":97},{"user_id":311,"name":"krie","steam_id":76561198018564445,"connected_time":67000000000,"state":"active","ping":60},{"user_id":309,"name":"grape","steam_id":76561197993980328,"connected_time":279000000000,"state":"active","ping":117},{"user_id":283,"name":"Luna","steam_id":76561198075944196,"connected_time":2616000000000,"state":"active","ping":65},{"user_id":307,"name":"nohsh","steam_id":76561199072965326,"connected_time":317000000000,"state":"active","ping":74},{"user_id":291,"name":"Nespreco","steam_id":76561198252035336,"connected_time":2064000000000,"state":"active","ping":100},{"user_id":281,"name":"Snakeye3490","steam_id":76561198197060503,"connected_time":2888000000000,"state":"active","ping":54},{"user_id":151,"name":"can you feel my 12-gauge slug","steam_id":76561198809577048,"connected_time":12901000000000,"state":"active","ping":106},{"user_id":280,"name":"Yakts","steam_id":76561198115044159,"connected_time":2902000000000,"state":"active","ping":83},{"user_id":204,"name":"–≥—Ä—É—Å—Ç–Ω—ã–π","steam_id":76561198274550638,"connected_time":9212000000000,"state":"active","ping":59},{"user_id":299,"name":"CSharp","steam_id":76561199185191710,"connected_time":1098000000000,"state":"active","ping":137},{"user_id":300,"name":"Vazquez Perez","steam_id":76561199185750989,"connected_time":1085000000000,"state":"active","ping":94},{"user_id":293,"name":"Brahan","steam_id":76561198024629210,"connected_time":2035000000000,"state":"active","ping":93}]},{"server_id":108,"name":"Uncletopia | Dallas | 2 | All Maps","name_short":"dal-2","host":"dal-1.us.uncletopia.com","port":27025,"enabled":true,"region":"us-central","cc":"us","latitude":32.779167,"longitude":-96.80889,"reserved":0,"last_update":"0001-01-01T00:00:00Z","name_a2s":"Uncletopia | Dallas | 2 | All Maps","protocol":17,"map":"pl_upward","folder":"tf","game":"Team Fortress","app_id":440,"player_count":24,"max_players":24,"Bots":0,"server_type":"Dedicated","server_os":"Linux","password":true,"vac":true,"version":"7695204","steam_id":85568392924469988,"keywords":["nocrits","nodmgspread","payload","uncletopia"],"game_id":440,"stv_port":27026,"stv_name":"Uncletopia | Dallas | 2 | All Maps | STV","players":[{"user_id":67,"name":"4d4","steam_id":76561198402360789,"connected_time":700000000000,"state":"active","ping":79},{"user_id":46,"name":"ohio bad :(","steam_id":76561198139776307,"connected_time":2295000000000,"state":"active","ping":79},{"user_id":72,"name":"Dripless The Poor","steam_id":76561198090546454,"connected_time":600000000000,"state":"active","ping":75},{"user_id":11,"name":"John16Mark","steam_id":76561198119445407,"connected_time":3424000000000,"state":"active","ping":63},{"user_id":66,"name":"Western_dragon","steam_id":76561198130456105,"connected_time":752000000000,"state":"active","ping":80},{"user_id":68,"name":"American freedom bird","steam_id":76561198366142388,"connected_time":671000000000,"state":"active","ping":83},{"user_id":14,"name":"The Hamburger Helper","steam_id":76561199043015346,"connected_time":3167000000000,"state":"active","ping":68},{"user_id":61,"name":"President Mocha","steam_id":76561198072769262,"connected_time":1238000000000,"state":"active","ping":90},{"user_id":69,"name":"Error404:_Skill_Not_Found","steam_id":76561198006184904,"connected_time":644000000000,"state":"active","ping":65},{"user_id":20,"name":"My controller broke","steam_id":76561198157280577,"connected_time":2983000000000,"state":"active","ping":49},{"user_id":18,"name":"pink","steam_id":76561198032220545,"connected_time":3086000000000,"state":"active","ping":68},{"user_id":47,"name":"Wso1123","steam_id":76561198048040111,"connected_time":2156000000000,"state":"active","ping":70},{"user_id":63,"name":"Sharp Shooter","steam_id":76561198358600512,"connected_time":1004000000000,"state":"active","ping":84},{"user_id":77,"name":"Rick Assley","steam_id":76561198365019199,"connected_time":83000000000,"state":"active","ping":82},{"user_id":73,"name":"hypochondriac","steam_id":76561198077260471,"connected_time":588000000000,"state":"active","ping":68},{"user_id":25,"name":"The Figgler","steam_id":76561198168295944,"connected_time":2847000000000,"state":"active","ping":67},{"user_id":74,"name":"ExoNovas","steam_id":76561198992657440,"connected_time":578000000000,"state":"active","ping":68},{"user_id":53,"name":"aeugh!!!!","steam_id":76561198175955138,"connected_time":1744000000000,"state":"active","ping":89},{"user_id":71,"name":"pleroma","steam_id":76561199065645094,"connected_time":629000000000,"state":"active","ping":71},{"user_id":60,"name":"MrPibbZero","steam_id":76561198104384449,"connected_time":1587000000000,"state":"active","ping":72},{"user_id":48,"name":"Weegeee","steam_id":76561198049000586,"connected_time":2154000000000,"state":"active","ping":63},{"user_id":75,"name":"Ghost of pl_frontier","steam_id":76561198040444697,"connected_time":565000000000,"state":"active","ping":80},{"user_id":78,"name":"An00bis","steam_id":76561198044084508,"connected_time":79000000000,"state":"active","ping":61},{"user_id":45,"name":"Jazztral","steam_id":76561198067827514,"connected_time":2299000000000,"state":"active","ping":41}]},{"server_id":5,"name":"Uncletopia | Frankfurt | 1 | All Maps","name_short":"frk-1","host":"frk-1.de.uncletopia.com","port":27015,"enabled":true,"region":"eu","cc":"de","latitude":50.110924,"longitude":8.682127,"reserved":0,"last_update":"0001-01-01T00:00:00Z","name_a2s":"Uncletopia | Frankfurt | 1 | All Maps","protocol":17,"map":"pl_barnblitz","folder":"tf","game":"Team Fortress","app_id":440,"player_count":24,"max_players":24,"Bots":0,"server_type":"Dedicated","server_os":"Linux","password":true,"vac":true,"version":"7695204","steam_id":85568392924469989,"keywords":["nocrits","nodmgspread","payload","uncletopia"],"game_id":440,"stv_port":27016,"stv_name":"Uncletopia | Frankfurt | 1 | All Maps | STV","players":[{"user_id":504,"name":"cosmo kramer, lord of the manor","steam_id":76561198074979596,"connected_time":702000000000,"state":"active","ping":78},{"user_id":510,"name":"dafydd","steam_id":76561198052200325,"connected_time":486000000000,"state":"active","ping":75},{"user_id":501,"name":"hotdog","steam_id":76561198044465070,"connected_time":975000000000,"state":"active","ping":89},{"user_id":487,"name":"JustmemeIt","steam_id":76561198960562114,"connected_time":1707000000000,"state":"active","ping":78},{"user_id":440,"name":"jorj3821","steam_id":76561198844794367,"connected_time":4279000000000,"state":"active","ping":61},{"user_id":493,"name":"jmp","steam_id":76561198168283286,"connected_time":1469000000000,"state":"active","ping":75},{"user_id":505,"name":"Maya","steam_id":76561198031587210,"connected_time":692000000000,"state":"active","ping":141},{"user_id":482,"name":"Alegz","steam_id":76561198287810139,"connected_time":2189000000000,"state":"active","ping":56},{"user_id":417,"name":"7blak ‚ôø","steam_id":76561198078928120,"connected_time":5010000000000,"state":"active","ping":79},{"user_id":463,"name":"sharkmax12312","steam_id":76561198996008569,"connected_time":2863000000000,"state":"active","ping":73},{"user_id":511,"name":"hippo mode","steam_id":76561198073455521,"connected_time":301000000000,"state":"active","ping":121},{"user_id":499,"name":"Wardruna96","steam_id":76561199057083828,"connected_time":1134000000000,"state":"active","ping":69},{"user_id":476,"name":"Serton‚ôù","steam_id":76561198011061126,"connected_time":2383000000000,"state":"active","ping":95},{"user_id":494,"name":"Georgey","steam_id":76561198222878612,"connected_time":1446000000000,"state":"active","ping":76},{"user_id":467,"name":"Brinnck","steam_id":76561198340776600,"connected_time":2808000000000,"state":"active","ping":55},{"user_id":480,"name":"Malin743","steam_id":76561198057290934,"connected_time":2246000000000,"state":"active","ping":92},{"user_id":508,"name":"aychar","steam_id":76561198033695429,"connected_time":561000000000,"state":"active","ping":58},{"user_id":485,"name":"Max","steam_id":76561198021865328,"connected_time":1976000000000,"state":"active","ping":98},{"user_id":509,"name":"HelwiiHill","steam_id":76561198066730552,"connected_time":556000000000,"state":"active","ping":89},{"user_id":497,"name":"ppppppppppppppppppppppppppppppp","steam_id":76561199232442508,"connected_time":1361000000000,"state":"active","ping":75},{"user_id":484,"name":"Check your posture!","steam_id":76561198097466136,"connected_time":2079000000000,"state":"active","ping":61},{"user_id":506,"name":"francesco","steam_id":76561198028226779,"connected_time":687000000000,"state":"active","ping":60},{"user_id":517,"name":"twitch/auratf2","steam_id":76561197988085026,"connected_time":152000000000,"state":"active","ping":69},{"user_id":457,"name":"weezer green album","steam_id":76561198863788240,"connected_time":2935000000000,"state":"active","ping":83}]},{"server_id":110,"name":"Uncletopia | Frankfurt | 2 | All Maps","name_short":"frk-2","host":"frk-1.de.uncletopia.com","port":27025,"enabled":true,"region":"eu","cc":"de","latitude":50.110924,"longitude":8.682127,"reserved":0,"last_update":"0001-01-01T00:00:00Z","name_a2s":"Uncletopia | Frankfurt | 2 | All Maps","protocol":17,"map":"pl_barnblitz","folder":"tf","game":"Team Fortress","app_id":440,"player_count":6,"max_players":24,"Bots":0,"server_type":"Dedicated","server_os":"Linux","password":true,"vac":true,"version":"7695204","steam_id":85568392924469990,"keywords":["nocrits","nodmgspread","payload","uncletopia"],"game_id":440,"stv_port":27026,"stv_name":"Uncletopia | Frankfurt | 2 | All Maps | STV","players":[{"user_id":26,"name":"galaxy","steam_id":76561198164819022,"connected_time":4088000000000,"state":"active","ping":64},{"user_id":28,"name":"DSL","steam_id":76561198186770547,"connected_time":3494000000000,"state":"active","ping":87},{"user_id":36,"name":"Truegr","steam_id":76561198811912339,"connected_time":881000000000,"state":"active","ping":61},{"user_id":40,"name":"Boyka_32","steam_id":76561199247580780,"connected_time":518000000000,"state":"active","ping":81},{"user_id":38,"name":"Seangle","steam_id":76561199001586218,"connected_time":613000000000,"state":"active","ping":135},{"user_id":41,"name":"MC LARGE DRINK","steam_id":76561199385781845,"connected_time":385000000000,"state":"active","ping":78}]},{"server_id":308,"name":"Uncletopia | Frankfurt | 3 | All Maps","name_short":"frk-3","host":"frk-1.de.uncletopia.com","port":27035,"enabled":true,"region":"eu","cc":"de","latitude":50.110924,"longitude":8.682127,"reserved":0,"last_update":"0001-01-01T00:00:00Z","name_a2s":"Uncletopia | Frankfurt | 3 | All Maps","protocol":17,"map":"pl_swiftwater_final1","folder":"tf","game":"Team Fortress","app_id":440,"player_count":24,"max_players":24,"Bots":0,"server_type":"Dedicated","server_os":"Linux","password":true,"vac":true,"version":"7695204","steam_id":85568392924504274,"keywords":["nocrits","nodmgspread","payload","uncletopia"],"game_id":440,"stv_port":27036,"stv_name":"Uncletopia | Frankfurt | 3 | All Maps | STV","players":[{"user_id":392,"name":"45 Cent","steam_id":76561198048690188,"connected_time":520000000000,"state":"active","ping":141},{"user_id":343,"name":"Mr. Mundy","steam_id":76561198132008918,"connected_time":3750000000000,"state":"active","ping":73},{"user_id":391,"name":"Gut","steam_id":76561198081207148,"connected_time":822000000000,"state":"active","ping":60},{"user_id":370,"name":"Bloody","steam_id":76561198030548310,"connected_time":2099000000000,"state":"active","ping":50},{"user_id":393,"name":"Kotlet schabowy","steam_id":76561198048983509,"connected_time":504000000000,"state":"active","ping":73},{"user_id":388,"name":"X45Y","steam_id":76561198112534025,"connected_time":1210000000000,"state":"active","ping":45},{"user_id":395,"name":"Antimation","steam_id":76561198125649544,"connected_time":473000000000,"state":"active","ping":60},{"user_id":396,"name":"Spaenny","steam_id":76561198035850165,"connected_time":437000000000,"state":"active","ping":46},{"user_id":400,"name":"sexy cactus","steam_id":76561198315718088,"connected_time":358000000000,"state":"active","ping":92},{"user_id":399,"name":"pandeux","steam_id":76561198343527617,"connected_time":366000000000,"state":"active","ping":52},{"user_id":295,"name":"101000100 pRODUCTIONS","steam_id":76561198052092018,"connected_time":6915000000000,"state":"active","ping":54},{"user_id":326,"name":"Hexagon","steam_id":76561198151205758,"connected_time":5423000000000,"state":"active","ping":50},{"user_id":336,"name":"angel","steam_id":76561198121408313,"connected_time":4459000000000,"state":"active","ping":71},{"user_id":401,"name":"just a cat","steam_id":76561198328023740,"connected_time":357000000000,"state":"active","ping":51},{"user_id":402,"name":"society","steam_id":76561198214848887,"connected_time":314000000000,"state":"active","ping":67},{"user_id":376,"name":"dems","steam_id":76561198122546674,"connected_time":2027000000000,"state":"active","ping":58},{"user_id":334,"name":"Ustinius","steam_id":76561199021142826,"connected_time":4983000000000,"state":"active","ping":89},{"user_id":355,"name":"0xDEADBEEF","steam_id":76561199075416111,"connected_time":3306000000000,"state":"active","ping":77},{"user_id":360,"name":"osvaldo","steam_id":76561198088600319,"connected_time":2723000000000,"state":"active","ping":45},{"user_id":381,"name":"Koli","steam_id":76561197992428783,"connected_time":1658000000000,"state":"active","ping":45},{"user_id":384,"name":"player","steam_id":76561198054474684,"connected_time":1578000000000,"state":"active","ping":73},{"user_id":390,"name":"Emil","steam_id":76561198033205384,"connected_time":1118000000000,"state":"active","ping":60},{"user_id":359,"name":":)","steam_id":76561198039964082,"connected_time":2736000000000,"state":"active","ping":61},{"user_id":362,"name":"nicco","steam_id":76561198046217866,"connected_time":2417000000000,"state":"active","ping":44}]},{"server_id":309,"name":"Uncletopia | Frankfurt | 4 | All Maps","name_short":"frk-4","host":"frk-1.de.uncletopia.com","port":27045,"enabled":true,"region":"eu","cc":"de","latitude":50.110924,"longitude":8.682127,"reserved":0,"last_update":"0001-01-01T00:00:00Z","name_a2s":"Uncletopia | Frankfurt | 4 | All Maps","protocol":17,"map":"pl_frontier_final","folder":"tf","game":"Team Fortress","app_id":440,"player_count":24,"max_players":24,"Bots":0,"server_type":"Dedicated","server_os":"Linux","password":true,"vac":true,"version":"7695204","steam_id":85568392924504275,"keywords":["nocrits","nodmgspread","payload","uncletopia"],"game_id":440,"stv_port":27046,"stv_name":"Uncletopia | Frankfurt | 4 | All Maps | STV","players":[{"user_id":298,"name":"Mr. Sandman","steam_id":76561198281209867,"connected_time":582000000000,"state":"active","ping":59},{"user_id":295,"name":"Greed","steam_id":76561198034264020,"connected_time":641000000000,"state":"active","ping":120},{"user_id":285,"name":"Average polish citizen","steam_id":76561198062107879,"connected_time":1237000000000,"state":"active","ping":78},{"user_id":261,"name":"Common polish hood dweller","steam_id":76561198126524735,"connected_time":3065000000000,"state":"active","ping":68},{"user_id":241,"name":"K≈ôest in the chest","steam_id":76561198981766281,"connected_time":3983000000000,"state":"active","ping":75},{"user_id":294,"name":"Moe Jama","steam_id":76561198021676997,"connected_time":675000000000,"state":"active","ping":80},{"user_id":299,"name":"uNem0_","steam_id":76561198836442412,"connected_time":544000000000,"state":"active","ping":92},{"user_id":300,"name":"Saihtama","steam_id":76561198067497192,"connected_time":542000000000,"state":"active","ping":60},{"user_id":312,"name":"ApplePieAlive","steam_id":76561198396695859,"connected_time":95000000000,"state":"active","ping":61},{"user_id":248,"name":"leaf eater","steam_id":76561198083359604,"connected_time":3603000000000,"state":"active","ping":58},{"user_id":301,"name":"Luo Lang","steam_id":76561197988802856,"connected_time":498000000000,"state":"active","ping":55},{"user_id":302,"name":"F1nny ‚ô°","steam_id":76561199041640689,"connected_time":447000000000,"state":"active","ping":203},{"user_id":303,"name":"DOMAIN","steam_id":76561199095640319,"connected_time":433000000000,"state":"active","ping":73},{"user_id":286,"name":"Taktikfuchs","steam_id":76561198055326196,"connected_time":1200000000000,"state":"active","ping":66},{"user_id":304,"name":"wyromas","steam_id":76561199176835169,"connected_time":360000000000,"state":"active","ping":64},{"user_id":305,"name":"WUTVILLESWEEP!!","steam_id":76561199012165476,"connected_time":351000000000,"state":"active","ping":131},{"user_id":288,"name":"Ablativus","steam_id":76561198025698470,"connected_time":1087000000000,"state":"active","ping":74},{"user_id":308,"name":"MyAssOnFire","steam_id":76561199086565388,"connected_time":264000000000,"state":"active","ping":53},{"user_id":293,"name":"Rinz01Asami","steam_id":76561198330437261,"connected_time":717000000000,"state":"active","ping":103},{"user_id":307,"name":"Jesse Pinkman","steam_id":76561198153488940,"connected_time":290000000000,"state":"active","ping":64},{"user_id":309,"name":"pugsbest35","steam_id":76561199206349947,"connected_time":215000000000,"state":"active","ping":168},{"user_id":310,"name":"xXIceShocked88Xx","steam_id":76561199239298320,"connected_time":159000000000,"state":"active","ping":74},{"user_id":311,"name":"Sneaky boi","steam_id":76561199195985387,"connected_time":133000000000,"state":"active","ping":87},{"user_id":254,"name":"Pico","steam_id":76561198063552545,"connected_time":3431000000000,"state":"active","ping":96}]},{"server_id":310,"name":"Uncletopia | Frankfurt | 5 | All Maps","name_short":"frk-5","host":"frk-1.de.uncletopia.com","port":27055,"enabled":true,"region":"eu","cc":"de","latitude":50.110924,"longitude":8.682127,"reserved":0,"last_update":"0001-01-01T00:00:00Z","name_a2s":"Uncletopia | Frankfurt | 5 | All Maps","protocol":17,"map":"pl_frontier_final","folder":"tf","game":"Team Fortress","app_id":440,"player_count":9,"max_players":24,"Bots":0,"server_type":"Dedicated","server_os":"Linux","password":true,"vac":true,"version":"7695204","steam_id":85568392924504277,"keywords":["nocrits","nodmgspread","payload","uncletopia"],"game_id":440,"stv_port":27056,"stv_name":"Uncletopia | Frankfurt | 5 | All Maps | STV","players":[{"user_id":245,"name":"Numbe","steam_id":76561198269614930,"connected_time":214000000000,"state":"active","ping":89},{"user_id":233,"name":"Bancsli (Help me pls)","steam_id":76561198144783422,"connected_time":1340000000000,"state":"active","ping":70},{"user_id":224,"name":"WarpdriveEngineer","steam_id":76561198073530973,"connected_time":1607000000000,"state":"active","ping":143},{"user_id":246,"name":"Senator Armstrong","steam_id":76561198984346408,"connected_time":57000000000,"state":"active","ping":68},{"user_id":240,"name":"DFB_712","steam_id":76561198203071853,"connected_time":897000000000,"state":"active","ping":158},{"user_id":241,"name":"better call selo","steam_id":76561198976793469,"connected_time":613000000000,"state":"active","ping":89},{"user_id":234,"name":"Nostradamus","steam_id":76561198349792686,"connected_time":1172000000000,"state":"active","ping":62},{"user_id":228,"name":"Rwqriuwm","steam_id":76561199143232222,"connected_time":1529000000000,"state":"active","ping":91},{"user_id":243,"name":"prof.chaos","steam_id":76561197976357862,"connected_time":383000000000,"state":"active","ping":52}]},{"server_id":311,"name":"Uncletopia | Frankfurt | 6 | All Maps","name_short":"frk-6","host":"frk-1.de.uncletopia.com","port":27065,"enabled":true,"region":"eu","cc":"de","latitude":50.110924,"longitude":8.682127,"reserved":0,"last_update":"0001-01-01T00:00:00Z","name_a2s":"Uncletopia | Frankfurt | 6 | All Maps","protocol":17,"map":"cp_process_final","folder":"tf","game":"Team Fortress","app_id":440,"player_count":23,"max_players":24,"Bots":0,"server_type":"Dedicated","server_os":"Linux","password":true,"vac":true,"version":"7695204","steam_id":85568392924504278,"keywords":["cp","nocrits","nodmgspread","uncletopia"],"game_id":440,"stv_port":27066,"stv_name":"Uncletopia | Frankfurt | 6 | All Maps | STV","players":[{"user_id":166,"name":"Standingo","steam_id":76561198035642311,"connected_time":63000000000,"state":"active","ping":92},{"user_id":167,"name":"outin","steam_id":76561198137734730,"connected_time":59000000000,"state":"active","ping":94},{"user_id":161,"name":"triple!!!","steam_id":76561198119449463,"connected_time":175000000000,"state":"active","ping":62},{"user_id":169,"name":"ablexx","steam_id":76561199112671611,"connected_time":25000000000,"state":"active","ping":67},{"user_id":162,"name":"RogatiyZhuk","steam_id":76561199386822589,"connected_time":134000000000,"state":"active","ping":74},{"user_id":152,"name":"AI38 Blackspider","steam_id":76561198038862355,"connected_time":335000000000,"state":"active","ping":76},{"user_id":92,"name":"Maximalsound","steam_id":76561198068246502,"connected_time":4928000000000,"state":"active","ping":58},{"user_id":159,"name":"Shalade","steam_id":76561198009279278,"connected_time":230000000000,"state":"active","ping":75},{"user_id":141,"name":"I don't enjoy this game","steam_id":76561198347336086,"connected_time":1002000000000,"state":"active","ping":60},{"user_id":151,"name":"fentanyl.overdose.ohio.2021","steam_id":76561198133341026,"connected_time":358000000000,"state":"active","ping":90},{"user_id":158,"name":"Dr.Sees [F2P]","steam_id":76561199219233587,"connected_time":253000000000,"state":"active","ping":75},{"user_id":170,"name":"Morlo","steam_id":76561198249301650,"connected_time":16000000000,"state":"active","ping":39},{"user_id":171,"name":"Nithle","steam_id":76561198025372740,"connected_time":13000000000,"state":"active","ping":79},{"user_id":155,"name":"MeowMaster","steam_id":76561198284605819,"connected_time":304000000000,"state":"active","ping":90},{"user_id":172,"name":"Jonathan Toenail","steam_id":76561198134665611,"connected_time":0,"state":"connecting","ping":0},{"user_id":160,"name":"AwesomeUsername","steam_id":76561198025140116,"connected_time":204000000000,"state":"active","ping":78},{"user_id":133,"name":"Chl3p","steam_id":76561198149092886,"connected_time":1866000000000,"state":"active","ping":83},{"user_id":116,"name":"Zerfesh","steam_id":76561198117534358,"connected_time":3120000000000,"state":"active","ping":108},{"user_id":100,"name":"Kurage","steam_id":76561198021221288,"connected_time":4223000000000,"state":"active","ping":60},{"user_id":163,"name":"Outcast_","steam_id":76561199122744740,"connected_time":128000000000,"state":"active","ping":147},{"user_id":168,"name":"Panzerwaffle","steam_id":76561198030382800,"connected_time":55000000000,"state":"active","ping":65},{"user_id":132,"name":"Dr.Dag","steam_id":76561198301430910,"connected_time":1872000000000,"state":"active","ping":67},{"user_id":165,"name":"Kaboob","steam_id":76561199121870665,"connected_time":104000000000,"state":"active","ping":150}]},{"server_id":23,"name":"Uncletopia | Frankfurt | 7 | No Payload","name_short":"frk-7","host":"frk-1.de.uncletopia.com","port":27075,"enabled":true,"region":"eu","cc":"de","latitude":50.110924,"longitude":8.682127,"reserved":0,"last_update":"0001-01-01T00:00:00Z","name_a2s":"Uncletopia | Frankfurt | 7 | No Payload","protocol":17,"map":"koth_badlands","folder":"tf","game":"Team Fortress","app_id":440,"player_count":0,"max_players":24,"Bots":0,"server_type":"Dedicated","server_os":"Linux","password":true,"vac":true,"version":"7695204","steam_id":85568392924742827,"keywords":["cp","nocrits","nodmgspread","uncletopia"],"game_id":440,"stv_port":27076,"stv_name":"Uncletopia | Frankfurt | 7 | No Payload | STV","players":null},{"server_id":24,"name":"Uncletopia | Frankfurt | 8 | Community","name_short":"frk-8","host":"frk-1.de.uncletopia.com","port":27085,"enabled":true,"region":"eu","cc":"de","latitude":50.110924,"longitude":8.682127,"reserved":0,"last_update":"0001-01-01T00:00:00Z","name_a2s":"Uncletopia | Frankfurt | 8 | Community","protocol":17,"map":"koth_lakeside_final","folder":"tf","game":"Team Fortress","app_id":440,"player_count":0,"max_players":24,"Bots":0,"server_type":"Dedicated","server_os":"Linux","password":true,"vac":true,"version":"7695204","steam_id":85568392924742828,"keywords":["cp","nocrits","nodmgspread","uncletopia"],"game_id":440,"stv_port":0,"stv_name":"","players":null},{"server_id":202,"name":"Uncletopia | Hong Kong | 1 | All Maps","name_short":"hgk-1","host":"hgk-1.hk.uncletopia.com","port":27015,"enabled":true,"region":"asia","cc":"hk","latitude":22.302711,"longitude":114.177216,"reserved":0,"last_update":"0001-01-01T00:00:00Z","name_a2s":"Uncletopia | Hong Kong | 1 | All Maps","protocol":17,"map":"cp_sunshine","folder":"tf","game":"Team Fortress","app_id":440,"player_count":0,"max_players":24,"Bots":0,"server_type":"Dedicated","server_os":"Linux","password":true,"vac":true,"version":"7695204","steam_id":85568392924494504,"keywords":["cp","nocrits","nodmgspread","uncletopia"],"game_id":440,"stv_port":27016,"stv_name":"Uncletopia | Hong Kong | 1 | All Maps | STV","players":null},{"server_id":1,"name":"Uncletopia | Los Angeles | 1 | All Maps","name_short":"lax-1","host":"lax-1.us.uncletopia.com","port":27015,"enabled":true,"region":"us-west","cc":"us","latitude":33.94279,"longitude":-118.41004,"reserved":0,"last_update":"0001-01-01T00:00:00Z","name_a2s":"Uncletopia | Los Angeles | 1 | All Maps","protocol":17,"map":"plr_hightower","folder":"tf","game":"Team Fortress","app_id":440,"player_count":2,"max_players":24,"Bots":0,"server_type":"Dedicated","server_os":"Linux","password":true,"vac":true,"version":"7695204","steam_id":85568392924469991,"keywords":["nocrits","nodmgspread","payload","uncletopia"],"game_id":440,"stv_port":27016,"stv_name":"Uncletopia | Los Angeles | 1 | All Maps | STV","players":[{"user_id":12,"name":"toddler.liberator.7234","steam_id":76561199203238703,"connected_time":917000000000,"state":"active","ping":72},{"user_id":13,"name":"Inifinity","steam_id":76561199135242145,"connected_time":46000000000,"state":"spawning","ping":130}]},{"server_id":112,"name":"Uncletopia | Los Angeles | 2 | All Maps","name_short":"lax-2","host":"lax-1.us.uncletopia.com","port":27025,"enabled":true,"region":"us-west","cc":"us","latitude":33.94279,"longitude":-118.41004,"reserved":0,"last_update":"0001-01-01T00:00:00Z","name_a2s":"Uncletopia | Los Angeles | 2 | All Maps","protocol":17,"map":"pl_badwater","folder":"tf","game":"Team Fortress","app_id":440,"player_count":0,"max_players":24,"Bots":0,"server_type":"Dedicated","server_os":"Linux","password":true,"vac":true,"version":"7695204","steam_id":85568392924469992,"keywords":["nocrits","nodmgspread","payload","uncletopia"],"game_id":440,"stv_port":27026,"stv_name":"Uncletopia | Los Angeles | 2 | All Maps | STV","players":null},{"server_id":324,"name":"Uncletopia | Los Angeles | 3 | All Maps","name_short":"lax-3","host":"lax-1.us.uncletopia.com","port":27035,"enabled":true,"region":"us-west","cc":"us","latitude":33.94279,"longitude":-118.41004,"reserved":0,"last_update":"0001-01-01T00:00:00Z","name_a2s":"Uncletopia | Los Angeles | 3 | All Maps","protocol":17,"map":"cp_dustbowl","folder":"tf","game":"Team Fortress","app_id":440,"player_count":0,"max_players":24,"Bots":0,"server_type":"Dedicated","server_os":"Linux","password":true,"vac":true,"version":"7695204","steam_id":85568392924510198,"keywords":["cp","nocrits","nodmgspread","uncletopia"],"game_id":440,"stv_port":27036,"stv_name":"Uncletopia | Los Angeles | 3 | All Maps | STV","players":null},{"server_id":25,"name":"Uncletopia | Los Angeles | 4 | No Payload","name_short":"lax-4","host":"lax-1.us.uncletopia.com","port":27045,"enabled":true,"region":"us-west","cc":"us","latitude":33.94279,"longitude":-118.41004,"reserved":0,"last_update":"0001-01-01T00:00:00Z","name_a2s":"Uncletopia | Los Angeles | 4 | No Payload","protocol":17,"map":"pl_barnblitz","folder":"tf","game":"Team Fortress","app_id":440,"player_count":0,"max_players":24,"Bots":0,"server_type":"Dedicated","server_os":"Linux","password":true,"vac":true,"version":"7695204","steam_id":85568392924510199,"keywords":["nocrits","nodmgspread","payload","uncletopia"],"game_id":440,"stv_port":0,"stv_name":"","players":null},{"server_id":11,"name":"Uncletopia | London | 1 | All Maps","name_short":"lon-1","host":"lon-1.uk.uncletopia.com","port":27015,"enabled":true,"region":"eu","cc":"gb","latitude":51.509865,"longitude":-0.118092,"reserved":0,"last_update":"0001-01-01T00:00:00Z","name_a2s":"Uncletopia | London | 1 | All Maps","protocol":17,"map":"pl_badwater","folder":"tf","game":"Team Fortress","app_id":440,"player_count":19,"max_players":24,"Bots":0,"server_type":"Dedicated","server_os":"Linux","password":true,"vac":true,"version":"7695204","steam_id":85568392924367362,"keywords":["nocrits","nodmgspread","payload","uncletopia"],"game_id":440,"stv_port":27016,"stv_name":"Uncletopia | London | 1 | All Maps | STV","players":[{"user_id":53,"name":"festive jones","steam_id":76561198073975078,"connected_time":3450000000000,"state":"active","ping":45},{"user_id":65,"name":"ü§ç cantsniff ü§ç","steam_id":76561198259668029,"connected_time":1012000000000,"state":"active","ping":45},{"user_id":64,"name":"merry beebo","steam_id":76561199120277007,"connected_time":1827000000000,"state":"active","ping":47},{"user_id":66,"name":"ARSEQUEEF70000000000","steam_id":76561198914610283,"connected_time":877000000000,"state":"active","ping":75},{"user_id":59,"name":"festivized goth girl","steam_id":76561198118989010,"connected_time":2410000000000,"state":"active","ping":46},{"user_id":74,"name":"Linunt","steam_id":76561197970929691,"connected_time":348000000000,"state":"active","ping":96},{"user_id":73,"name":"roygbiv","steam_id":76561198344281978,"connected_time":400000000000,"state":"active","ping":49},{"user_id":75,"name":"–õ–æ—Ä–¥ –ñ–µ—Ä–æ–º","steam_id":76561198413897978,"connected_time":339000000000,"state":"active","ping":96},{"user_id":70,"name":"Bits\u0026Peices","steam_id":76561199225453607,"connected_time":599000000000,"state":"active","ping":110},{"user_id":71,"name":"Sheerluck Holmes","steam_id":76561198051161936,"connected_time":448000000000,"state":"active","ping":50},{"user_id":76,"name":"–ö–û–ñ–ê–ù–ê–Ø –¢–†–£–ë–ê","steam_id":76561199026579642,"connected_time":313000000000,"state":"active","ping":89},{"user_id":85,"name":"deeply flawed human","steam_id":76561198072233046,"connected_time":15000000000,"state":"active","ping":116},{"user_id":78,"name":"bay","steam_id":76561198377055815,"connected_time":283000000000,"state":"active","ping":58},{"user_id":79,"name":"GeoWolf","steam_id":76561198135140705,"connected_time":183000000000,"state":"active","ping":47},{"user_id":83,"name":"Audiofall","steam_id":76561198208814216,"connected_time":56000000000,"state":"active","ping":55},{"user_id":81,"name":"sapien","steam_id":76561198116728538,"connected_time":149000000000,"state":"active","ping":44},{"user_id":84,"name":"Nemanija","steam_id":76561198031351379,"connected_time":20000000000,"state":"spawning","ping":85},{"user_id":86,"name":"Grezju","steam_id":76561198087131141,"connected_time":8000000000,"state":"spawning","ping":49},{"user_id":87,"name":"–î–µ–Ω–∏—Å –ë–∞–∑—É–∫–∞","steam_id":76561198835849082,"connected_time":0,"state":"connecting","ping":0}]},{"server_id":114,"name":"Uncletopia | London | 2 | All Maps","name_short":"lon-2","host":"lon-1.uk.uncletopia.com","port":27025,"enabled":true,"region":"eu","cc":"gb","latitude":51.509865,"longitude":-0.118092,"reserved":0,"last_update":"0001-01-01T00:00:00Z","name_a2s":"Uncletopia | London | 2 | All Maps","protocol":17,"map":"pl_borneo","folder":"tf","game":"Team Fortress","app_id":440,"player_count":23,"max_players":24,"Bots":0,"server_type":"Dedicated","server_os":"Linux","password":true,"vac":true,"version":"7695204","steam_id":85568392924470941,"keywords":["nocrits","nodmgspread","payload","uncletopia"],"game_id":440,"stv_port":27026,"stv_name":"Uncletopia | London | 2 | All Maps | STV","players":[{"user_id":171,"name":"Alexandre","steam_id":76561198121784446,"connected_time":28000000000,"state":"active","ping":88},{"user_id":110,"name":"Zephyr","steam_id":76561198050204205,"connected_time":2176000000000,"state":"active","ping":48},{"user_id":168,"name":"Oysterhead","steam_id":76561198034055215,"connected_time":593000000000,"state":"active","ping":50},{"user_id":147,"name":"ViktorYoshi","steam_id":76561199157555246,"connected_time":1038000000000,"state":"active","ping":70},{"user_id":114,"name":"Mr.McNuggets","steam_id":76561199205631497,"connected_time":2021000000000,"state":"active","ping":46},{"user_id":107,"name":"One armed fiddle enthusiast","steam_id":76561198045847051,"connected_time":2422000000000,"state":"active","ping":53},{"user_id":165,"name":"Crowbar","steam_id":76561198025742526,"connected_time":626000000000,"state":"active","ping":63},{"user_id":84,"name":"boldno","steam_id":76561198127094314,"connected_time":3420000000000,"state":"active","ping":53},{"user_id":108,"name":"Prox","steam_id":76561198351490981,"connected_time":2419000000000,"state":"active","ping":34},{"user_id":116,"name":"goofy goober","steam_id":76561198013237629,"connected_time":2001000000000,"state":"active","ping":85},{"user_id":86,"name":"Valoxi","steam_id":76561197995042938,"connected_time":3397000000000,"state":"active","ping":65},{"user_id":174,"name":"Salmon","steam_id":76561198336592093,"connected_time":4000000000,"state":"spawning","ping":81},{"user_id":148,"name":"Bob Sacamano","steam_id":76561198085610701,"connected_time":978000000000,"state":"active","ping":99},{"user_id":163,"name":"Nathan","steam_id":76561198040069336,"connected_time":680000000000,"state":"active","ping":46},{"user_id":172,"name":"Oceo","steam_id":76561199035661606,"connected_time":27000000000,"state":"active","ping":79},{"user_id":151,"name":"r4ngerr","steam_id":76561198111721072,"connected_time":887000000000,"state":"active","ping":97},{"user_id":162,"name":"Kadiljaks","steam_id":76561198048609563,"connected_time":693000000000,"state":"active","ping":95},{"user_id":101,"name":"SuportSub99","steam_id":76561198127688900,"connected_time":2813000000000,"state":"active","ping":58},{"user_id":149,"name":"BoPoe","steam_id":76561198093333882,"connected_time":974000000000,"state":"active","ping":105},{"user_id":164,"name":"Winter","steam_id":76561198073954274,"connected_time":667000000000,"state":"active","ping":37},{"user_id":66,"name":"Joe12000","steam_id":76561198160817969,"connected_time":4422000000000,"state":"active","ping":61},{"user_id":173,"name":"Bell","steam_id":76561199413517335,"connected_time":20000000000,"state":"active","ping":126},{"user_id":157,"name":"garbage mikuknight","steam_id":76561198361819054,"connected_time":774000000000,"state":"active","ping":104}]},{"server_id":320,"name":"Uncletopia | London | 3 | All Maps","name_short":"lon-3","host":"lon-1.uk.uncletopia.com","port":27035,"enabled":true,"region":"eu","cc":"gb","latitude":51.509865,"longitude":-0.118092,"reserved":0,"last_update":"0001-01-01T00:00:00Z","name_a2s":"Uncletopia | London | 3 | All Maps","protocol":17,"map":"pl_pier","folder":"tf","game":"Team Fortress","app_id":440,"player_count":20,"max_players":24,"Bots":0,"server_type":"Dedicated","server_os":"Linux","password":true,"vac":true,"version":"7695204","steam_id":85568392924510192,"keywords":["nocrits","nodmgspread","payload","uncletopia"],"game_id":440,"stv_port":27036,"stv_name":"Uncletopia | London | 3 | All Maps | STV","players":[{"user_id":252,"name":"HmThatsRamen","steam_id":76561199225048687,"connected_time":753000000000,"state":"active","ping":47},{"user_id":260,"name":"aiwgode","steam_id":76561198826619475,"connected_time":38000000000,"state":"active","ping":123},{"user_id":255,"name":"Guardsman Alex","steam_id":76561198000094686,"connected_time":347000000000,"state":"active","ping":77},{"user_id":256,"name":"Michael","steam_id":76561198003146906,"connected_time":241000000000,"state":"active","ping":45},{"user_id":148,"name":"Ixsus\u003c3","steam_id":76561198094756869,"connected_time":8520000000000,"state":"active","ping":64},{"user_id":225,"name":"Dr. Funkenstein","steam_id":76561197977816210,"connected_time":3273000000000,"state":"active","ping":54},{"user_id":257,"name":"gamerdad1980","steam_id":76561198246761896,"connected_time":220000000000,"state":"active","ping":64},{"user_id":208,"name":"Gruel","steam_id":76561198045408509,"connected_time":4750000000000,"state":"active","ping":39},{"user_id":262,"name":"Albert Einstein","steam_id":76561198351190006,"connected_time":14000000000,"state":"spawning","ping":95},{"user_id":238,"name":"AWildTamim","steam_id":76561198048060652,"connected_time":1680000000000,"state":"active","ping":36},{"user_id":241,"name":"Jet","steam_id":76561198061518477,"connected_time":1353000000000,"state":"active","ping":49},{"user_id":259,"name":"œÄp","steam_id":76561199026097466,"connected_time":89000000000,"state":"active","ping":74},{"user_id":249,"name":"Viperense","steam_id":76561198036206811,"connected_time":920000000000,"state":"active","ping":91},{"user_id":261,"name":"ldcommando","steam_id":76561198015191517,"connected_time":22000000000,"state":"active","ping":256},{"user_id":201,"name":"Vortic","steam_id":76561198086534884,"connected_time":5109000000000,"state":"active","ping":75},{"user_id":240,"name":"moon","steam_id":76561199212557251,"connected_time":1599000000000,"state":"active","ping":111},{"user_id":248,"name":"Boobs rater","steam_id":76561198066977580,"connected_time":927000000000,"state":"active","ping":94},{"user_id":251,"name":"Taewinzer","steam_id":76561198261820803,"connected_time":800000000000,"state":"active","ping":62},{"user_id":205,"name":"Pax","steam_id":76561198047797964,"connected_time":5046000000000,"state":"active","ping":47},{"user_id":254,"name":"waizukaan","steam_id":76561198119210003,"connected_time":452000000000,"state":"active","ping":96}]},{"server_id":321,"name":"Uncletopia | London | 4 | All Maps","name_short":"lon-4","host":"lon-1.uk.uncletopia.com","port":27045,"enabled":true,"region":"eu","cc":"gb","latitude":51.509865,"longitude":-0.118092,"reserved":0,"last_update":"0001-01-01T00:00:00Z","name_a2s":"Uncletopia | London | 4 | All Maps","protocol":17,"map":"pl_pier","folder":"tf","game":"Team Fortress","app_id":440,"player_count":17,"max_players":24,"Bots":0,"server_type":"Dedicated","server_os":"Linux","password":true,"vac":true,"version":"7695204","steam_id":85568392924510193,"keywords":["nocrits","nodmgspread","payload","uncletopia"],"game_id":440,"stv_port":27046,"stv_name":"Uncletopia | London | 4 | All Maps | STV","players":[{"user_id":375,"name":"Goon #savetf2","steam_id":76561198434367554,"connected_time":1428000000000,"state":"active","ping":126},{"user_id":363,"name":"clean carp","steam_id":76561198127053294,"connected_time":2296000000000,"state":"active","ping":74},{"user_id":385,"name":"Mancomb Seepgood","steam_id":76561197974116369,"connected_time":197000000000,"state":"active","ping":50},{"user_id":383,"name":"Mikeal HEAL ME!!","steam_id":76561198241759034,"connected_time":896000000000,"state":"active","ping":99},{"user_id":386,"name":"Breadcrab","steam_id":76561198015924039,"connected_time":147000000000,"state":"active","ping":49},{"user_id":387,"name":"Nedge","steam_id":76561197963549701,"connected_time":102000000000,"state":"active","ping":49},{"user_id":388,"name":"aspartame enjoyer","steam_id":76561198117033273,"connected_time":47000000000,"state":"active","ping":54},{"user_id":326,"name":"Woman type of beat","steam_id":76561198257383813,"connected_time":5407000000000,"state":"active","ping":45},{"user_id":365,"name":"zinzyk","steam_id":76561198128011822,"connected_time":2278000000000,"state":"active","ping":72},{"user_id":389,"name":"Paulie Enjoyer","steam_id":76561198364121077,"connected_time":19000000000,"state":"active","ping":86},{"user_id":361,"name":"Alice in the Badlands","steam_id":76561198052410860,"connected_time":2602000000000,"state":"active","ping":143},{"user_id":322,"name":"zak","steam_id":76561197998895428,"connected_time":5579000000000,"state":"active","ping":62},{"user_id":357,"name":"Tasi","steam_id":76561198000166299,"connected_time":2964000000000,"state":"active","ping":66},{"user_id":380,"name":"sword man","steam_id":76561199042470246,"connected_time":1062000000000,"state":"active","ping":73},{"user_id":367,"name":"Marquis de Hoto","steam_id":76561198080687708,"connected_time":2184000000000,"state":"active","ping":72},{"user_id":377,"name":"nachtraaf","steam_id":76561197960473205,"connected_time":1281000000000,"state":"active","ping":57},{"user_id":316,"name":"KAKTyC","steam_id":76561198019296536,"connected_time":6112000000000,"state":"active","ping":91}]},{"server_id":21,"name":"Uncletopia | London | 5 | All Maps","name_short":"lon-5","host":"lon-1.uk.uncletopia.com","port":27055,"enabled":true,"region":"eu","cc":"gb","latitude":51.509865,"longitude":-0.118092,"reserved":0,"last_update":"0001-01-01T00:00:00Z","name_a2s":"Uncletopia | London | 5 | All Maps","protocol":17,"map":"koth_cascade","folder":"tf","game":"Team Fortress","app_id":440,"player_count":0,"max_players":24,"Bots":0,"server_type":"Dedicated","server_os":"Linux","password":true,"vac":true,"version":"7695204","steam_id":85568392924742829,"keywords":["cp","nocrits","nodmgspread","uncletopia"],"game_id":440,"stv_port":0,"stv_name":"","players":null},{"server_id":22,"name":"Uncletopia | London | 6 | All Maps","name_short":"lon-6","host":"lon-1.uk.uncletopia.com","port":27065,"enabled":true,"region":"eu","cc":"gb","latitude":51.509865,"longitude":-0.118092,"reserved":0,"last_update":"0001-01-01T00:00:00Z","name_a2s":"Uncletopia | London | 6 | All Maps","protocol":17,"map":"koth_cascade","folder":"tf","game":"Team Fortress","app_id":440,"player_count":0,"max_players":24,"Bots":0,"server_type":"Dedicated","server_os":"Linux","password":true,"vac":true,"version":"7695204","steam_id":85568392924742830,"keywords":["cp","nocrits","nodmgspread","uncletopia"],"game_id":440,"stv_port":27066,"stv_name":"Uncletopia | London | 6 | All Maps | STV","players":null},{"server_id":40,"name":"Uncletopia | London | 7 | No Payload","name_short":"lon-7","host":"lon-1.uk.uncletopia.com","port":27075,"enabled":true,"region":"eu","cc":"gb","latitude":51.509865,"longitude":-0.118092,"reserved":0,"last_update":"0001-01-01T00:00:00Z","name_a2s":"Uncletopia | London | 7 | No Payload","protocol":17,"map":"cp_metalworks","folder":"tf","game":"Team Fortress","app_id":440,"player_count":9,"max_players":24,"Bots":0,"server_type":"Dedicated","server_os":"Linux","password":true,"vac":true,"version":"7695204","steam_id":85568392924964314,"keywords":["cp","nocrits","nodmgspread","uncletopia"],"game_id":440,"stv_port":27076,"stv_name":"Uncletopia | London | 7 | No Payload | STV","players":[{"user_id":333,"name":"luvny","steam_id":76561198159928154,"connected_time":962000000000,"state":"active","ping":48},{"user_id":310,"name":"Big Gamer (real)","steam_id":76561198160114532,"connected_time":2633000000000,"state":"active","ping":60},{"user_id":342,"name":"M.L.JEW","steam_id":76561198997375055,"connected_time":82000000000,"state":"active","ping":165},{"user_id":194,"name":"ciliorkun18","steam_id":76561198228942500,"connected_time":9304000000000,"state":"active","ping":89},{"user_id":303,"name":"gorrian","steam_id":76561198278199225,"connected_time":3357000000000,"state":"active","ping":68},{"user_id":325,"name":"WalkingBomber","steam_id":76561199085155976,"connected_time":1450000000000,"state":"active","ping":132},{"user_id":324,"name":"timvs5","steam_id":76561198136646312,"connected_time":1490000000000,"state":"active","ping":61},{"user_id":327,"name":"Areck2","steam_id":76561199041737814,"connected_time":1376000000000,"state":"active","ping":41},{"user_id":121,"name":"Aspartus","steam_id":76561198101385763,"connected_time":15241000000000,"state":"active","ping":30}]},{"server_id":41,"name":"Uncletopia | London | 8 | Community","name_short":"lon-8","host":"lon-1.uk.uncletopia.com","port":27085,"enabled":true,"region":"eu","cc":"gb","latitude":51.509865,"longitude":-0.118092,"reserved":0,"last_update":"0001-01-01T00:00:00Z","name_a2s":"Uncletopia | London | 8 | Community","protocol":17,"map":"workshop/pl_fifthcurve_rc1.ugc648227046","folder":"tf","game":"Team Fortress","app_id":440,"player_count":12,"max_players":24,"Bots":0,"server_type":"Dedicated","server_os":"Linux","password":true,"vac":true,"version":"7695204","steam_id":85568392924964315,"keywords":["nocrits","nodmgspread","payload","uncletopia"],"game_id":440,"stv_port":27086,"stv_name":"Uncletopia | London | 8 | Community | STV","players":[{"user_id":87,"name":"Trollonicron","steam_id":76561198038600791,"connected_time":3938000000000,"state":"active","ping":84},{"user_id":121,"name":"jo bidn' | ETLARTORM","steam_id":76561198869576262,"connected_time":1746000000000,"state":"active","ping":105},{"user_id":93,"name":"IndigoJones","steam_id":76561198050284262,"connected_time":3193000000000,"state":"active","ping":43},{"user_id":136,"name":"–ë–æ–ª—å—à–æ–π –ë–æ–±","steam_id":76561197983605586,"connected_time":863000000000,"state":"active","ping":105},{"user_id":103,"name":"DOMINOS","steam_id":76561198334591211,"connected_time":2413000000000,"state":"active","ping":75},{"user_id":137,"name":"Kpop is actually great I swear!","steam_id":76561198060200599,"connected_time":862000000000,"state":"active","ping":103},{"user_id":141,"name":"Axord","steam_id":76561199289652176,"connected_time":474000000000,"state":"active","ping":52},{"user_id":139,"name":"small tony","steam_id":76561199141010349,"connected_time":609000000000,"state":"active","ping":97},{"user_id":140,"name":"rat performance","steam_id":76561198065854668,"connected_time":544000000000,"state":"active","ping":41},{"user_id":118,"name":"Tywhip","steam_id":76561199207545191,"connected_time":1769000000000,"state":"active","ping":55},{"user_id":114,"name":"eidis","steam_id":76561198314954479,"connected_time":1961000000000,"state":"active","ping":112},{"user_id":124,"name":"Kernal5","steam_id":76561198864408520,"connected_time":1664000000000,"state":"active","ping":126}]},{"server_id":300,"name":"Uncletopia | Montr√©al | 1 | All Maps","name_short":"mtl-1","host":"mtl-1.ca.uncletopia.com","port":27015,"enabled":true,"region":"us-east","cc":"ca","latitude":45.50889,"longitude":-73.56167,"reserved":0,"last_update":"0001-01-01T00:00:00Z","name_a2s":"Uncletopia | Montr√©al | 1 | All Maps","protocol":17,"map":"cp_dustbowl","folder":"tf","game":"Team Fortress","app_id":440,"player_count":0,"max_players":24,"Bots":0,"server_type":"Dedicated","server_os":"Linux","password":true,"vac":true,"version":"7695204","steam_id":85568392924500087,"keywords":["cp","nocrits","nodmgspread","uncletopia"],"game_id":440,"stv_port":0,"stv_name":"","players":null},{"server_id":301,"name":"Uncletopia | Montr√©al | 2 | All Maps","name_short":"mtl-2","host":"mtl-1.ca.uncletopia.com","port":27025,"enabled":true,"region":"us-east","cc":"ca","latitude":45.50889,"longitude":-73.56167,"reserved":0,"last_update":"0001-01-01T00:00:00Z","name_a2s":"Uncletopia | Montr√©al | 2 | All Maps","protocol":17,"map":"cp_mountainlab","folder":"tf","game":"Team Fortress","app_id":440,"player_count":0,"max_players":24,"Bots":0,"server_type":"Dedicated","server_os":"Linux","password":true,"vac":true,"version":"7695204","steam_id":85568392924500088,"keywords":["cp","nocrits","nodmgspread","uncletopia"],"game_id":440,"stv_port":27026,"stv_name":"Uncletopia | Montr√©al | 2 | All Maps | STV","players":null},{"server_id":302,"name":"Uncletopia | Montr√©al | 3 | All Maps","name_short":"mtl-3","host":"mtl-1.ca.uncletopia.com","port":27035,"enabled":true,"region":"us-east","cc":"ca","latitude":45.50889,"longitude":-73.56167,"reserved":0,"last_update":"0001-01-01T00:00:00Z","name_a2s":"Uncletopia | Montr√©al | 3 | All Maps","protocol":17,"map":"koth_viaduct","folder":"tf","game":"Team Fortress","app_id":440,"player_count":0,"max_players":24,"Bots":0,"server_type":"Dedicated","server_os":"Linux","password":true,"vac":true,"version":"7695204","steam_id":85568392924500089,"keywords":["cp","nocrits","nodmgspread","uncletopia"],"game_id":440,"stv_port":0,"stv_name":"","players":null},{"server_id":303,"name":"Uncletopia | Montr√©al | 4 | No Payload","name_short":"mtl-4","host":"mtl-1.ca.uncletopia.com","port":27045,"enabled":true,"region":"us-east","cc":"ca","latitude":45.50889,"longitude":-73.56167,"reserved":0,"last_update":"0001-01-01T00:00:00Z","name_a2s":"Uncletopia | Montr√©al | 4 | No Payload","protocol":17,"map":"cp_dustbowl","folder":"tf","game":"Team Fortress","app_id":440,"player_count":0,"max_players":24,"Bots":0,"server_type":"Dedicated","server_os":"Linux","password":true,"vac":true,"version":"7695204","steam_id":85568392924500090,"keywords":["cp","nocrits","nodmgspread","uncletopia"],"game_id":440,"stv_port":0,"stv_name":"","players":null},{"server_id":13,"name":"Uncletopia | New York City | 1 | All Maps","name_short":"nyc-1","host":"nyc-1.us.uncletopia.com","port":27015,"enabled":true,"region":"us-east","cc":"us","latitude":40.73061,"longitude":-73.93524,"reserved":0,"last_update":"0001-01-01T00:00:00Z","name_a2s":"Uncletopia | New York City | 1 | All Maps","protocol":17,"map":"cp_sunshine","folder":"tf","game":"Team Fortress","app_id":440,"player_count":24,"max_players":24,"Bots":0,"server_type":"Dedicated","server_os":"Linux","password":true,"vac":true,"version":"7695204","steam_id":85568392924469993,"keywords":["cp","nocrits","nodmgspread","uncletopia"],"game_id":440,"stv_port":27016,"stv_name":"Uncletopia | New York City | 1 | All Maps | STV","players":[{"user_id":155,"name":"A Hint of Pepper","steam_id":76561198281768574,"connected_time":927000000000,"state":"active","ping":76},{"user_id":129,"name":"jenny ‚òÜ","steam_id":76561198190106735,"connected_time":2369000000000,"state":"active","ping":60},{"user_id":134,"name":"Ram-horned Jack","steam_id":76561198043418582,"connected_time":1759000000000,"state":"active","ping":137},{"user_id":112,"name":"Banana Pepper","steam_id":76561198830083719,"connected_time":3902000000000,"state":"active","ping":63},{"user_id":152,"name":"Phocae \u003c3","steam_id":76561199317584594,"connected_time":1122000000000,"state":"active","ping":67},{"user_id":125,"name":"whatever","steam_id":76561197994759007,"connected_time":3217000000000,"state":"active","ping":76},{"user_id":106,"name":"schmink90","steam_id":76561199131248103,"connected_time":4403000000000,"state":"active","ping":65},{"user_id":136,"name":"Â∞è‰æø„É≠„Ç±„ÉÉ„Éà","steam_id":76561198241667354,"connected_time":1695000000000,"state":"active","ping":68},{"user_id":25,"name":"Nintenjoe","steam_id":76561198821530178,"connected_time":10202000000000,"state":"active","ping":52},{"user_id":138,"name":"Phlogging Molly","steam_id":76561198042011714,"connected_time":1685000000000,"state":"active","ping":70},{"user_id":149,"name":"Heavy Box","steam_id":76561198053624882,"connected_time":1391000000000,"state":"active","ping":146},{"user_id":111,"name":"Captain Zyrin","steam_id":76561197983121824,"connected_time":4031000000000,"state":"active","ping":83},{"user_id":98,"name":"Takumi Fujiwara","steam_id":76561198146281101,"connected_time":5210000000000,"state":"active","ping":56},{"user_id":119,"name":"summerlis","steam_id":76561198165324438,"connected_time":3595000000000,"state":"active","ping":112},{"user_id":140,"name":"AlwaysSmile","steam_id":76561198293385134,"connected_time":1667000000000,"state":"active","ping":70},{"user_id":144,"name":"Spicy Goblin","steam_id":76561198065905730,"connected_time":1622000000000,"state":"active","ping":53},{"user_id":93,"name":"chad","steam_id":76561198216109017,"connected_time":5585000000000,"state":"active","ping":45},{"user_id":145,"name":"HorizonPear","steam_id":76561198179808389,"connected_time":1618000000000,"state":"active","ping":63},{"user_id":157,"name":"Crayfry","steam_id":76561198146525237,"connected_time":229000000000,"state":"active","ping":63},{"user_id":156,"name":"kozza","steam_id":76561197980887931,"connected_time":754000000000,"state":"active","ping":197},{"user_id":158,"name":"\"\"","steam_id":76561198032650652,"connected_time":170000000000,"state":"active","ping":119},{"user_id":130,"name":"Dreysidel","steam_id":76561198056496183,"connected_time":2352000000000,"state":"active","ping":87},{"user_id":143,"name":"TheWallaby","steam_id":76561198948037546,"connected_time":1634000000000,"state":"active","ping":68},{"user_id":154,"name":"Tyler\u0026Fingers","steam_id":76561198085154485,"connected_time":1094000000000,"state":"active","ping":78}]},{"server_id":14,"name":"Uncletopia | New York City | 2 | All Maps","name_short":"nyc-2","host":"nyc-1.us.uncletopia.com","port":27025,"enabled":true,"region":"us-east","cc":"us","latitude":40.73061,"longitude":-73.93524,"reserved":0,"last_update":"0001-01-01T00:00:00Z","name_a2s":"Uncletopia | New York City | 2 | All Maps","protocol":17,"map":"pl_swiftwater_final1","folder":"tf","game":"Team Fortress","app_id":440,"player_count":0,"max_players":24,"Bots":0,"server_type":"Dedicated","server_os":"Linux","password":true,"vac":true,"version":"7695204","steam_id":85568392924469994,"keywords":["nocrits","nodmgspread","payload","uncletopia"],"game_id":440,"stv_port":27026,"stv_name":"Uncletopia | New York City | 2 | All Maps | STV","players":null},{"server_id":15,"name":"Uncletopia | New York City | 3 | All Maps","name_short":"nyc-3","host":"nyc-1.us.uncletopia.com","port":27035,"enabled":true,"region":"us-east","cc":"us","latitude":40.73061,"longitude":-73.93524,"reserved":0,"last_update":"0001-01-01T00:00:00Z","name_a2s":"Uncletopia | New York City | 3 | All Maps","protocol":17,"map":"koth_viaduct","folder":"tf","game":"Team Fortress","app_id":440,"player_count":22,"max_players":24,"Bots":0,"server_type":"Dedicated","server_os":"Linux","password":true,"vac":true,"version":"7695204","steam_id":85568392924742820,"keywords":["cp","nocrits","nodmgspread","uncletopia"],"game_id":440,"stv_port":27036,"stv_name":"Uncletopia | New York City | 3 | All Maps | STV","players":[{"user_id":151,"name":"Big Siege","steam_id":76561198002276803,"connected_time":950000000000,"state":"active","ping":85},{"user_id":63,"name":"Captain Cosmic","steam_id":76561199025356432,"connected_time":5681000000000,"state":"active","ping":55},{"user_id":149,"name":"Vacket","steam_id":76561198161868015,"connected_time":1108000000000,"state":"active","ping":53},{"user_id":98,"name":"kakashi","steam_id":76561198077902438,"connected_time":3071000000000,"state":"active","ping":74},{"user_id":134,"name":"Waffle Wannabe","steam_id":76561198064510650,"connected_time":1936000000000,"state":"active","ping":39},{"user_id":102,"name":"KrashBoomBang","steam_id":76561199002978777,"connected_time":2972000000000,"state":"active","ping":39},{"user_id":82,"name":"RyInc","steam_id":76561198874261643,"connected_time":4348000000000,"state":"active","ping":60},{"user_id":89,"name":"haadis55555","steam_id":76561199117504724,"connected_time":3624000000000,"state":"active","ping":109},{"user_id":143,"name":"Sean","steam_id":76561199367470003,"connected_time":1659000000000,"state":"active","ping":126},{"user_id":103,"name":"Kuyumiester","steam_id":76561198126835302,"connected_time":2950000000000,"state":"active","ping":81},{"user_id":62,"name":"komi","steam_id":76561198321442747,"connected_time":5776000000000,"state":"active","ping":68},{"user_id":72,"name":"DiscoTraveler","steam_id":76561199240168088,"connected_time":4783000000000,"state":"active","ping":59},{"user_id":152,"name":"MissRaptor","steam_id":76561198105613110,"connected_time":829000000000,"state":"active","ping":60},{"user_id":48,"name":"Fat Man","steam_id":76561198118957055,"connected_time":6661000000000,"state":"active","ping":35},{"user_id":159,"name":"GayBowser125","steam_id":76561198163430099,"connected_time":185000000000,"state":"active","ping":132},{"user_id":158,"name":"spectre","steam_id":76561197964657841,"connected_time":410000000000,"state":"active","ping":88},{"user_id":153,"name":"Stampdawg","steam_id":76561198050500060,"connected_time":826000000000,"state":"active","ping":75},{"user_id":135,"name":"HellRaiser","steam_id":76561199051660033,"connected_time":1934000000000,"state":"active","ping":93},{"user_id":156,"name":"Hol Horse","steam_id":76561198078207743,"connected_time":592000000000,"state":"active","ping":45},{"user_id":141,"name":"Cat‚Ñ¢","steam_id":76561198368999744,"connected_time":1774000000000,"state":"active","ping":60},{"user_id":130,"name":"t.tv/ibbKitty‚àë:3","steam_id":76561198110858518,"connected_time":2040000000000,"state":"active","ping":49},{"user_id":147,"name":"obbeymaster19","steam_id":76561199197244143,"connected_time":1196000000000,"state":"active","ping":79}]},{"server_id":16,"name":"Uncletopia | New York City | 4 | Community","name_short":"nyc-4","host":"nyc-1.us.uncletopia.com","port":27045,"enabled":true,"region":"us-east","cc":"us","latitude":40.73061,"longitude":-73.93524,"reserved":0,"last_update":"0001-01-01T00:00:00Z","name_a2s":"Uncletopia | New York City | 4 | Community","protocol":17,"map":"workshop/koth_product_final.ugc454272353","folder":"tf","game":"Team Fortress","app_id":440,"player_count":0,"max_players":24,"Bots":0,"server_type":"Dedicated","server_os":"Linux","password":true,"vac":true,"version":"7695204","steam_id":85568392924742821,"keywords":["cp","nocrits","nodmgspread","uncletopia"],"game_id":440,"stv_port":27046,"stv_name":"Uncletopia | New York City | 4 | Community | STV","players":null},{"server_id":142,"name":"Uncletopia | S√£o Paulo | 1 | All Maps","name_short":"sao-1","host":"sao-1.br.uncletopia.com","port":27015,"enabled":true,"region":"sa","cc":"br","latitude":-23.533773,"longitude":-46.62529,"reserved":0,"last_update":"0001-01-01T00:00:00Z","name_a2s":"Uncletopia | S√£o Paulo | 1 | All Maps","protocol":17,"map":"koth_cascade","folder":"tf","game":"Team Fortress","app_id":440,"player_count":0,"max_players":24,"Bots":0,"server_type":"Dedicated","server_os":"Linux","password":true,"vac":true,"version":"7695204","steam_id":85568392924469996,"keywords":["cp","nocrits","nodmgspread","uncletopia"],"game_id":440,"stv_port":0,"stv_name":"","players":null},{"server_id":143,"name":"Uncletopia | S√£o Paulo | 2 | All Maps","name_short":"sao-2","host":"sao-2.br.uncletopia.com","port":27015,"enabled":true,"region":"sa","cc":"br","latitude":-23.533773,"longitude":-46.62529,"reserved":0,"last_update":"0001-01-01T00:00:00Z","name_a2s":"Uncletopia | S√£o Paulo | 2 | All Maps","protocol":17,"map":"cp_altitude","folder":"tf","game":"Team Fortress","app_id":440,"player_count":0,"max_players":24,"Bots":0,"server_type":"Dedicated","server_os":"Linux","password":true,"vac":true,"version":"7695204","steam_id":85568392924485349,"keywords":["cp","nocrits","nodmgspread","uncletopia"],"game_id":440,"stv_port":27016,"stv_name":"Uncletopia | S√£o Paulo | 2 | All Maps | STV","players":null},{"server_id":7,"name":"Uncletopia | Seattle | 1 | All Maps","name_short":"sea-1","host":"sea-1.us.uncletopia.com","port":27015,"enabled":true,"region":"us-west","cc":"us","latitude":47.608013,"longitude":-122.33517,"reserved":0,"last_update":"0001-01-01T00:00:00Z","name_a2s":"Uncletopia | Seattle | 1 | All Maps","protocol":17,"map":"cp_sunshine","folder":"tf","game":"Team Fortress","app_id":440,"player_count":0,"max_players":24,"Bots":0,"server_type":"Dedicated","server_os":"Linux","password":true,"vac":true,"version":"7695204","steam_id":85568392924469997,"keywords":["cp","nocrits","nodmgspread","uncletopia"],"game_id":440,"stv_port":27016,"stv_name":"Uncletopia | Seattle | 1 | All Maps | STV","players":null},{"server_id":119,"name":"Uncletopia | Seattle | 2 | All Maps","name_short":"sea-2","host":"sea-1.us.uncletopia.com","port":27025,"enabled":true,"region":"us-west","cc":"us","latitude":47.608013,"longitude":-122.33517,"reserved":0,"last_update":"0001-01-01T00:00:00Z","name_a2s":"Uncletopia | Seattle | 2 | All Maps","protocol":17,"map":"pl_swiftwater_final1","folder":"tf","game":"Team Fortress","app_id":440,"player_count":24,"max_players":24,"Bots":0,"server_type":"Dedicated","server_os":"Linux","password":true,"vac":true,"version":"7695204","steam_id":85568392924469998,"keywords":["nocrits","nodmgspread","payload","uncletopia"],"game_id":440,"stv_port":27026,"stv_name":"Uncletopia | Seattle | 2 | All Maps | STV","players":[{"user_id":223,"name":"ejschild745","steam_id":76561199013388867,"connected_time":533000000000,"state":"active","ping":64},{"user_id":202,"name":"Many Bees' Chilling","steam_id":76561198079641282,"connected_time":2628000000000,"state":"active","ping":50},{"user_id":219,"name":"Dolphin2Point0","steam_id":76561198299123353,"connected_time":798000000000,"state":"active","ping":114},{"user_id":205,"name":"ubiquitous man","steam_id":76561198073782350,"connected_time":1790000000000,"state":"active","ping":86},{"user_id":224,"name":"KFP Employee","steam_id":76561198353083688,"connected_time":533000000000,"state":"active","ping":106},{"user_id":180,"name":"reyez","steam_id":76561197970579072,"connected_time":3556000000000,"state":"active","ping":69},{"user_id":229,"name":"the dim locator","steam_id":76561198325306660,"connected_time":64000000000,"state":"active","ping":54},{"user_id":199,"name":"Kingpin","steam_id":76561198348922883,"connected_time":2780000000000,"state":"active","ping":103},{"user_id":194,"name":"Rock Kickass","steam_id":76561198450510841,"connected_time":2888000000000,"state":"active","ping":92},{"user_id":210,"name":"Carne Asada?","steam_id":76561198157252638,"connected_time":1562000000000,"state":"active","ping":90},{"user_id":226,"name":"Stapler","steam_id":76561198099295077,"connected_time":448000000000,"state":"active","ping":61},{"user_id":209,"name":"DrD","steam_id":76561198067266383,"connected_time":1652000000000,"state":"active","ping":38},{"user_id":100,"name":"Sad Sapling","steam_id":76561198075612150,"connected_time":9510000000000,"state":"active","ping":83},{"user_id":220,"name":"Liquid Gold","steam_id":76561198347510093,"connected_time":734000000000,"state":"active","ping":57},{"user_id":213,"name":"StarWither","steam_id":76561198383264295,"connected_time":1447000000000,"state":"active","ping":57},{"user_id":208,"name":"Ziggie Smalls","steam_id":76561198804592809,"connected_time":1676000000000,"state":"active","ping":50},{"user_id":197,"name":"Rip apple","steam_id":76561199234910318,"connected_time":2805000000000,"state":"active","ping":54},{"user_id":204,"name":"What are you doing?!","steam_id":76561198405248691,"connected_time":2502000000000,"state":"active","ping":67},{"user_id":227,"name":"la loveiathenne","steam_id":76561198046394237,"connected_time":439000000000,"state":"active","ping":45},{"user_id":190,"name":"Noodlesmasher2","steam_id":76561199084186813,"connected_time":3006000000000,"state":"active","ping":72},{"user_id":228,"name":"Spearit5464","steam_id":76561199241807676,"connected_time":416000000000,"state":"active","ping":52},{"user_id":214,"name":"corbenis","steam_id":76561199012442511,"connected_time":1412000000000,"state":"active","ping":83},{"user_id":216,"name":"‚ù§ Ashley ‚ù§","steam_id":76561198056428303,"connected_time":1251000000000,"state":"active","ping":83},{"user_id":201,"name":"[Bandit]","steam_id":76561197986919852,"connected_time":2686000000000,"state":"active","ping":49}]},{"server_id":17,"name":"Uncletopia | San Francisco | 1 | All Maps","name_short":"sfo-1","host":"sfo-1.us.uncletopia.com","port":27015,"enabled":true,"region":"us-west","cc":"us","latitude":37.77397,"longitude":-122.4313,"reserved":0,"last_update":"0001-01-01T00:00:00Z","name_a2s":"Uncletopia | San Francisco | 1 | All Maps","protocol":17,"map":"cp_sunshine","folder":"tf","game":"Team Fortress","app_id":440,"player_count":0,"max_players":24,"Bots":0,"server_type":"Dedicated","server_os":"Linux","password":true,"vac":true,"version":"7695204","steam_id":85568392924469999,"keywords":["cp","nocrits","nodmgspread","uncletopia"],"game_id":440,"stv_port":0,"stv_name":"","players":null},{"server_id":18,"name":"Uncletopia | San Francisco | 2 | All Maps","name_short":"sfo-2","host":"sfo-1.us.uncletopia.com","port":27025,"enabled":true,"region":"us-west","cc":"us","latitude":37.77397,"longitude":-122.4313,"reserved":0,"last_update":"0001-01-01T00:00:00Z","name_a2s":"Uncletopia | San Francisco | 2 | All Maps","protocol":17,"map":"pl_upward","folder":"tf","game":"Team Fortress","app_id":440,"player_count":15,"max_players":24,"Bots":0,"server_type":"Dedicated","server_os":"Linux","password":true,"vac":true,"version":"7695204","steam_id":85568392924470000,"keywords":["nocrits","nodmgspread","payload","uncletopia"],"game_id":440,"stv_port":27026,"stv_name":"Uncletopia | San Francisco | 2 | All Maps | STV","players":[{"user_id":6,"name":"Fawny","steam_id":76561198311363172,"connected_time":3598000000000,"state":"active","ping":63},{"user_id":7,"name":"BlueCinema","steam_id":76561198376605350,"connected_time":2723000000000,"state":"active","ping":99},{"user_id":23,"name":"≈Ωim","steam_id":76561198201677021,"connected_time":289000000000,"state":"active","ping":96},{"user_id":24,"name":"video games enjoyer","steam_id":76561199057086773,"connected_time":276000000000,"state":"active","ping":118},{"user_id":22,"name":"THEAWESOMEMARIO","steam_id":76561199091234980,"connected_time":469000000000,"state":"active","ping":65},{"user_id":16,"name":"SHIVERS [it/its]","steam_id":76561198001371063,"connected_time":1700000000000,"state":"active","ping":70},{"user_id":25,"name":"Miragelol","steam_id":76561198310890987,"connected_time":257000000000,"state":"active","ping":37},{"user_id":17,"name":"OH JIMMY I'M HOME #SaveTf2","steam_id":76561198396658806,"connected_time":1624000000000,"state":"active","ping":53},{"user_id":26,"name":"fulcrum","steam_id":76561198363821364,"connected_time":200000000000,"state":"active","ping":33},{"user_id":27,"name":"Polygunner","steam_id":76561199165741650,"connected_time":175000000000,"state":"active","ping":121},{"user_id":28,"name":"Homeless Man Nelson","steam_id":76561199021729498,"connected_time":137000000000,"state":"active","ping":116},{"user_id":29,"name":"Catalytic Converter Thief","steam_id":76561198115783486,"connected_time":108000000000,"state":"active","ping":45},{"user_id":30,"name":"bobtheninjaman","steam_id":76561198066424544,"connected_time":104000000000,"state":"active","ping":60},{"user_id":31,"name":"Meth Goblin","steam_id":76561198086355221,"connected_time":101000000000,"state":"active","ping":95},{"user_id":32,"name":"Devcronz","steam_id":76561198392905391,"connected_time":63000000000,"state":"active","ping":88}]},{"server_id":19,"name":"Uncletopia | San Francisco | 3 | No Payload","name_short":"sfo-3","host":"sfo-1.us.uncletopia.com","port":27035,"enabled":true,"region":"us-west","cc":"us","latitude":37.77397,"longitude":-122.4313,"reserved":0,"last_update":"0001-01-01T00:00:00Z","name_a2s":"Uncletopia | San Francisco | 3 | No Payload","protocol":17,"map":"cp_snakewater_final1","folder":"tf","game":"Team Fortress","app_id":440,"player_count":0,"max_players":24,"Bots":0,"server_type":"Dedicated","server_os":"Linux","password":true,"vac":true,"version":"7695204","steam_id":85568392924742824,"keywords":["cp","nocrits","nodmgspread","uncletopia"],"game_id":440,"stv_port":0,"stv_name":"","players":null},{"server_id":20,"name":"Uncletopia | San Francisco | 4 | Community","name_short":"sfo-4","host":"sfo-1.us.uncletopia.com","port":27045,"enabled":true,"region":"us-west","cc":"us","latitude":37.77397,"longitude":-122.4313,"reserved":0,"last_update":"0001-01-01T00:00:00Z","name_a2s":"Uncletopia | San Francisco | 4 | Community","protocol":17,"map":"koth_highpass","folder":"tf","game":"Team Fortress","app_id":440,"player_count":0,"max_players":24,"Bots":0,"server_type":"Dedicated","server_os":"Linux","password":true,"vac":true,"version":"7695204","steam_id":85568392924742826,"keywords":["cp","nocrits","nodmgspread","uncletopia"],"game_id":440,"stv_port":0,"stv_name":"","players":null},{"server_id":141,"name":"Uncletopia | Sydney | 1 | All Maps","name_short":"syd-1","host":"syd-1.au.uncletopia.com","port":27015,"enabled":true,"region":"au","cc":"au","latitude":-33.865143,"longitude":151.2099,"reserved":0,"last_update":"0001-01-01T00:00:00Z","name_a2s":"Uncletopia | Sydney | 1 | All Maps","protocol":17,"map":"koth_viaduct","folder":"tf","game":"Team Fortress","app_id":440,"player_count":0,"max_players":24,"Bots":0,"server_type":"Dedicated","server_os":"Linux","password":true,"vac":true,"version":"7695204","steam_id":85568392924470001,"keywords":["cp","nocrits","nodmgspread","uncletopia"],"game_id":440,"stv_port":27016,"stv_name":"Uncletopia | Sydney | 1 | All Maps | STV","players":null},{"server_id":123,"name":"Uncletopia | Sydney | 2 | All Maps","name_short":"syd-2","host":"syd-1.au.uncletopia.com","port":27025,"enabled":true,"region":"au","cc":"au","latitude":-33.865143,"longitude":151.2099,"reserved":0,"last_update":"0001-01-01T00:00:00Z","name_a2s":"Uncletopia | Sydney | 2 | All Maps","protocol":17,"map":"cp_altitude","folder":"tf","game":"Team Fortress","app_id":440,"player_count":11,"max_players":24,"Bots":0,"server_type":"Dedicated","server_os":"Linux","password":true,"vac":true,"version":"7695204","steam_id":85568392924470002,"keywords":["cp","nocrits","nodmgspread","uncletopia"],"game_id":440,"stv_port":27026,"stv_name":"Uncletopia | Sydney | 2 | All Maps | STV","players":[{"user_id":812,"name":"hawk","steam_id":76561198135164277,"connected_time":5443000000000,"state":"active","ping":53},{"user_id":839,"name":"Bing Soy","steam_id":76561198057093383,"connected_time":1466000000000,"state":"active","ping":44},{"user_id":832,"name":"CBTgaeming","steam_id":76561199089290128,"connected_time":2406000000000,"state":"active","ping":382},{"user_id":800,"name":"ManFlabs","steam_id":76561198971245592,"connected_time":8258000000000,"state":"active","ping":60},{"user_id":806,"name":"Pongo","steam_id":76561197972265004,"connected_time":6478000000000,"state":"active","ping":30},{"user_id":825,"name":"blicky","steam_id":76561198029829077,"connected_time":3247000000000,"state":"active","ping":92},{"user_id":838,"name":"The Nom","steam_id":76561197970978249,"connected_time":2047000000000,"state":"active","ping":57},{"user_id":803,"name":"Fps","steam_id":76561198077651488,"connected_time":7707000000000,"state":"active","ping":45},{"user_id":841,"name":"giodude002","steam_id":76561199064995827,"connected_time":436000000000,"state":"active","ping":256},{"user_id":843,"name":"Who Plays The Fool","steam_id":76561198327335539,"connected_time":177000000000,"state":"active","ping":35},{"user_id":831,"name":"not braddles [HF]","steam_id":76561198153854876,"connected_time":2763000000000,"state":"active","ping":44}]},{"server_id":395,"name":"Uncletopia | Sydney | 3 | All Maps","name_short":"syd-3","host":"syd-1.au.uncletopia.com","port":27035,"enabled":true,"region":"au","cc":"au","latitude":-33.865143,"longitude":151.2099,"reserved":0,"last_update":"0001-01-01T00:00:00Z","name_a2s":"Uncletopia | Sydney | 3 | All Maps","protocol":17,"map":"koth_lakeside_final","folder":"tf","game":"Team Fortress","app_id":440,"player_count":0,"max_players":24,"Bots":0,"server_type":"Dedicated","server_os":"Linux","password":true,"vac":true,"version":"7695204","steam_id":85568392925194467,"keywords":["cp","nocrits","nodmgspread","uncletopia"],"game_id":440,"stv_port":27036,"stv_name":"Uncletopia | Sydney | 3 | All Maps | STV","players":null},{"server_id":396,"name":"Uncletopia | Sydney | 4 | All Maps","name_short":"syd-4","host":"syd-1.au.uncletopia.com","port":27045,"enabled":true,"region":"au","cc":"au","latitude":-33.865143,"longitude":151.2099,"reserved":0,"last_update":"0001-01-01T00:00:00Z","name_a2s":"Uncletopia | Sydney | 4 | All Maps","protocol":17,"map":"cp_sunshine","folder":"tf","game":"Team Fortress","app_id":440,"player_count":0,"max_players":24,"Bots":0,"server_type":"Dedicated","server_os":"Linux","password":true,"vac":true,"version":"7695204","steam_id":85568392925397958,"keywords":["cp","nocrits","nodmgspread","uncletopia"],"game_id":440,"stv_port":27046,"stv_name":"Uncletopia | Sydney | 4 | All Maps | STV","players":null},{"server_id":58,"name":"Uncletopia | Sydney | 5 | No Payload","name_short":"syd-5","host":"syd-1.au.uncletopia.com","port":27055,"enabled":true,"region":"au","cc":"au","latitude":-33.865143,"longitude":151.2099,"reserved":0,"last_update":"0001-01-01T00:00:00Z","name_a2s":"Uncletopia | Sydney | 5 | No Payload","protocol":17,"map":"plr_nightfall_final","folder":"tf","game":"Team Fortress","app_id":440,"player_count":0,"max_players":24,"Bots":0,"server_type":"Dedicated","server_os":"Linux","password":true,"vac":true,"version":"7695204","steam_id":85568392925397959,"keywords":["nocrits","nodmgspread","payload","uncletopia"],"game_id":440,"stv_port":27056,"stv_name":"Uncletopia | Sydney | 5 | No Payload | STV","players":null},{"server_id":59,"name":"Uncletopia | Sydney | 6 | Community","name_short":"syd-6","host":"syd-1.au.uncletopia.com","port":27065,"enabled":true,"region":"au","cc":"au","latitude":-33.865143,"longitude":151.2099,"reserved":0,"last_update":"0001-01-01T00:00:00Z","name_a2s":"Uncletopia | Sydney | 6 | Community","protocol":17,"map":"workshop/koth_product_final.ugc454272353","folder":"tf","game":"Team Fortress","app_id":440,"player_count":0,"max_players":24,"Bots":0,"server_type":"Dedicated","server_os":"Linux","password":true,"vac":true,"version":"7695204","steam_id":85568392925397960,"keywords":["cp","nocrits","nodmgspread","uncletopia"],"game_id":440,"stv_port":27066,"stv_name":"Uncletopia | Sydney | 6 | Community | STV","players":null},{"server_id":49,"name":"Uncletopia | Warsaw | 1 | All Maps","name_short":"waw-1","host":"waw-1.pl.uncletopia.com","port":27015,"enabled":true,"region":"eu","cc":"pl","latitude":52.2297,"longitude":21.017532,"reserved":0,"last_update":"0001-01-01T00:00:00Z","name_a2s":"Uncletopia | Warsaw | 1 | All Maps","protocol":17,"map":"cp_mountainlab","folder":"tf","game":"Team Fortress","app_id":440,"player_count":0,"max_players":24,"Bots":0,"server_type":"Dedicated","server_os":"Linux","password":true,"vac":true,"version":"7695204","steam_id":85568392925397850,"keywords":["cp","nocrits","nodmgspread","uncletopia"],"game_id":440,"stv_port":27016,"stv_name":"Uncletopia | Warsaw | 1 | All Maps | STV","players":null},{"server_id":50,"name":"Uncletopia | Warsaw | 2 | All Maps","name_short":"waw-2","host":"waw-1.pl.uncletopia.com","port":27025,"enabled":true,"region":"eu","cc":"pl","latitude":52.2297,"longitude":21.017532,"reserved":0,"last_update":"0001-01-01T00:00:00Z","name_a2s":"Uncletopia | Warsaw | 2 | All Maps","protocol":17,"map":"cp_dustbowl","folder":"tf","game":"Team Fortress","app_id":440,"player_count":0,"max_players":24,"Bots":0,"server_type":"Dedicated","server_os":"Linux","password":true,"vac":true,"version":"7695204","steam_id":85568392925397851,"keywords":["cp","nocrits","nodmgspread","uncletopia"],"game_id":440,"stv_port":27026,"stv_name":"Uncletopia | Warsaw | 2 | All Maps | STV","players":null},{"server_id":51,"name":"Uncletopia | Warsaw | 3 | All Maps","name_short":"waw-3","host":"waw-1.pl.uncletopia.com","port":27035,"enabled":true,"region":"eu","cc":"pl","latitude":52.2297,"longitude":21.017532,"reserved":0,"last_update":"0001-01-01T00:00:00Z","name_a2s":"Uncletopia | Warsaw | 3 | All Maps","protocol":17,"map":"pl_frontier_final","folder":"tf","game":"Team Fortress","app_id":440,"player_count":0,"max_players":24,"Bots":0,"server_type":"Dedicated","server_os":"Linux","password":true,"vac":true,"version":"7695204","steam_id":85568392925397852,"keywords":["nocrits","nodmgspread","payload","uncletopia"],"game_id":440,"stv_port":27036,"stv_name":"Uncletopia | Warsaw | 3 | All Maps | STV","players":null},{"server_id":52,"name":"Uncletopia | Warsaw | 4 | All Maps","name_short":"waw-4","host":"waw-1.pl.uncletopia.com","port":27045,"enabled":true,"region":"eu","cc":"pl","latitude":52.2297,"longitude":21.017532,"reserved":0,"last_update":"0001-01-01T00:00:00Z","name_a2s":"Uncletopia | Warsaw | 4 | All Maps","protocol":17,"map":"pl_frontier_final","folder":"tf","game":"Team Fortress","app_id":440,"player_count":0,"max_players":24,"Bots":0,"server_type":"Dedicated","server_os":"Linux","password":true,"vac":true,"version":"7695204","steam_id":85568392925397853,"keywords":["nocrits","nodmgspread","payload","uncletopia"],"game_id":440,"stv_port":27046,"stv_name":"Uncletopia | Warsaw | 4 | All Maps | STV","players":null},{"server_id":53,"name":"Uncletopia | Warsaw | 5 | No Payload","name_short":"waw-5","host":"waw-1.pl.uncletopia.com","port":27055,"enabled":true,"region":"eu","cc":"pl","latitude":52.2297,"longitude":21.017532,"reserved":0,"last_update":"0001-01-01T00:00:00Z","name_a2s":"Uncletopia | Warsaw | 5 | No Payload","protocol":17,"map":"koth_highpass","folder":"tf","game":"Team Fortress","app_id":440,"player_count":7,"max_players":24,"Bots":0,"server_type":"Dedicated","server_os":"Linux","password":true,"vac":true,"version":"7695204","steam_id":85568392925397854,"keywords":["cp","nocrits","nodmgspread","uncletopia"],"game_id":440,"stv_port":27056,"stv_name":"Uncletopia | Warsaw | 5 | No Payload | STV","players":[{"user_id":99,"name":"PanAdrian00","steam_id":76561199170844894,"connected_time":1010000000000,"state":"active","ping":60},{"user_id":71,"name":"The Devil of Souls(novisor)","steam_id":76561199179871385,"connected_time":4895000000000,"state":"active","ping":106},{"user_id":101,"name":"Aliverysoc021","steam_id":76561199426920744,"connected_time":651000000000,"state":"active","ping":108},{"user_id":100,"name":"Ghozt","steam_id":76561198289838374,"connected_time":962000000000,"state":"active","ping":72},{"user_id":102,"name":"Golem77k","steam_id":76561199228666992,"connected_time":569000000000,"state":"active","ping":76},{"user_id":104,"name":"MomoInTheBox","steam_id":76561197994150695,"connected_time":16000000000,"state":"active","ping":135},{"user_id":96,"name":"Luca","steam_id":76561199316372343,"connected_time":1868000000000,"state":"active","ping":84}]},{"server_id":54,"name":"Uncletopia | Warsaw | 6 | Community","name_short":"waw-6","host":"waw-1.pl.uncletopia.com","port":27065,"enabled":true,"region":"eu","cc":"pl","latitude":52.2297,"longitude":21.017532,"reserved":0,"last_update":"0001-01-01T00:00:00Z","name_a2s":"Uncletopia | Warsaw | 6 | Community","protocol":17,"map":"pl_barnblitz","folder":"tf","game":"Team Fortress","app_id":440,"player_count":0,"max_players":24,"Bots":0,"server_type":"Dedicated","server_os":"Linux","password":true,"vac":true,"version":"7695204","steam_id":85568392925397856,"keywords":["nocrits","nodmgspread","payload","uncletopia"],"game_id":440,"stv_port":0,"stv_name":"","players":null}]}