{"status":true,"message":"","result":[{"server_id":9,"name":"Uncletopia | Atlanta | 1 | All Maps","name_short":"atl-1","host":"atl-1.us.uncletopia.com","port":27015,"enabled":true,"region":"us-east","cc":"us","latitude":33.753746,"longitude":-84.38633,"reserved":0,"last_update":"0001-01-01T00:00:00Z","name_a2s":"Uncletopia | Atlanta | 1 | All Maps","protocol":17,"map":"pl_badwater","folder":"tf","game":"Team Fortress","app_id":440,"player_count":18,"max_players":24,"Bots":0,"server_type":"Dedicated","server_os":"Linux","password":true,"vac":true,"version":"7882260","steam_id":85568392924469982,"keywords":["nocrits","nodmgspread","payload","uncletopia"],"game_id":440,"stv_port":27016,"stv_name":"Uncletopia | Atlanta | 1 | All Maps | STV","players":[{"user_id":806,"name":"KoolBucky","steam_id":76561198147927648,"connected_time":77000000000,"state":"active","ping":59},{"user_id":802,"name":"rose","steam_id":76561198048882285,"connected_time":302000000000,"state":"active","ping":56},{"user_id":784,"name":"BIG HOG","steam_id":76561198079923652,"connected_time":2482000000000,"state":"active","ping":68},{"user_id":803,"name":"Toonice","steam_id":76561198402994885,"connected_time":266000000000,"state":"active","ping":75},{"user_id":795,"name":"Onyx","steam_id":76561198275349640,"connected_time":1041000000000,"state":"active","ping":72},{"user_id":804,"name":"Dinner","steam_id":76561198067294811,"connected_time":121000000000,"state":"active","ping":74},{"user_id":799,"name":"eish","steam_id":76561198089463603,"connected_time":734000000000,"state":"active","ping":120},{"user_id":805,"name":"Dalsmo","steam_id":76561198062947397,"connected_time":81000000000,"state":"active","ping":45},{"user_id":757,"name":"ash","steam_id":76561198127890645,"connected_time":6248000000000,"state":"active","ping":61},{"user_id":807,"name":"Al'","steam_id":76561198105420574,"connected_time":40000000000,"state":"active","ping":68},{"user_id":798,"name":"Sophie","steam_id":76561198170408057,"connected_time":933000000000,"state":"active","ping":46},{"user_id":797,"name":"schalldämpfer","steam_id":76561198178303726,"connected_time":995000000000,"state":"active","ping":60},{"user_id":808,"name":"*****setget","steam_id":76561198118824188,"connected_time":30000000000,"state":"active","ping":115},{"user_id":809,"name":"Язь","steam_id":76561198251825868,"connected_time":12000000000,"state":"spawning","ping":193},{"user_id":740,"name":"bobbymcbobington","steam_id":76561199089411172,"connected_time":7526000000000,"state":"active","ping":105},{"user_id":790,"name":"milo","steam_id":76561199061380038,"connected_time":1710000000000,"state":"active","ping":60},{"user_id":778,"name":"ATL1 | on my hunting trip","steam_id":76561198315341646,"connected_time":3192000000000,"state":"active","ping":70},{"user_id":792,"name":"Am da Best","steam_id":76561198163825955,"connected_time":1117000000000,"state":"active","ping":105}]},{"server_id":104,"name":"Uncletopia | Atlanta | 2 | All Maps","name_short":"atl-2","host":"atl-1.us.uncletopia.com","port":27025,"enabled":true,"region":"us-east","cc":"us","latitude":33.753746,"longitude":-84.38633,"reserved":0,"last_update":"0001-01-01T00:00:00Z","name_a2s":"Uncletopia | Atlanta | 2 | All Maps","protocol":17,"map":"cp_sunshine","folder":"tf","game":"Team Fortress","app_id":440,"player_count":0,"max_players":24,"Bots":0,"server_type":"Dedicated","server_os":"Linux","password":true,"vac":true,"version":"7882260","steam_id":85568392924469983,"keywords":["cp","nocrits","nodmgspread","uncletopia"],"game_id":440,"stv_port":27026,"stv_name":"Uncletopia | Atlanta | 2 | All Maps | STV","players":null},{"server_id":400,"name":"Uncletopia | Atlanta | 3 | Community","name_short":"atl-3","host":"atl-1.us.uncletopia.com","port":27035,"enabled":true,"region":"us-east","cc":"us","latitude":33.753746,"longitude":-84.38633,"reserved":0,"last_update":"0001-01-01T00:00:00Z","name_a2s":"Uncletopia | Atlanta | 3 | Community","protocol":17,"map":"workshop/koth_synthetic_rc6a.ugc1549817316","folder":"tf","game":"Team Fortress","app_id":440,"player_count":0,"max_players":24,"Bots":0,"server_type":"Dedicated","server_os":"Linux","password":true,"vac":true,"version":"7882260","steam_id":85568392924515187,"keywords":["cp","nocrits","nodmgspread","uncletopia"],"game_id":440,"stv_port":27036,"stv_name":"Uncletopia | Atlanta | 3 | Community | STV","players":null},{"server_id":401,"name":"Uncletopia | Atlanta | 4 | No Payload","name_short":"atl-4","host":"atl-1.us.uncletopia.com","port":27045,"enabled":true,"region":"us-east","cc":"us","latitude":33.753746,"longitude":-84.38633,"reserved":0,"last_update":"0001-01-01T00:00:00Z","name_a2s":"","protocol":0,"map":"","folder":"","game":"","app_id":0,"player_count":0,"max_players":0,"Bots":0,"server_type":"","server_os":"","password":false,"vac":false,"version":"","steam_id":0,"keywords":null,"game_id":0,"stv_port":0,"stv_name":"","players":null},{"server_id":2,"name":"Uncletopia | Chicago | 1 | All Maps","name_short":"chi-1","host":"chi-1.us.uncletopia.com","port":27015,"enabled":true,"region":"us-central","cc":"us","latitude":41.881832,"longitude":-87.62318,"reserved":0,"last_update":"0001-01-01T00:00:00Z","name_a2s":"Uncletopia | Chicago | 1 | All Maps","protocol":17,"map":"cp_steel","folder":"tf","game":"Team Fortress","app_id":440,"player_count":25,"max_players":24,"Bots":0,"server_type":"Dedicated","server_os":"Linux","password":true,"vac":true,"version":"7882260","steam_id":85568392924469984,"keywords":["cp","nocrits","nodmgspread","uncletopia"],"game_id":440,"stv_port":27016,"stv_name":"Uncletopia | Chicago | 1 | All Maps | STV","players":[{"user_id":750,"name":"skosgo -eg","steam_id":76561197996403345,"connected_time":1241000000000,"state":"active","ping":93},{"user_id":756,"name":"ben","steam_id":76561198046698032,"connected_time":1199000000000,"state":"active","ping":75},{"user_id":754,"name":"rhen","steam_id":76561198085256979,"connected_time":1226000000000,"state":"active","ping":98},{"user_id":639,"name":"TransSammie","steam_id":76561198046331930,"connected_time":12364000000000,"state":"active","ping":89},{"user_id":770,"name":"Henry","steam_id":76561198300550331,"connected_time":559000000000,"state":"active","ping":61},{"user_id":757,"name":"brandon hoesli","steam_id":76561198156333207,"connected_time":1189000000000,"state":"active","ping":101},{"user_id":768,"name":"12 Inch Hershey Bar","steam_id":76561199427444982,"connected_time":579000000000,"state":"active","ping":87},{"user_id":751,"name":"meownt evewest :3","steam_id":76561198017686306,"connected_time":1240000000000,"state":"active","ping":159},{"user_id":747,"name":"Elmo's Eternal Damnation","steam_id":76561198321235979,"connected_time":1689000000000,"state":"active","ping":87},{"user_id":758,"name":"Coinclever","steam_id":76561198099972692,"connected_time":1140000000000,"state":"active","ping":104},{"user_id":690,"name":"dog","steam_id":76561198263873491,"connected_time":6882000000000,"state":"active","ping":38},{"user_id":752,"name":"tony hawk","steam_id":76561198172050802,"connected_time":1239000000000,"state":"active","ping":113},{"user_id":755,"name":"Ankh","steam_id":76561198095930645,"connected_time":1221000000000,"state":"active","ping":98},{"user_id":763,"name":"invb","steam_id":76561197998263914,"connected_time":744000000000,"state":"active","ping":50},{"user_id":767,"name":"strawberry","steam_id":76561198101926397,"connected_time":623000000000,"state":"active","ping":47},{"user_id":764,"name":"floofy","steam_id":76561198389769098,"connected_time":727000000000,"state":"active","ping":77},{"user_id":727,"name":"nori_420 (mute)","steam_id":76561199117134203,"connected_time":4158000000000,"state":"active","ping":110},{"user_id":765,"name":"Sire Salty","steam_id":76561198079639072,"connected_time":706000000000,"state":"active","ping":61},{"user_id":760,"name":"Tea Enthusiast","steam_id":76561198185583925,"connected_time":1091000000000,"state":"active","ping":56},{"user_id":753,"name":"maxie","steam_id":76561198043145751,"connected_time":1234000000000,"state":"active","ping":66},{"user_id":771,"name":"CoziestGlobe","steam_id":76561198199237735,"connected_time":86000000000,"state":"active","ping":76},{"user_id":724,"name":"The Mayo Man","steam_id":76561197995377425,"connected_time":4309000000000,"state":"active","ping":71},{"user_id":749,"name":"Deadhax","steam_id":76561198296581175,"connected_time":1552000000000,"state":"active","ping":68},{"user_id":772,"name":"gixtt ඞ","steam_id":76561198871648761,"connected_time":6000000000,"state":"spawning","ping":208},{"user_id":745,"name":"|AG| Level","steam_id":76561198063633592,"connected_time":2149000000000,"state":"active","ping":114}]},{"server_id":106,"name":"Uncletopia | Chicago | 2 | All Maps","name_short":"chi-2","host":"chi-1.us.uncletopia.com","port":27025,"enabled":true,"region":"us-central","cc":"us","latitude":41.881832,"longitude":-87.62318,"reserved":0,"last_update":"0001-01-01T00:00:00Z","name_a2s":"Uncletopia | Chicago | 2 | All Maps","protocol":17,"map":"pl_upward","folder":"tf","game":"Team Fortress","app_id":440,"player_count":16,"max_players":24,"Bots":0,"server_type":"Dedicated","server_os":"Linux","password":true,"vac":true,"version":"7882260","steam_id":85568392924469985,"keywords":["nocrits","nodmgspread","payload","uncletopia"],"game_id":440,"stv_port":27026,"stv_name":"Uncletopia | Chicago | 2 | All Maps | STV","players":[{"user_id":1079,"name":"[DEEP] Danmar33","steam_id":76561198056453091,"connected_time":806000000000,"state":"active","ping":49},{"user_id":1089,"name":"Pickle","steam_id":76561199238364591,"connected_time":407000000000,"state":"active","ping":72},{"user_id":1082,"name":"TheSnipersHat","steam_id":76561198057684066,"connected_time":670000000000,"state":"active","ping":94},{"user_id":1074,"name":"Conjurer","steam_id":76561198316256275,"connected_time":1034000000000,"state":"active","ping":56},{"user_id":1085,"name":"VIEGO J3L2404","steam_id":76561198273568117,"connected_time":582000000000,"state":"active","ping":61},{"user_id":1052,"name":"basil","steam_id":76561198075758026,"connected_time":2924000000000,"state":"active","ping":76},{"user_id":1087,"name":"VidzCMC","steam_id":76561198848142973,"connected_time":445000000000,"state":"active","ping":48},{"user_id":1088,"name":"Scoober","steam_id":76561199157558586,"connected_time":433000000000,"state":"active","ping":59},{"user_id":1090,"name":"yo dude wtf thats crazy wow","steam_id":76561198077324655,"connected_time":385000000000,"state":"active","ping":58},{"user_id":1072,"name":"Doubting Dave","steam_id":76561198066410749,"connected_time":1124000000000,"state":"active","ping":71},{"user_id":1056,"name":"JoJoJo","steam_id":76561198067153390,"connected_time":2643000000000,"state":"active","ping":55},{"user_id":1092,"name":"nunnyu","steam_id":76561198301909422,"connected_time":326000000000,"state":"active","ping":56},{"user_id":1069,"name":"Tree","steam_id":76561198195445331,"connected_time":1526000000000,"state":"active","ping":200},{"user_id":1093,"name":"chuumi","steam_id":76561198235508396,"connected_time":315000000000,"state":"active","ping":63},{"user_id":1059,"name":"kbsfnk","steam_id":76561198036884600,"connected_time":2529000000000,"state":"active","ping":77},{"user_id":1060,"name":"weird al genderswitch","steam_id":76561198079892116,"connected_time":2505000000000,"state":"active","ping":39}]},{"server_id":402,"name":"Uncletopia | Chicago | 3 | All Maps","name_short":"chi-3","host":"chi-1.us.uncletopia.com","port":27035,"enabled":true,"region":"us-central","cc":"us","latitude":41.881832,"longitude":-87.62318,"reserved":0,"last_update":"0001-01-01T00:00:00Z","name_a2s":"Uncletopia | Chicago | 3 | All Maps","protocol":17,"map":"cp_sunshine","folder":"tf","game":"Team Fortress","app_id":440,"player_count":24,"max_players":24,"Bots":0,"server_type":"Dedicated","server_os":"Linux","password":true,"vac":true,"version":"7882260","steam_id":85568392924515191,"keywords":["cp","nocrits","nodmgspread","uncletopia"],"game_id":440,"stv_port":27036,"stv_name":"Uncletopia | Chicago | 3 | All Maps | STV","players":[{"user_id":982,"name":"RedCrimsons","steam_id":76561198446060671,"connected_time":1469000000000,"state":"active","ping":81},{"user_id":978,"name":"day","steam_id":76561198194939617,"connected_time":2166000000000,"state":"active","ping":53},{"user_id":990,"name":"dmdr1969","steam_id":76561198080469611,"connected_time":1113000000000,"state":"active","ping":73},{"user_id":955,"name":"--_Cook_--","steam_id":76561198080855748,"connected_time":4600000000000,"state":"active","ping":48},{"user_id":983,"name":"GarnetFellOff","steam_id":76561199354909755,"connected_time":1427000000000,"state":"active","ping":88},{"user_id":980,"name":"Frimpimy","steam_id":76561198142605675,"connected_time":1737000000000,"state":"active","ping":55},{"user_id":967,"name":"Salty","steam_id":76561198019195732,"connected_time":3397000000000,"state":"active","ping":63},{"user_id":991,"name":"Antoni","steam_id":76561198090577320,"connected_time":998000000000,"state":"active","ping":60},{"user_id":971,"name":"a bad ass sniper","steam_id":76561198080934901,"connected_time":3156000000000,"state":"active","ping":62},{"user_id":984,"name":"CherriKat (she/her)","steam_id":76561198821297512,"connected_time":1402000000000,"state":"active","ping":98},{"user_id":960,"name":"PocketTieAMPLFY","steam_id":76561199080485881,"connected_time":4157000000000,"state":"active","ping":114},{"user_id":972,"name":"storm","steam_id":76561198091418867,"connected_time":3142000000000,"state":"active","ping":64},{"user_id":973,"name":"Combine Grunt","steam_id":76561198366834319,"connected_time":3133000000000,"state":"active","ping":91},{"user_id":992,"name":"Anax Alter","steam_id":76561198110249546,"connected_time":997000000000,"state":"active","ping":64},{"user_id":993,"name":"sr7988","steam_id":76561199483394752,"connected_time":993000000000,"state":"active","ping":91},{"user_id":1002,"name":"SmiteSight","steam_id":76561199122315920,"connected_time":556000000000,"state":"active","ping":62},{"user_id":996,"name":"wraith","steam_id":76561198429979731,"connected_time":937000000000,"state":"active","ping":149},{"user_id":1000,"name":"Cozy and Comfy!","steam_id":76561198310880776,"connected_time":583000000000,"state":"active","ping":77},{"user_id":997,"name":"Professor Peppermint","steam_id":76561198184017082,"connected_time":906000000000,"state":"active","ping":47},{"user_id":995,"name":":()","steam_id":76561198071991975,"connected_time":973000000000,"state":"active","ping":55},{"user_id":1004,"name":"pigswill","steam_id":76561197999081865,"connected_time":60000000000,"state":"active","ping":90},{"user_id":999,"name":"noahjwarner09","steam_id":76561199444479988,"connected_time":847000000000,"state":"active","ping":83},{"user_id":968,"name":"roast pig with apple in mouth","steam_id":76561198051353647,"connected_time":3306000000000,"state":"active","ping":63},{"user_id":977,"name":"raspy","steam_id":76561198027298961,"connected_time":2821000000000,"state":"active","ping":57}]},{"server_id":403,"name":"Uncletopia | Chicago | 4 | All Maps","name_short":"chi-4","host":"chi-1.us.uncletopia.com","port":27045,"enabled":true,"region":"us-central","cc":"us","latitude":41.881832,"longitude":-87.62318,"reserved":0,"last_update":"0001-01-01T00:00:00Z","name_a2s":"Uncletopia | Chicago | 4 | All Maps","protocol":17,"map":"pl_snowycoast","folder":"tf","game":"Team Fortress","app_id":440,"player_count":0,"max_players":24,"Bots":0,"server_type":"Dedicated","server_os":"Linux","password":true,"vac":true,"version":"7882260","steam_id":85568392924515193,"keywords":["nocrits","nodmgspread","payload","uncletopia"],"game_id":440,"stv_port":27046,"stv_name":"Uncletopia | Chicago | 4 | All Maps | STV","players":null},{"server_id":36,"name":"Uncletopia | Chicago | 5 | All Maps","name_short":"chi-5","host":"chi-2.us.uncletopia.com","port":27015,"enabled":true,"region":"us-central","cc":"us","latitude":41.881832,"longitude":-87.62318,"reserved":0,"last_update":"0001-01-01T00:00:00Z","name_a2s":"Uncletopia | Chicago | 5 | All Maps","protocol":17,"map":"pl_badwater","folder":"tf","game":"Team Fortress","app_id":440,"player_count":23,"max_players":24,"Bots":0,"server_type":"Dedicated","server_os":"Linux","password":true,"vac":true,"version":"7882260","steam_id":85568392924866362,"keywords":["nocrits","nodmgspread","payload","uncletopia"],"game_id":440,"stv_port":27016,"stv_name":"Uncletopia | Chicago | 5 | All Maps | STV","players":[{"user_id":835,"name":"Teh_Hsky","steam_id":76561198798630221,"connected_time":2806000000000,"state":"active","ping":77},{"user_id":862,"name":"tobrehto","steam_id":76561198097544038,"connected_time":532000000000,"state":"active","ping":94},{"user_id":800,"name":"void.","steam_id":76561198347856802,"connected_time":5177000000000,"state":"active","ping":86},{"user_id":856,"name":"0","steam_id":76561198994761483,"connected_time":1093000000000,"state":"active","ping":128},{"user_id":857,"name":"Frezzo","steam_id":76561198136208577,"connected_time":1073000000000,"state":"active","ping":79},{"user_id":843,"name":"Sensitive Shooter","steam_id":76561198041439581,"connected_time":2231000000000,"state":"active","ping":68},{"user_id":836,"name":"Wonglee","steam_id":76561199310553655,"connected_time":2802000000000,"state":"active","ping":85},{"user_id":865,"name":"diamondminer27","steam_id":76561198044482933,"connected_time":246000000000,"state":"active","ping":76},{"user_id":759,"name":"The Pig From Bad Piggies","steam_id":76561198929936926,"connected_time":6770000000000,"state":"active","ping":85},{"user_id":851,"name":"Chiaki Nanami","steam_id":76561198164782653,"connected_time":1944000000000,"state":"active","ping":63},{"user_id":832,"name":"LikeASir","steam_id":76561198042209721,"connected_time":2966000000000,"state":"active","ping":45},{"user_id":844,"name":"Cosmic sR","steam_id":76561198081738675,"connected_time":2181000000000,"state":"active","ping":84},{"user_id":845,"name":"Leroy","steam_id":76561199013064727,"connected_time":2154000000000,"state":"active","ping":75},{"user_id":837,"name":"AgenT BendeR RodrigueZ","steam_id":76561197962498428,"connected_time":2734000000000,"state":"active","ping":79},{"user_id":866,"name":"DawnNannas","steam_id":76561198042915117,"connected_time":184000000000,"state":"active","ping":114},{"user_id":864,"name":"Prophet","steam_id":76561198134948582,"connected_time":372000000000,"state":"active","ping":86},{"user_id":854,"name":"social distance warrior","steam_id":76561198128992994,"connected_time":1191000000000,"state":"active","ping":90},{"user_id":853,"name":"gerg","steam_id":76561197997127387,"connected_time":1747000000000,"state":"active","ping":101},{"user_id":840,"name":"trainmarine -bt","steam_id":76561198341784551,"connected_time":2476000000000,"state":"active","ping":61},{"user_id":858,"name":"ogrelord","steam_id":76561199121830457,"connected_time":1068000000000,"state":"active","ping":89},{"user_id":852,"name":"A Can of Arizona Green Tea","steam_id":76561198062481133,"connected_time":1924000000000,"state":"active","ping":80},{"user_id":815,"name":"HMS ThunderchildTF2","steam_id":76561198296568562,"connected_time":4670000000000,"state":"active","ping":104},{"user_id":827,"name":"NexFrost","steam_id":76561197985774837,"connected_time":3878000000000,"state":"active","ping":63}]},{"server_id":37,"name":"Uncletopia | Chicago | 6 | All Maps","name_short":"chi-6","host":"chi-2.us.uncletopia.com","port":27025,"enabled":true,"region":"us-central","cc":"us","latitude":41.881832,"longitude":-87.62318,"reserved":0,"last_update":"0001-01-01T00:00:00Z","name_a2s":"Uncletopia | Chicago | 6 | All Maps","protocol":17,"map":"pl_snowycoast","folder":"tf","game":"Team Fortress","app_id":440,"player_count":24,"max_players":24,"Bots":0,"server_type":"Dedicated","server_os":"Linux","password":true,"vac":true,"version":"7882260","steam_id":85568392924866363,"keywords":["nocrits","nodmgspread","payload","uncletopia"],"game_id":440,"stv_port":27026,"stv_name":"Uncletopia | Chicago | 6 | All Maps | STV","players":[{"user_id":877,"name":"The Assistant Regional Manager","steam_id":76561199221484936,"connected_time":1436000000000,"state":"active","ping":116},{"user_id":875,"name":"Mels","steam_id":76561198144468740,"connected_time":1497000000000,"state":"active","ping":101},{"user_id":815,"name":"The_Pacific_gamer","steam_id":76561198089491446,"connected_time":5793000000000,"state":"active","ping":97},{"user_id":891,"name":"swag messiah","steam_id":76561198204995668,"connected_time":807000000000,"state":"active","ping":76},{"user_id":873,"name":"Cob","steam_id":76561198079750550,"connected_time":1509000000000,"state":"active","ping":68},{"user_id":893,"name":"Free1337","steam_id":76561198034160133,"connected_time":262000000000,"state":"active","ping":60},{"user_id":871,"name":"CtrlAlt","steam_id":76561198024191112,"connected_time":1666000000000,"state":"active","ping":90},{"user_id":894,"name":"Gabinator32","steam_id":76561198872467183,"connected_time":259000000000,"state":"active","ping":45},{"user_id":861,"name":"Noctis","steam_id":76561198845208323,"connected_time":2568000000000,"state":"active","ping":97},{"user_id":889,"name":"Jeff the 19th","steam_id":76561198189315491,"connected_time":920000000000,"state":"active","ping":65},{"user_id":878,"name":"A_guy_on_the_internet","steam_id":76561198330044146,"connected_time":1426000000000,"state":"active","ping":75},{"user_id":879,"name":"DoubleCheck","steam_id":76561198105194407,"connected_time":1261000000000,"state":"active","ping":36},{"user_id":880,"name":"D-Class 1278","steam_id":76561198121316353,"connected_time":1190000000000,"state":"active","ping":87},{"user_id":892,"name":"Sparse","steam_id":76561198865084441,"connected_time":791000000000,"state":"active","ping":74},{"user_id":872,"name":"smartGuy2008","steam_id":76561198812703349,"connected_time":1642000000000,"state":"active","ping":99},{"user_id":865,"name":"scardthegamer","steam_id":76561199225615142,"connected_time":2399000000000,"state":"active","ping":104},{"user_id":866,"name":"Mitsubishi Materials","steam_id":76561198151871198,"connected_time":2278000000000,"state":"active","ping":59},{"user_id":881,"name":"Baron","steam_id":76561198071245393,"connected_time":1170000000000,"state":"active","ping":53},{"user_id":895,"name":"Binah","steam_id":76561198222931940,"connected_time":220000000000,"state":"active","ping":99},{"user_id":887,"name":"[Spammy]","steam_id":76561198973370004,"connected_time":1001000000000,"state":"active","ping":105},{"user_id":886,"name":"lorelius hogglefart","steam_id":76561198211781375,"connected_time":1006000000000,"state":"active","ping":78},{"user_id":883,"name":"One Shot and A Miss","steam_id":76561198124269698,"connected_time":1151000000000,"state":"active","ping":65},{"user_id":884,"name":"MrPotatoo15","steam_id":76561199153152402,"connected_time":1124000000000,"state":"active","ping":71},{"user_id":885,"name":"Sonata","steam_id":76561198088165440,"connected_time":1050000000000,"state":"active","ping":94}]},{"server_id":38,"name":"Uncletopia | Chicago | 7 | Stopwatch Beta","name_short":"chi-7","host":"chi-2.us.uncletopia.com","port":27035,"enabled":true,"region":"us-central","cc":"us","latitude":41.881832,"longitude":-87.62318,"reserved":0,"last_update":"0001-01-01T00:00:00Z","name_a2s":"Uncletopia | Chicago | 7 | Stopwatch Beta","protocol":17,"map":"pl_borneo","folder":"tf","game":"Team Fortress","app_id":440,"player_count":0,"max_players":24,"Bots":0,"server_type":"Dedicated","server_os":"Linux","password":true,"vac":true,"version":"7882260","steam_id":85568392924866364,"keywords":["nocrits","nodmgspread","payload","uncletopia"],"game_id":440,"stv_port":27036,"stv_name":"Uncletopia | Chicago | 7 | Stopwatch Beta | STV","players":null},{"server_id":39,"name":"Uncletopia | Chicago | 8 | Community","name_short":"chi-8","host":"chi-2.us.uncletopia.com","port":27045,"enabled":true,"region":"us-central","cc":"us","latitude":41.881832,"longitude":-87.62318,"reserved":0,"last_update":"0001-01-01T00:00:00Z","name_a2s":"Uncletopia | Chicago | 8 | Community","protocol":17,"map":"workshop/cp_fulgur_rc2a.ugc2068252300","folder":"tf","game":"Team Fortress","app_id":440,"player_count":0,"max_players":24,"Bots":0,"server_type":"Dedicated","server_os":"Linux","password":true,"vac":true,"version":"7882260","steam_id":85568392924866365,"keywords":["cp","nocrits","nodmgspread","uncletopia"],"game_id":440,"stv_port":27046,"stv_name":"Uncletopia | Chicago | 8 | Community | STV","players":null},{"server_id":8,"name":"Uncletopia | Dallas | 1 | All Maps","name_short":"dal-1","host":"dal-1.us.uncletopia.com","port":27015,"enabled":true,"region":"us-central","cc":"us","latitude":32.779167,"longitude":-96.80889,"reserved":0,"last_update":"0001-01-01T00:00:00Z","name_a2s":"Uncletopia | Dallas | 1 | All Maps","protocol":17,"map":"pl_upward","folder":"tf","game":"Team Fortress","app_id":440,"player_count":24,"max_players":24,"Bots":0,"server_type":"Dedicated","server_os":"Linux","password":true,"vac":true,"version":"7882260","steam_id":85568392924469986,"keywords":["nocrits","nodmgspread","payload","uncletopia"],"game_id":440,"stv_port":27016,"stv_name":"Uncletopia | Dallas | 1 | All Maps | STV","players":[{"user_id":781,"name":"I pocket eboys *♥‧₊˚","steam_id":76561198048925904,"connected_time":2073000000000,"state":"active","ping":84},{"user_id":779,"name":"Dreamzapp","steam_id":76561199084936632,"connected_time":2448000000000,"state":"active","ping":99},{"user_id":804,"name":"THinkBOX546","steam_id":76561198928550867,"connected_time":606000000000,"state":"active","ping":81},{"user_id":757,"name":"Jax","steam_id":76561198251160282,"connected_time":4564000000000,"state":"active","ping":88},{"user_id":805,"name":"Shamrock Shake Oct.10.2020 @8pm","steam_id":76561198833313201,"connected_time":588000000000,"state":"active","ping":86},{"user_id":784,"name":"See You Space Cowboy","steam_id":76561198202240772,"connected_time":1872000000000,"state":"active","ping":69},{"user_id":774,"name":"bolainassr0","steam_id":76561199079078845,"connected_time":2850000000000,"state":"active","ping":91},{"user_id":776,"name":"Westie No-thumbs","steam_id":76561198398603269,"connected_time":2525000000000,"state":"active","ping":70},{"user_id":785,"name":"connie kins","steam_id":76561198074701151,"connected_time":1828000000000,"state":"active","ping":76},{"user_id":751,"name":"Jettey","steam_id":76561198064018303,"connected_time":4700000000000,"state":"active","ping":72},{"user_id":803,"name":"Jim Lahey","steam_id":76561198024596083,"connected_time":754000000000,"state":"active","ping":110},{"user_id":786,"name":"DragonHeart","steam_id":76561198013245625,"connected_time":1818000000000,"state":"active","ping":73},{"user_id":796,"name":"my piss is neon yellow","steam_id":76561198257023512,"connected_time":1611000000000,"state":"active","ping":48},{"user_id":788,"name":"poggerchamp","steam_id":76561199145124973,"connected_time":1787000000000,"state":"active","ping":70},{"user_id":802,"name":"RainboomCrash","steam_id":76561198065612273,"connected_time":951000000000,"state":"active","ping":99},{"user_id":800,"name":"Dairy Queen","steam_id":76561198285298576,"connected_time":1336000000000,"state":"active","ping":84},{"user_id":806,"name":"Tired","steam_id":76561198072620682,"connected_time":576000000000,"state":"active","ping":90},{"user_id":801,"name":"white woman","steam_id":76561199116679777,"connected_time":1067000000000,"state":"active","ping":71},{"user_id":793,"name":"honked off the bobo","steam_id":76561198123287268,"connected_time":1728000000000,"state":"active","ping":66},{"user_id":809,"name":"rockstar","steam_id":76561198086333125,"connected_time":279000000000,"state":"active","ping":69},{"user_id":810,"name":"ふわふわ毛布","steam_id":76561198088403016,"connected_time":262000000000,"state":"active","ping":180},{"user_id":799,"name":"Whitelock","steam_id":76561197996016130,"connected_time":1476000000000,"state":"active","ping":73},{"user_id":798,"name":"cass","steam_id":76561198074502046,"connected_time":1500000000000,"state":"active","ping":95},{"user_id":752,"name":"Marion Moseby","steam_id":76561198052477319,"connected_time":4680000000000,"state":"active","ping":76}]},{"server_id":108,"name":"Uncletopia | Dallas | 2 | All Maps","name_short":"dal-2","host":"dal-1.us.uncletopia.com","port":27025,"enabled":true,"region":"us-central","cc":"us","latitude":32.779167,"longitude":-96.80889,"reserved":0,"last_update":"0001-01-01T00:00:00Z","name_a2s":"Uncletopia | Dallas | 2 | All Maps","protocol":17,"map":"pl_upward","folder":"tf","game":"Team Fortress","app_id":440,"player_count":24,"max_players":24,"Bots":0,"server_type":"Dedicated","server_os":"Linux","password":true,"vac":true,"version":"7882260","steam_id":85568392924469988,"keywords":["nocrits","nodmgspread","payload","uncletopia"],"game_id":440,"stv_port":27026,"stv_name":"Uncletopia | Dallas | 2 | All Maps | STV","players":[{"user_id":731,"name":"Mama's little man","steam_id":76561198042418423,"connected_time":658000000000,"state":"active","ping":65},{"user_id":720,"name":"Lex","steam_id":76561198069948353,"connected_time":1520000000000,"state":"active","ping":57},{"user_id":737,"name":"b0urbaki7","steam_id":76561198141342345,"connected_time":511000000000,"state":"active","ping":89},{"user_id":686,"name":"Moonage Lobotomy","steam_id":76561198045837710,"connected_time":4553000000000,"state":"active","ping":47},{"user_id":727,"name":"captainspatklz","steam_id":76561198432167270,"connected_time":1196000000000,"state":"active","ping":74},{"user_id":733,"name":"OOJW801","steam_id":76561198191884159,"connected_time":585000000000,"state":"active","ping":86},{"user_id":726,"name":"minty","steam_id":76561198062821894,"connected_time":1251000000000,"state":"active","ping":44},{"user_id":734,"name":"GingerIsTheThing","steam_id":76561198801787983,"connected_time":578000000000,"state":"active","ping":78},{"user_id":690,"name":"jjsamachama","steam_id":76561198964488850,"connected_time":4444000000000,"state":"active","ping":82},{"user_id":735,"name":"Female Gamer","steam_id":76561199366482682,"connected_time":575000000000,"state":"active","ping":109},{"user_id":691,"name":"Eadguy","steam_id":76561198029852831,"connected_time":4387000000000,"state":"active","ping":114},{"user_id":736,"name":"PeskyCat41","steam_id":76561199243005928,"connected_time":574000000000,"state":"active","ping":71},{"user_id":742,"name":"Butthole Surfer","steam_id":76561198020526407,"connected_time":205000000000,"state":"active","ping":59},{"user_id":694,"name":"Nyrator","steam_id":76561198018640479,"connected_time":4329000000000,"state":"active","ping":106},{"user_id":704,"name":"Elias","steam_id":76561198106431732,"connected_time":2526000000000,"state":"active","ping":61},{"user_id":662,"name":"Cheese","steam_id":76561199207081299,"connected_time":7012000000000,"state":"active","ping":112},{"user_id":739,"name":"JZ","steam_id":76561198377029198,"connected_time":467000000000,"state":"active","ping":79},{"user_id":743,"name":"hempurr :3","steam_id":76561198159477619,"connected_time":204000000000,"state":"active","ping":63},{"user_id":678,"name":"CoolifiedGaming","steam_id":76561199240266706,"connected_time":5731000000000,"state":"active","ping":116},{"user_id":740,"name":"UnkownGamerLOL","steam_id":76561198225902368,"connected_time":455000000000,"state":"active","ping":71},{"user_id":713,"name":"Galactamarx","steam_id":76561198028065755,"connected_time":2270000000000,"state":"active","ping":67},{"user_id":698,"name":"Invisorum","steam_id":76561198051902115,"connected_time":4240000000000,"state":"active","ping":107},{"user_id":714,"name":"errant","steam_id":76561197961758410,"connected_time":2267000000000,"state":"active","ping":44},{"user_id":741,"name":"CHIKN","steam_id":76561198277792665,"connected_time":419000000000,"state":"active","ping":78}]},{"server_id":5,"name":"Uncletopia | Frankfurt | 1 | All Maps","name_short":"frk-1","host":"frk-1.de.uncletopia.com","port":27015,"enabled":true,"region":"eu","cc":"de","latitude":50.110924,"longitude":8.682127,"reserved":0,"last_update":"0001-01-01T00:00:00Z","name_a2s":"Uncletopia | Frankfurt | 1 | All Maps","protocol":17,"map":"cp_process_final","folder":"tf","game":"Team Fortress","app_id":440,"player_count":0,"max_players":24,"Bots":0,"server_type":"Dedicated","server_os":"Linux","password":true,"vac":true,"version":"7882260","steam_id":85568392924469989,"keywords":["cp","nocrits","nodmgspread","uncletopia"],"game_id":440,"stv_port":27016,"stv_name":"Uncletopia | Frankfurt | 1 | All Maps | STV","players":null},{"server_id":110,"name":"Uncletopia | Frankfurt | 2 | All Maps","name_short":"frk-2","host":"frk-1.de.uncletopia.com","port":27025,"enabled":true,"region":"eu","cc":"de","latitude":50.110924,"longitude":8.682127,"reserved":0,"last_update":"0001-01-01T00:00:00Z","name_a2s":"Uncletopia | Frankfurt | 2 | All Maps","protocol":17,"map":"pl_swiftwater_final1","folder":"tf","game":"Team Fortress","app_id":440,"player_count":0,"max_players":24,"Bots":0,"server_type":"Dedicated","server_os":"Linux","password":true,"vac":true,"version":"7882260","steam_id":85568392924469990,"keywords":["nocrits","nodmgspread","payload","uncletopia"],"game_id":440,"stv_port":27026,"stv_name":"Uncletopia | Frankfurt | 2 | All Maps | STV","players":null},{"server_id":308,"name":"Uncletopia | Frankfurt | 3 | All Maps","name_short":"frk-3","host":"frk-1.de.uncletopia.com","port":27035,"enabled":true,"region":"eu","cc":"de","latitude":50.110924,"longitude":8.682127,"reserved":0,"last_update":"0001-01-01T00:00:00Z","name_a2s":"Uncletopia | Frankfurt | 3 | All Maps","protocol":17,"map":"pl_snowycoast","folder":"tf","game":"Team Fortress","app_id":440,"player_count":0,"max_players":24,"Bots":0,"server_type":"Dedicated","server_os":"Linux","password":true,"vac":true,"version":"7882260","steam_id":85568392924504274,"keywords":["nocrits","nodmgspread","payload","uncletopia"],"game_id":440,"stv_port":27036,"stv_name":"Uncletopia | Frankfurt | 3 | All Maps | STV","players":null},{"server_id":309,"name":"Uncletopia | Frankfurt | 4 | All Maps","name_short":"frk-4","host":"frk-1.de.uncletopia.com","port":27045,"enabled":true,"region":"eu","cc":"de","latitude":50.110924,"longitude":8.682127,"reserved":0,"last_update":"0001-01-01T00:00:00Z","name_a2s":"Uncletopia | Frankfurt | 4 | All Maps","protocol":17,"map":"pl_frontier_final","folder":"tf","game":"Team Fortress","app_id":440,"player_count":17,"max_players":24,"Bots":0,"server_type":"Dedicated","server_os":"Linux","password":true,"vac":true,"version":"7882260","steam_id":85568392924504275,"keywords":["nocrits","nodmgspread","payload","uncletopia"],"game_id":440,"stv_port":27046,"stv_name":"Uncletopia | Frankfurt | 4 | All Maps | STV","players":[{"user_id":21,"name":"Egor Pomidor","steam_id":76561199175688390,"connected_time":1671000000000,"state":"active","ping":75},{"user_id":5,"name":"FanFish","steam_id":76561199389558024,"connected_time":5500000000000,"state":"active","ping":66},{"user_id":11,"name":"DeterminedXD[HUN]","steam_id":76561199469006453,"connected_time":4331000000000,"state":"active","ping":90},{"user_id":14,"name":"Therapissed","steam_id":76561198966634987,"connected_time":3686000000000,"state":"active","ping":106},{"user_id":24,"name":"Mr. Shadow | Folfie","steam_id":76561198037028507,"connected_time":1125000000000,"state":"active","ping":57},{"user_id":16,"name":"copium addict","steam_id":76561199401665282,"connected_time":3476000000000,"state":"active","ping":101},{"user_id":32,"name":"Rin-Nakaret","steam_id":76561197971051188,"connected_time":392000000000,"state":"active","ping":60},{"user_id":26,"name":"taurtiscirlan","steam_id":76561198959320606,"connected_time":958000000000,"state":"active","ping":78},{"user_id":27,"name":"Blumo","steam_id":76561198152715624,"connected_time":814000000000,"state":"active","ping":86},{"user_id":28,"name":"Moby Chick (F2P)","steam_id":76561198151152730,"connected_time":713000000000,"state":"active","ping":108},{"user_id":29,"name":"zorze supreme.exe","steam_id":76561198996333022,"connected_time":649000000000,"state":"active","ping":65},{"user_id":30,"name":"-=Vainglory=-","steam_id":76561198028492666,"connected_time":532000000000,"state":"active","ping":126},{"user_id":31,"name":"Денис Базука","steam_id":76561198835849082,"connected_time":457000000000,"state":"active","ping":73},{"user_id":35,"name":"하늘의 피","steam_id":76561198978262040,"connected_time":268000000000,"state":"active","ping":74},{"user_id":34,"name":"shits in urinals","steam_id":76561199480942903,"connected_time":277000000000,"state":"active","ping":69},{"user_id":36,"name":"godzillaturkmen","steam_id":76561198399184483,"connected_time":229000000000,"state":"active","ping":99},{"user_id":37,"name":"Feigelman","steam_id":76561199404585461,"connected_time":225000000000,"state":"active","ping":75}]},{"server_id":310,"name":"Uncletopia | Frankfurt | 5 | All Maps","name_short":"frk-5","host":"frk-1.de.uncletopia.com","port":27055,"enabled":true,"region":"eu","cc":"de","latitude":50.110924,"longitude":8.682127,"reserved":0,"last_update":"0001-01-01T00:00:00Z","name_a2s":"Uncletopia | Frankfurt | 5 | All Maps","protocol":17,"map":"cp_mountainlab","folder":"tf","game":"Team Fortress","app_id":440,"player_count":0,"max_players":24,"Bots":0,"server_type":"Dedicated","server_os":"Linux","password":true,"vac":true,"version":"7882260","steam_id":85568392924504277,"keywords":["cp","nocrits","nodmgspread","uncletopia"],"game_id":440,"stv_port":27056,"stv_name":"Uncletopia | Frankfurt | 5 | All Maps | STV","players":null},{"server_id":311,"name":"Uncletopia | Frankfurt | 6 | All Maps","name_short":"frk-6","host":"frk-1.de.uncletopia.com","port":27065,"enabled":true,"region":"eu","cc":"de","latitude":50.110924,"longitude":8.682127,"reserved":0,"last_update":"0001-01-01T00:00:00Z","name_a2s":"Uncletopia | Frankfurt | 6 | All Maps","protocol":17,"map":"pl_badwater","folder":"tf","game":"Team Fortress","app_id":440,"player_count":0,"max_players":24,"Bots":0,"server_type":"Dedicated","server_os":"Linux","password":true,"vac":true,"version":"7882260","steam_id":85568392924504278,"keywords":["nocrits","nodmgspread","payload","uncletopia"],"game_id":440,"stv_port":27066,"stv_name":"Uncletopia | Frankfurt | 6 | All Maps | STV","players":null},{"server_id":23,"name":"Uncletopia | Frankfurt | 7 | Stopwatch Beta","name_short":"frk-7","host":"frk-1.de.uncletopia.com","port":27075,"enabled":true,"region":"eu","cc":"de","latitude":50.110924,"longitude":8.682127,"reserved":0,"last_update":"0001-01-01T00:00:00Z","name_a2s":"Uncletopia | Frankfurt | 7 | Stopwatch Beta","protocol":17,"map":"cp_dustbowl","folder":"tf","game":"Team Fortress","app_id":440,"player_count":0,"max_players":24,"Bots":0,"server_type":"Dedicated","server_os":"Linux","password":true,"vac":true,"version":"7882260","steam_id":85568392924742827,"keywords":["cp","nocrits","nodmgspread","uncletopia"],"game_id":440,"stv_port":27076,"stv_name":"Uncletopia | Frankfurt | 7 | Stopwatch Beta | STV","players":null},{"server_id":24,"name":"Uncletopia | Frankfurt | 8 | Community","name_short":"frk-8","host":"frk-1.de.uncletopia.com","port":27085,"enabled":true,"region":"eu","cc":"de","latitude":50.110924,"longitude":8.682127,"reserved":0,"last_update":"0001-01-01T00:00:00Z","name_a2s":"Uncletopia | Frankfurt | 8 | Community","protocol":17,"map":"koth_cascade","folder":"tf","game":"Team Fortress","app_id":440,"player_count":0,"max_players":24,"Bots":0,"server_type":"Dedicated","server_os":"Linux","password":true,"vac":true,"version":"7882260","steam_id":85568392924742828,"keywords":["cp","nocrits","nodmgspread","uncletopia"],"game_id":440,"stv_port":27086,"stv_name":"Uncletopia | Frankfurt | 8 | Community | STV","players":null},{"server_id":202,"name":"Uncletopia | Hong Kong | 1 | All Maps","name_short":"hgk-1","host":"hgk-1.hk.uncletopia.com","port":27015,"enabled":true,"region":"asia","cc":"hk","latitude":22.302711,"longitude":114.177216,"reserved":0,"last_update":"0001-01-01T00:00:00Z","name_a2s":"Uncletopia | Hong Kong | 1 | All Maps","protocol":17,"map":"pl_goldrush","folder":"tf","game":"Team Fortress","app_id":440,"player_count":24,"max_players":24,"Bots":0,"server_type":"Dedicated","server_os":"Linux","password":true,"vac":true,"version":"7882260","steam_id":85568392924494504,"keywords":["nocrits","nodmgspread","payload","uncletopia"],"game_id":440,"stv_port":27016,"stv_name":"Uncletopia | Hong Kong | 1 | All Maps | STV","players":[{"user_id":83,"name":"BAD PYRO PLAYER","steam_id":76561198074339034,"connected_time":3040000000000,"state":"active","ping":75},{"user_id":101,"name":"El Blanco","steam_id":76561198100044991,"connected_time":1119000000000,"state":"active","ping":136},{"user_id":38,"name":"Heavy Fingers Guy","steam_id":76561199016545154,"connected_time":5497000000000,"state":"active","ping":39},{"user_id":98,"name":"cellum95","steam_id":76561198172146871,"connected_time":1281000000000,"state":"active","ping":79},{"user_id":77,"name":"Lelouch","steam_id":76561198828840546,"connected_time":3313000000000,"state":"active","ping":77},{"user_id":90,"name":"xd45_","steam_id":76561198410772507,"connected_time":2464000000000,"state":"active","ping":100},{"user_id":84,"name":"Chomer","steam_id":76561199034546642,"connected_time":2959000000000,"state":"active","ping":103},{"user_id":50,"name":"killman47","steam_id":76561198348487408,"connected_time":4380000000000,"state":"active","ping":42},{"user_id":109,"name":"cstr","steam_id":76561198125946388,"connected_time":482000000000,"state":"active","ping":100},{"user_id":52,"name":"Humarazi","steam_id":76561198404352831,"connected_time":4376000000000,"state":"active","ping":70},{"user_id":55,"name":"Silent Game","steam_id":76561198136685157,"connected_time":4246000000000,"state":"active","ping":57},{"user_id":102,"name":"Theducktube","steam_id":76561198137265224,"connected_time":1117000000000,"state":"active","ping":119},{"user_id":105,"name":"Piezapan","steam_id":76561198877700372,"connected_time":901000000000,"state":"active","ping":148},{"user_id":63,"name":"7853","steam_id":76561199390507975,"connected_time":3773000000000,"state":"active","ping":52},{"user_id":108,"name":"twitch.tv/tf2ferb","steam_id":76561198074413124,"connected_time":633000000000,"state":"active","ping":86},{"user_id":82,"name":"帕","steam_id":76561198439343999,"connected_time":3148000000000,"state":"active","ping":97},{"user_id":69,"name":"Darknight","steam_id":76561199090139287,"connected_time":3547000000000,"state":"active","ping":85},{"user_id":86,"name":"NootNoot","steam_id":76561199122109977,"connected_time":2892000000000,"state":"active","ping":115},{"user_id":110,"name":"JDSFE","steam_id":76561198975490851,"connected_time":420000000000,"state":"active","ping":114},{"user_id":73,"name":"ɔuᗡA ɟƨuᒐ","steam_id":76561199031283970,"connected_time":3390000000000,"state":"active","ping":75},{"user_id":93,"name":"Engineer Gaming","steam_id":76561199015521820,"connected_time":2340000000000,"state":"active","ping":92},{"user_id":113,"name":"17","steam_id":76561198241530712,"connected_time":0,"state":"spawning","ping":15},{"user_id":112,"name":"ObscuroLucem","steam_id":76561198875037943,"connected_time":40000000000,"state":"active","ping":91},{"user_id":104,"name":"demo mesa","steam_id":76561198008307645,"connected_time":972000000000,"state":"active","ping":129}]},{"server_id":1,"name":"Uncletopia | Los Angeles | 1 | All Maps","name_short":"lax-1","host":"lax-1.us.uncletopia.com","port":27015,"enabled":true,"region":"us-west","cc":"us","latitude":33.94279,"longitude":-118.41004,"reserved":0,"last_update":"0001-01-01T00:00:00Z","name_a2s":"Uncletopia | Los Angeles | 1 | All Maps","protocol":17,"map":"cp_snakewater_final1","folder":"tf","game":"Team Fortress","app_id":440,"player_count":24,"max_players":24,"Bots":0,"server_type":"Dedicated","server_os":"Linux","password":true,"vac":true,"version":"7882260","steam_id":85568392924469991,"keywords":["cp","nocrits","nodmgspread","uncletopia"],"game_id":440,"stv_port":27016,"stv_name":"Uncletopia | Los Angeles | 1 | All Maps | STV","players":[{"user_id":633,"name":"LX-24","steam_id":76561198016168993,"connected_time":2354000000000,"state":"active","ping":81},{"user_id":609,"name":"Thequirka #ForFountainMann","steam_id":76561198968058652,"connected_time":3752000000000,"state":"active","ping":70},{"user_id":654,"name":"Skagerecked","steam_id":76561198006578524,"connected_time":562000000000,"state":"active","ping":80},{"user_id":639,"name":"Jeeper","steam_id":76561198155583692,"connected_time":1795000000000,"state":"active","ping":114},{"user_id":659,"name":"murph","steam_id":76561197973805634,"connected_time":232000000000,"state":"active","ping":64},{"user_id":644,"name":"El Panameño","steam_id":76561199226183404,"connected_time":1572000000000,"state":"active","ping":66},{"user_id":623,"name":"SPG Animations","steam_id":76561199150809554,"connected_time":2997000000000,"state":"active","ping":49},{"user_id":642,"name":"Gormless_Shlorm","steam_id":76561198085043975,"connected_time":1670000000000,"state":"active","ping":62},{"user_id":655,"name":"jovial","steam_id":76561198297130941,"connected_time":538000000000,"state":"active","ping":45},{"user_id":643,"name":"Cactus","steam_id":76561198149755754,"connected_time":1670000000000,"state":"active","ping":68},{"user_id":645,"name":"Mikey (Kind of a Big Deal)","steam_id":76561198132306998,"connected_time":1566000000000,"state":"active","ping":109},{"user_id":646,"name":"fire","steam_id":76561198044354279,"connected_time":1552000000000,"state":"active","ping":43},{"user_id":647,"name":"R2","steam_id":76561198051499244,"connected_time":1545000000000,"state":"active","ping":59},{"user_id":637,"name":"Pah-Wraith Gul Dukat","steam_id":76561198033918106,"connected_time":1893000000000,"state":"active","ping":49},{"user_id":588,"name":"Buswolley","steam_id":76561197995205571,"connected_time":5225000000000,"state":"active","ping":54},{"user_id":658,"name":"zaza addict","steam_id":76561198202982780,"connected_time":456000000000,"state":"active","ping":104},{"user_id":651,"name":"Headmouth","steam_id":76561198019789855,"connected_time":1316000000000,"state":"active","ping":179},{"user_id":634,"name":"diggyhazard","steam_id":76561198206506481,"connected_time":2252000000000,"state":"active","ping":54},{"user_id":648,"name":"Tideflat","steam_id":76561198179850851,"connected_time":1523000000000,"state":"active","ping":68},{"user_id":594,"name":"RBX","steam_id":76561197994831083,"connected_time":4906000000000,"state":"active","ping":104},{"user_id":621,"name":"cirno","steam_id":76561198166081596,"connected_time":3351000000000,"state":"active","ping":37},{"user_id":650,"name":"Cheetose Intolerant","steam_id":76561198013399809,"connected_time":1382000000000,"state":"active","ping":45},{"user_id":652,"name":"Soda Popinski","steam_id":76561198045209288,"connected_time":1255000000000,"state":"active","ping":39},{"user_id":660,"name":"FriskyDemon","steam_id":76561198043684646,"connected_time":178000000000,"state":"active","ping":75}]},{"server_id":112,"name":"Uncletopia | Los Angeles | 2 | All Maps","name_short":"lax-2","host":"lax-1.us.uncletopia.com","port":27025,"enabled":true,"region":"us-west","cc":"us","latitude":33.94279,"longitude":-118.41004,"reserved":0,"last_update":"0001-01-01T00:00:00Z","name_a2s":"Uncletopia | Los Angeles | 2 | All Maps","protocol":17,"map":"plr_hightower","folder":"tf","game":"Team Fortress","app_id":440,"player_count":1,"max_players":24,"Bots":0,"server_type":"Dedicated","server_os":"Linux","password":true,"vac":true,"version":"7882260","steam_id":85568392924469992,"keywords":["nocrits","nodmgspread","payload","uncletopia"],"game_id":440,"stv_port":27026,"stv_name":"Uncletopia | Los Angeles | 2 | All Maps | STV","players":[{"user_id":707,"name":"MonkeyNobody","steam_id":76561199451266605,"connected_time":8620000000000,"state":"active","ping":54}]},{"server_id":324,"name":"Uncletopia | Los Angeles | 3 | All Maps","name_short":"lax-3","host":"lax-1.us.uncletopia.com","port":27035,"enabled":true,"region":"us-west","cc":"us","latitude":33.94279,"longitude":-118.41004,"reserved":0,"last_update":"0001-01-01T00:00:00Z","name_a2s":"Uncletopia | Los Angeles | 3 | All Maps","protocol":17,"map":"koth_viaduct","folder":"tf","game":"Team Fortress","app_id":440,"player_count":13,"max_players":24,"Bots":0,"server_type":"Dedicated","server_os":"Linux","password":true,"vac":true,"version":"7882260","steam_id":85568392924510198,"keywords":["cp","nocrits","nodmgspread","uncletopia"],"game_id":440,"stv_port":27036,"stv_name":"Uncletopia | Los Angeles | 3 | All Maps | STV","players":[{"user_id":479,"name":"SolarusD","steam_id":76561198029279861,"connected_time":28000000000,"state":"active","ping":57},{"user_id":468,"name":"Deflated Horse","steam_id":76561199260931005,"connected_time":931000000000,"state":"active","ping":81},{"user_id":469,"name":"Mihy","steam_id":76561199042677419,"connected_time":930000000000,"state":"active","ping":51},{"user_id":464,"name":"DaringDerp","steam_id":76561197971684663,"connected_time":1944000000000,"state":"active","ping":119},{"user_id":467,"name":"Bitter","steam_id":76561198047426244,"connected_time":1266000000000,"state":"active","ping":62},{"user_id":477,"name":"CrackedSanity","steam_id":76561198279841251,"connected_time":324000000000,"state":"active","ping":45},{"user_id":454,"name":"postal dude","steam_id":76561199058806504,"connected_time":3021000000000,"state":"active","ping":77},{"user_id":475,"name":"HOG RIDER","steam_id":76561198298589502,"connected_time":372000000000,"state":"active","ping":47},{"user_id":472,"name":"A bhost","steam_id":76561199158888493,"connected_time":554000000000,"state":"active","ping":228},{"user_id":478,"name":"cringy","steam_id":76561198323000455,"connected_time":171000000000,"state":"active","ping":60},{"user_id":474,"name":"[El Fail] MR.BadassMCLee","steam_id":76561198043787818,"connected_time":457000000000,"state":"active","ping":61},{"user_id":476,"name":"Pho","steam_id":76561198306515742,"connected_time":357000000000,"state":"active","ping":82},{"user_id":460,"name":"a cat plushie","steam_id":76561198080046542,"connected_time":2774000000000,"state":"active","ping":68}]},{"server_id":25,"name":"Uncletopia | Los Angeles | 4 | Stopwatch Beta","name_short":"lax-4","host":"lax-1.us.uncletopia.com","port":27045,"enabled":true,"region":"us-west","cc":"us","latitude":33.94279,"longitude":-118.41004,"reserved":0,"last_update":"0001-01-01T00:00:00Z","name_a2s":"Uncletopia | Los Angeles | 4 | Stopwatch Beta","protocol":17,"map":"koth_lakeside_final","folder":"tf","game":"Team Fortress","app_id":440,"player_count":0,"max_players":24,"Bots":0,"server_type":"Dedicated","server_os":"Linux","password":true,"vac":true,"version":"7882260","steam_id":85568392924510199,"keywords":["cp","nocrits","nodmgspread","uncletopia"],"game_id":440,"stv_port":27046,"stv_name":"Uncletopia | Los Angeles | 4 | Stopwatch Beta | STV","players":null},{"server_id":11,"name":"Uncletopia | London | 1 | All Maps","name_short":"lon-1","host":"lon-1.uk.uncletopia.com","port":27015,"enabled":true,"region":"eu","cc":"gb","latitude":51.509865,"longitude":-0.118092,"reserved":0,"last_update":"0001-01-01T00:00:00Z","name_a2s":"Uncletopia | London | 1 | All Maps","protocol":17,"map":"cp_process_final","folder":"tf","game":"Team Fortress","app_id":440,"player_count":0,"max_players":24,"Bots":0,"server_type":"Dedicated","server_os":"Linux","password":true,"vac":true,"version":"7882260","steam_id":85568392924367362,"keywords":["cp","nocrits","nodmgspread","uncletopia"],"game_id":440,"stv_port":27016,"stv_name":"Uncletopia | London | 1 | All Maps | STV","players":null},{"server_id":114,"name":"Uncletopia | London | 2 | All Maps","name_short":"lon-2","host":"lon-1.uk.uncletopia.com","port":27025,"enabled":true,"region":"eu","cc":"gb","latitude":51.509865,"longitude":-0.118092,"reserved":0,"last_update":"0001-01-01T00:00:00Z","name_a2s":"Uncletopia | London | 2 | All Maps","protocol":17,"map":"pl_swiftwater_final1","folder":"tf","game":"Team Fortress","app_id":440,"player_count":0,"max_players":24,"Bots":0,"server_type":"Dedicated","server_os":"Linux","password":true,"vac":true,"version":"7882260","steam_id":85568392924470941,"keywords":["nocrits","nodmgspread","payload","uncletopia"],"game_id":440,"stv_port":27026,"stv_name":"Uncletopia | London | 2 | All Maps | STV","players":null},{"server_id":320,"name":"Uncletopia | London | 3 | All Maps","name_short":"lon-3","host":"lon-1.uk.uncletopia.com","port":27035,"enabled":true,"region":"eu","cc":"gb","latitude":51.509865,"longitude":-0.118092,"reserved":0,"last_update":"0001-01-01T00:00:00Z","name_a2s":"Uncletopia | London | 3 | All Maps","protocol":17,"map":"koth_nucleus","folder":"tf","game":"Team Fortress","app_id":440,"player_count":21,"max_players":24,"Bots":0,"server_type":"Dedicated","server_os":"Linux","password":true,"vac":true,"version":"7882260","steam_id":85568392924510192,"keywords":["cp","nocrits","nodmgspread","uncletopia"],"game_id":440,"stv_port":27036,"stv_name":"Uncletopia | London | 3 | All Maps | STV","players":[{"user_id":87,"name":"Milk","steam_id":76561198125876588,"connected_time":1443000000000,"state":"active","ping":40},{"user_id":93,"name":"wide appreciator","steam_id":76561198083286511,"connected_time":393000000000,"state":"active","ping":33},{"user_id":98,"name":"Ikke.Ty","steam_id":76561199084911294,"connected_time":146000000000,"state":"active","ping":81},{"user_id":6,"name":"Neimon","steam_id":76561198343485710,"connected_time":5991000000000,"state":"active","ping":127},{"user_id":94,"name":"Coconut James","steam_id":76561198081770619,"connected_time":367000000000,"state":"active","ping":117},{"user_id":45,"name":"It's time","steam_id":76561198061197114,"connected_time":4235000000000,"state":"active","ping":78},{"user_id":99,"name":"andrew tate official","steam_id":76561198110608576,"connected_time":69000000000,"state":"active","ping":92},{"user_id":78,"name":"arkona","steam_id":76561198368556572,"connected_time":2106000000000,"state":"active","ping":74},{"user_id":84,"name":"night.s","steam_id":76561198326287823,"connected_time":1540000000000,"state":"active","ping":74},{"user_id":97,"name":"Koli","steam_id":76561197992428783,"connected_time":207000000000,"state":"active","ping":56},{"user_id":90,"name":"band-aid copyright infringement","steam_id":76561199027095451,"connected_time":802000000000,"state":"active","ping":85},{"user_id":69,"name":"Hildreth","steam_id":76561197995254867,"connected_time":2679000000000,"state":"active","ping":45},{"user_id":62,"name":"germinator","steam_id":76561199387893648,"connected_time":3365000000000,"state":"active","ping":109},{"user_id":95,"name":"Falco","steam_id":76561199061187430,"connected_time":303000000000,"state":"active","ping":55},{"user_id":75,"name":"gaming gaming","steam_id":76561198032787233,"connected_time":2224000000000,"state":"active","ping":83},{"user_id":54,"name":"Canis[Magnus]Pectus","steam_id":76561198363775072,"connected_time":3756000000000,"state":"active","ping":128},{"user_id":91,"name":"The Sex Defender","steam_id":76561198165732391,"connected_time":776000000000,"state":"active","ping":85},{"user_id":85,"name":"Nyhde","steam_id":76561198012771416,"connected_time":1537000000000,"state":"active","ping":106},{"user_id":59,"name":"Sheikh Mahmood Shaaban","steam_id":76561198985288329,"connected_time":3576000000000,"state":"active","ping":55},{"user_id":86,"name":"Sasooki","steam_id":76561198994649647,"connected_time":1529000000000,"state":"active","ping":112},{"user_id":56,"name":"Raeews","steam_id":76561198254646517,"connected_time":3689000000000,"state":"active","ping":45}]},{"server_id":321,"name":"Uncletopia | London | 4 | All Maps","name_short":"lon-4","host":"lon-1.uk.uncletopia.com","port":27045,"enabled":true,"region":"eu","cc":"gb","latitude":51.509865,"longitude":-0.118092,"reserved":0,"last_update":"0001-01-01T00:00:00Z","name_a2s":"Uncletopia | London | 4 | All Maps","protocol":17,"map":"pl_upward","folder":"tf","game":"Team Fortress","app_id":440,"player_count":0,"max_players":24,"Bots":0,"server_type":"Dedicated","server_os":"Linux","password":true,"vac":true,"version":"7882260","steam_id":85568392924510193,"keywords":["nocrits","nodmgspread","payload","uncletopia"],"game_id":440,"stv_port":27046,"stv_name":"Uncletopia | London | 4 | All Maps | STV","players":null},{"server_id":21,"name":"Uncletopia | London | 5 | All Maps","name_short":"lon-5","host":"lon-1.uk.uncletopia.com","port":27055,"enabled":true,"region":"eu","cc":"gb","latitude":51.509865,"longitude":-0.118092,"reserved":0,"last_update":"0001-01-01T00:00:00Z","name_a2s":"Uncletopia | London | 5 | All Maps","protocol":17,"map":"pl_frontier_final","folder":"tf","game":"Team Fortress","app_id":440,"player_count":0,"max_players":24,"Bots":0,"server_type":"Dedicated","server_os":"Linux","password":true,"vac":true,"version":"7882260","steam_id":85568392924742829,"keywords":["nocrits","nodmgspread","payload","uncletopia"],"game_id":440,"stv_port":27056,"stv_name":"Uncletopia | London | 5 | All Maps | STV","players":null},{"server_id":22,"name":"Uncletopia | London | 6 | All Maps","name_short":"lon-6","host":"lon-1.uk.uncletopia.com","port":27065,"enabled":true,"region":"eu","cc":"gb","latitude":51.509865,"longitude":-0.118092,"reserved":0,"last_update":"0001-01-01T00:00:00Z","name_a2s":"Uncletopia | London | 6 | All Maps","protocol":17,"map":"cp_altitude","folder":"tf","game":"Team Fortress","app_id":440,"player_count":0,"max_players":24,"Bots":0,"server_type":"Dedicated","server_os":"Linux","password":true,"vac":true,"version":"7882260","steam_id":85568392924742830,"keywords":["cp","nocrits","nodmgspread","uncletopia"],"game_id":440,"stv_port":27066,"stv_name":"Uncletopia | London | 6 | All Maps | STV","players":null},{"server_id":40,"name":"Uncletopia | London | 7 | No Payload","name_short":"lon-7","host":"lon-1.uk.uncletopia.com","port":27075,"enabled":true,"region":"eu","cc":"gb","latitude":51.509865,"longitude":-0.118092,"reserved":0,"last_update":"0001-01-01T00:00:00Z","name_a2s":"Uncletopia | London | 7 | No Payload","protocol":17,"map":"pl_pier","folder":"tf","game":"Team Fortress","app_id":440,"player_count":0,"max_players":24,"Bots":0,"server_type":"Dedicated","server_os":"Linux","password":true,"vac":true,"version":"7882260","steam_id":85568392924964314,"keywords":["nocrits","nodmgspread","payload","uncletopia"],"game_id":440,"stv_port":27076,"stv_name":"Uncletopia | London | 7 | No Payload | STV","players":null},{"server_id":41,"name":"Uncletopia | London | 8 | Community","name_short":"lon-8","host":"lon-1.uk.uncletopia.com","port":27085,"enabled":true,"region":"eu","cc":"gb","latitude":51.509865,"longitude":-0.118092,"reserved":0,"last_update":"0001-01-01T00:00:00Z","name_a2s":"Uncletopia | London | 8 | Community","protocol":17,"map":"pl_swiftwater_final1","folder":"tf","game":"Team Fortress","app_id":440,"player_count":0,"max_players":24,"Bots":0,"server_type":"Dedicated","server_os":"Linux","password":true,"vac":true,"version":"7882260","steam_id":85568392924964315,"keywords":["nocrits","nodmgspread","payload","uncletopia"],"game_id":440,"stv_port":27086,"stv_name":"Uncletopia | London | 8 | Community | STV","players":null},{"server_id":300,"name":"Uncletopia | Montréal | 1 | All Maps","name_short":"mtl-1","host":"mtl-1.ca.uncletopia.com","port":27015,"enabled":true,"region":"us-east","cc":"ca","latitude":45.50889,"longitude":-73.56167,"reserved":0,"last_update":"0001-01-01T00:00:00Z","name_a2s":"Uncletopia | Montréal | 1 | All Maps","protocol":17,"map":"koth_suijin","folder":"tf","game":"Team Fortress","app_id":440,"player_count":0,"max_players":24,"Bots":0,"server_type":"Dedicated","server_os":"Linux","password":true,"vac":true,"version":"7882260","steam_id":85568392924500087,"keywords":["cp","nocrits","nodmgspread","uncletopia"],"game_id":440,"stv_port":27016,"stv_name":"Uncletopia | Montréal | 1 | All Maps | STV","players":null},{"server_id":301,"name":"Uncletopia | Montréal | 2 | All Maps","name_short":"mtl-2","host":"mtl-1.ca.uncletopia.com","port":27025,"enabled":true,"region":"us-east","cc":"ca","latitude":45.50889,"longitude":-73.56167,"reserved":0,"last_update":"0001-01-01T00:00:00Z","name_a2s":"Uncletopia | Montréal | 2 | All Maps","protocol":17,"map":"pl_frontier_final","folder":"tf","game":"Team Fortress","app_id":440,"player_count":7,"max_players":24,"Bots":0,"server_type":"Dedicated","server_os":"Linux","password":true,"vac":true,"version":"7882260","steam_id":85568392924500088,"keywords":["nocrits","nodmgspread","payload","uncletopia"],"game_id":440,"stv_port":27026,"stv_name":"Uncletopia | Montréal | 2 | All Maps | STV","players":[{"user_id":130,"name":"Sillier-NA","steam_id":76561198112171949,"connected_time":742000000000,"state":"active","ping":97},{"user_id":91,"name":"Sleepy","steam_id":76561198273471153,"connected_time":5024000000000,"state":"active","ping":67},{"user_id":119,"name":"basil smoking weed","steam_id":76561198119590214,"connected_time":1767000000000,"state":"active","ping":75},{"user_id":120,"name":"Salacious B. Crumb","steam_id":76561198167674059,"connected_time":1670000000000,"state":"active","ping":66},{"user_id":121,"name":"balls","steam_id":76561198143694438,"connected_time":1609000000000,"state":"active","ping":58},{"user_id":110,"name":"beast","steam_id":76561199010542612,"connected_time":3437000000000,"state":"active","ping":58},{"user_id":99,"name":"pootis sentry","steam_id":76561199225363633,"connected_time":4557000000000,"state":"active","ping":170}]},{"server_id":302,"name":"Uncletopia | Montréal | 3 | All Maps","name_short":"mtl-3","host":"mtl-1.ca.uncletopia.com","port":27035,"enabled":true,"region":"us-east","cc":"ca","latitude":45.50889,"longitude":-73.56167,"reserved":0,"last_update":"0001-01-01T00:00:00Z","name_a2s":"Uncletopia | Montréal | 3 | All Maps","protocol":17,"map":"koth_highpass","folder":"tf","game":"Team Fortress","app_id":440,"player_count":0,"max_players":24,"Bots":0,"server_type":"Dedicated","server_os":"Linux","password":true,"vac":true,"version":"7882260","steam_id":85568392924500089,"keywords":["cp","nocrits","nodmgspread","uncletopia"],"game_id":440,"stv_port":27036,"stv_name":"Uncletopia | Montréal | 3 | All Maps | STV","players":null},{"server_id":303,"name":"Uncletopia | Montréal | 4 | No Payload","name_short":"mtl-4","host":"mtl-1.ca.uncletopia.com","port":27045,"enabled":true,"region":"us-east","cc":"ca","latitude":45.50889,"longitude":-73.56167,"reserved":0,"last_update":"0001-01-01T00:00:00Z","name_a2s":"Uncletopia | Montréal | 4 | No Payload","protocol":17,"map":"cp_altitude","folder":"tf","game":"Team Fortress","app_id":440,"player_count":0,"max_players":24,"Bots":0,"server_type":"Dedicated","server_os":"Linux","password":true,"vac":true,"version":"7882260","steam_id":85568392924500090,"keywords":["cp","nocrits","nodmgspread","uncletopia"],"game_id":440,"stv_port":27046,"stv_name":"Uncletopia | Montréal | 4 | No Payload | STV","players":null},{"server_id":13,"name":"Uncletopia | New York City | 1 | All Maps","name_short":"nyc-1","host":"nyc-1.us.uncletopia.com","port":27015,"enabled":true,"region":"us-east","cc":"us","latitude":40.73061,"longitude":-73.93524,"reserved":0,"last_update":"0001-01-01T00:00:00Z","name_a2s":"Uncletopia | New York City | 1 | All Maps","protocol":17,"map":"cp_process_final","folder":"tf","game":"Team Fortress","app_id":440,"player_count":0,"max_players":24,"Bots":0,"server_type":"Dedicated","server_os":"Linux","password":true,"vac":true,"version":"7882260","steam_id":85568392924469993,"keywords":["cp","nocrits","nodmgspread","uncletopia"],"game_id":440,"stv_port":27016,"stv_name":"Uncletopia | New York City | 1 | All Maps | STV","players":null},{"server_id":14,"name":"Uncletopia | New York City | 2 | All Maps","name_short":"nyc-2","host":"nyc-1.us.uncletopia.com","port":27025,"enabled":true,"region":"us-east","cc":"us","latitude":40.73061,"longitude":-73.93524,"reserved":0,"last_update":"0001-01-01T00:00:00Z","name_a2s":"Uncletopia | New York City | 2 | All Maps","protocol":17,"map":"pl_frontier_final","folder":"tf","game":"Team Fortress","app_id":440,"player_count":6,"max_players":24,"Bots":0,"server_type":"Dedicated","server_os":"Linux","password":true,"vac":true,"version":"7882260","steam_id":85568392924469994,"keywords":["nocrits","nodmgspread","payload","uncletopia"],"game_id":440,"stv_port":27026,"stv_name":"Uncletopia | New York City | 2 | All Maps | STV","players":[{"user_id":494,"name":"Elite_Friendly","steam_id":76561198819972127,"connected_time":7157000000000,"state":"active","ping":105},{"user_id":496,"name":"laurencegabe","steam_id":76561199229727508,"connected_time":6389000000000,"state":"active","ping":100},{"user_id":513,"name":"Sneakyflamingo","steam_id":76561199093026056,"connected_time":143000000000,"state":"active","ping":55},{"user_id":510,"name":"Virtual Zorua","steam_id":76561198196180302,"connected_time":1214000000000,"state":"active","ping":60},{"user_id":514,"name":"buble with funny colors","steam_id":76561198314959808,"connected_time":26000000000,"state":"spawning","ping":142},{"user_id":491,"name":"Ferguson","steam_id":76561198121349387,"connected_time":7873000000000,"state":"active","ping":74}]},{"server_id":15,"name":"Uncletopia | New York City | 3 | Stopwatch Beta","name_short":"nyc-3","host":"nyc-1.us.uncletopia.com","port":27035,"enabled":true,"region":"us-east","cc":"us","latitude":40.73061,"longitude":-73.93524,"reserved":0,"last_update":"0001-01-01T00:00:00Z","name_a2s":"Uncletopia | New York City | 3 | Stopwatch Beta","protocol":17,"map":"workshop/pl_badwater_pro_v12.ugc2142942074","folder":"tf","game":"Team Fortress","app_id":440,"player_count":0,"max_players":24,"Bots":0,"server_type":"Dedicated","server_os":"Linux","password":true,"vac":true,"version":"7882260","steam_id":85568392924742820,"keywords":["nocrits","nodmgspread","payload","uncletopia"],"game_id":440,"stv_port":27036,"stv_name":"Uncletopia | New York City | 3 | Stopwatch Beta | STV","players":null},{"server_id":16,"name":"Uncletopia | New York City | 4 | Community","name_short":"nyc-4","host":"nyc-1.us.uncletopia.com","port":27045,"enabled":true,"region":"us-east","cc":"us","latitude":40.73061,"longitude":-73.93524,"reserved":0,"last_update":"0001-01-01T00:00:00Z","name_a2s":"Uncletopia | New York City | 4 | Community","protocol":17,"map":"workshop/pl_highwood_b13.ugc1769496557","folder":"tf","game":"Team Fortress","app_id":440,"player_count":0,"max_players":24,"Bots":0,"server_type":"Dedicated","server_os":"Linux","password":true,"vac":true,"version":"7882260","steam_id":85568392924742821,"keywords":["nocrits","nodmgspread","payload","uncletopia"],"game_id":440,"stv_port":27046,"stv_name":"Uncletopia | New York City | 4 | Community | STV","players":null},{"server_id":142,"name":"Uncletopia | São Paulo | 1 | All Maps","name_short":"sao-1","host":"sao-1.br.uncletopia.com","port":27015,"enabled":true,"region":"sa","cc":"br","latitude":-23.533773,"longitude":-46.62529,"reserved":0,"last_update":"0001-01-01T00:00:00Z","name_a2s":"Uncletopia | São Paulo | 1 | All Maps","protocol":17,"map":"pl_upward","folder":"tf","game":"Team Fortress","app_id":440,"player_count":0,"max_players":24,"Bots":0,"server_type":"Dedicated","server_os":"Linux","password":true,"vac":true,"version":"7882260","steam_id":85568392924469996,"keywords":["nocrits","nodmgspread","payload","uncletopia"],"game_id":440,"stv_port":27016,"stv_name":"Uncletopia | São Paulo | 1 | All Maps | STV","players":null},{"server_id":143,"name":"Uncletopia | São Paulo | 2 | All Maps","name_short":"sao-2","host":"sao-2.br.uncletopia.com","port":27015,"enabled":true,"region":"sa","cc":"br","latitude":-23.533773,"longitude":-46.62529,"reserved":0,"last_update":"0001-01-01T00:00:00Z","name_a2s":"Uncletopia | São Paulo | 2 | All Maps","protocol":17,"map":"koth_cascade","folder":"tf","game":"Team Fortress","app_id":440,"player_count":0,"max_players":24,"Bots":0,"server_type":"Dedicated","server_os":"Linux","password":true,"vac":true,"version":"7882260","steam_id":85568392924485349,"keywords":["cp","nocrits","nodmgspread","uncletopia"],"game_id":440,"stv_port":27016,"stv_name":"Uncletopia | São Paulo | 2 | All Maps | STV","players":null},{"server_id":7,"name":"Uncletopia | Seattle | 1 | All Maps","name_short":"sea-1","host":"sea-1.us.uncletopia.com","port":27015,"enabled":true,"region":"us-west","cc":"us","latitude":47.608013,"longitude":-122.33517,"reserved":0,"last_update":"0001-01-01T00:00:00Z","name_a2s":"Uncletopia | Seattle | 1 | All Maps","protocol":17,"map":"pl_swiftwater_final1","folder":"tf","game":"Team Fortress","app_id":440,"player_count":23,"max_players":24,"Bots":0,"server_type":"Dedicated","server_os":"Linux","password":true,"vac":true,"version":"7882260","steam_id":85568392924469997,"keywords":["nocrits","nodmgspread","payload","uncletopia"],"game_id":440,"stv_port":27016,"stv_name":"Uncletopia | Seattle | 1 | All Maps | STV","players":[{"user_id":1027,"name":"Ninja_Moogle","steam_id":76561198167646553,"connected_time":1066000000000,"state":"active","ping":83},{"user_id":1030,"name":"A man with no plan","steam_id":76561198031075099,"connected_time":1032000000000,"state":"active","ping":66},{"user_id":1017,"name":"PachucoWaffle TTV","steam_id":76561198051491032,"connected_time":2714000000000,"state":"active","ping":57},{"user_id":1025,"name":"› Noir","steam_id":76561197977418994,"connected_time":1461000000000,"state":"active","ping":69},{"user_id":990,"name":"PillCosby","steam_id":76561199396184696,"connected_time":4994000000000,"state":"active","ping":60},{"user_id":1018,"name":"Artyom","steam_id":76561198152149679,"connected_time":2469000000000,"state":"active","ping":44},{"user_id":1028,"name":"bbbbb","steam_id":76561198095480838,"connected_time":1066000000000,"state":"active","ping":45},{"user_id":1004,"name":"Sniff","steam_id":76561198010270922,"connected_time":4123000000000,"state":"active","ping":35},{"user_id":1008,"name":"Peppy","steam_id":76561198866629645,"connected_time":3915000000000,"state":"active","ping":59},{"user_id":966,"name":"SvicidalBug","steam_id":76561198221390504,"connected_time":8440000000000,"state":"active","ping":61},{"user_id":1011,"name":"shitass (Fat Tits arc)","steam_id":76561198210572481,"connected_time":3283000000000,"state":"active","ping":74},{"user_id":1009,"name":"SmallErection","steam_id":76561198071770147,"connected_time":3484000000000,"state":"active","ping":61},{"user_id":992,"name":"Seriously Bruh","steam_id":76561198070408485,"connected_time":4957000000000,"state":"active","ping":68},{"user_id":1031,"name":"SilentAntagonist","steam_id":76561198268205664,"connected_time":1025000000000,"state":"active","ping":69},{"user_id":1035,"name":"C U Next Tuesday","steam_id":76561198058493492,"connected_time":269000000000,"state":"active","ping":49},{"user_id":967,"name":"Battery Acid Slurper","steam_id":76561198439793697,"connected_time":8437000000000,"state":"active","ping":106},{"user_id":1037,"name":"Keyboardbreaker","steam_id":76561198372836132,"connected_time":83000000000,"state":"active","ping":82},{"user_id":1026,"name":"Bishuhp","steam_id":76561198015062850,"connected_time":1131000000000,"state":"active","ping":52},{"user_id":1024,"name":"A Meatball Obsessed Demoman","steam_id":76561198253325844,"connected_time":1602000000000,"state":"active","ping":55},{"user_id":1014,"name":"An Old Lady","steam_id":76561198047480318,"connected_time":3091000000000,"state":"active","ping":64},{"user_id":1022,"name":"the clown","steam_id":76561198427593796,"connected_time":2053000000000,"state":"active","ping":54},{"user_id":1038,"name":"Finkly","steam_id":76561198049828110,"connected_time":64000000000,"state":"active","ping":43},{"user_id":935,"name":"lox","steam_id":76561198288531493,"connected_time":10849000000000,"state":"active","ping":48}]},{"server_id":119,"name":"Uncletopia | Seattle | 2 | All Maps","name_short":"sea-2","host":"sea-1.us.uncletopia.com","port":27025,"enabled":true,"region":"us-west","cc":"us","latitude":47.608013,"longitude":-122.33517,"reserved":0,"last_update":"0001-01-01T00:00:00Z","name_a2s":"Uncletopia | Seattle | 2 | All Maps","protocol":17,"map":"pl_snowycoast","folder":"tf","game":"Team Fortress","app_id":440,"player_count":24,"max_players":24,"Bots":0,"server_type":"Dedicated","server_os":"Linux","password":true,"vac":true,"version":"7882260","steam_id":85568392924469998,"keywords":["nocrits","nodmgspread","payload","uncletopia"],"game_id":440,"stv_port":27026,"stv_name":"Uncletopia | Seattle | 2 | All Maps | STV","players":[{"user_id":601,"name":"♡ ironterrortrain ♡","steam_id":76561198046460418,"connected_time":378000000000,"state":"active","ping":79},{"user_id":596,"name":"hiddenpants","steam_id":76561198145461702,"connected_time":875000000000,"state":"active","ping":86},{"user_id":599,"name":"Zenire","steam_id":76561199087298510,"connected_time":492000000000,"state":"active","ping":58},{"user_id":600,"name":"hog ryder","steam_id":76561198133887117,"connected_time":491000000000,"state":"active","ping":53},{"user_id":602,"name":"Rix FPV","steam_id":76561198299320893,"connected_time":366000000000,"state":"active","ping":108},{"user_id":569,"name":"OminousNoises","steam_id":76561198263320321,"connected_time":3578000000000,"state":"active","ping":91},{"user_id":603,"name":"votor","steam_id":76561198848935009,"connected_time":319000000000,"state":"active","ping":74},{"user_id":570,"name":"DonoC","steam_id":76561198274473338,"connected_time":3372000000000,"state":"active","ping":67},{"user_id":590,"name":"Licensed Rizzicist","steam_id":76561199019693549,"connected_time":1521000000000,"state":"active","ping":59},{"user_id":604,"name":"tinajd187","steam_id":76561198253574136,"connected_time":265000000000,"state":"active","ping":57},{"user_id":542,"name":"hosewater","steam_id":76561198023383126,"connected_time":5380000000000,"state":"active","ping":58},{"user_id":587,"name":"Rocket Drifter","steam_id":76561198046952513,"connected_time":1604000000000,"state":"active","ping":47},{"user_id":571,"name":"Grungus","steam_id":76561198047700230,"connected_time":3302000000000,"state":"active","ping":68},{"user_id":597,"name":"Somniare Star","steam_id":76561199386273760,"connected_time":829000000000,"state":"active","ping":86},{"user_id":605,"name":"Amogous Supreme","steam_id":76561198025476774,"connected_time":162000000000,"state":"active","ping":75},{"user_id":598,"name":"hummusexual !Bye Bye!","steam_id":76561198063403549,"connected_time":737000000000,"state":"active","ping":63},{"user_id":606,"name":"CEOlifestyle","steam_id":76561198025747866,"connected_time":150000000000,"state":"active","ping":51},{"user_id":609,"name":"SwineFlu","steam_id":76561197989014109,"connected_time":55000000000,"state":"active","ping":71},{"user_id":591,"name":"TheWorstName","steam_id":76561198370629265,"connected_time":1498000000000,"state":"active","ping":84},{"user_id":607,"name":"Kipper","steam_id":76561198008515450,"connected_time":118000000000,"state":"active","ping":80},{"user_id":592,"name":"Andy the Hoff","steam_id":76561198043115724,"connected_time":1458000000000,"state":"active","ping":63},{"user_id":593,"name":"Reaptiles","steam_id":76561198414817784,"connected_time":1406000000000,"state":"active","ping":44},{"user_id":608,"name":"buddhapest","steam_id":76561197960539410,"connected_time":92000000000,"state":"active","ping":64},{"user_id":557,"name":"HP","steam_id":76561198430090173,"connected_time":4877000000000,"state":"active","ping":43}]},{"server_id":406,"name":"Uncletopia | Seattle | 3 | Stopwatch Beta","name_short":"sea-3","host":"sea-1.us.uncletopia.com","port":27035,"enabled":true,"region":"us-west","cc":"us","latitude":47.608013,"longitude":-122.33517,"reserved":0,"last_update":"0001-01-01T00:00:00Z","name_a2s":"Uncletopia | Seattle | 3 | Stopwatch Beta","protocol":17,"map":"workshop/koth_ramjam_rc1.ugc459778887","folder":"tf","game":"Team Fortress","app_id":440,"player_count":0,"max_players":24,"Bots":0,"server_type":"Dedicated","server_os":"Linux","password":true,"vac":true,"version":"7882260","steam_id":85568392924515217,"keywords":["cp","nocrits","nodmgspread","uncletopia"],"game_id":440,"stv_port":27036,"stv_name":"Uncletopia | Seattle | 3 | Stopwatch Beta | STV","players":null},{"server_id":17,"name":"Uncletopia | San Francisco | 1 | All Maps","name_short":"sfo-1","host":"sfo-1.us.uncletopia.com","port":27015,"enabled":true,"region":"us-west","cc":"us","latitude":37.77397,"longitude":-122.4313,"reserved":0,"last_update":"0001-01-01T00:00:00Z","name_a2s":"Uncletopia | San Francisco | 1 | All Maps","protocol":17,"map":"pl_frontier_final","folder":"tf","game":"Team Fortress","app_id":440,"player_count":24,"max_players":24,"Bots":0,"server_type":"Dedicated","server_os":"Linux","password":true,"vac":true,"version":"7882260","steam_id":85568392924469999,"keywords":["nocrits","nodmgspread","payload","uncletopia"],"game_id":440,"stv_port":27016,"stv_name":"Uncletopia | San Francisco | 1 | All Maps | STV","players":[{"user_id":446,"name":"reverie","steam_id":76561198168158637,"connected_time":268000000000,"state":"active","ping":59},{"user_id":426,"name":"Empty","steam_id":76561198289696924,"connected_time":1872000000000,"state":"active","ping":47},{"user_id":414,"name":"Wavelengths (they/it)","steam_id":76561197997621320,"connected_time":3605000000000,"state":"active","ping":80},{"user_id":424,"name":"SAP","steam_id":76561198005186905,"connected_time":2105000000000,"state":"active","ping":81},{"user_id":390,"name":"Cypress [ +/- ] ✔","steam_id":76561198067164431,"connected_time":5925000000000,"state":"active","ping":45},{"user_id":434,"name":"Balls Insurance","steam_id":76561198005860388,"connected_time":1098000000000,"state":"active","ping":57},{"user_id":447,"name":"Saggle","steam_id":76561198056075147,"connected_time":247000000000,"state":"active","ping":186},{"user_id":418,"name":"Rusty","steam_id":76561198055585129,"connected_time":3428000000000,"state":"active","ping":64},{"user_id":438,"name":"I'm a easy kill","steam_id":76561199092023746,"connected_time":676000000000,"state":"active","ping":58},{"user_id":439,"name":"sunny","steam_id":76561198069380992,"connected_time":660000000000,"state":"active","ping":90},{"user_id":425,"name":"CJDGuy","steam_id":76561198213009545,"connected_time":2028000000000,"state":"active","ping":107},{"user_id":433,"name":"stick","steam_id":76561198134334367,"connected_time":1369000000000,"state":"active","ping":76},{"user_id":428,"name":"Satori Komeiji","steam_id":76561198158211423,"connected_time":1835000000000,"state":"active","ping":54},{"user_id":379,"name":"idk how to aim with this","steam_id":76561198301598124,"connected_time":6781000000000,"state":"active","ping":84},{"user_id":436,"name":"Ryld","steam_id":76561198010174380,"connected_time":993000000000,"state":"active","ping":77},{"user_id":432,"name":"bigman1","steam_id":76561198050225055,"connected_time":1532000000000,"state":"active","ping":57},{"user_id":448,"name":"Michael Fettuccine","steam_id":76561198056953903,"connected_time":198000000000,"state":"active","ping":51},{"user_id":437,"name":"mr.edderkopper","steam_id":76561198152614478,"connected_time":729000000000,"state":"active","ping":96},{"user_id":444,"name":"CPTforever","steam_id":76561198237767198,"connected_time":343000000000,"state":"active","ping":48},{"user_id":397,"name":"Erntest","steam_id":76561198049499899,"connected_time":5675000000000,"state":"active","ping":46},{"user_id":440,"name":"Moon Seal","steam_id":76561198095827608,"connected_time":642000000000,"state":"active","ping":149},{"user_id":443,"name":"Dob Bole","steam_id":76561198056367220,"connected_time":473000000000,"state":"active","ping":50},{"user_id":445,"name":"ferby","steam_id":76561198028229594,"connected_time":307000000000,"state":"active","ping":43},{"user_id":449,"name":"supcupman","steam_id":76561198051513866,"connected_time":9000000000,"state":"spawning","ping":53}]},{"server_id":18,"name":"Uncletopia | San Francisco | 2 | All Maps","name_short":"sfo-2","host":"sfo-1.us.uncletopia.com","port":27025,"enabled":true,"region":"us-west","cc":"us","latitude":37.77397,"longitude":-122.4313,"reserved":0,"last_update":"0001-01-01T00:00:00Z","name_a2s":"Uncletopia | San Francisco | 2 | All Maps","protocol":17,"map":"cp_process_final","folder":"tf","game":"Team Fortress","app_id":440,"player_count":24,"max_players":24,"Bots":0,"server_type":"Dedicated","server_os":"Linux","password":true,"vac":true,"version":"7882260","steam_id":85568392924470000,"keywords":["cp","nocrits","nodmgspread","uncletopia"],"game_id":440,"stv_port":27026,"stv_name":"Uncletopia | San Francisco | 2 | All Maps | STV","players":[{"user_id":55,"name":"jorts","steam_id":76561199041179985,"connected_time":9719000000000,"state":"active","ping":72},{"user_id":149,"name":"bota box burglar","steam_id":76561198134309750,"connected_time":2642000000000,"state":"active","ping":134},{"user_id":165,"name":"MantisToboggan","steam_id":76561197969447887,"connected_time":1270000000000,"state":"active","ping":87},{"user_id":127,"name":"Raccoon Gaming","steam_id":76561198065662025,"connected_time":4347000000000,"state":"active","ping":51},{"user_id":157,"name":"Eastern Roman Republic","steam_id":76561198917912809,"connected_time":1451000000000,"state":"active","ping":50},{"user_id":158,"name":"Vintage TV","steam_id":76561198800334545,"connected_time":1438000000000,"state":"active","ping":53},{"user_id":116,"name":"Florist","steam_id":76561198009121060,"connected_time":5804000000000,"state":"active","ping":60},{"user_id":166,"name":"Peter, what are you doing?","steam_id":76561198066452726,"connected_time":335000000000,"state":"active","ping":60},{"user_id":170,"name":"Big Oil","steam_id":76561199238964574,"connected_time":60000000000,"state":"active","ping":62},{"user_id":144,"name":"ghostglitch","steam_id":76561197991608573,"connected_time":2984000000000,"state":"active","ping":51},{"user_id":168,"name":"dave.","steam_id":76561198112350449,"connected_time":306000000000,"state":"active","ping":108},{"user_id":161,"name":"elephant thumb","steam_id":76561198118859752,"connected_time":1420000000000,"state":"active","ping":52},{"user_id":71,"name":"roryisonamobilehotspot","steam_id":76561198065825165,"connected_time":9058000000000,"state":"active","ping":102},{"user_id":151,"name":"oil","steam_id":76561198099980149,"connected_time":1918000000000,"state":"active","ping":57},{"user_id":129,"name":"Avem","steam_id":76561198058763710,"connected_time":4334000000000,"state":"active","ping":60},{"user_id":159,"name":"delight","steam_id":76561197980280272,"connected_time":1437000000000,"state":"active","ping":64},{"user_id":153,"name":"Arsonist Goose","steam_id":76561198147441830,"connected_time":1896000000000,"state":"active","ping":49},{"user_id":160,"name":"HeavenHearst","steam_id":76561198066083947,"connected_time":1435000000000,"state":"active","ping":105},{"user_id":140,"name":"squash","steam_id":76561198150281353,"connected_time":3261000000000,"state":"active","ping":74},{"user_id":162,"name":"NEBULA","steam_id":76561198086878595,"connected_time":1405000000000,"state":"active","ping":54},{"user_id":126,"name":"pyrotechnic","steam_id":76561198043558709,"connected_time":4907000000000,"state":"active","ping":75},{"user_id":145,"name":"Sax","steam_id":76561198055425123,"connected_time":2772000000000,"state":"active","ping":77},{"user_id":169,"name":"Gentle Opp 3","steam_id":76561198150406851,"connected_time":277000000000,"state":"active","ping":55},{"user_id":167,"name":"monkey squirts","steam_id":76561197983101644,"connected_time":334000000000,"state":"active","ping":57}]},{"server_id":19,"name":"Uncletopia | San Francisco | 3 | Stopwatch Beta","name_short":"sfo-3","host":"sfo-1.us.uncletopia.com","port":27035,"enabled":true,"region":"us-west","cc":"us","latitude":37.77397,"longitude":-122.4313,"reserved":0,"last_update":"0001-01-01T00:00:00Z","name_a2s":"Uncletopia | San Francisco | 3 | Stopwatch Beta","protocol":17,"map":"workshop/koth_bagel_rc6.ugc2514036946","folder":"tf","game":"Team Fortress","app_id":440,"player_count":0,"max_players":24,"Bots":0,"server_type":"Dedicated","server_os":"Linux","password":true,"vac":true,"version":"7882260","steam_id":85568392924742824,"keywords":["cp","nocrits","nodmgspread","uncletopia"],"game_id":440,"stv_port":27036,"stv_name":"Uncletopia | San Francisco | 3 | Stopwatch Beta | STV","players":null},{"server_id":20,"name":"Uncletopia | San Francisco | 4 | Community","name_short":"sfo-4","host":"sfo-1.us.uncletopia.com","port":27045,"enabled":true,"region":"us-west","cc":"us","latitude":37.77397,"longitude":-122.4313,"reserved":0,"last_update":"0001-01-01T00:00:00Z","name_a2s":"Uncletopia | San Francisco | 4 | Community","protocol":17,"map":"workshop/cp_indulge.ugc528106646","folder":"tf","game":"Team Fortress","app_id":440,"player_count":0,"max_players":24,"Bots":0,"server_type":"Dedicated","server_os":"Linux","password":true,"vac":true,"version":"7882260","steam_id":85568392924742826,"keywords":["cp","nocrits","nodmgspread","uncletopia"],"game_id":440,"stv_port":27046,"stv_name":"Uncletopia | San Francisco | 4 | Community | STV","players":null},{"server_id":141,"name":"Uncletopia | Sydney | 1 | All Maps","name_short":"syd-1","host":"syd-1.au.uncletopia.com","port":27015,"enabled":true,"region":"au","cc":"au","latitude":-33.865143,"longitude":151.2099,"reserved":0,"last_update":"0001-01-01T00:00:00Z","name_a2s":"Uncletopia | Sydney | 1 | All Maps","protocol":17,"map":"pl_snowycoast","folder":"tf","game":"Team Fortress","app_id":440,"player_count":24,"max_players":24,"Bots":0,"server_type":"Dedicated","server_os":"Linux","password":true,"vac":true,"version":"7882260","steam_id":85568392924470001,"keywords":["nocrits","nodmgspread","payload","uncletopia"],"game_id":440,"stv_port":27016,"stv_name":"Uncletopia | Sydney | 1 | All Maps | STV","players":[{"user_id":834,"name":"Stics","steam_id":76561199003047300,"connected_time":86000000000,"state":"active","ping":74},{"user_id":816,"name":"Zepi","steam_id":76561198018887052,"connected_time":1473000000000,"state":"active","ping":48},{"user_id":830,"name":"green dot","steam_id":76561198254802111,"connected_time":603000000000,"state":"active","ping":57},{"user_id":820,"name":"[TÐK] KeRpaL","steam_id":76561197974427061,"connected_time":1319000000000,"state":"active","ping":55},{"user_id":823,"name":"wombraidre","steam_id":76561199375834537,"connected_time":994000000000,"state":"active","ping":123},{"user_id":760,"name":"rkbirnig","steam_id":76561199255174335,"connected_time":4834000000000,"state":"active","ping":103},{"user_id":824,"name":"Comedy Mode","steam_id":76561198293250088,"connected_time":977000000000,"state":"active","ping":116},{"user_id":808,"name":"smite","steam_id":76561198845304189,"connected_time":1947000000000,"state":"active","ping":77},{"user_id":797,"name":"Stab Calloway","steam_id":76561198027827983,"connected_time":2487000000000,"state":"active","ping":46},{"user_id":825,"name":"trinhvs","steam_id":76561198986510078,"connected_time":961000000000,"state":"active","ping":61},{"user_id":826,"name":"Grantymunk","steam_id":76561198051439179,"connected_time":943000000000,"state":"active","ping":77},{"user_id":815,"name":"Zeron","steam_id":76561198125778202,"connected_time":1514000000000,"state":"active","ping":47},{"user_id":822,"name":"adammagee","steam_id":76561197972653972,"connected_time":1025000000000,"state":"active","ping":53},{"user_id":817,"name":"HotChilli247","steam_id":76561199445273495,"connected_time":1449000000000,"state":"active","ping":66},{"user_id":821,"name":"Bigrichard","steam_id":76561198032092945,"connected_time":1209000000000,"state":"active","ping":88},{"user_id":800,"name":"Lv 9 Reborn Nubblet","steam_id":76561198069483103,"connected_time":2073000000000,"state":"active","ping":88},{"user_id":829,"name":"Local Femboy \u003c3 (No sound)","steam_id":76561198355333388,"connected_time":722000000000,"state":"active","ping":70},{"user_id":831,"name":"Sunny","steam_id":76561199253363005,"connected_time":332000000000,"state":"active","ping":105},{"user_id":828,"name":"now","steam_id":76561198310131715,"connected_time":728000000000,"state":"active","ping":63},{"user_id":793,"name":"Dupiter","steam_id":76561198108820767,"connected_time":3050000000000,"state":"active","ping":58},{"user_id":802,"name":"no teles 4 u","steam_id":76561198018478297,"connected_time":2071000000000,"state":"active","ping":72},{"user_id":785,"name":"Snowy","steam_id":76561198255720598,"connected_time":3583000000000,"state":"active","ping":46},{"user_id":832,"name":"mushroom","steam_id":76561197992336470,"connected_time":164000000000,"state":"active","ping":90},{"user_id":833,"name":"fatmod","steam_id":76561198128889890,"connected_time":125000000000,"state":"active","ping":76}]},{"server_id":123,"name":"Uncletopia | Sydney | 2 | All Maps","name_short":"syd-2","host":"syd-1.au.uncletopia.com","port":27025,"enabled":true,"region":"au","cc":"au","latitude":-33.865143,"longitude":151.2099,"reserved":0,"last_update":"0001-01-01T00:00:00Z","name_a2s":"Uncletopia | Sydney | 2 | All Maps","protocol":17,"map":"cp_process_final","folder":"tf","game":"Team Fortress","app_id":440,"player_count":0,"max_players":24,"Bots":0,"server_type":"Dedicated","server_os":"Linux","password":true,"vac":true,"version":"7882260","steam_id":85568392924470002,"keywords":["cp","nocrits","nodmgspread","uncletopia"],"game_id":440,"stv_port":27026,"stv_name":"Uncletopia | Sydney | 2 | All Maps | STV","players":null},{"server_id":395,"name":"Uncletopia | Sydney | 3 | All Maps","name_short":"syd-3","host":"syd-1.au.uncletopia.com","port":27035,"enabled":true,"region":"au","cc":"au","latitude":-33.865143,"longitude":151.2099,"reserved":0,"last_update":"0001-01-01T00:00:00Z","name_a2s":"Uncletopia | Sydney | 3 | All Maps","protocol":17,"map":"pl_swiftwater_final1","folder":"tf","game":"Team Fortress","app_id":440,"player_count":0,"max_players":24,"Bots":0,"server_type":"Dedicated","server_os":"Linux","password":true,"vac":true,"version":"7882260","steam_id":85568392925194467,"keywords":["nocrits","nodmgspread","payload","uncletopia"],"game_id":440,"stv_port":27036,"stv_name":"Uncletopia | Sydney | 3 | All Maps | STV","players":null},{"server_id":396,"name":"Uncletopia | Sydney | 4 | All Maps","name_short":"syd-4","host":"syd-1.au.uncletopia.com","port":27045,"enabled":true,"region":"au","cc":"au","latitude":-33.865143,"longitude":151.2099,"reserved":0,"last_update":"0001-01-01T00:00:00Z","name_a2s":"Uncletopia | Sydney | 4 | All Maps","protocol":17,"map":"pl_barnblitz","folder":"tf","game":"Team Fortress","app_id":440,"player_count":0,"max_players":24,"Bots":0,"server_type":"Dedicated","server_os":"Linux","password":true,"vac":true,"version":"7882260","steam_id":85568392925397958,"keywords":["nocrits","nodmgspread","payload","uncletopia"],"game_id":440,"stv_port":27046,"stv_name":"Uncletopia | Sydney | 4 | All Maps | STV","players":null},{"server_id":58,"name":"Uncletopia | Sydney | 5 | Stopwatch Beta","name_short":"syd-5","host":"syd-1.au.uncletopia.com","port":27055,"enabled":true,"region":"au","cc":"au","latitude":-33.865143,"longitude":151.2099,"reserved":0,"last_update":"0001-01-01T00:00:00Z","name_a2s":"Uncletopia | Sydney | 5 | Stopwatch Beta","protocol":17,"map":"workshop/pl_vigil_rc9.ugc1266210012","folder":"tf","game":"Team Fortress","app_id":440,"player_count":0,"max_players":24,"Bots":0,"server_type":"Dedicated","server_os":"Linux","password":true,"vac":true,"version":"7882260","steam_id":85568392925397959,"keywords":["nocrits","nodmgspread","payload","uncletopia"],"game_id":440,"stv_port":27056,"stv_name":"Uncletopia | Sydney | 5 | Stopwatch Beta | STV","players":null},{"server_id":59,"name":"Uncletopia | Sydney | 6 | Community","name_short":"syd-6","host":"syd-1.au.uncletopia.com","port":27065,"enabled":true,"region":"au","cc":"au","latitude":-33.865143,"longitude":151.2099,"reserved":0,"last_update":"0001-01-01T00:00:00Z","name_a2s":"Uncletopia | Sydney | 6 | Community","protocol":17,"map":"workshop/rd_asteroid_redux_b1.ugc2154902912","folder":"tf","game":"Team Fortress","app_id":440,"player_count":0,"max_players":24,"Bots":0,"server_type":"Dedicated","server_os":"Linux","password":true,"vac":true,"version":"7882260","steam_id":85568392925397960,"keywords":["beta","nocrits","nodmgspread","rd","uncletopia"],"game_id":440,"stv_port":27066,"stv_name":"Uncletopia | Sydney | 6 | Community | STV","players":null},{"server_id":49,"name":"Uncletopia | Warsaw | 1 | All Maps","name_short":"waw-1","host":"waw-1.pl.uncletopia.com","port":27015,"enabled":true,"region":"eu","cc":"pl","latitude":52.2297,"longitude":21.017532,"reserved":0,"last_update":"0001-01-01T00:00:00Z","name_a2s":"","protocol":0,"map":"","folder":"","game":"","app_id":0,"player_count":0,"max_players":0,"Bots":0,"server_type":"","server_os":"","password":false,"vac":false,"version":"","steam_id":0,"keywords":null,"game_id":0,"stv_port":0,"stv_name":"","players":null},{"server_id":50,"name":"Uncletopia | Warsaw | 2 | All Maps","name_short":"waw-2","host":"waw-1.pl.uncletopia.com","port":27025,"enabled":true,"region":"eu","cc":"pl","latitude":52.2297,"longitude":21.017532,"reserved":0,"last_update":"0001-01-01T00:00:00Z","name_a2s":"Uncletopia | Warsaw | 2 | All Maps","protocol":17,"map":"pl_swiftwater_final1","folder":"tf","game":"Team Fortress","app_id":440,"player_count":0,"max_players":24,"Bots":0,"server_type":"Dedicated","server_os":"Linux","password":true,"vac":true,"version":"7882260","steam_id":85568392925397851,"keywords":["nocrits","nodmgspread","payload","uncletopia"],"game_id":440,"stv_port":27026,"stv_name":"Uncletopia | Warsaw | 2 | All Maps | STV","players":null},{"server_id":51,"name":"Uncletopia | Warsaw | 3 | All Maps","name_short":"waw-3","host":"waw-1.pl.uncletopia.com","port":27035,"enabled":true,"region":"eu","cc":"pl","latitude":52.2297,"longitude":21.017532,"reserved":0,"last_update":"0001-01-01T00:00:00Z","name_a2s":"Uncletopia | Warsaw | 3 | All Maps","protocol":17,"map":"koth_viaduct","folder":"tf","game":"Team Fortress","app_id":440,"player_count":0,"max_players":24,"Bots":0,"server_type":"Dedicated","server_os":"Linux","password":true,"vac":true,"version":"7882260","steam_id":85568392925397852,"keywords":["cp","nocrits","nodmgspread","uncletopia"],"game_id":440,"stv_port":27036,"stv_name":"Uncletopia | Warsaw | 3 | All Maps | STV","players":null},{"server_id":52,"name":"Uncletopia | Warsaw | 4 | All Maps","name_short":"waw-4","host":"waw-1.pl.uncletopia.com","port":27045,"enabled":true,"region":"eu","cc":"pl","latitude":52.2297,"longitude":21.017532,"reserved":0,"last_update":"0001-01-01T00:00:00Z","name_a2s":"Uncletopia | Warsaw | 4 | All Maps","protocol":17,"map":"koth_highpass","folder":"tf","game":"Team Fortress","app_id":440,"player_count":0,"max_players":24,"Bots":0,"server_type":"Dedicated","server_os":"Linux","password":true,"vac":true,"version":"7882260","steam_id":85568392925397853,"keywords":["cp","nocrits","nodmgspread","uncletopia"],"game_id":440,"stv_port":27046,"stv_name":"Uncletopia | Warsaw | 4 | All Maps | STV","players":null},{"server_id":53,"name":"Uncletopia | Warsaw | 5 | Stopwatch Beta","name_short":"waw-5","host":"waw-1.pl.uncletopia.com","port":27055,"enabled":true,"region":"eu","cc":"pl","latitude":52.2297,"longitude":21.017532,"reserved":0,"last_update":"0001-01-01T00:00:00Z","name_a2s":"Uncletopia | Warsaw | 5 | Stopwatch Beta","protocol":17,"map":"cp_mountainlab","folder":"tf","game":"Team Fortress","app_id":440,"player_count":0,"max_players":24,"Bots":0,"server_type":"Dedicated","server_os":"Linux","password":true,"vac":true,"version":"7882260","steam_id":85568392925397854,"keywords":["cp","nocrits","nodmgspread","uncletopia"],"game_id":440,"stv_port":27056,"stv_name":"Uncletopia | Warsaw | 5 | Stopwatch Beta | STV","players":null},{"server_id":54,"name":"Uncletopia | Warsaw | 6 | Community","name_short":"waw-6","host":"waw-1.pl.uncletopia.com","port":27065,"enabled":true,"region":"eu","cc":"pl","latitude":52.2297,"longitude":21.017532,"reserved":0,"last_update":"0001-01-01T00:00:00Z","name_a2s":"Uncletopia | Warsaw | 6 | Community","protocol":17,"map":"koth_viaduct","folder":"tf","game":"Team Fortress","app_id":440,"player_count":0,"max_players":24,"Bots":0,"server_type":"Dedicated","server_os":"Linux","password":true,"vac":true,"version":"7882260","steam_id":85568392925397856,"keywords":["cp","nocrits","nodmgspread","uncletopia"],"game_id":440,"stv_port":27066,"stv_name":"Uncletopia | Warsaw | 6 | Community | STV","players":null}]}