{"status":true,"message":"","result":[{"server_id":9,"name":"Uncletopia | Atlanta | 1 | All Maps","name_short":"atl-1","host":"atl-1.us.uncletopia.com","port":27015,"enabled":true,"region":"us-east","cc":"us","latitude":33.753746,"longitude":-84.38633,"reserved":0,"last_update":"0001-01-01T00:00:00Z","name_a2s":"Uncletopia | Atlanta | 1 | All Maps","protocol":17,"map":"koth_highpass","folder":"tf","game":"Team Fortress","app_id":440,"player_count":24,"max_players":24,"Bots":0,"server_type":"Dedicated","server_os":"Linux","password":true,"vac":true,"version":"7961495","steam_id":85568392924469982,"keywords":["cp","nocrits","nodmgspread","uncletopia"],"game_id":440,"stv_port":27016,"stv_name":"Uncletopia | Atlanta | 1 | All Maps | STV","players":[{"user_id":160,"name":"Artixes","steam_id":76561198379574232,"connected_time":3086000000000,"state":"active","ping":39},{"user_id":206,"name":"Frawg","steam_id":76561198951162196,"connected_time":977000000000,"state":"active","ping":73},{"user_id":189,"name":"row","steam_id":76561198040946044,"connected_time":2151000000000,"state":"active","ping":75},{"user_id":218,"name":"MichelangeloStark","steam_id":76561197976489900,"connected_time":310000000000,"state":"active","ping":70},{"user_id":205,"name":"OliverOyl","steam_id":76561198273781861,"connected_time":1006000000000,"state":"active","ping":60},{"user_id":167,"name":"harold of rock salt kingdom","steam_id":76561199016285746,"connected_time":2676000000000,"state":"spawning","ping":85},{"user_id":195,"name":"dicksnip","steam_id":76561198356515396,"connected_time":1700000000000,"state":"active","ping":71},{"user_id":221,"name":"Hertz","steam_id":76561198245322982,"connected_time":26000000000,"state":"active","ping":31},{"user_id":125,"name":"Ashes!","steam_id":76561197998475441,"connected_time":6852000000000,"state":"active","ping":72},{"user_id":207,"name":"soccer2010","steam_id":76561198404271005,"connected_time":892000000000,"state":"active","ping":90},{"user_id":222,"name":"the sludge","steam_id":76561198268816354,"connected_time":16000000000,"state":"active","ping":90},{"user_id":214,"name":"Joe Rogan (real)","steam_id":76561198359511515,"connected_time":379000000000,"state":"active","ping":84},{"user_id":216,"name":"bobbymcbobington","steam_id":76561199089411172,"connected_time":324000000000,"state":"active","ping":91},{"user_id":191,"name":"Amestris","steam_id":76561198097284610,"connected_time":2078000000000,"state":"active","ping":68},{"user_id":201,"name":"Zoe","steam_id":76561198068368133,"connected_time":1417000000000,"state":"active","ping":75},{"user_id":210,"name":"raccocooon","steam_id":76561199138602425,"connected_time":733000000000,"state":"active","ping":65},{"user_id":97,"name":"Okpar","steam_id":76561199221067945,"connected_time":10525000000000,"state":"active","ping":70},{"user_id":208,"name":"Vee (very cool)","steam_id":76561198330432889,"connected_time":854000000000,"state":"active","ping":60},{"user_id":202,"name":"xthyl","steam_id":76561199361299006,"connected_time":1249000000000,"state":"active","ping":138},{"user_id":179,"name":"I.C. Wiener","steam_id":76561197999912254,"connected_time":2435000000000,"state":"spawning","ping":167},{"user_id":148,"name":"manburnot","steam_id":76561199078672605,"connected_time":4688000000000,"state":"active","ping":48},{"user_id":155,"name":"Robo Boss","steam_id":76561199067098696,"connected_time":3791000000000,"state":"active","ping":79},{"user_id":215,"name":"big steve","steam_id":76561199037050183,"connected_time":379000000000,"state":"active","ping":76},{"user_id":220,"name":"Heathcliff","steam_id":76561198044288534,"connected_time":43000000000,"state":"active","ping":75}]},{"server_id":104,"name":"Uncletopia | Atlanta | 2 | All Maps","name_short":"atl-2","host":"atl-1.us.uncletopia.com","port":27025,"enabled":true,"region":"us-east","cc":"us","latitude":33.753746,"longitude":-84.38633,"reserved":0,"last_update":"0001-01-01T00:00:00Z","name_a2s":"Uncletopia | Atlanta | 2 | All Maps","protocol":17,"map":"cp_process_final","folder":"tf","game":"Team Fortress","app_id":440,"player_count":24,"max_players":24,"Bots":0,"server_type":"Dedicated","server_os":"Linux","password":true,"vac":true,"version":"7961495","steam_id":85568392924469983,"keywords":["cp","nocrits","nodmgspread","uncletopia"],"game_id":440,"stv_port":27026,"stv_name":"Uncletopia | Atlanta | 2 | All Maps | STV","players":[{"user_id":11,"name":"tac","steam_id":76561198408477421,"connected_time":5056000000000,"state":"active","ping":85},{"user_id":79,"name":"Whompert","steam_id":76561198042939624,"connected_time":1309000000000,"state":"active","ping":72},{"user_id":87,"name":"Orctorc","steam_id":76561198022964671,"connected_time":602000000000,"state":"active","ping":118},{"user_id":55,"name":"Vaudeville Villain","steam_id":76561197991063996,"connected_time":2736000000000,"state":"active","ping":77},{"user_id":64,"name":"Kage Templar","steam_id":76561198099057046,"connected_time":2409000000000,"state":"active","ping":88},{"user_id":90,"name":"sunglasses","steam_id":76561198173747227,"connected_time":73000000000,"state":"active","ping":88},{"user_id":68,"name":"incredirocks","steam_id":76561198061079993,"connected_time":2220000000000,"state":"active","ping":61},{"user_id":40,"name":"Pickles","steam_id":76561198010609340,"connected_time":3025000000000,"state":"active","ping":60},{"user_id":72,"name":"Chicago Shoplifter","steam_id":76561197986530028,"connected_time":1668000000000,"state":"active","ping":116},{"user_id":82,"name":"Decapitation Station","steam_id":76561198201796098,"connected_time":869000000000,"state":"active","ping":63},{"user_id":89,"name":"Smashing93","steam_id":76561199058453316,"connected_time":550000000000,"state":"active","ping":45},{"user_id":80,"name":"Oxygen User","steam_id":76561199111975528,"connected_time":1024000000000,"state":"active","ping":66},{"user_id":74,"name":"Motorol¬™","steam_id":76561198358119669,"connected_time":1624000000000,"state":"active","ping":113},{"user_id":85,"name":"Shrebbie","steam_id":76561198875230824,"connected_time":720000000000,"state":"active","ping":60},{"user_id":25,"name":"Allan_","steam_id":76561198975597174,"connected_time":3722000000000,"state":"active","ping":78},{"user_id":46,"name":"Grannie Perceus","steam_id":76561198136294130,"connected_time":2890000000000,"state":"active","ping":180},{"user_id":56,"name":"garfield","steam_id":76561198114119308,"connected_time":2729000000000,"state":"active","ping":46},{"user_id":28,"name":"PenguinX","steam_id":76561197968585057,"connected_time":3624000000000,"state":"active","ping":66},{"user_id":29,"name":"Microsoft Excel","steam_id":76561199216713634,"connected_time":3620000000000,"state":"active","ping":70},{"user_id":86,"name":"KevinKendrick","steam_id":76561198364706359,"connected_time":628000000000,"state":"active","ping":119},{"user_id":76,"name":"Alabit","steam_id":76561198065578560,"connected_time":1593000000000,"state":"active","ping":91},{"user_id":59,"name":"The_Epic_Conclusion","steam_id":76561198084250179,"connected_time":2680000000000,"state":"active","ping":81},{"user_id":77,"name":"knp1126","steam_id":76561198042702350,"connected_time":1571000000000,"state":"active","ping":57},{"user_id":67,"name":"James","steam_id":76561198081313916,"connected_time":2362000000000,"state":"active","ping":52}]},{"server_id":400,"name":"Uncletopia | Atlanta | 3 | Stopwatch","name_short":"atl-3","host":"atl-1.us.uncletopia.com","port":27035,"enabled":true,"region":"us-east","cc":"us","latitude":33.753746,"longitude":-84.38633,"reserved":0,"last_update":"0001-01-01T00:00:00Z","name_a2s":"Uncletopia | Atlanta | 3 | Stopwatch","protocol":17,"map":"workshop/pl_badwater_pro_v12.ugc2142942074","folder":"tf","game":"Team Fortress","app_id":440,"player_count":7,"max_players":24,"Bots":0,"server_type":"Dedicated","server_os":"Linux","password":true,"vac":true,"version":"7961495","steam_id":85568392924515187,"keywords":["nocrits","nodmgspread","payload","uncletopia"],"game_id":440,"stv_port":27036,"stv_name":"Uncletopia | Atlanta | 3 | Stopwatch | STV","players":[{"user_id":5,"name":"Yuwomy","steam_id":76561199105364755,"connected_time":557000000000,"state":"connecting","ping":120},{"user_id":6,"name":"yes","steam_id":76561199226277457,"connected_time":530000000000,"state":"connecting","ping":112},{"user_id":7,"name":"Basher","steam_id":76561198377406755,"connected_time":524000000000,"state":"connecting","ping":94},{"user_id":9,"name":"üíÄ Íú∞ Ä·¥è·¥è·¥ã…™·¥á55 üíÄ","steam_id":76561199057733177,"connected_time":491000000000,"state":"connecting","ping":157},{"user_id":12,"name":"motherofdragons96","steam_id":76561198864779097,"connected_time":38000000000,"state":"connecting","ping":111},{"user_id":13,"name":"goonggingginggaang","steam_id":76561198061397427,"connected_time":35000000000,"state":"connecting","ping":83}]},{"server_id":401,"name":"Uncletopia | Atlanta | 4 | Community","name_short":"atl-4","host":"atl-1.us.uncletopia.com","port":27045,"enabled":true,"region":"us-east","cc":"us","latitude":33.753746,"longitude":-84.38633,"reserved":0,"last_update":"0001-01-01T00:00:00Z","name_a2s":"Uncletopia | Atlanta | 4 | Community","protocol":17,"map":"workshop/cp_croissant_final.ugc458840209","folder":"tf","game":"Team Fortress","app_id":440,"player_count":0,"max_players":24,"Bots":0,"server_type":"Dedicated","server_os":"Linux","password":true,"vac":true,"version":"7961495","steam_id":85568392924515188,"keywords":["cp","nocrits","nodmgspread","uncletopia"],"game_id":440,"stv_port":27046,"stv_name":"Uncletopia | Atlanta | 4 | Community | STV","players":null},{"server_id":2,"name":"Uncletopia | Chicago | 1 | All Maps","name_short":"chi-1","host":"chi-1.us.uncletopia.com","port":27015,"enabled":true,"region":"us-central","cc":"us","latitude":41.881832,"longitude":-87.62318,"reserved":0,"last_update":"0001-01-01T00:00:00Z","name_a2s":"Uncletopia | Chicago | 1 | All Maps","protocol":17,"map":"ctf_well","folder":"tf","game":"Team Fortress","app_id":440,"player_count":24,"max_players":24,"Bots":0,"server_type":"Dedicated","server_os":"Linux","password":true,"vac":true,"version":"7961495","steam_id":85568392924469984,"keywords":["ctf","nocrits","nodmgspread","uncletopia"],"game_id":440,"stv_port":27016,"stv_name":"Uncletopia | Chicago | 1 | All Maps | STV","players":[{"user_id":284,"name":"Friday (they/them)\u0026","steam_id":76561198027321950,"connected_time":741000000000,"state":"active","ping":83},{"user_id":289,"name":"resh!","steam_id":76561198066619792,"connected_time":684000000000,"state":"active","ping":69},{"user_id":309,"name":"RealStanzy","steam_id":76561199060261003,"connected_time":236000000000,"state":"active","ping":86},{"user_id":269,"name":"Degausser","steam_id":76561198149671307,"connected_time":1811000000000,"state":"active","ping":60},{"user_id":295,"name":"Wilma","steam_id":76561198138420251,"connected_time":556000000000,"state":"active","ping":61},{"user_id":286,"name":"canakblasteran","steam_id":76561199472518822,"connected_time":733000000000,"state":"active","ping":95},{"user_id":287,"name":"Dr. Maybe","steam_id":76561198268304564,"connected_time":731000000000,"state":"active","ping":78},{"user_id":261,"name":"PoisonIvy","steam_id":76561198072384574,"connected_time":2019000000000,"state":"active","ping":55},{"user_id":288,"name":"Twilight_O7","steam_id":76561199169825151,"connected_time":706000000000,"state":"active","ping":76},{"user_id":291,"name":"Phoysh","steam_id":76561198137111021,"connected_time":648000000000,"state":"active","ping":114},{"user_id":226,"name":"enhanced with disney's FastPlay","steam_id":76561198164134387,"connected_time":5409000000000,"state":"active","ping":107},{"user_id":305,"name":"Bobby Hill","steam_id":76561197968889273,"connected_time":408000000000,"state":"active","ping":75},{"user_id":221,"name":"Beef Wellington","steam_id":76561198049837377,"connected_time":5515000000000,"state":"active","ping":49},{"user_id":292,"name":"rice","steam_id":76561198119326733,"connected_time":632000000000,"state":"active","ping":87},{"user_id":246,"name":"NUt","steam_id":76561198031007966,"connected_time":4075000000000,"state":"active","ping":54},{"user_id":263,"name":"Stacks63bs","steam_id":76561198067797130,"connected_time":2005000000000,"state":"active","ping":86},{"user_id":294,"name":"‡∏∏","steam_id":76561198170624701,"connected_time":589000000000,"state":"active","ping":71},{"user_id":296,"name":"Sack Stomper","steam_id":76561198154616010,"connected_time":553000000000,"state":"active","ping":95},{"user_id":227,"name":"Digitic","steam_id":76561198080295536,"connected_time":5402000000000,"state":"active","ping":72},{"user_id":308,"name":"yELLow","steam_id":76561198178488195,"connected_time":382000000000,"state":"active","ping":68},{"user_id":262,"name":"THORNFIELDGAMER","steam_id":76561199087167473,"connected_time":2017000000000,"state":"active","ping":85},{"user_id":298,"name":"TheFallenAngel","steam_id":76561198162437125,"connected_time":548000000000,"state":"active","ping":60},{"user_id":307,"name":"Chemzo","steam_id":76561199092858118,"connected_time":394000000000,"state":"active","ping":60},{"user_id":304,"name":"Caveman Sam","steam_id":76561197970125612,"connected_time":455000000000,"state":"active","ping":181}]},{"server_id":106,"name":"Uncletopia | Chicago | 2 | All Maps","name_short":"chi-2","host":"chi-1.us.uncletopia.com","port":27025,"enabled":true,"region":"us-central","cc":"us","latitude":41.881832,"longitude":-87.62318,"reserved":0,"last_update":"0001-01-01T00:00:00Z","name_a2s":"Uncletopia | Chicago | 2 | All Maps","protocol":17,"map":"pl_snowycoast","folder":"tf","game":"Team Fortress","app_id":440,"player_count":24,"max_players":24,"Bots":0,"server_type":"Dedicated","server_os":"Linux","password":true,"vac":true,"version":"7961495","steam_id":85568392924469985,"keywords":["nocrits","nodmgspread","payload","uncletopia"],"game_id":440,"stv_port":27026,"stv_name":"Uncletopia | Chicago | 2 | All Maps | STV","players":[{"user_id":139,"name":"Fresh Lychee","steam_id":76561198045399559,"connected_time":8190000000000,"state":"active","ping":55},{"user_id":225,"name":"Grand Piano Tuna","steam_id":76561198135137213,"connected_time":1717000000000,"state":"active","ping":57},{"user_id":208,"name":"Xavibite","steam_id":76561198209380493,"connected_time":3093000000000,"state":"active","ping":63},{"user_id":212,"name":"a baby","steam_id":76561198008662184,"connected_time":2430000000000,"state":"active","ping":60},{"user_id":222,"name":"ShellBug","steam_id":76561198144187527,"connected_time":1818000000000,"state":"active","ping":70},{"user_id":229,"name":"Macro","steam_id":76561199442846226,"connected_time":1338000000000,"state":"active","ping":76},{"user_id":126,"name":"The World's Softest Sandwich","steam_id":76561198015577707,"connected_time":8626000000000,"state":"active","ping":81},{"user_id":232,"name":"Kid named download","steam_id":76561199192074448,"connected_time":216000000000,"state":"active","ping":84},{"user_id":223,"name":"catfish from toontown","steam_id":76561198060070002,"connected_time":1803000000000,"state":"active","ping":67},{"user_id":226,"name":"Tay","steam_id":76561198059605568,"connected_time":1561000000000,"state":"active","ping":74},{"user_id":231,"name":"hatchetax","steam_id":76561199013337543,"connected_time":828000000000,"state":"active","ping":74},{"user_id":214,"name":"heck","steam_id":76561198308547958,"connected_time":2387000000000,"state":"active","ping":59},{"user_id":210,"name":"Mister Rattlebones","steam_id":76561198065560157,"connected_time":2914000000000,"state":"active","ping":67},{"user_id":186,"name":"Swash","steam_id":76561197969421355,"connected_time":4762000000000,"state":"active","ping":52},{"user_id":224,"name":"OWEENIE","steam_id":76561198083135927,"connected_time":1730000000000,"state":"active","ping":45},{"user_id":228,"name":"Jahruto","steam_id":76561198123347172,"connected_time":1356000000000,"state":"active","ping":46},{"user_id":230,"name":"battle clown","steam_id":76561198045788371,"connected_time":1189000000000,"state":"active","ping":65},{"user_id":211,"name":"m.a.d.","steam_id":76561198040553982,"connected_time":2683000000000,"state":"active","ping":61},{"user_id":193,"name":"gps","steam_id":76561198067492304,"connected_time":4532000000000,"state":"active","ping":84},{"user_id":205,"name":"LegendaryMister151","steam_id":76561198064890524,"connected_time":3343000000000,"state":"active","ping":85},{"user_id":156,"name":"hej","steam_id":76561197996366940,"connected_time":6694000000000,"state":"active","ping":60},{"user_id":199,"name":"wiiblob","steam_id":76561198109106242,"connected_time":4073000000000,"state":"active","ping":136},{"user_id":194,"name":"BardFromEntry","steam_id":76561198167596804,"connected_time":4527000000000,"state":"active","ping":90},{"user_id":227,"name":"Rafl","steam_id":76561198055222756,"connected_time":1392000000000,"state":"active","ping":72}]},{"server_id":402,"name":"Uncletopia | Chicago | 3 | All Maps","name_short":"chi-3","host":"chi-1.us.uncletopia.com","port":27035,"enabled":true,"region":"us-central","cc":"us","latitude":41.881832,"longitude":-87.62318,"reserved":0,"last_update":"0001-01-01T00:00:00Z","name_a2s":"Uncletopia | Chicago | 3 | All Maps","protocol":17,"map":"pl_barnblitz","folder":"tf","game":"Team Fortress","app_id":440,"player_count":24,"max_players":24,"Bots":0,"server_type":"Dedicated","server_os":"Linux","password":true,"vac":true,"version":"7961495","steam_id":85568392924515191,"keywords":["nocrits","nodmgspread","payload","uncletopia"],"game_id":440,"stv_port":27036,"stv_name":"Uncletopia | Chicago | 3 | All Maps | STV","players":[{"user_id":124,"name":"duBstep","steam_id":76561198353928965,"connected_time":886000000000,"state":"active","ping":60},{"user_id":133,"name":"tomiz","steam_id":76561198827013832,"connected_time":457000000000,"state":"active","ping":101},{"user_id":104,"name":"Ockulus","steam_id":76561199069638460,"connected_time":3322000000000,"state":"active","ping":102},{"user_id":134,"name":"Devoid","steam_id":76561198254039012,"connected_time":348000000000,"state":"active","ping":52},{"user_id":109,"name":"MgMaster7","steam_id":76561199229916638,"connected_time":2841000000000,"state":"active","ping":59},{"user_id":132,"name":"BOUZENZEL","steam_id":76561198095000722,"connected_time":460000000000,"state":"active","ping":59},{"user_id":92,"name":"Dragus","steam_id":76561198032967285,"connected_time":3991000000000,"state":"active","ping":49},{"user_id":108,"name":"coc","steam_id":76561198079668789,"connected_time":2856000000000,"state":"active","ping":81},{"user_id":94,"name":"neglex989","steam_id":76561199005171139,"connected_time":3965000000000,"state":"active","ping":79},{"user_id":126,"name":"Goose of Wisdom","steam_id":76561198233465044,"connected_time":878000000000,"state":"active","ping":83},{"user_id":43,"name":"Boner Boy","steam_id":76561198296857414,"connected_time":7550000000000,"state":"active","ping":96},{"user_id":135,"name":"poopybutt420","steam_id":76561199000805315,"connected_time":266000000000,"state":"active","ping":95},{"user_id":120,"name":"JetZ","steam_id":76561199122488957,"connected_time":1724000000000,"state":"active","ping":66},{"user_id":130,"name":"Scuba Steve","steam_id":76561198313018251,"connected_time":661000000000,"state":"active","ping":85},{"user_id":106,"name":"Tri-Dot","steam_id":76561199075186597,"connected_time":3003000000000,"state":"active","ping":69},{"user_id":110,"name":"Rennsellaer","steam_id":76561198096207580,"connected_time":2825000000000,"state":"active","ping":100},{"user_id":29,"name":"Panda","steam_id":76561198320424853,"connected_time":7877000000000,"state":"active","ping":69},{"user_id":136,"name":"zogs","steam_id":76561198323491654,"connected_time":263000000000,"state":"active","ping":59},{"user_id":138,"name":"THOTDADDY","steam_id":76561198069868942,"connected_time":181000000000,"state":"active","ping":60},{"user_id":97,"name":"Captain Buggy","steam_id":76561198024444448,"connected_time":3926000000000,"state":"active","ping":96},{"user_id":121,"name":"Discourse","steam_id":76561198984286678,"connected_time":1339000000000,"state":"active","ping":55},{"user_id":137,"name":"Dareu","steam_id":76561198081781710,"connected_time":236000000000,"state":"active","ping":62},{"user_id":119,"name":"Fangirl","steam_id":76561198253710690,"connected_time":2001000000000,"state":"active","ping":99},{"user_id":127,"name":"crushy spike ceiling","steam_id":76561198241793002,"connected_time":878000000000,"state":"active","ping":70}]},{"server_id":403,"name":"Uncletopia | Chicago | 4 | All Maps","name_short":"chi-4","host":"chi-1.us.uncletopia.com","port":27045,"enabled":true,"region":"us-central","cc":"us","latitude":41.881832,"longitude":-87.62318,"reserved":0,"last_update":"0001-01-01T00:00:00Z","name_a2s":"Uncletopia | Chicago | 4 | All Maps","protocol":17,"map":"pl_upward","folder":"tf","game":"Team Fortress","app_id":440,"player_count":24,"max_players":24,"Bots":0,"server_type":"Dedicated","server_os":"Linux","password":true,"vac":true,"version":"7961495","steam_id":85568392924515193,"keywords":["nocrits","nodmgspread","payload","uncletopia"],"game_id":440,"stv_port":27046,"stv_name":"Uncletopia | Chicago | 4 | All Maps | STV","players":[{"user_id":228,"name":"Magical.Puffin","steam_id":76561198129039275,"connected_time":1182000000000,"state":"active","ping":108},{"user_id":185,"name":"mild mannered mystery man","steam_id":76561198072095399,"connected_time":4192000000000,"state":"active","ping":48},{"user_id":242,"name":"Nukeboy","steam_id":76561198147058560,"connected_time":163000000000,"state":"active","ping":107},{"user_id":162,"name":"PewPewBulletGuns","steam_id":76561198106289426,"connected_time":5819000000000,"state":"active","ping":62},{"user_id":205,"name":"ThatGamingKiwi","steam_id":76561199170522237,"connected_time":2708000000000,"state":"active","ping":79},{"user_id":172,"name":"H4CK_B01","steam_id":76561198294018530,"connected_time":5038000000000,"state":"active","ping":57},{"user_id":239,"name":"the zoo","steam_id":76561198013732450,"connected_time":735000000000,"state":"active","ping":47},{"user_id":173,"name":"hyaz, +rep.","steam_id":76561199100342013,"connected_time":5033000000000,"state":"active","ping":90},{"user_id":235,"name":"millerbv14","steam_id":76561198453908595,"connected_time":994000000000,"state":"active","ping":95},{"user_id":204,"name":"Absurdly Obese Cat","steam_id":76561198073202543,"connected_time":2785000000000,"state":"active","ping":58},{"user_id":227,"name":"wckid","steam_id":76561198044856349,"connected_time":1190000000000,"state":"active","ping":58},{"user_id":178,"name":"rat sway gif","steam_id":76561198254856223,"connected_time":4901000000000,"state":"active","ping":59},{"user_id":230,"name":"Phyyrin","steam_id":76561198154532657,"connected_time":1121000000000,"state":"active","ping":113},{"user_id":198,"name":"marty","steam_id":76561198032782746,"connected_time":3194000000000,"state":"active","ping":90},{"user_id":238,"name":"Dr_chilly","steam_id":76561198445383213,"connected_time":736000000000,"state":"active","ping":102},{"user_id":234,"name":"Lemon Lime Soda","steam_id":76561198274005814,"connected_time":1028000000000,"state":"active","ping":67},{"user_id":236,"name":"BenjiB","steam_id":76561198799343712,"connected_time":942000000000,"state":"active","ping":76},{"user_id":229,"name":"DiviningWizard","steam_id":76561199101096245,"connected_time":1134000000000,"state":"active","ping":81},{"user_id":223,"name":"Nekomancer","steam_id":76561198063957846,"connected_time":2275000000000,"state":"active","ping":61},{"user_id":240,"name":"hittign dabong","steam_id":76561198097588802,"connected_time":414000000000,"state":"active","ping":46},{"user_id":232,"name":"murfree","steam_id":76561198045335319,"connected_time":1111000000000,"state":"active","ping":85},{"user_id":226,"name":"SQbuilder","steam_id":76561198076473375,"connected_time":1611000000000,"state":"active","ping":96},{"user_id":233,"name":"RileyNiko","steam_id":76561198162093639,"connected_time":1082000000000,"state":"active","ping":72},{"user_id":241,"name":"DarkWarrior","steam_id":76561198023377538,"connected_time":350000000000,"state":"active","ping":144}]},{"server_id":36,"name":"Uncletopia | Chicago | 5 | All Maps","name_short":"chi-5","host":"chi-2.us.uncletopia.com","port":27015,"enabled":true,"region":"us-central","cc":"us","latitude":41.881832,"longitude":-87.62318,"reserved":0,"last_update":"0001-01-01T00:00:00Z","name_a2s":"Uncletopia | Chicago | 5 | All Maps","protocol":17,"map":"pl_badwater","folder":"tf","game":"Team Fortress","app_id":440,"player_count":20,"max_players":24,"Bots":0,"server_type":"Dedicated","server_os":"Linux","password":true,"vac":true,"version":"7961495","steam_id":85568392924866362,"keywords":["cp","nocrits","nodmgspread","uncletopia"],"game_id":440,"stv_port":27016,"stv_name":"Uncletopia | Chicago | 5 | All Maps | STV","players":[{"user_id":127,"name":"OBSERVER","steam_id":76561198072996397,"connected_time":742000000000,"state":"connecting","ping":71},{"user_id":130,"name":"Toripollo","steam_id":76561198251665862,"connected_time":555000000000,"state":"connecting","ping":126},{"user_id":117,"name":"Poodwecker","steam_id":76561198344264859,"connected_time":1248000000000,"state":"connecting","ping":105},{"user_id":115,"name":"amaz","steam_id":76561198386233160,"connected_time":1304000000000,"state":"connecting","ping":112},{"user_id":128,"name":"noel","steam_id":76561198128280883,"connected_time":632000000000,"state":"connecting","ping":77},{"user_id":131,"name":"BloodHoundYT (F2P) | trade.tf","steam_id":76561199180340440,"connected_time":231000000000,"state":"connecting","ping":174},{"user_id":110,"name":"Leroy","steam_id":76561199013064727,"connected_time":1901000000000,"state":"connecting","ping":90},{"user_id":116,"name":"Grify","steam_id":76561198012292317,"connected_time":1275000000000,"state":"connecting","ping":91},{"user_id":122,"name":"D","steam_id":76561198292908619,"connected_time":1204000000000,"state":"connecting","ping":89},{"user_id":119,"name":"AkimboAoki","steam_id":76561198158323058,"connected_time":1224000000000,"state":"connecting","ping":114},{"user_id":91,"name":"Hawkborne","steam_id":76561198107249245,"connected_time":3650000000000,"state":"connecting","ping":82},{"user_id":39,"name":"SNEPPY","steam_id":76561198065040243,"connected_time":6536000000000,"state":"connecting","ping":76},{"user_id":132,"name":"fresco","steam_id":76561199101199477,"connected_time":26000000000,"state":"connecting","ping":69},{"user_id":107,"name":"Keshii","steam_id":76561198257241983,"connected_time":2716000000000,"state":"connecting","ping":93},{"user_id":125,"name":"Buggy","steam_id":76561198989158872,"connected_time":1065000000000,"state":"connecting","ping":167},{"user_id":79,"name":"Gamebun üêá","steam_id":76561197998855425,"connected_time":4102000000000,"state":"connecting","ping":66},{"user_id":121,"name":"BEATDEmChEEKz96","steam_id":76561198161698924,"connected_time":1212000000000,"state":"connecting","ping":110},{"user_id":37,"name":"Grishlock","steam_id":76561198000366744,"connected_time":6567000000000,"state":"connecting","ping":118},{"user_id":124,"name":"Kommora","steam_id":76561198370490234,"connected_time":1194000000000,"state":"connecting","ping":76}]},{"server_id":37,"name":"Uncletopia | Chicago | 6 | All Maps","name_short":"chi-6","host":"chi-2.us.uncletopia.com","port":27025,"enabled":true,"region":"us-central","cc":"us","latitude":41.881832,"longitude":-87.62318,"reserved":0,"last_update":"0001-01-01T00:00:00Z","name_a2s":"Uncletopia | Chicago | 6 | All Maps","protocol":17,"map":"koth_cascade","folder":"tf","game":"Team Fortress","app_id":440,"player_count":1,"max_players":24,"Bots":0,"server_type":"Dedicated","server_os":"Linux","password":true,"vac":true,"version":"7961495","steam_id":85568392924866363,"keywords":["cp","nocrits","nodmgspread","uncletopia"],"game_id":440,"stv_port":27026,"stv_name":"Uncletopia | Chicago | 6 | All Maps | STV","players":[{"user_id":9,"name":"John Xina","steam_id":76561198350649871,"connected_time":128000000000,"state":"active","ping":90}]},{"server_id":38,"name":"Uncletopia | Chicago | 7 | Stopwatch","name_short":"chi-7","host":"chi-2.us.uncletopia.com","port":27035,"enabled":true,"region":"us-central","cc":"us","latitude":41.881832,"longitude":-87.62318,"reserved":0,"last_update":"0001-01-01T00:00:00Z","name_a2s":"Uncletopia | Chicago | 7 | Stopwatch","protocol":17,"map":"pl_badwater","folder":"tf","game":"Team Fortress","app_id":440,"player_count":0,"max_players":24,"Bots":0,"server_type":"Dedicated","server_os":"Linux","password":true,"vac":true,"version":"7961495","steam_id":85568392924866364,"keywords":["nocrits","nodmgspread","payload","uncletopia"],"game_id":440,"stv_port":27036,"stv_name":"Uncletopia | Chicago | 7 | Stopwatch | STV","players":null},{"server_id":39,"name":"Uncletopia | Chicago | 8 | Community","name_short":"chi-8","host":"chi-2.us.uncletopia.com","port":27045,"enabled":true,"region":"us-central","cc":"us","latitude":41.881832,"longitude":-87.62318,"reserved":0,"last_update":"0001-01-01T00:00:00Z","name_a2s":"Uncletopia | Chicago | 8 | Community","protocol":17,"map":"pl_pier","folder":"tf","game":"Team Fortress","app_id":440,"player_count":0,"max_players":24,"Bots":0,"server_type":"Dedicated","server_os":"Linux","password":true,"vac":true,"version":"7961495","steam_id":85568392924866365,"keywords":["nocrits","nodmgspread","payload","uncletopia"],"game_id":440,"stv_port":27046,"stv_name":"Uncletopia | Chicago | 8 | Community | STV","players":null},{"server_id":8,"name":"Uncletopia | Dallas | 1 | All Maps","name_short":"dal-1","host":"dal-1.us.uncletopia.com","port":27015,"enabled":true,"region":"us-central","cc":"us","latitude":32.779167,"longitude":-96.80889,"reserved":0,"last_update":"0001-01-01T00:00:00Z","name_a2s":"Uncletopia | Dallas | 1 | All Maps","protocol":17,"map":"pl_badwater","folder":"tf","game":"Team Fortress","app_id":440,"player_count":24,"max_players":24,"Bots":0,"server_type":"Dedicated","server_os":"Linux","password":true,"vac":true,"version":"7961495","steam_id":85568392924469986,"keywords":["nocrits","nodmgspread","payload","uncletopia"],"game_id":440,"stv_port":27016,"stv_name":"Uncletopia | Dallas | 1 | All Maps | STV","players":[{"user_id":111,"name":"THRONGLER","steam_id":76561198198563466,"connected_time":7328000000000,"state":"active","ping":40},{"user_id":198,"name":"Fairlife Cow","steam_id":76561198242227952,"connected_time":1105000000000,"state":"active","ping":78},{"user_id":147,"name":"lolosaur","steam_id":76561199186671167,"connected_time":4848000000000,"state":"active","ping":119},{"user_id":208,"name":"Robin Suarez","steam_id":76561198014698593,"connected_time":155000000000,"state":"active","ping":101},{"user_id":195,"name":"banana gaming","steam_id":76561198334907218,"connected_time":1175000000000,"state":"active","ping":61},{"user_id":207,"name":"A Straw","steam_id":76561199367935846,"connected_time":213000000000,"state":"active","ping":71},{"user_id":203,"name":"Bewty","steam_id":76561198146745998,"connected_time":881000000000,"state":"active","ping":78},{"user_id":140,"name":"œÅŒ±—ï—Ç—î‚Ñì Œπ–∏–∫","steam_id":76561199151508585,"connected_time":5096000000000,"state":"active","ping":90},{"user_id":196,"name":"Wiggs is the Shiggs","steam_id":76561198078379719,"connected_time":1138000000000,"state":"active","ping":89},{"user_id":172,"name":"PowerGem3000","steam_id":76561198944644691,"connected_time":2453000000000,"state":"active","ping":78},{"user_id":201,"name":"shnowshner","steam_id":76561198066450438,"connected_time":952000000000,"state":"active","ping":90},{"user_id":205,"name":"Plasic74x","steam_id":76561199058981206,"connected_time":580000000000,"state":"active","ping":127},{"user_id":156,"name":"leesh","steam_id":76561198079603938,"connected_time":4390000000000,"state":"active","ping":60},{"user_id":176,"name":"Just washed","steam_id":76561199030160932,"connected_time":2007000000000,"state":"active","ping":78},{"user_id":192,"name":"SolarusD","steam_id":76561198029279861,"connected_time":1552000000000,"state":"active","ping":89},{"user_id":189,"name":"Cookie","steam_id":76561198127205709,"connected_time":1812000000000,"state":"active","ping":81},{"user_id":194,"name":"hforce11","steam_id":76561198087647130,"connected_time":1370000000000,"state":"active","ping":64},{"user_id":141,"name":"ol' dirty","steam_id":76561198074213978,"connected_time":5076000000000,"state":"active","ping":78},{"user_id":197,"name":"SD","steam_id":76561198217410988,"connected_time":1133000000000,"state":"active","ping":75},{"user_id":206,"name":"Mellou","steam_id":76561198212048740,"connected_time":286000000000,"state":"active","ping":51},{"user_id":187,"name":"Legit_Jaxer","steam_id":76561198172234053,"connected_time":1867000000000,"state":"active","ping":107},{"user_id":193,"name":"artichoke","steam_id":76561198980994364,"connected_time":1497000000000,"state":"active","ping":94},{"user_id":199,"name":"Jennifer Aniston's Nipples","steam_id":76561198086107548,"connected_time":1089000000000,"state":"active","ping":49},{"user_id":169,"name":"head in the ceiling fan","steam_id":76561199063223088,"connected_time":3404000000000,"state":"active","ping":60}]},{"server_id":108,"name":"Uncletopia | Dallas | 2 | All Maps","name_short":"dal-2","host":"dal-1.us.uncletopia.com","port":27025,"enabled":true,"region":"us-central","cc":"us","latitude":32.779167,"longitude":-96.80889,"reserved":0,"last_update":"0001-01-01T00:00:00Z","name_a2s":"Uncletopia | Dallas | 2 | All Maps","protocol":17,"map":"pl_borneo","folder":"tf","game":"Team Fortress","app_id":440,"player_count":24,"max_players":24,"Bots":0,"server_type":"Dedicated","server_os":"Linux","password":true,"vac":true,"version":"7961495","steam_id":85568392924469988,"keywords":["nocrits","nodmgspread","payload","uncletopia"],"game_id":440,"stv_port":27026,"stv_name":"Uncletopia | Dallas | 2 | All Maps | STV","players":[{"user_id":154,"name":"CeLeb144","steam_id":76561199089907740,"connected_time":3537000000000,"state":"active","ping":68},{"user_id":186,"name":"squarg","steam_id":76561198857911015,"connected_time":1728000000000,"state":"active","ping":90},{"user_id":155,"name":"Tabby!!!!","steam_id":76561198018288153,"connected_time":3473000000000,"state":"active","ping":60},{"user_id":206,"name":"LordStubby","steam_id":76561198799291957,"connected_time":210000000000,"state":"active","ping":73},{"user_id":207,"name":"femboy =Ôºæ‚óè ‚ãè ‚óèÔºæ=","steam_id":76561199052450127,"connected_time":189000000000,"state":"active","ping":69},{"user_id":179,"name":"bottom pride burger","steam_id":76561198322247602,"connected_time":2525000000000,"state":"active","ping":88},{"user_id":187,"name":"irritable vowel syndrome","steam_id":76561198117033273,"connected_time":1708000000000,"state":"active","ping":161},{"user_id":117,"name":"radicalPolio","steam_id":76561197961561855,"connected_time":4435000000000,"state":"active","ping":44},{"user_id":171,"name":"Maq","steam_id":76561198076008061,"connected_time":2706000000000,"state":"active","ping":85},{"user_id":184,"name":"Angelmaster","steam_id":76561198815474379,"connected_time":1939000000000,"state":"active","ping":75},{"user_id":188,"name":"[cf] Captain Terror","steam_id":76561198028034742,"connected_time":1284000000000,"state":"active","ping":89},{"user_id":193,"name":"schizophrenic","steam_id":76561198271724907,"connected_time":478000000000,"state":"active","ping":82},{"user_id":194,"name":"Target practice","steam_id":76561198027102552,"connected_time":434000000000,"state":"active","ping":105},{"user_id":190,"name":"milky","steam_id":76561198144639805,"connected_time":528000000000,"state":"active","ping":60},{"user_id":195,"name":"Dreamzapp","steam_id":76561199084936632,"connected_time":375000000000,"state":"active","ping":95},{"user_id":104,"name":"SSS GRADE MADNESS!!!!!","steam_id":76561199064456633,"connected_time":4780000000000,"state":"active","ping":75},{"user_id":173,"name":"Kirby.exe","steam_id":76561198242714582,"connected_time":2684000000000,"state":"active","ping":53},{"user_id":208,"name":"GOLDEN GORL","steam_id":76561198004584952,"connected_time":74000000000,"state":"active","ping":96},{"user_id":169,"name":"bigchungusgaming(real)","steam_id":76561198273392037,"connected_time":2875000000000,"state":"active","ping":88},{"user_id":203,"name":"I haven't left my room in 4 day","steam_id":76561199243489976,"connected_time":263000000000,"state":"active","ping":115},{"user_id":204,"name":"Grilled Jizo","steam_id":76561199250875340,"connected_time":250000000000,"state":"active","ping":107},{"user_id":70,"name":"Tuvok Shakur","steam_id":76561198018875334,"connected_time":6520000000000,"state":"active","ping":66},{"user_id":205,"name":"fish (2:3)","steam_id":76561198134331073,"connected_time":239000000000,"state":"active","ping":119},{"user_id":201,"name":"Maid 'n' China","steam_id":76561198423392976,"connected_time":343000000000,"state":"active","ping":91}]},{"server_id":404,"name":"Uncletopia | Dallas | 3 | All Maps","name_short":"dal-3","host":"dal-1.us.uncletopia.com","port":27035,"enabled":true,"region":"us-central","cc":"us","latitude":32.779167,"longitude":-96.80889,"reserved":0,"last_update":"0001-01-01T00:00:00Z","name_a2s":"Uncletopia | Dallas | 3 | All Maps","protocol":17,"map":"koth_cascade","folder":"tf","game":"Team Fortress","app_id":440,"player_count":23,"max_players":24,"Bots":0,"server_type":"Dedicated","server_os":"Linux","password":true,"vac":true,"version":"7961495","steam_id":85568392924515219,"keywords":["cp","nocrits","nodmgspread","uncletopia"],"game_id":440,"stv_port":27036,"stv_name":"Uncletopia | Dallas | 3 | All Maps | STV","players":[{"user_id":52,"name":"the_bassmann3","steam_id":76561199214008710,"connected_time":61000000000,"state":"active","ping":72},{"user_id":21,"name":"Sup m8","steam_id":76561198081659121,"connected_time":1387000000000,"state":"active","ping":36},{"user_id":40,"name":"LegitGTV","steam_id":76561198968093086,"connected_time":303000000000,"state":"active","ping":80},{"user_id":23,"name":"SlitherDoodle","steam_id":76561198000275473,"connected_time":1199000000000,"state":"active","ping":71},{"user_id":24,"name":"asm_ghost","steam_id":76561199205363547,"connected_time":938000000000,"state":"active","ping":106},{"user_id":25,"name":"sloped wall (fake) [not real]","steam_id":76561198203952392,"connected_time":832000000000,"state":"active","ping":77},{"user_id":26,"name":"Certified Hood Classic","steam_id":76561199086159354,"connected_time":817000000000,"state":"active","ping":56},{"user_id":27,"name":"just2pale","steam_id":76561198046793289,"connected_time":759000000000,"state":"active","ping":53},{"user_id":28,"name":"Odd Life","steam_id":76561198244979998,"connected_time":727000000000,"state":"active","ping":85},{"user_id":51,"name":"‚ù§[S'more]‚ù§","steam_id":76561198817361963,"connected_time":155000000000,"state":"active","ping":107},{"user_id":30,"name":"All Tomorrow's Parties","steam_id":76561197995936212,"connected_time":659000000000,"state":"active","ping":75},{"user_id":31,"name":"Frost Paraselene","steam_id":76561198007332517,"connected_time":638000000000,"state":"active","ping":82},{"user_id":32,"name":"explosive reefer roach","steam_id":76561198135274720,"connected_time":588000000000,"state":"active","ping":107},{"user_id":49,"name":"eryn üó∫","steam_id":76561198004433070,"connected_time":235000000000,"state":"active","ping":146},{"user_id":34,"name":"Dewdal","steam_id":76561198042037035,"connected_time":564000000000,"state":"active","ping":78},{"user_id":35,"name":"moe","steam_id":76561198929586245,"connected_time":506000000000,"state":"active","ping":66},{"user_id":38,"name":"Pneumo.","steam_id":76561197987911883,"connected_time":430000000000,"state":"active","ping":132},{"user_id":41,"name":"goober","steam_id":76561198032675272,"connected_time":300000000000,"state":"active","ping":75},{"user_id":42,"name":"Sasu","steam_id":76561198893447505,"connected_time":292000000000,"state":"active","ping":80},{"user_id":50,"name":"Lord_Dabbatron","steam_id":76561199058480985,"connected_time":205000000000,"state":"active","ping":57},{"user_id":44,"name":"Sneed-poster","steam_id":76561198206198937,"connected_time":277000000000,"state":"active","ping":60},{"user_id":45,"name":"Jeramosa","steam_id":76561198811000094,"connected_time":272000000000,"state":"active","ping":77},{"user_id":46,"name":"Daddy Topps","steam_id":76561198203594332,"connected_time":265000000000,"state":"active","ping":106}]},{"server_id":405,"name":"Uncletopia | Dallas | 4 | Community","name_short":"dal-4","host":"dal-1.us.uncletopia.com","port":27045,"enabled":true,"region":"us-central","cc":"us","latitude":32.779167,"longitude":-96.80889,"reserved":0,"last_update":"0001-01-01T00:00:00Z","name_a2s":"Uncletopia | Dallas | 4 | Community","protocol":17,"map":"pl_pier","folder":"tf","game":"Team Fortress","app_id":440,"player_count":1,"max_players":24,"Bots":0,"server_type":"Dedicated","server_os":"Linux","password":true,"vac":true,"version":"7961495","steam_id":85568392924515220,"keywords":["nocrits","nodmgspread","payload","uncletopia"],"game_id":440,"stv_port":27046,"stv_name":"Uncletopia | Dallas | 4 | Community | STV","players":[{"user_id":3,"name":"Julius Caper","steam_id":76561199190216106,"connected_time":22000000000,"state":"spawning","ping":77}]},{"server_id":5,"name":"Uncletopia | Frankfurt | 1 | All Maps","name_short":"frk-1","host":"frk-1.de.uncletopia.com","port":27015,"enabled":true,"region":"eu","cc":"de","latitude":50.110924,"longitude":8.682127,"reserved":0,"last_update":"0001-01-01T00:00:00Z","name_a2s":"Uncletopia | Frankfurt | 1 | All Maps","protocol":17,"map":"pl_borneo","folder":"tf","game":"Team Fortress","app_id":440,"player_count":23,"max_players":24,"Bots":0,"server_type":"Dedicated","server_os":"Linux","password":true,"vac":true,"version":"7961495","steam_id":85568392924469989,"keywords":["nocrits","nodmgspread","payload","uncletopia"],"game_id":440,"stv_port":27016,"stv_name":"Uncletopia | Frankfurt | 1 | All Maps | STV","players":[{"user_id":524,"name":"[Sheep] Tomco","steam_id":76561198388549261,"connected_time":1999000000000,"state":"active","ping":79},{"user_id":531,"name":"Huskai","steam_id":76561198141512362,"connected_time":1340000000000,"state":"active","ping":45},{"user_id":498,"name":"Hexagon","steam_id":76561198151205758,"connected_time":4351000000000,"state":"active","ping":49},{"user_id":486,"name":"Nick","steam_id":76561198036109469,"connected_time":5556000000000,"state":"active","ping":76},{"user_id":520,"name":"Birch","steam_id":76561197998712822,"connected_time":2765000000000,"state":"active","ping":47},{"user_id":464,"name":"God is serb","steam_id":76561198966246028,"connected_time":6644000000000,"state":"active","ping":86},{"user_id":515,"name":"SphinxG","steam_id":76561198314281599,"connected_time":3067000000000,"state":"active","ping":97},{"user_id":539,"name":"Merzant","steam_id":76561198128168379,"connected_time":409000000000,"state":"active","ping":88},{"user_id":542,"name":"FilipeLuk","steam_id":76561198150675438,"connected_time":3000000000,"state":"spawning","ping":67},{"user_id":535,"name":"imveryhungry","steam_id":76561199289596889,"connected_time":632000000000,"state":"active","ping":70},{"user_id":541,"name":"3.5 Mefedron Plug","steam_id":76561198969473168,"connected_time":162000000000,"state":"active","ping":85},{"user_id":533,"name":"maxxioryy","steam_id":76561198383092515,"connected_time":1130000000000,"state":"active","ping":108},{"user_id":510,"name":"Dictatorial Karelian","steam_id":76561198196736457,"connected_time":3561000000000,"state":"active","ping":74},{"user_id":536,"name":"Edelwei√ü","steam_id":76561198023244021,"connected_time":477000000000,"state":"active","ping":63},{"user_id":526,"name":"Saint","steam_id":76561198003296382,"connected_time":1986000000000,"state":"active","ping":57},{"user_id":538,"name":"Succubus","steam_id":76561199225653908,"connected_time":414000000000,"state":"active","ping":50},{"user_id":519,"name":"robbie","steam_id":76561198798195287,"connected_time":3035000000000,"state":"active","ping":62},{"user_id":488,"name":"teach me shadow priest","steam_id":76561198343529494,"connected_time":5544000000000,"state":"active","ping":84},{"user_id":527,"name":"Rock..","steam_id":76561198004641963,"connected_time":1926000000000,"state":"active","ping":75},{"user_id":530,"name":"Virgil","steam_id":76561198248786778,"connected_time":1541000000000,"state":"active","ping":119},{"user_id":490,"name":"Mr. Mundy","steam_id":76561198132008918,"connected_time":5508000000000,"state":"active","ping":74},{"user_id":540,"name":"s a i","steam_id":76561197970379754,"connected_time":399000000000,"state":"active","ping":53},{"user_id":537,"name":"WolfmanCZ","steam_id":76561199157141414,"connected_time":450000000000,"state":"active","ping":74}]},{"server_id":110,"name":"Uncletopia | Frankfurt | 2 | All Maps","name_short":"frk-2","host":"frk-1.de.uncletopia.com","port":27025,"enabled":true,"region":"eu","cc":"de","latitude":50.110924,"longitude":8.682127,"reserved":0,"last_update":"0001-01-01T00:00:00Z","name_a2s":"Uncletopia | Frankfurt | 2 | All Maps","protocol":17,"map":"pl_frontier_final","folder":"tf","game":"Team Fortress","app_id":440,"player_count":24,"max_players":24,"Bots":0,"server_type":"Dedicated","server_os":"Linux","password":true,"vac":true,"version":"7961495","steam_id":85568392924469990,"keywords":["nocrits","nodmgspread","payload","uncletopia"],"game_id":440,"stv_port":27026,"stv_name":"Uncletopia | Frankfurt | 2 | All Maps | STV","players":[{"user_id":474,"name":"MateuszRTS","steam_id":76561198014491925,"connected_time":1695000000000,"state":"active","ping":78},{"user_id":486,"name":"flange","steam_id":76561198040182692,"connected_time":642000000000,"state":"active","ping":55},{"user_id":456,"name":"jacio","steam_id":76561199491964000,"connected_time":2369000000000,"state":"active","ping":62},{"user_id":458,"name":"aykutbayrak","steam_id":76561198060206825,"connected_time":2345000000000,"state":"active","ping":102},{"user_id":439,"name":"Feels Good","steam_id":76561198058030054,"connected_time":4110000000000,"state":"active","ping":108},{"user_id":483,"name":"–æ–±–µ–∑—å—è–Ω–∞","steam_id":76561198297812094,"connected_time":699000000000,"state":"active","ping":98},{"user_id":461,"name":"Mr Muffin","steam_id":76561198091713066,"connected_time":2135000000000,"state":"active","ping":57},{"user_id":487,"name":"Sergeant Pepper","steam_id":76561198259943381,"connected_time":620000000000,"state":"active","ping":80},{"user_id":489,"name":"„Éî„Éâ„É©„Çπ","steam_id":76561198092463910,"connected_time":362000000000,"state":"active","ping":74},{"user_id":471,"name":"Kestrel","steam_id":76561198144033005,"connected_time":1717000000000,"state":"active","ping":65},{"user_id":482,"name":"Cinyr von Sett","steam_id":76561198047625361,"connected_time":705000000000,"state":"active","ping":199},{"user_id":405,"name":"sticks","steam_id":76561198127099299,"connected_time":5270000000000,"state":"active","ping":49},{"user_id":452,"name":"rubn","steam_id":76561198119586410,"connected_time":2595000000000,"state":"active","ping":69},{"user_id":490,"name":"Grumpy_Owl","steam_id":76561198190652941,"connected_time":50000000000,"state":"active","ping":114},{"user_id":460,"name":"‡ºº ‡∫àŸÑÕú‡∫à‡ºΩ","steam_id":76561198027166144,"connected_time":2304000000000,"state":"active","ping":82},{"user_id":450,"name":"√°rv√≠zt≈±r≈ë t√ºk√∂rf√∫r√≥g√©p","steam_id":76561198296643061,"connected_time":3075000000000,"state":"active","ping":62},{"user_id":453,"name":"fifrok","steam_id":76561198799267621,"connected_time":2388000000000,"state":"active","ping":69},{"user_id":477,"name":"Darkf065","steam_id":76561199029257202,"connected_time":1639000000000,"state":"active","ping":106},{"user_id":478,"name":"los pollos hermanos","steam_id":76561198988867951,"connected_time":1635000000000,"state":"active","ping":70},{"user_id":419,"name":"not me","steam_id":76561199499721991,"connected_time":5074000000000,"state":"active","ping":91},{"user_id":484,"name":"0\u003e0","steam_id":76561198049741238,"connected_time":657000000000,"state":"active","ping":97},{"user_id":479,"name":"'Poli","steam_id":76561198058710244,"connected_time":1552000000000,"state":"active","ping":96},{"user_id":488,"name":"rickeeey","steam_id":76561199069460375,"connected_time":619000000000,"state":"active","ping":60},{"user_id":480,"name":"miiq130","steam_id":76561198188010666,"connected_time":1533000000000,"state":"active","ping":75}]},{"server_id":308,"name":"Uncletopia | Frankfurt | 3 | All Maps","name_short":"frk-3","host":"frk-1.de.uncletopia.com","port":27035,"enabled":true,"region":"eu","cc":"de","latitude":50.110924,"longitude":8.682127,"reserved":0,"last_update":"0001-01-01T00:00:00Z","name_a2s":"Uncletopia | Frankfurt | 3 | All Maps","protocol":17,"map":"koth_suijin","folder":"tf","game":"Team Fortress","app_id":440,"player_count":20,"max_players":24,"Bots":0,"server_type":"Dedicated","server_os":"Linux","password":true,"vac":true,"version":"7961495","steam_id":85568392924504274,"keywords":["cp","nocrits","nodmgspread","uncletopia"],"game_id":440,"stv_port":27036,"stv_name":"Uncletopia | Frankfurt | 3 | All Maps | STV","players":[{"user_id":560,"name":"RubyTheUnicorn","steam_id":76561198091772218,"connected_time":214000000000,"state":"active","ping":53},{"user_id":482,"name":"eva","steam_id":76561198054474684,"connected_time":6068000000000,"state":"active","ping":74},{"user_id":571,"name":"quack","steam_id":76561198121003465,"connected_time":33000000000,"state":"active","ping":60},{"user_id":557,"name":"Vito","steam_id":76561198103978102,"connected_time":550000000000,"state":"active","ping":77},{"user_id":555,"name":"strohkopf9","steam_id":76561198059349860,"connected_time":712000000000,"state":"active","ping":68},{"user_id":514,"name":"shitty shit mcshit","steam_id":76561198097507847,"connected_time":4447000000000,"state":"active","ping":73},{"user_id":568,"name":"Birchly","steam_id":76561198140011785,"connected_time":52000000000,"state":"active","ping":65},{"user_id":559,"name":"Vivian From Paper Mario","steam_id":76561198077624205,"connected_time":245000000000,"state":"active","ping":84},{"user_id":562,"name":"REN","steam_id":76561198000596385,"connected_time":196000000000,"state":"active","ping":66},{"user_id":475,"name":"Cheshireycat","steam_id":76561198067204908,"connected_time":7492000000000,"state":"active","ping":66},{"user_id":523,"name":"Killer8880","steam_id":76561199094449560,"connected_time":3627000000000,"state":"active","ping":82},{"user_id":540,"name":"hoodirony","steam_id":76561198307698105,"connected_time":1503000000000,"state":"active","ping":108},{"user_id":556,"name":"rudolph","steam_id":76561198057399765,"connected_time":582000000000,"state":"active","ping":41},{"user_id":487,"name":"Fizik","steam_id":76561198065548086,"connected_time":5908000000000,"state":"active","ping":45},{"user_id":564,"name":"Amok","steam_id":76561198043889110,"connected_time":170000000000,"state":"active","ping":62},{"user_id":544,"name":"–æ–¥–∏–Ω–¥–≤–∞—Ç—Ä–∏","steam_id":76561198269110665,"connected_time":1302000000000,"state":"active","ping":99},{"user_id":565,"name":"benny420 #SAVETF2","steam_id":76561198116162730,"connected_time":149000000000,"state":"active","ping":70},{"user_id":554,"name":"Khrinde","steam_id":76561198036744526,"connected_time":733000000000,"state":"active","ping":101},{"user_id":543,"name":"Slowest hands in the west","steam_id":76561199286764992,"connected_time":1399000000000,"state":"active","ping":60},{"user_id":566,"name":"gerber local brewery","steam_id":76561198183623117,"connected_time":126000000000,"state":"active","ping":54}]},{"server_id":309,"name":"Uncletopia | Frankfurt | 4 | All Maps","name_short":"frk-4","host":"frk-1.de.uncletopia.com","port":27045,"enabled":true,"region":"eu","cc":"de","latitude":50.110924,"longitude":8.682127,"reserved":0,"last_update":"0001-01-01T00:00:00Z","name_a2s":"Uncletopia | Frankfurt | 4 | All Maps","protocol":17,"map":"pl_swiftwater_final1","folder":"tf","game":"Team Fortress","app_id":440,"player_count":18,"max_players":24,"Bots":0,"server_type":"Dedicated","server_os":"Linux","password":true,"vac":true,"version":"7961495","steam_id":85568392924504275,"keywords":["nocrits","nodmgspread","payload","uncletopia"],"game_id":440,"stv_port":27046,"stv_name":"Uncletopia | Frankfurt | 4 | All Maps | STV","players":[{"user_id":425,"name":"Pinte ti√®de de chouffe dachouf","steam_id":76561198203256418,"connected_time":2028000000000,"state":"active","ping":67},{"user_id":454,"name":"mesŒª","steam_id":76561198324582918,"connected_time":226000000000,"state":"active","ping":96},{"user_id":439,"name":"–ø—É–ø—É–Ω–¥–µ–ª—å","steam_id":76561198370603695,"connected_time":1609000000000,"state":"active","ping":87},{"user_id":448,"name":"FrozenTiddies","steam_id":76561198271916832,"connected_time":967000000000,"state":"active","ping":48},{"user_id":433,"name":"Ghost11","steam_id":76561198068892992,"connected_time":1763000000000,"state":"active","ping":101},{"user_id":435,"name":"[BLASTO]din607","steam_id":76561197972699313,"connected_time":1667000000000,"state":"active","ping":71},{"user_id":446,"name":"–ù–∏–∫–∏—Ç–∞ –ü–æ–ª—É—ç–∫—Ç–æ–≤","steam_id":76561198413275515,"connected_time":987000000000,"state":"active","ping":78},{"user_id":453,"name":"LordTrap.exe","steam_id":76561198318089716,"connected_time":411000000000,"state":"active","ping":60},{"user_id":410,"name":"LivEssense","steam_id":76561198052476979,"connected_time":2861000000000,"state":"active","ping":74},{"user_id":399,"name":"Optimist 50","steam_id":76561198039631442,"connected_time":3622000000000,"state":"active","ping":82},{"user_id":450,"name":"Maja1pszczolka","steam_id":76561198044498484,"connected_time":965000000000,"state":"active","ping":77},{"user_id":442,"name":"Frostlight","steam_id":76561198016360449,"connected_time":1575000000000,"state":"active","ping":65},{"user_id":451,"name":"=(^.^)= al1en","steam_id":76561197960321575,"connected_time":809000000000,"state":"active","ping":55},{"user_id":452,"name":"Saul Goodman","steam_id":76561198076222707,"connected_time":704000000000,"state":"active","ping":82},{"user_id":401,"name":"Silver 25","steam_id":76561198038182012,"connected_time":3550000000000,"state":"active","ping":89},{"user_id":416,"name":"Ink in veins","steam_id":76561199082262091,"connected_time":2585000000000,"state":"active","ping":70},{"user_id":445,"name":"BadAimBen","steam_id":76561198127639973,"connected_time":1296000000000,"state":"active","ping":67},{"user_id":447,"name":"emir","steam_id":76561198113089831,"connected_time":987000000000,"state":"active","ping":89}]},{"server_id":310,"name":"Uncletopia | Frankfurt | 5 | All Maps","name_short":"frk-5","host":"frk-1.de.uncletopia.com","port":27055,"enabled":true,"region":"eu","cc":"de","latitude":50.110924,"longitude":8.682127,"reserved":0,"last_update":"0001-01-01T00:00:00Z","name_a2s":"Uncletopia | Frankfurt | 5 | All Maps","protocol":17,"map":"pl_barnblitz","folder":"tf","game":"Team Fortress","app_id":440,"player_count":24,"max_players":24,"Bots":0,"server_type":"Dedicated","server_os":"Linux","password":true,"vac":true,"version":"7961495","steam_id":85568392924504277,"keywords":["nocrits","nodmgspread","payload","uncletopia"],"game_id":440,"stv_port":27056,"stv_name":"Uncletopia | Frankfurt | 5 | All Maps | STV","players":[{"user_id":729,"name":"Jack \"Hee Ho\" Frost","steam_id":76561198353395198,"connected_time":1075000000000,"state":"active","ping":156},{"user_id":676,"name":"CNTRL","steam_id":76561199125803827,"connected_time":3886000000000,"state":"active","ping":72},{"user_id":730,"name":"Michael","steam_id":76561198003146906,"connected_time":863000000000,"state":"active","ping":60},{"user_id":716,"name":"Goldblade","steam_id":76561198382997614,"connected_time":2065000000000,"state":"active","ping":76},{"user_id":723,"name":"Zirif","steam_id":76561198116200959,"connected_time":1749000000000,"state":"active","ping":57},{"user_id":701,"name":"DudeoftheRock","steam_id":76561198059401865,"connected_time":2722000000000,"state":"active","ping":61},{"user_id":695,"name":"Welder","steam_id":76561198355300561,"connected_time":2891000000000,"state":"active","ping":72},{"user_id":731,"name":"monocle chicken","steam_id":76561199020106029,"connected_time":790000000000,"state":"active","ping":80},{"user_id":725,"name":"chrisuu","steam_id":76561198994948011,"connected_time":1527000000000,"state":"active","ping":76},{"user_id":740,"name":"Doctor Mobius","steam_id":76561197971281806,"connected_time":397000000000,"state":"active","ping":56},{"user_id":724,"name":"Kasaichi","steam_id":76561198109301754,"connected_time":1588000000000,"state":"active","ping":55},{"user_id":689,"name":"Adamkarz","steam_id":76561198796428403,"connected_time":3007000000000,"state":"active","ping":93},{"user_id":741,"name":"The Muffin Man","steam_id":76561198131063481,"connected_time":114000000000,"state":"active","ping":99},{"user_id":726,"name":"Alpaca","steam_id":76561198029839079,"connected_time":1420000000000,"state":"active","ping":60},{"user_id":711,"name":"niandits","steam_id":76561198419798900,"connected_time":2160000000000,"state":"active","ping":138},{"user_id":718,"name":"CallMeUnoriginal","steam_id":76561198977528294,"connected_time":1963000000000,"state":"active","ping":58},{"user_id":733,"name":"WhyNotFans","steam_id":76561198259507564,"connected_time":733000000000,"state":"active","ping":106},{"user_id":732,"name":"d1rachir","steam_id":76561198064513212,"connected_time":761000000000,"state":"active","ping":62},{"user_id":737,"name":"autotopilot","steam_id":76561198261922138,"connected_time":624000000000,"state":"active","ping":63},{"user_id":722,"name":"Albo","steam_id":76561198085170262,"connected_time":1793000000000,"state":"active","ping":64},{"user_id":734,"name":"kiki","steam_id":76561198838277022,"connected_time":728000000000,"state":"active","ping":66},{"user_id":714,"name":"Goldermor","steam_id":76561198334406934,"connected_time":2082000000000,"state":"active","ping":86},{"user_id":735,"name":"Pinkchup","steam_id":76561198106802803,"connected_time":689000000000,"state":"active","ping":79},{"user_id":739,"name":"Mortis","steam_id":76561198160658223,"connected_time":590000000000,"state":"active","ping":55}]},{"server_id":311,"name":"Uncletopia | Frankfurt | 6 | All Maps","name_short":"frk-6","host":"frk-1.de.uncletopia.com","port":27065,"enabled":true,"region":"eu","cc":"de","latitude":50.110924,"longitude":8.682127,"reserved":0,"last_update":"0001-01-01T00:00:00Z","name_a2s":"Uncletopia | Frankfurt | 6 | All Maps","protocol":17,"map":"pl_swiftwater_final1","folder":"tf","game":"Team Fortress","app_id":440,"player_count":24,"max_players":24,"Bots":0,"server_type":"Dedicated","server_os":"Linux","password":true,"vac":true,"version":"7961495","steam_id":85568392924504278,"keywords":["nocrits","nodmgspread","payload","uncletopia"],"game_id":440,"stv_port":27066,"stv_name":"Uncletopia | Frankfurt | 6 | All Maps | STV","players":[{"user_id":530,"name":"AsianPersuasion","steam_id":76561198202112536,"connected_time":1990000000000,"state":"active","ping":72},{"user_id":540,"name":"Nikt Wa≈ºny (F2P)","steam_id":76561199273293257,"connected_time":1159000000000,"state":"active","ping":119},{"user_id":477,"name":"warforge3","steam_id":76561199276024310,"connected_time":6150000000000,"state":"active","ping":103},{"user_id":546,"name":"m0‚Åß‚Åß ‚Åß‚Åß‚Åß‚Åßm","steam_id":76561198151388694,"connected_time":811000000000,"state":"active","ping":58},{"user_id":519,"name":"Time-Green","steam_id":76561198133937444,"connected_time":3687000000000,"state":"active","ping":70},{"user_id":547,"name":"A Bl√•haj Fan","steam_id":76561199029212388,"connected_time":685000000000,"state":"active","ping":57},{"user_id":536,"name":"Spongelica Slobblecoque","steam_id":76561198009072273,"connected_time":1930000000000,"state":"active","ping":64},{"user_id":498,"name":"cowb√∂y","steam_id":76561198048990716,"connected_time":5204000000000,"state":"active","ping":92},{"user_id":542,"name":"Alfred","steam_id":76561198081691895,"connected_time":1068000000000,"state":"active","ping":59},{"user_id":499,"name":"endlesshills","steam_id":76561198081908373,"connected_time":5198000000000,"state":"active","ping":59},{"user_id":548,"name":"the lorax","steam_id":76561199180176442,"connected_time":619000000000,"state":"active","ping":69},{"user_id":515,"name":"LOBZIK","steam_id":76561198114830120,"connected_time":3805000000000,"state":"active","ping":76},{"user_id":531,"name":"CzechMate #SaveTF2","steam_id":76561198012687703,"connected_time":1988000000000,"state":"active","ping":45},{"user_id":549,"name":"Kapitan Polska","steam_id":76561197968069413,"connected_time":474000000000,"state":"active","ping":75},{"user_id":556,"name":"Nyoom","steam_id":76561198054585002,"connected_time":379000000000,"state":"active","ping":53},{"user_id":539,"name":"Keroz1n","steam_id":76561197998681491,"connected_time":1282000000000,"state":"active","ping":68},{"user_id":557,"name":"pepper","steam_id":76561198852650589,"connected_time":377000000000,"state":"active","ping":86},{"user_id":526,"name":"Rez","steam_id":76561198410598772,"connected_time":2406000000000,"state":"active","ping":46},{"user_id":541,"name":"Erection Man","steam_id":76561198021714542,"connected_time":1078000000000,"state":"active","ping":66},{"user_id":545,"name":"A Monster in Paris","steam_id":76561199067658590,"connected_time":1012000000000,"state":"active","ping":110},{"user_id":558,"name":"Swaggasouruss","steam_id":76561198285607649,"connected_time":377000000000,"state":"active","ping":103},{"user_id":559,"name":"kupak","steam_id":76561198043078996,"connected_time":333000000000,"state":"active","ping":62},{"user_id":544,"name":"strigoi2","steam_id":76561198351880994,"connected_time":1058000000000,"state":"active","ping":98},{"user_id":560,"name":"Jallon","steam_id":76561198169277096,"connected_time":278000000000,"state":"active","ping":102}]},{"server_id":23,"name":"Uncletopia | Frankfurt | 7 | Stopwatch","name_short":"frk-7","host":"frk-1.de.uncletopia.com","port":27075,"enabled":true,"region":"eu","cc":"de","latitude":50.110924,"longitude":8.682127,"reserved":0,"last_update":"0001-01-01T00:00:00Z","name_a2s":"Uncletopia | Frankfurt | 7 | Stopwatch","protocol":17,"map":"cp_sunshine","folder":"tf","game":"Team Fortress","app_id":440,"player_count":23,"max_players":24,"Bots":0,"server_type":"Dedicated","server_os":"Linux","password":true,"vac":true,"version":"7961495","steam_id":85568392924742827,"keywords":["cp","nocrits","nodmgspread","uncletopia"],"game_id":440,"stv_port":27076,"stv_name":"Uncletopia | Frankfurt | 7 | Stopwatch | STV","players":[{"user_id":471,"name":"Bukaj","steam_id":76561198115924803,"connected_time":588000000000,"state":"active","ping":57},{"user_id":456,"name":"Jebo z lesa","steam_id":76561199072659507,"connected_time":1512000000000,"state":"active","ping":53},{"user_id":467,"name":"Vonacht","steam_id":76561198016033944,"connected_time":812000000000,"state":"active","ping":61},{"user_id":477,"name":"Lord Philip","steam_id":76561198277097779,"connected_time":252000000000,"state":"active","ping":72},{"user_id":458,"name":"Chiers","steam_id":76561198073461642,"connected_time":1504000000000,"state":"active","ping":53},{"user_id":442,"name":"dash.","steam_id":76561198084796149,"connected_time":1908000000000,"state":"active","ping":49},{"user_id":472,"name":"PaasiPiru","steam_id":76561198013325816,"connected_time":495000000000,"state":"active","ping":99},{"user_id":431,"name":"Five Finger Discount","steam_id":76561197994556857,"connected_time":2875000000000,"state":"active","ping":61},{"user_id":391,"name":"akakez","steam_id":76561198095432821,"connected_time":4324000000000,"state":"active","ping":116},{"user_id":461,"name":"gorogoi","steam_id":76561198030364517,"connected_time":1415000000000,"state":"active","ping":59},{"user_id":457,"name":"NullSense","steam_id":76561198002472182,"connected_time":1512000000000,"state":"active","ping":47},{"user_id":451,"name":"NojusKojos","steam_id":76561199060478662,"connected_time":1643000000000,"state":"active","ping":62},{"user_id":459,"name":"PHANTOM","steam_id":76561199047116669,"connected_time":1472000000000,"state":"active","ping":97},{"user_id":453,"name":"TRABLGANG","steam_id":76561199003854734,"connected_time":1620000000000,"state":"active","ping":94},{"user_id":475,"name":"Dingle Loui","steam_id":76561198114985331,"connected_time":388000000000,"state":"active","ping":60},{"user_id":476,"name":"We are in a world of magic","steam_id":76561198104745492,"connected_time":355000000000,"state":"active","ping":72},{"user_id":465,"name":"zazuza","steam_id":76561198049820905,"connected_time":1048000000000,"state":"active","ping":70},{"user_id":454,"name":"armaldox","steam_id":76561198129697541,"connected_time":1602000000000,"state":"active","ping":58},{"user_id":448,"name":"Qwerty","steam_id":76561198023525894,"connected_time":1826000000000,"state":"active","ping":80},{"user_id":422,"name":"Kaisbald","steam_id":76561198151929487,"connected_time":3054000000000,"state":"active","ping":115},{"user_id":466,"name":"G√º√ßl√ºAYraNsAƒû","steam_id":76561199184988396,"connected_time":1027000000000,"state":"active","ping":143},{"user_id":450,"name":"I am dating your grandmother","steam_id":76561198268159433,"connected_time":1735000000000,"state":"active","ping":100},{"user_id":460,"name":"Bobirulez","steam_id":76561198009125458,"connected_time":1461000000000,"state":"active","ping":75}]},{"server_id":24,"name":"Uncletopia | Frankfurt | 8 | Community","name_short":"frk-8","host":"frk-1.de.uncletopia.com","port":27085,"enabled":true,"region":"eu","cc":"de","latitude":50.110924,"longitude":8.682127,"reserved":0,"last_update":"0001-01-01T00:00:00Z","name_a2s":"Uncletopia | Frankfurt | 8 | Community","protocol":17,"map":"workshop/cp_fulgur_rc2a.ugc2068252300","folder":"tf","game":"Team Fortress","app_id":440,"player_count":0,"max_players":24,"Bots":0,"server_type":"Dedicated","server_os":"Linux","password":true,"vac":true,"version":"7961495","steam_id":85568392924742828,"keywords":["cp","nocrits","nodmgspread","uncletopia"],"game_id":440,"stv_port":27086,"stv_name":"Uncletopia | Frankfurt | 8 | Community | STV","players":null},{"server_id":202,"name":"Uncletopia | Hong Kong | 1 | All Maps","name_short":"hgk-1","host":"hgk-1.hk.uncletopia.com","port":27015,"enabled":true,"region":"asia","cc":"hk","latitude":22.302711,"longitude":114.177216,"reserved":0,"last_update":"0001-01-01T00:00:00Z","name_a2s":"Uncletopia | Hong Kong | 1 | All Maps","protocol":17,"map":"pl_swiftwater_final1","folder":"tf","game":"Team Fortress","app_id":440,"player_count":0,"max_players":24,"Bots":0,"server_type":"Dedicated","server_os":"Linux","password":true,"vac":true,"version":"7961495","steam_id":85568392924494504,"keywords":["nocrits","nodmgspread","payload","uncletopia"],"game_id":440,"stv_port":27016,"stv_name":"Uncletopia | Hong Kong | 1 | All Maps | STV","players":null},{"server_id":1,"name":"Uncletopia | Los Angeles | 1 | All Maps","name_short":"lax-1","host":"lax-1.us.uncletopia.com","port":27015,"enabled":true,"region":"us-west","cc":"us","latitude":33.94279,"longitude":-118.41004,"reserved":0,"last_update":"0001-01-01T00:00:00Z","name_a2s":"Uncletopia | Los Angeles | 1 | All Maps","protocol":17,"map":"koth_lakeside_final","folder":"tf","game":"Team Fortress","app_id":440,"player_count":0,"max_players":24,"Bots":0,"server_type":"Dedicated","server_os":"Linux","password":true,"vac":true,"version":"7961495","steam_id":85568392924469991,"keywords":["cp","nocrits","nodmgspread","uncletopia"],"game_id":440,"stv_port":27016,"stv_name":"Uncletopia | Los Angeles | 1 | All Maps | STV","players":null},{"server_id":112,"name":"Uncletopia | Los Angeles | 2 | All Maps","name_short":"lax-2","host":"lax-1.us.uncletopia.com","port":27025,"enabled":true,"region":"us-west","cc":"us","latitude":33.94279,"longitude":-118.41004,"reserved":0,"last_update":"0001-01-01T00:00:00Z","name_a2s":"Uncletopia | Los Angeles | 2 | All Maps","protocol":17,"map":"cp_mountainlab","folder":"tf","game":"Team Fortress","app_id":440,"player_count":0,"max_players":24,"Bots":0,"server_type":"Dedicated","server_os":"Linux","password":true,"vac":true,"version":"7961495","steam_id":85568392924469992,"keywords":["cp","nocrits","nodmgspread","uncletopia"],"game_id":440,"stv_port":27026,"stv_name":"Uncletopia | Los Angeles | 2 | All Maps | STV","players":null},{"server_id":324,"name":"Uncletopia | Los Angeles | 3 | All Maps","name_short":"lax-3","host":"lax-1.us.uncletopia.com","port":27035,"enabled":true,"region":"us-west","cc":"us","latitude":33.94279,"longitude":-118.41004,"reserved":0,"last_update":"0001-01-01T00:00:00Z","name_a2s":"Uncletopia | Los Angeles | 3 | All Maps","protocol":17,"map":"pl_pier","folder":"tf","game":"Team Fortress","app_id":440,"player_count":0,"max_players":24,"Bots":0,"server_type":"Dedicated","server_os":"Linux","password":true,"vac":true,"version":"7961495","steam_id":85568392924510198,"keywords":["nocrits","nodmgspread","payload","uncletopia"],"game_id":440,"stv_port":27036,"stv_name":"Uncletopia | Los Angeles | 3 | All Maps | STV","players":null},{"server_id":25,"name":"Uncletopia | Los Angeles | 4 | Stopwatch","name_short":"lax-4","host":"lax-1.us.uncletopia.com","port":27045,"enabled":true,"region":"us-west","cc":"us","latitude":33.94279,"longitude":-118.41004,"reserved":0,"last_update":"0001-01-01T00:00:00Z","name_a2s":"Uncletopia | Los Angeles | 4 | Stopwatch","protocol":17,"map":"pl_barnblitz","folder":"tf","game":"Team Fortress","app_id":440,"player_count":0,"max_players":24,"Bots":0,"server_type":"Dedicated","server_os":"Linux","password":true,"vac":true,"version":"7961495","steam_id":85568392924510199,"keywords":["nocrits","nodmgspread","payload","uncletopia"],"game_id":440,"stv_port":27046,"stv_name":"Uncletopia | Los Angeles | 4 | Stopwatch | STV","players":null},{"server_id":11,"name":"Uncletopia | London | 1 | All Maps","name_short":"lon-1","host":"lon-1.uk.uncletopia.com","port":27015,"enabled":true,"region":"eu","cc":"gb","latitude":51.509865,"longitude":-0.118092,"reserved":0,"last_update":"0001-01-01T00:00:00Z","name_a2s":"Uncletopia | London | 1 | All Maps","protocol":17,"map":"pl_snowycoast","folder":"tf","game":"Team Fortress","app_id":440,"player_count":24,"max_players":24,"Bots":0,"server_type":"Dedicated","server_os":"Linux","password":true,"vac":true,"version":"7961495","steam_id":85568392924367362,"keywords":["nocrits","nodmgspread","payload","uncletopia"],"game_id":440,"stv_port":27016,"stv_name":"Uncletopia | London | 1 | All Maps | STV","players":[{"user_id":364,"name":"sushii","steam_id":76561198297987372,"connected_time":3263000000000,"state":"active","ping":59},{"user_id":403,"name":"Yes","steam_id":76561198046729687,"connected_time":579000000000,"state":"active","ping":70},{"user_id":378,"name":"SKY_","steam_id":76561198080980508,"connected_time":2138000000000,"state":"active","ping":71},{"user_id":238,"name":"Nox Equites","steam_id":76561198115438449,"connected_time":12551000000000,"state":"active","ping":101},{"user_id":389,"name":"Clarnex","steam_id":76561198032438366,"connected_time":843000000000,"state":"active","ping":60},{"user_id":382,"name":"shooer!","steam_id":76561198110531281,"connected_time":1665000000000,"state":"active","ping":73},{"user_id":390,"name":"MSM","steam_id":76561198310095220,"connected_time":831000000000,"state":"active","ping":44},{"user_id":406,"name":"collateralaoe","steam_id":76561198297151242,"connected_time":120000000000,"state":"active","ping":45},{"user_id":405,"name":"Yelowchy","steam_id":76561198199416121,"connected_time":222000000000,"state":"active","ping":74},{"user_id":377,"name":"god's eepiest girl","steam_id":76561198128327529,"connected_time":2542000000000,"state":"active","ping":48},{"user_id":391,"name":"Fenris√∫lfr","steam_id":76561198042012705,"connected_time":827000000000,"state":"active","ping":145},{"user_id":384,"name":"pootis","steam_id":76561199259786987,"connected_time":1556000000000,"state":"active","ping":71},{"user_id":369,"name":"Anri Okita's Massive Milkers","steam_id":76561199186352720,"connected_time":2992000000000,"state":"active","ping":61},{"user_id":394,"name":"sigma phonk mix 4h","steam_id":76561198869806001,"connected_time":787000000000,"state":"active","ping":59},{"user_id":388,"name":"Dark","steam_id":76561198086889620,"connected_time":870000000000,"state":"active","ping":53},{"user_id":400,"name":"PashaVerti","steam_id":76561199013963024,"connected_time":685000000000,"state":"active","ping":97},{"user_id":393,"name":"Uncel Dwight","steam_id":76561198288430396,"connected_time":799000000000,"state":"active","ping":82},{"user_id":363,"name":"goff","steam_id":76561198118989010,"connected_time":3276000000000,"state":"active","ping":54},{"user_id":361,"name":"whimsy.","steam_id":76561198878171763,"connected_time":3328000000000,"state":"active","ping":51},{"user_id":407,"name":"obi","steam_id":76561198040154461,"connected_time":104000000000,"state":"active","ping":68},{"user_id":396,"name":"A Table","steam_id":76561198130963095,"connected_time":759000000000,"state":"active","ping":56},{"user_id":397,"name":"BOZZO","steam_id":76561198044210844,"connected_time":753000000000,"state":"active","ping":73},{"user_id":387,"name":"trite","steam_id":76561197983765323,"connected_time":1193000000000,"state":"active","ping":49},{"user_id":404,"name":"flappi","steam_id":76561198072892783,"connected_time":372000000000,"state":"active","ping":60}]},{"server_id":114,"name":"Uncletopia | London | 2 | All Maps","name_short":"lon-2","host":"lon-1.uk.uncletopia.com","port":27025,"enabled":true,"region":"eu","cc":"gb","latitude":51.509865,"longitude":-0.118092,"reserved":0,"last_update":"0001-01-01T00:00:00Z","name_a2s":"Uncletopia | London | 2 | All Maps","protocol":17,"map":"koth_lakeside_final","folder":"tf","game":"Team Fortress","app_id":440,"player_count":24,"max_players":24,"Bots":0,"server_type":"Dedicated","server_os":"Linux","password":true,"vac":true,"version":"7961495","steam_id":85568392924470941,"keywords":["cp","nocrits","nodmgspread","uncletopia"],"game_id":440,"stv_port":27026,"stv_name":"Uncletopia | London | 2 | All Maps | STV","players":[{"user_id":698,"name":"zumba instructor","steam_id":76561198196853610,"connected_time":266000000000,"state":"active","ping":43},{"user_id":643,"name":"C++, Git and Linux Enjoyer","steam_id":76561198277310442,"connected_time":4192000000000,"state":"active","ping":87},{"user_id":693,"name":"bloodsvscrips2","steam_id":76561198138928548,"connected_time":326000000000,"state":"active","ping":69},{"user_id":681,"name":"The Goon","steam_id":76561198086913973,"connected_time":1533000000000,"state":"active","ping":62},{"user_id":696,"name":"TheGuyFromFortnite","steam_id":76561199099649565,"connected_time":287000000000,"state":"active","ping":77},{"user_id":701,"name":"Locke","steam_id":76561198339408300,"connected_time":194000000000,"state":"active","ping":60},{"user_id":689,"name":"mƒ±gos","steam_id":76561198219193327,"connected_time":447000000000,"state":"active","ping":80},{"user_id":684,"name":"Carney","steam_id":76561198064078751,"connected_time":1120000000000,"state":"active","ping":67},{"user_id":607,"name":"ABSOLUTE UNIT","steam_id":76561197972287320,"connected_time":6047000000000,"state":"active","ping":66},{"user_id":634,"name":"Qwertuss","steam_id":76561198026305366,"connected_time":4395000000000,"state":"active","ping":56},{"user_id":699,"name":"Silverbolt","steam_id":76561198153165763,"connected_time":252000000000,"state":"active","ping":64},{"user_id":695,"name":"HoneyBe_","steam_id":76561198288930154,"connected_time":295000000000,"state":"active","ping":62},{"user_id":700,"name":"Margarito_snake","steam_id":76561198132001394,"connected_time":243000000000,"state":"active","ping":110},{"user_id":691,"name":"NotChloe","steam_id":76561198080658092,"connected_time":417000000000,"state":"active","ping":62},{"user_id":671,"name":"Chris","steam_id":76561198179791702,"connected_time":2050000000000,"state":"active","ping":176},{"user_id":675,"name":"Ottetal","steam_id":76561198018528609,"connected_time":1947000000000,"state":"active","ping":61},{"user_id":683,"name":"Colonel Dimanche","steam_id":76561197994792632,"connected_time":1276000000000,"state":"active","ping":44},{"user_id":687,"name":"Thisisforyou!","steam_id":76561198052113055,"connected_time":921000000000,"state":"active","ping":118},{"user_id":697,"name":"jyrkas","steam_id":76561198008550431,"connected_time":281000000000,"state":"active","ping":60},{"user_id":682,"name":"talnoc","steam_id":76561199124771435,"connected_time":1530000000000,"state":"active","ping":73},{"user_id":646,"name":"AI | Davidoscki","steam_id":76561198129166046,"connected_time":4155000000000,"state":"active","ping":116},{"user_id":702,"name":"Bill Clinton","steam_id":76561198060011032,"connected_time":194000000000,"state":"active","ping":70},{"user_id":672,"name":"progamercoast","steam_id":76561199240271445,"connected_time":2036000000000,"state":"active","ping":113},{"user_id":613,"name":"SphericalRuby","steam_id":76561199120074913,"connected_time":5970000000000,"state":"active","ping":80}]},{"server_id":320,"name":"Uncletopia | London | 3 | All Maps","name_short":"lon-3","host":"lon-1.uk.uncletopia.com","port":27035,"enabled":true,"region":"eu","cc":"gb","latitude":51.509865,"longitude":-0.118092,"reserved":0,"last_update":"0001-01-01T00:00:00Z","name_a2s":"Uncletopia | London | 3 | All Maps","protocol":17,"map":"pl_borneo","folder":"tf","game":"Team Fortress","app_id":440,"player_count":24,"max_players":24,"Bots":0,"server_type":"Dedicated","server_os":"Linux","password":true,"vac":true,"version":"7961495","steam_id":85568392924510192,"keywords":["nocrits","nodmgspread","payload","uncletopia"],"game_id":440,"stv_port":27036,"stv_name":"Uncletopia | London | 3 | All Maps | STV","players":[{"user_id":528,"name":"Toxic_Cicity","steam_id":76561198165753440,"connected_time":3251000000000,"state":"active","ping":97},{"user_id":570,"name":"zayd","steam_id":76561198895235231,"connected_time":1360000000000,"state":"active","ping":58},{"user_id":590,"name":"orge","steam_id":76561198358173553,"connected_time":73000000000,"state":"active","ping":90},{"user_id":587,"name":"Kenny_killer_69","steam_id":76561199465207725,"connected_time":216000000000,"state":"active","ping":70},{"user_id":443,"name":"skittish maiden","steam_id":76561198096856475,"connected_time":10476000000000,"state":"active","ping":48},{"user_id":444,"name":"Beanie","steam_id":76561198173882658,"connected_time":10038000000000,"state":"active","ping":55},{"user_id":589,"name":"no more fucks to give","steam_id":76561199129974320,"connected_time":92000000000,"state":"active","ping":131},{"user_id":591,"name":"Cookies and Bakies","steam_id":76561198017442928,"connected_time":62000000000,"state":"active","ping":59},{"user_id":567,"name":"goblinninja110","steam_id":76561198269159354,"connected_time":1375000000000,"state":"active","ping":59},{"user_id":584,"name":"Benzo Fury","steam_id":76561198025259336,"connected_time":470000000000,"state":"active","ping":44},{"user_id":592,"name":"Dragon","steam_id":76561198163255365,"connected_time":58000000000,"state":"spawning","ping":122},{"user_id":566,"name":"g19","steam_id":76561198159769052,"connected_time":1415000000000,"state":"active","ping":69},{"user_id":453,"name":"2006 Mitsubishi Lancer","steam_id":76561198036632498,"connected_time":8857000000000,"state":"active","ping":35},{"user_id":576,"name":"Milk","steam_id":76561198125876588,"connected_time":1164000000000,"state":"active","ping":42},{"user_id":431,"name":"Adwulf","steam_id":76561198045489942,"connected_time":11518000000000,"state":"active","ping":40},{"user_id":581,"name":"NOOOTAMISPRIME","steam_id":76561199159833742,"connected_time":695000000000,"state":"active","ping":65},{"user_id":582,"name":"spinethief_","steam_id":76561198275829584,"connected_time":673000000000,"state":"active","ping":157},{"user_id":579,"name":"simon","steam_id":76561198880361394,"connected_time":832000000000,"state":"active","ping":52},{"user_id":593,"name":"Maks","steam_id":76561198315278876,"connected_time":52000000000,"state":"active","ping":50},{"user_id":594,"name":"frank lampard #nr1 legend","steam_id":76561198097712283,"connected_time":42000000000,"state":"active","ping":77},{"user_id":595,"name":"Blaze-A-Glory!","steam_id":76561198133623363,"connected_time":41000000000,"state":"active","ping":73},{"user_id":596,"name":"BlackBerry","steam_id":76561198146232396,"connected_time":7000000000,"state":"spawning","ping":56},{"user_id":568,"name":"sock","steam_id":76561199117597830,"connected_time":1373000000000,"state":"active","ping":132},{"user_id":530,"name":"Dio","steam_id":76561198182373221,"connected_time":3246000000000,"state":"active","ping":116}]},{"server_id":321,"name":"Uncletopia | London | 4 | All Maps","name_short":"lon-4","host":"lon-1.uk.uncletopia.com","port":27045,"enabled":true,"region":"eu","cc":"gb","latitude":51.509865,"longitude":-0.118092,"reserved":0,"last_update":"0001-01-01T00:00:00Z","name_a2s":"Uncletopia | London | 4 | All Maps","protocol":17,"map":"pl_upward","folder":"tf","game":"Team Fortress","app_id":440,"player_count":24,"max_players":24,"Bots":0,"server_type":"Dedicated","server_os":"Linux","password":true,"vac":true,"version":"7961495","steam_id":85568392924510193,"keywords":["nocrits","nodmgspread","payload","uncletopia"],"game_id":440,"stv_port":27046,"stv_name":"Uncletopia | London | 4 | All Maps | STV","players":[{"user_id":272,"name":"Xiqui","steam_id":76561198818386611,"connected_time":1464000000000,"state":"active","ping":72},{"user_id":285,"name":"Cezaru7252","steam_id":76561198815955374,"connected_time":627000000000,"state":"active","ping":99},{"user_id":217,"name":"Fu Manchu","steam_id":76561197995224539,"connected_time":5147000000000,"state":"active","ping":65},{"user_id":294,"name":"BasilNight The Snowman","steam_id":76561198092767374,"connected_time":123000000000,"state":"active","ping":63},{"user_id":270,"name":"Dogdigger","steam_id":76561198032893130,"connected_time":1654000000000,"state":"active","ping":103},{"user_id":266,"name":"–•—É–π —Å–æ—Å–Ω—É","steam_id":76561198280581001,"connected_time":2386000000000,"state":"active","ping":103},{"user_id":291,"name":"Lag","steam_id":76561198159360376,"connected_time":565000000000,"state":"active","ping":50},{"user_id":268,"name":"R8 Me M8 8/8","steam_id":76561198025280917,"connected_time":1693000000000,"state":"active","ping":158},{"user_id":271,"name":"PASTAMANIA!","steam_id":76561197967858558,"connected_time":1653000000000,"state":"active","ping":48},{"user_id":287,"name":"MagusCubed","steam_id":76561198083973944,"connected_time":600000000000,"state":"active","ping":64},{"user_id":245,"name":"wasto-/-‚Ñ¢","steam_id":76561198102888038,"connected_time":3238000000000,"state":"active","ping":60},{"user_id":296,"name":"Anton Stormbreaker","steam_id":76561198041426778,"connected_time":62000000000,"state":"active","ping":69},{"user_id":275,"name":"Bennewwww","steam_id":76561198864640548,"connected_time":1031000000000,"state":"active","ping":67},{"user_id":243,"name":"Plep","steam_id":76561198840259819,"connected_time":3365000000000,"state":"active","ping":60},{"user_id":297,"name":"A better name","steam_id":76561198357330520,"connected_time":37000000000,"state":"active","ping":186},{"user_id":290,"name":"Apple.AVI","steam_id":76561198839757558,"connected_time":585000000000,"state":"active","ping":71},{"user_id":248,"name":"MemeLord","steam_id":76561198135115524,"connected_time":3222000000000,"state":"active","ping":51},{"user_id":99,"name":"john fortress","steam_id":76561198013237629,"connected_time":15049000000000,"state":"active","ping":105},{"user_id":258,"name":"YARrICk.¬´+¬ª","steam_id":76561197990126485,"connected_time":2550000000000,"state":"active","ping":61},{"user_id":269,"name":"Vossert","steam_id":76561198341731218,"connected_time":1685000000000,"state":"active","ping":67},{"user_id":227,"name":"KiwiHour","steam_id":76561198101793923,"connected_time":4912000000000,"state":"active","ping":45},{"user_id":235,"name":"Shodavao","steam_id":76561198141494199,"connected_time":4561000000000,"state":"active","ping":56},{"user_id":292,"name":"pierogi","steam_id":76561198718760200,"connected_time":388000000000,"state":"active","ping":46},{"user_id":293,"name":"Dr. Livesey","steam_id":76561198071049943,"connected_time":375000000000,"state":"active","ping":61}]},{"server_id":21,"name":"Uncletopia | London | 5 | All Maps","name_short":"lon-5","host":"lon-1.uk.uncletopia.com","port":27055,"enabled":true,"region":"eu","cc":"gb","latitude":51.509865,"longitude":-0.118092,"reserved":0,"last_update":"0001-01-01T00:00:00Z","name_a2s":"Uncletopia | London | 5 | All Maps","protocol":17,"map":"pl_snowycoast","folder":"tf","game":"Team Fortress","app_id":440,"player_count":23,"max_players":24,"Bots":0,"server_type":"Dedicated","server_os":"Linux","password":true,"vac":true,"version":"7961495","steam_id":85568392924742829,"keywords":["nocrits","nodmgspread","payload","uncletopia"],"game_id":440,"stv_port":27056,"stv_name":"Uncletopia | London | 5 | All Maps | STV","players":[{"user_id":155,"name":"Just Navlis","steam_id":76561198090479609,"connected_time":756000000000,"state":"active","ping":60},{"user_id":157,"name":"CAKE WALL!! WE MUST FLEE!!","steam_id":76561198259668029,"connected_time":337000000000,"state":"active","ping":50},{"user_id":146,"name":"Ynss","steam_id":76561198021472798,"connected_time":1672000000000,"state":"active","ping":62},{"user_id":148,"name":"Efeca","steam_id":76561198018923829,"connected_time":1181000000000,"state":"active","ping":66},{"user_id":147,"name":"Xx_Piss_xX","steam_id":76561199368762224,"connected_time":1349000000000,"state":"active","ping":112},{"user_id":152,"name":"Marquis de Hoto","steam_id":76561198080687708,"connected_time":989000000000,"state":"active","ping":75},{"user_id":158,"name":"angry russian man","steam_id":76561198386712795,"connected_time":320000000000,"state":"active","ping":57},{"user_id":159,"name":"uncle113582345","steam_id":76561198423902979,"connected_time":302000000000,"state":"active","ping":46},{"user_id":160,"name":"paypig","steam_id":76561198035137115,"connected_time":275000000000,"state":"active","ping":44},{"user_id":161,"name":"Jezal dan Luthar","steam_id":76561198989449047,"connected_time":271000000000,"state":"active","ping":129},{"user_id":162,"name":"G-Man Follower","steam_id":76561199384234822,"connected_time":219000000000,"state":"active","ping":68},{"user_id":163,"name":"BRUH","steam_id":76561198132985764,"connected_time":127000000000,"state":"active","ping":54},{"user_id":167,"name":"Noob_with_source","steam_id":76561198870362103,"connected_time":0,"state":"spawning","ping":0},{"user_id":107,"name":"Solymr ibn Wali Barad","steam_id":76561198044008976,"connected_time":3014000000000,"state":"active","ping":67},{"user_id":164,"name":"Bouef","steam_id":76561198240814546,"connected_time":94000000000,"state":"active","ping":50},{"user_id":136,"name":"I jazzed myself","steam_id":76561198203016603,"connected_time":2097000000000,"state":"active","ping":76},{"user_id":166,"name":"Swiss_Nostalgia","steam_id":76561199159896259,"connected_time":83000000000,"state":"active","ping":64},{"user_id":137,"name":"Cabbch","steam_id":76561198045955679,"connected_time":2095000000000,"state":"active","ping":44},{"user_id":119,"name":"N1xD4","steam_id":76561199047686063,"connected_time":2770000000000,"state":"active","ping":71},{"user_id":144,"name":"itchy balls","steam_id":76561198364466446,"connected_time":1826000000000,"state":"active","ping":94},{"user_id":151,"name":"cof","steam_id":76561199128417805,"connected_time":1057000000000,"state":"active","ping":43},{"user_id":130,"name":"ultralight","steam_id":76561198022046842,"connected_time":2336000000000,"state":"active","ping":81},{"user_id":154,"name":"Sonnakai","steam_id":76561198051688749,"connected_time":832000000000,"state":"active","ping":42}]},{"server_id":22,"name":"Uncletopia | London | 6 | All Maps","name_short":"lon-6","host":"lon-1.uk.uncletopia.com","port":27065,"enabled":true,"region":"eu","cc":"gb","latitude":51.509865,"longitude":-0.118092,"reserved":0,"last_update":"0001-01-01T00:00:00Z","name_a2s":"Uncletopia | London | 6 | All Maps","protocol":17,"map":"pl_badwater","folder":"tf","game":"Team Fortress","app_id":440,"player_count":24,"max_players":24,"Bots":0,"server_type":"Dedicated","server_os":"Linux","password":true,"vac":true,"version":"7961495","steam_id":85568392924742830,"keywords":["nocrits","nodmgspread","payload","uncletopia"],"game_id":440,"stv_port":27066,"stv_name":"Uncletopia | London | 6 | All Maps | STV","players":[{"user_id":277,"name":"simeswipe","steam_id":76561198188471097,"connected_time":7286000000000,"state":"active","ping":87},{"user_id":332,"name":"[Imbr] kurush117","steam_id":76561198003364899,"connected_time":3428000000000,"state":"active","ping":51},{"user_id":360,"name":"Goblin on deez nuts","steam_id":76561199070562554,"connected_time":1181000000000,"state":"active","ping":67},{"user_id":358,"name":"shoras","steam_id":76561198019680159,"connected_time":1268000000000,"state":"active","ping":90},{"user_id":345,"name":"[Imbr] Supe7nova","steam_id":76561197986998963,"connected_time":1813000000000,"state":"active","ping":54},{"user_id":355,"name":"Merciz","steam_id":76561197971808715,"connected_time":1365000000000,"state":"active","ping":94},{"user_id":359,"name":"oh ok","steam_id":76561199078049189,"connected_time":1221000000000,"state":"active","ping":79},{"user_id":340,"name":"yush","steam_id":76561198121688934,"connected_time":1908000000000,"state":"active","ping":79},{"user_id":317,"name":"lillunya ‚ô°","steam_id":76561198330418866,"connected_time":4815000000000,"state":"active","ping":70},{"user_id":302,"name":"hbivnm","steam_id":76561197996468677,"connected_time":5537000000000,"state":"active","ping":74},{"user_id":370,"name":"Kamanie","steam_id":76561198135448255,"connected_time":55000000000,"state":"active","ping":66},{"user_id":318,"name":"TreatFly","steam_id":76561198069707362,"connected_time":4311000000000,"state":"active","ping":55},{"user_id":361,"name":"Pet_Wussy","steam_id":76561198000287762,"connected_time":756000000000,"state":"active","ping":101},{"user_id":341,"name":"MCMike04","steam_id":76561198305409059,"connected_time":1887000000000,"state":"active","ping":61},{"user_id":338,"name":"vurtun","steam_id":76561198857395274,"connected_time":2071000000000,"state":"active","ping":59},{"user_id":327,"name":"Scobra","steam_id":76561198000734400,"connected_time":3768000000000,"state":"active","ping":109},{"user_id":321,"name":"Keany","steam_id":76561199041393458,"connected_time":4077000000000,"state":"active","ping":55},{"user_id":322,"name":"TheBeardedM1G","steam_id":76561198040208946,"connected_time":4073000000000,"state":"active","ping":36},{"user_id":367,"name":"Mr_Pulse_","steam_id":76561198095001602,"connected_time":268000000000,"state":"active","ping":103},{"user_id":368,"name":"treelover69","steam_id":76561199207433674,"connected_time":126000000000,"state":"active","ping":93},{"user_id":343,"name":"Proud Jojo Fan #TF2SP","steam_id":76561198847327216,"connected_time":1836000000000,"state":"active","ping":69},{"user_id":357,"name":"Ô∑Ω","steam_id":76561198365973345,"connected_time":1352000000000,"state":"active","ping":67},{"user_id":365,"name":"notpardner","steam_id":76561198451471161,"connected_time":441000000000,"state":"active","ping":54},{"user_id":369,"name":"Piss Man","steam_id":76561199446367874,"connected_time":75000000000,"state":"active","ping":135}]},{"server_id":40,"name":"Uncletopia | London | 7 | Stopwatch","name_short":"lon-7","host":"lon-1.uk.uncletopia.com","port":27075,"enabled":true,"region":"eu","cc":"gb","latitude":51.509865,"longitude":-0.118092,"reserved":0,"last_update":"0001-01-01T00:00:00Z","name_a2s":"Uncletopia | London | 7 | Stopwatch","protocol":17,"map":"workshop/koth_ramjam_rc1.ugc459778887","folder":"tf","game":"Team Fortress","app_id":440,"player_count":0,"max_players":24,"Bots":0,"server_type":"Dedicated","server_os":"Linux","password":true,"vac":true,"version":"7961495","steam_id":85568392924964314,"keywords":["cp","nocrits","nodmgspread","uncletopia"],"game_id":440,"stv_port":27076,"stv_name":"Uncletopia | London | 7 | Stopwatch | STV","players":null},{"server_id":41,"name":"Uncletopia | London | 8 | Community","name_short":"lon-8","host":"lon-1.uk.uncletopia.com","port":27085,"enabled":true,"region":"eu","cc":"gb","latitude":51.509865,"longitude":-0.118092,"reserved":0,"last_update":"0001-01-01T00:00:00Z","name_a2s":"Uncletopia | London | 8 | Community","protocol":17,"map":"workshop/cp_propaganda_b18.ugc1603743849","folder":"tf","game":"Team Fortress","app_id":440,"player_count":0,"max_players":24,"Bots":0,"server_type":"Dedicated","server_os":"Linux","password":true,"vac":true,"version":"7961495","steam_id":85568392924964315,"keywords":["cp","nocrits","nodmgspread","uncletopia"],"game_id":440,"stv_port":27086,"stv_name":"Uncletopia | London | 8 | Community | STV","players":null},{"server_id":300,"name":"Uncletopia | Montr√©al | 1 | One Thousand Uncles","name_short":"mtl-1","host":"mtl-1.ca.uncletopia.com","port":27015,"enabled":true,"region":"us-east","cc":"ca","latitude":45.50889,"longitude":-73.56167,"reserved":0,"last_update":"0001-01-01T00:00:00Z","name_a2s":"","protocol":0,"map":"","folder":"","game":"","app_id":0,"player_count":14,"max_players":0,"Bots":0,"server_type":"","server_os":"","password":false,"vac":false,"version":"","steam_id":0,"keywords":null,"game_id":0,"stv_port":0,"stv_name":"","players":[{"user_id":154,"name":"Bottle","steam_id":76561199086381535,"connected_time":994000000000,"state":"active","ping":114},{"user_id":62,"name":"Yankee_Pirate","steam_id":76561198260667117,"connected_time":6111000000000,"state":"active","ping":48},{"user_id":21,"name":"Shattered the protogen","steam_id":76561199164283571,"connected_time":9940000000000,"state":"active","ping":65},{"user_id":157,"name":"petitjayd22","steam_id":76561199389238003,"connected_time":520000000000,"state":"active","ping":36},{"user_id":153,"name":"dmitriolm2008","steam_id":76561199482400313,"connected_time":1025000000000,"state":"active","ping":53},{"user_id":163,"name":"sayed951","steam_id":76561199184749202,"connected_time":16000000000,"state":"spawning","ping":166},{"user_id":101,"name":"nonagon infinity","steam_id":76561198397662124,"connected_time":3962000000000,"state":"active","ping":94},{"user_id":159,"name":"Ak","steam_id":76561199333659458,"connected_time":405000000000,"state":"active","ping":49},{"user_id":156,"name":"bombastik062","steam_id":76561199384080480,"connected_time":958000000000,"state":"active","ping":176},{"user_id":128,"name":"LizardMilk_19","steam_id":76561199435002235,"connected_time":1712000000000,"state":"active","ping":174},{"user_id":106,"name":"mr.stuffedpenguin","steam_id":76561199212807058,"connected_time":3440000000000,"state":"active","ping":49},{"user_id":123,"name":"Final_MarioXD","steam_id":76561199184862419,"connected_time":1986000000000,"state":"active","ping":102},{"user_id":136,"name":"elephantofdoom","steam_id":76561198062436835,"connected_time":1091000000000,"state":"active","ping":53},{"user_id":164,"name":"Hoipy","steam_id":76561199054679269,"connected_time":4000000000,"state":"spawning","ping":127}]},{"server_id":301,"name":"Uncletopia | Montr√©al | 2 | One Thousand Uncles","name_short":"mtl-2","host":"mtl-1.ca.uncletopia.com","port":27025,"enabled":true,"region":"us-east","cc":"ca","latitude":45.50889,"longitude":-73.56167,"reserved":0,"last_update":"0001-01-01T00:00:00Z","name_a2s":"","protocol":0,"map":"","folder":"","game":"","app_id":0,"player_count":3,"max_players":0,"Bots":0,"server_type":"","server_os":"","password":false,"vac":false,"version":"","steam_id":0,"keywords":null,"game_id":0,"stv_port":0,"stv_name":"","players":[{"user_id":105,"name":"JACOB","steam_id":76561198211874895,"connected_time":232000000000,"state":"active","ping":60},{"user_id":103,"name":"AndreDude","steam_id":76561198253579172,"connected_time":489000000000,"state":"active","ping":257},{"user_id":102,"name":"Winter Not Summer","steam_id":76561198201409574,"connected_time":1225000000000,"state":"active","ping":58}]},{"server_id":302,"name":"Uncletopia | Montr√©al | 3 | One Thousand Uncles","name_short":"mtl-3","host":"mtl-1.ca.uncletopia.com","port":27035,"enabled":true,"region":"us-east","cc":"ca","latitude":45.50889,"longitude":-73.56167,"reserved":0,"last_update":"0001-01-01T00:00:00Z","name_a2s":"","protocol":0,"map":"","folder":"","game":"","app_id":0,"player_count":0,"max_players":0,"Bots":0,"server_type":"","server_os":"","password":false,"vac":false,"version":"","steam_id":0,"keywords":null,"game_id":0,"stv_port":0,"stv_name":"","players":null},{"server_id":13,"name":"Uncletopia | New York City | 1 | All Maps","name_short":"nyc-1","host":"nyc-1.us.uncletopia.com","port":27015,"enabled":true,"region":"us-east","cc":"us","latitude":40.73061,"longitude":-73.93524,"reserved":0,"last_update":"0001-01-01T00:00:00Z","name_a2s":"Uncletopia | New York City | 1 | All Maps","protocol":17,"map":"cp_mossrock","folder":"tf","game":"Team Fortress","app_id":440,"player_count":24,"max_players":24,"Bots":0,"server_type":"Dedicated","server_os":"Linux","password":true,"vac":true,"version":"7961495","steam_id":85568392924469993,"keywords":["cp","nocrits","nodmgspread","uncletopia"],"game_id":440,"stv_port":27016,"stv_name":"Uncletopia | New York City | 1 | All Maps | STV","players":[{"user_id":270,"name":"pogies","steam_id":76561199013255048,"connected_time":1800000000000,"state":"active","ping":70},{"user_id":279,"name":"ottergauze","steam_id":76561198050523315,"connected_time":421000000000,"state":"active","ping":124},{"user_id":245,"name":"Paddy","steam_id":76561198037001457,"connected_time":3170000000000,"state":"active","ping":58},{"user_id":281,"name":"morning glory","steam_id":76561198105081948,"connected_time":353000000000,"state":"active","ping":50},{"user_id":213,"name":"bath","steam_id":76561197969993352,"connected_time":6090000000000,"state":"active","ping":75},{"user_id":282,"name":"Dracodemus","steam_id":76561198079518597,"connected_time":348000000000,"state":"active","ping":100},{"user_id":220,"name":"Cat_Gaben","steam_id":76561198308094558,"connected_time":5471000000000,"state":"active","ping":62},{"user_id":275,"name":"Xavi","steam_id":76561198337783795,"connected_time":908000000000,"state":"active","ping":53},{"user_id":271,"name":"ZodiacThundaga","steam_id":76561199025117814,"connected_time":1746000000000,"state":"active","ping":80},{"user_id":283,"name":"üúèSnowstoneüúè","steam_id":76561198373692962,"connected_time":346000000000,"state":"active","ping":68},{"user_id":278,"name":"eduard","steam_id":76561198136550093,"connected_time":864000000000,"state":"active","ping":75},{"user_id":267,"name":"Joe Biden","steam_id":76561198056170906,"connected_time":1846000000000,"state":"active","ping":101},{"user_id":287,"name":"Menachem","steam_id":76561198041226420,"connected_time":293000000000,"state":"active","ping":69},{"user_id":268,"name":"stuff","steam_id":76561198190770226,"connected_time":1834000000000,"state":"active","ping":116},{"user_id":243,"name":"you forgot the sauce","steam_id":76561198387016713,"connected_time":3492000000000,"state":"active","ping":57},{"user_id":285,"name":"Sir Trollington IV","steam_id":76561198269511071,"connected_time":322000000000,"state":"active","ping":69},{"user_id":252,"name":"pinkissocool {f2p}","steam_id":76561198989599828,"connected_time":3051000000000,"state":"active","ping":44},{"user_id":269,"name":"A local penguin","steam_id":76561198822076030,"connected_time":1831000000000,"state":"active","ping":151},{"user_id":224,"name":"jerma but crying and lesbian","steam_id":76561198110661425,"connected_time":5349000000000,"state":"active","ping":75},{"user_id":286,"name":"whirlybird","steam_id":76561198353887173,"connected_time":315000000000,"state":"active","ping":48},{"user_id":272,"name":"Spiro Agnew","steam_id":76561198047195799,"connected_time":1538000000000,"state":"active","ping":46},{"user_id":166,"name":"High School Nudical","steam_id":76561198172120615,"connected_time":9320000000000,"state":"active","ping":39},{"user_id":277,"name":"Bashirider","steam_id":76561198260522253,"connected_time":901000000000,"state":"active","ping":57},{"user_id":274,"name":"Dope Ass Monkey","steam_id":76561198243277432,"connected_time":1227000000000,"state":"active","ping":106}]},{"server_id":14,"name":"Uncletopia | New York City | 2 | All Maps","name_short":"nyc-2","host":"nyc-1.us.uncletopia.com","port":27025,"enabled":true,"region":"us-east","cc":"us","latitude":40.73061,"longitude":-73.93524,"reserved":0,"last_update":"0001-01-01T00:00:00Z","name_a2s":"Uncletopia | New York City | 2 | All Maps","protocol":17,"map":"koth_king","folder":"tf","game":"Team Fortress","app_id":440,"player_count":24,"max_players":24,"Bots":0,"server_type":"Dedicated","server_os":"Linux","password":true,"vac":true,"version":"7961495","steam_id":85568392924469994,"keywords":["cp","nocrits","nodmgspread","uncletopia"],"game_id":440,"stv_port":27026,"stv_name":"Uncletopia | New York City | 2 | All Maps | STV","players":[{"user_id":100,"name":"Smiley","steam_id":76561198056430811,"connected_time":4241000000000,"state":"active","ping":69},{"user_id":146,"name":"Domswish","steam_id":76561198331444240,"connected_time":766000000000,"state":"active","ping":51},{"user_id":156,"name":"Gamer Princess","steam_id":76561198048205270,"connected_time":334000000000,"state":"active","ping":68},{"user_id":157,"name":"frid","steam_id":76561198005806915,"connected_time":274000000000,"state":"active","ping":73},{"user_id":128,"name":"Koishi","steam_id":76561198054541054,"connected_time":2114000000000,"state":"active","ping":60},{"user_id":149,"name":"ChocoMcFudgeCake","steam_id":76561197994591295,"connected_time":637000000000,"state":"active","ping":61},{"user_id":116,"name":"King of Spies","steam_id":76561198090549460,"connected_time":3181000000000,"state":"active","ping":65},{"user_id":97,"name":"armadahamnsterx","steam_id":76561198333027263,"connected_time":4370000000000,"state":"active","ping":105},{"user_id":158,"name":"Kohuh","steam_id":76561198861737544,"connected_time":266000000000,"state":"active","ping":56},{"user_id":125,"name":"‚ú®‚ú® BOILING PIZZA ‚ú®‚ú®","steam_id":76561198354108114,"connected_time":2290000000000,"state":"active","ping":113},{"user_id":120,"name":"Person","steam_id":76561198093244204,"connected_time":2760000000000,"state":"active","ping":68},{"user_id":122,"name":"Doom Cart","steam_id":76561198158543955,"connected_time":2494000000000,"state":"active","ping":37},{"user_id":144,"name":"Arjen PSN 23","steam_id":76561198963682232,"connected_time":953000000000,"state":"active","ping":45},{"user_id":160,"name":"Speedycat","steam_id":76561198024821259,"connected_time":182000000000,"state":"active","ping":108},{"user_id":127,"name":"Coffee Instant Type 2","steam_id":76561198307845869,"connected_time":2137000000000,"state":"active","ping":65},{"user_id":151,"name":"sugoiboi48","steam_id":76561198060056280,"connected_time":506000000000,"state":"active","ping":66},{"user_id":124,"name":"drugger. (makster implant)","steam_id":76561198353463585,"connected_time":2348000000000,"state":"active","ping":81},{"user_id":159,"name":"garette*","steam_id":76561198330911140,"connected_time":232000000000,"state":"active","ping":84},{"user_id":153,"name":"Faeth ‚ù§","steam_id":76561198319992602,"connected_time":475000000000,"state":"active","ping":91},{"user_id":147,"name":"‚ô• „Çπ„Éä„ÉÉ„Éï„Ç°„Éº ‚ô•","steam_id":76561198158822845,"connected_time":762000000000,"state":"active","ping":65},{"user_id":115,"name":"jimmyfnaf172198yay","steam_id":76561198311446636,"connected_time":3202000000000,"state":"active","ping":80},{"user_id":38,"name":"Mad_Buu","steam_id":76561198047243682,"connected_time":9014000000000,"state":"active","ping":82},{"user_id":130,"name":"Ken","steam_id":76561198233988068,"connected_time":2089000000000,"state":"active","ping":71},{"user_id":154,"name":"Person1268","steam_id":76561198855949094,"connected_time":462000000000,"state":"active","ping":90}]},{"server_id":15,"name":"Uncletopia | New York City | 3 | Stopwatch","name_short":"nyc-3","host":"nyc-1.us.uncletopia.com","port":27035,"enabled":true,"region":"us-east","cc":"us","latitude":40.73061,"longitude":-73.93524,"reserved":0,"last_update":"0001-01-01T00:00:00Z","name_a2s":"Uncletopia | New York City | 3 | Stopwatch","protocol":17,"map":"cp_process_final","folder":"tf","game":"Team Fortress","app_id":440,"player_count":24,"max_players":24,"Bots":0,"server_type":"Dedicated","server_os":"Linux","password":true,"vac":true,"version":"7961495","steam_id":85568392924742820,"keywords":["cp","nocrits","nodmgspread","uncletopia"],"game_id":440,"stv_port":27036,"stv_name":"Uncletopia | New York City | 3 | Stopwatch | STV","players":[{"user_id":390,"name":"Kaluka","steam_id":76561198036861445,"connected_time":210000000000,"state":"active","ping":62},{"user_id":391,"name":"GigaPenguin","steam_id":76561198805906456,"connected_time":147000000000,"state":"active","ping":44},{"user_id":392,"name":"Beta Fish","steam_id":76561198073504861,"connected_time":129000000000,"state":"active","ping":60},{"user_id":382,"name":"menace","steam_id":76561198319142233,"connected_time":988000000000,"state":"active","ping":67},{"user_id":389,"name":"Nortel Network Telephone T7316","steam_id":76561198399261089,"connected_time":295000000000,"state":"active","ping":103},{"user_id":380,"name":"George Costanza","steam_id":76561198144452564,"connected_time":1253000000000,"state":"active","ping":126},{"user_id":383,"name":"„Äé·¥éio∆Ü„Äè","steam_id":76561198879351372,"connected_time":973000000000,"state":"active","ping":39},{"user_id":340,"name":"Young-OG","steam_id":76561198058800479,"connected_time":3241000000000,"state":"active","ping":80},{"user_id":358,"name":"FenexIsDead","steam_id":76561199013058838,"connected_time":2242000000000,"state":"active","ping":80},{"user_id":370,"name":"[CCP] franc | montuga;com","steam_id":76561198417807155,"connected_time":1461000000000,"state":"active","ping":48},{"user_id":393,"name":"A_dude","steam_id":76561199261495418,"connected_time":108000000000,"state":"active","ping":54},{"user_id":309,"name":"Simmons","steam_id":76561198024778135,"connected_time":4723000000000,"state":"active","ping":56},{"user_id":250,"name":"Mer","steam_id":76561198192171041,"connected_time":8137000000000,"state":"active","ping":131},{"user_id":388,"name":"Steel Tombstone","steam_id":76561199160542103,"connected_time":602000000000,"state":"active","ping":35},{"user_id":379,"name":"Cwombles","steam_id":76561198206243633,"connected_time":1277000000000,"state":"active","ping":122},{"user_id":381,"name":"Sergeant Joker LFT","steam_id":76561198854616604,"connected_time":1166000000000,"state":"active","ping":56},{"user_id":385,"name":"Fried_Dough","steam_id":76561198068746207,"connected_time":836000000000,"state":"active","ping":62},{"user_id":386,"name":"Cursed","steam_id":76561198381491880,"connected_time":828000000000,"state":"active","ping":181},{"user_id":362,"name":"trobin120","steam_id":76561199122420273,"connected_time":2196000000000,"state":"active","ping":52},{"user_id":394,"name":"my name jeff","steam_id":76561198179816898,"connected_time":98000000000,"state":"active","ping":87},{"user_id":320,"name":"Heir","steam_id":76561198350772943,"connected_time":4327000000000,"state":"active","ping":70},{"user_id":376,"name":"rekt","steam_id":76561198072179483,"connected_time":1323000000000,"state":"active","ping":85},{"user_id":395,"name":"Gary Budussy","steam_id":76561197969793969,"connected_time":96000000000,"state":"active","ping":85},{"user_id":322,"name":"BB Lorexav","steam_id":76561198207565988,"connected_time":4276000000000,"state":"active","ping":73}]},{"server_id":16,"name":"Uncletopia | New York City | 4 | Community","name_short":"nyc-4","host":"nyc-1.us.uncletopia.com","port":27045,"enabled":true,"region":"us-east","cc":"us","latitude":40.73061,"longitude":-73.93524,"reserved":0,"last_update":"0001-01-01T00:00:00Z","name_a2s":"Uncletopia | New York City | 4 | Community","protocol":17,"map":"workshop/cp_overgrown_rc8.ugc503939302","folder":"tf","game":"Team Fortress","app_id":440,"player_count":0,"max_players":24,"Bots":0,"server_type":"Dedicated","server_os":"Linux","password":true,"vac":true,"version":"7961495","steam_id":85568392924742821,"keywords":["cp","nocrits","nodmgspread","uncletopia"],"game_id":440,"stv_port":27046,"stv_name":"Uncletopia | New York City | 4 | Community | STV","players":null},{"server_id":142,"name":"Uncletopia | S√£o Paulo | 1 | All Maps","name_short":"sao-1","host":"sao-1.br.uncletopia.com","port":27015,"enabled":true,"region":"sa","cc":"br","latitude":-23.533773,"longitude":-46.62529,"reserved":0,"last_update":"0001-01-01T00:00:00Z","name_a2s":"Uncletopia | S√£o Paulo | 1 | All Maps","protocol":17,"map":"pl_borneo","folder":"tf","game":"Team Fortress","app_id":440,"player_count":0,"max_players":24,"Bots":0,"server_type":"Dedicated","server_os":"Linux","password":true,"vac":true,"version":"7961495","steam_id":85568392924469996,"keywords":["nocrits","nodmgspread","payload","uncletopia"],"game_id":440,"stv_port":27016,"stv_name":"Uncletopia | S√£o Paulo | 1 | All Maps | STV","players":null},{"server_id":143,"name":"Uncletopia | S√£o Paulo | 2 | Community","name_short":"sao-2","host":"sao-2.br.uncletopia.com","port":27015,"enabled":true,"region":"sa","cc":"br","latitude":-23.533773,"longitude":-46.62529,"reserved":0,"last_update":"0001-01-01T00:00:00Z","name_a2s":"Uncletopia | S√£o Paulo | 2 | Community","protocol":17,"map":"workshop/rd_asteroid_redux_b1.ugc2154902912","folder":"tf","game":"Team Fortress","app_id":440,"player_count":2,"max_players":24,"Bots":0,"server_type":"Dedicated","server_os":"Linux","password":true,"vac":true,"version":"7961495","steam_id":85568392924485349,"keywords":["beta","nocrits","nodmgspread","rd","uncletopia"],"game_id":440,"stv_port":27016,"stv_name":"Uncletopia | S√£o Paulo | 2 | Community | STV","players":[{"user_id":5,"name":"master_nashe21","steam_id":76561199422909063,"connected_time":368000000000,"state":"active","ping":116},{"user_id":6,"name":"rxdri7","steam_id":76561199501564355,"connected_time":117000000000,"state":"active","ping":96}]},{"server_id":7,"name":"Uncletopia | Seattle | 1 | All Maps","name_short":"sea-1","host":"sea-1.us.uncletopia.com","port":27015,"enabled":true,"region":"us-west","cc":"us","latitude":47.608013,"longitude":-122.33517,"reserved":0,"last_update":"0001-01-01T00:00:00Z","name_a2s":"Uncletopia | Seattle | 1 | All Maps","protocol":17,"map":"pl_upward","folder":"tf","game":"Team Fortress","app_id":440,"player_count":24,"max_players":24,"Bots":0,"server_type":"Dedicated","server_os":"Linux","password":true,"vac":true,"version":"7961495","steam_id":85568392924469997,"keywords":["nocrits","nodmgspread","payload","uncletopia"],"game_id":440,"stv_port":27016,"stv_name":"Uncletopia | Seattle | 1 | All Maps | STV","players":[{"user_id":233,"name":"Dim","steam_id":76561198061411324,"connected_time":1518000000000,"state":"active","ping":132},{"user_id":247,"name":"Zoinks","steam_id":76561198305080892,"connected_time":666000000000,"state":"active","ping":86},{"user_id":200,"name":"DaddyGalaxy","steam_id":76561198139697796,"connected_time":5452000000000,"state":"active","ping":62},{"user_id":229,"name":"Marshall","steam_id":76561198133937366,"connected_time":1913000000000,"state":"active","ping":48},{"user_id":174,"name":"Seshreb","steam_id":76561198846614634,"connected_time":7619000000000,"state":"active","ping":91},{"user_id":234,"name":"Preston","steam_id":76561198255721392,"connected_time":1511000000000,"state":"active","ping":119},{"user_id":235,"name":"Big Yoshi","steam_id":76561199160576376,"connected_time":1510000000000,"state":"active","ping":90},{"user_id":185,"name":"dust | it/she","steam_id":76561198045218909,"connected_time":6633000000000,"state":"active","ping":40},{"user_id":216,"name":"TOP 10 ROCKS FROM MY BACKYARD","steam_id":76561198131567365,"connected_time":3509000000000,"state":"active","ping":56},{"user_id":230,"name":"Ulrich Stern","steam_id":76561198101739682,"connected_time":1869000000000,"state":"active","ping":103},{"user_id":237,"name":"Satori Komeiji","steam_id":76561198158211423,"connected_time":1263000000000,"state":"active","ping":63},{"user_id":180,"name":"Yopi","steam_id":76561198004298898,"connected_time":7052000000000,"state":"active","ping":90},{"user_id":249,"name":"atlas","steam_id":76561198398383076,"connected_time":511000000000,"state":"active","ping":99},{"user_id":250,"name":"Dimple","steam_id":76561198980324190,"connected_time":511000000000,"state":"active","ping":59},{"user_id":210,"name":"Eraser cat","steam_id":76561199045570463,"connected_time":3677000000000,"state":"active","ping":46},{"user_id":130,"name":"YOU WHAT?!","steam_id":76561198418679471,"connected_time":12897000000000,"state":"active","ping":107},{"user_id":252,"name":"MCMXC","steam_id":76561199017754044,"connected_time":300000000000,"state":"active","ping":65},{"user_id":225,"name":"top 10 sidewalks","steam_id":76561198844273999,"connected_time":2120000000000,"state":"active","ping":45},{"user_id":194,"name":"Spectre","steam_id":76561198037535169,"connected_time":6204000000000,"state":"active","ping":73},{"user_id":239,"name":"i cant aim","steam_id":76561198065873462,"connected_time":1143000000000,"state":"active","ping":78},{"user_id":226,"name":"npc energy","steam_id":76561198035342207,"connected_time":2115000000000,"state":"active","ping":104},{"user_id":243,"name":"Toxic Medic Main (he/they)","steam_id":76561198009314845,"connected_time":735000000000,"state":"active","ping":64},{"user_id":244,"name":"Kaito","steam_id":76561198055733757,"connected_time":735000000000,"state":"active","ping":65},{"user_id":245,"name":"cielael","steam_id":76561198043971956,"connected_time":734000000000,"state":"active","ping":78}]},{"server_id":119,"name":"Uncletopia | Seattle | 2 | All Maps","name_short":"sea-2","host":"sea-1.us.uncletopia.com","port":27025,"enabled":true,"region":"us-west","cc":"us","latitude":47.608013,"longitude":-122.33517,"reserved":0,"last_update":"0001-01-01T00:00:00Z","name_a2s":"Uncletopia | Seattle | 2 | All Maps","protocol":17,"map":"koth_highpass","folder":"tf","game":"Team Fortress","app_id":440,"player_count":4,"max_players":24,"Bots":0,"server_type":"Dedicated","server_os":"Linux","password":true,"vac":true,"version":"7961495","steam_id":85568392924469998,"keywords":["cp","nocrits","nodmgspread","uncletopia"],"game_id":440,"stv_port":27026,"stv_name":"Uncletopia | Seattle | 2 | All Maps | STV","players":[{"user_id":15,"name":"WaffleWithNoToppings","steam_id":76561199088280111,"connected_time":707000000000,"state":"active","ping":45},{"user_id":16,"name":"filthycasual","steam_id":76561199138226238,"connected_time":503000000000,"state":"active","ping":42},{"user_id":17,"name":"Cheddar","steam_id":76561199123994392,"connected_time":439000000000,"state":"active","ping":40},{"user_id":18,"name":"nfseskimo","steam_id":76561198078745666,"connected_time":363000000000,"state":"active","ping":41}]},{"server_id":406,"name":"Uncletopia | Seattle | 3 | Stopwatch","name_short":"sea-3","host":"sea-1.us.uncletopia.com","port":27035,"enabled":true,"region":"us-west","cc":"us","latitude":47.608013,"longitude":-122.33517,"reserved":0,"last_update":"0001-01-01T00:00:00Z","name_a2s":"Uncletopia | Seattle | 3 | Stopwatch","protocol":17,"map":"workshop/pl_summercoast_rc8e.ugc1761528829","folder":"tf","game":"Team Fortress","app_id":440,"player_count":0,"max_players":24,"Bots":0,"server_type":"Dedicated","server_os":"Linux","password":true,"vac":true,"version":"7961495","steam_id":85568392924515217,"keywords":["nocrits","nodmgspread","payload","uncletopia"],"game_id":440,"stv_port":27036,"stv_name":"Uncletopia | Seattle | 3 | Stopwatch | STV","players":null},{"server_id":17,"name":"Uncletopia | San Francisco | 1 | All Maps","name_short":"sfo-1","host":"sfo-1.us.uncletopia.com","port":27015,"enabled":true,"region":"us-west","cc":"us","latitude":37.77397,"longitude":-122.4313,"reserved":0,"last_update":"0001-01-01T00:00:00Z","name_a2s":"Uncletopia | San Francisco | 1 | All Maps","protocol":17,"map":"koth_cascade","folder":"tf","game":"Team Fortress","app_id":440,"player_count":0,"max_players":24,"Bots":0,"server_type":"Dedicated","server_os":"Linux","password":true,"vac":true,"version":"7961495","steam_id":85568392924469999,"keywords":["cp","nocrits","nodmgspread","uncletopia"],"game_id":440,"stv_port":27016,"stv_name":"Uncletopia | San Francisco | 1 | All Maps | STV","players":null},{"server_id":18,"name":"Uncletopia | San Francisco | 2 | All Maps","name_short":"sfo-2","host":"sfo-1.us.uncletopia.com","port":27025,"enabled":true,"region":"us-west","cc":"us","latitude":37.77397,"longitude":-122.4313,"reserved":0,"last_update":"0001-01-01T00:00:00Z","name_a2s":"Uncletopia | San Francisco | 2 | All Maps","protocol":17,"map":"pl_frontier_final","folder":"tf","game":"Team Fortress","app_id":440,"player_count":0,"max_players":24,"Bots":0,"server_type":"Dedicated","server_os":"Linux","password":true,"vac":true,"version":"7961495","steam_id":85568392924470000,"keywords":["nocrits","nodmgspread","payload","uncletopia"],"game_id":440,"stv_port":27026,"stv_name":"Uncletopia | San Francisco | 2 | All Maps | STV","players":null},{"server_id":19,"name":"Uncletopia | San Francisco | 3 | Stopwatch","name_short":"sfo-3","host":"sfo-1.us.uncletopia.com","port":27035,"enabled":true,"region":"us-west","cc":"us","latitude":37.77397,"longitude":-122.4313,"reserved":0,"last_update":"0001-01-01T00:00:00Z","name_a2s":"Uncletopia | San Francisco | 3 | Stopwatch","protocol":17,"map":"pl_pier","folder":"tf","game":"Team Fortress","app_id":440,"player_count":0,"max_players":24,"Bots":0,"server_type":"Dedicated","server_os":"Linux","password":true,"vac":true,"version":"7961495","steam_id":85568392924742824,"keywords":["nocrits","nodmgspread","payload","uncletopia"],"game_id":440,"stv_port":27036,"stv_name":"Uncletopia | San Francisco | 3 | Stopwatch | STV","players":null},{"server_id":20,"name":"Uncletopia | San Francisco | 4 | Community","name_short":"sfo-4","host":"sfo-1.us.uncletopia.com","port":27045,"enabled":true,"region":"us-west","cc":"us","latitude":37.77397,"longitude":-122.4313,"reserved":0,"last_update":"0001-01-01T00:00:00Z","name_a2s":"Uncletopia | San Francisco | 4 | Community","protocol":17,"map":"pl_pier","folder":"tf","game":"Team Fortress","app_id":440,"player_count":0,"max_players":24,"Bots":0,"server_type":"Dedicated","server_os":"Linux","password":true,"vac":true,"version":"7961495","steam_id":85568392924742826,"keywords":["nocrits","nodmgspread","payload","uncletopia"],"game_id":440,"stv_port":27046,"stv_name":"Uncletopia | San Francisco | 4 | Community | STV","players":null},{"server_id":141,"name":"Uncletopia | Sydney | 1 | All Maps","name_short":"syd-1","host":"syd-1.au.uncletopia.com","port":27015,"enabled":true,"region":"au","cc":"au","latitude":-33.865143,"longitude":151.2099,"reserved":0,"last_update":"0001-01-01T00:00:00Z","name_a2s":"Uncletopia | Sydney | 1 | All Maps","protocol":17,"map":"pl_barnblitz","folder":"tf","game":"Team Fortress","app_id":440,"player_count":0,"max_players":24,"Bots":0,"server_type":"Dedicated","server_os":"Linux","password":true,"vac":true,"version":"7961495","steam_id":85568392924470001,"keywords":["nocrits","nodmgspread","payload","uncletopia"],"game_id":440,"stv_port":27016,"stv_name":"Uncletopia | Sydney | 1 | All Maps | STV","players":null},{"server_id":123,"name":"Uncletopia | Sydney | 2 | All Maps","name_short":"syd-2","host":"syd-1.au.uncletopia.com","port":27025,"enabled":true,"region":"au","cc":"au","latitude":-33.865143,"longitude":151.2099,"reserved":0,"last_update":"0001-01-01T00:00:00Z","name_a2s":"Uncletopia | Sydney | 2 | All Maps","protocol":17,"map":"koth_lakeside_final","folder":"tf","game":"Team Fortress","app_id":440,"player_count":0,"max_players":24,"Bots":0,"server_type":"Dedicated","server_os":"Linux","password":true,"vac":true,"version":"7961495","steam_id":85568392924470002,"keywords":["cp","nocrits","nodmgspread","uncletopia"],"game_id":440,"stv_port":27026,"stv_name":"Uncletopia | Sydney | 2 | All Maps | STV","players":null},{"server_id":395,"name":"Uncletopia | Sydney | 3 | All Maps","name_short":"syd-3","host":"syd-1.au.uncletopia.com","port":27035,"enabled":true,"region":"au","cc":"au","latitude":-33.865143,"longitude":151.2099,"reserved":0,"last_update":"0001-01-01T00:00:00Z","name_a2s":"Uncletopia | Sydney | 3 | All Maps","protocol":17,"map":"koth_lakeside_final","folder":"tf","game":"Team Fortress","app_id":440,"player_count":0,"max_players":24,"Bots":0,"server_type":"Dedicated","server_os":"Linux","password":true,"vac":true,"version":"7961495","steam_id":85568392925194467,"keywords":["cp","nocrits","nodmgspread","uncletopia"],"game_id":440,"stv_port":27036,"stv_name":"Uncletopia | Sydney | 3 | All Maps | STV","players":null},{"server_id":396,"name":"Uncletopia | Sydney | 4 | All Maps","name_short":"syd-4","host":"syd-1.au.uncletopia.com","port":27045,"enabled":true,"region":"au","cc":"au","latitude":-33.865143,"longitude":151.2099,"reserved":0,"last_update":"0001-01-01T00:00:00Z","name_a2s":"Uncletopia | Sydney | 4 | All Maps","protocol":17,"map":"pl_upward","folder":"tf","game":"Team Fortress","app_id":440,"player_count":0,"max_players":24,"Bots":0,"server_type":"Dedicated","server_os":"Linux","password":true,"vac":true,"version":"7961495","steam_id":85568392925397958,"keywords":["nocrits","nodmgspread","payload","uncletopia"],"game_id":440,"stv_port":27046,"stv_name":"Uncletopia | Sydney | 4 | All Maps | STV","players":null},{"server_id":58,"name":"Uncletopia | Sydney | 5 | Stopwatch","name_short":"syd-5","host":"syd-1.au.uncletopia.com","port":27055,"enabled":true,"region":"au","cc":"au","latitude":-33.865143,"longitude":151.2099,"reserved":0,"last_update":"0001-01-01T00:00:00Z","name_a2s":"Uncletopia | Sydney | 5 | Stopwatch","protocol":17,"map":"pl_swiftwater_final1","folder":"tf","game":"Team Fortress","app_id":440,"player_count":0,"max_players":24,"Bots":0,"server_type":"Dedicated","server_os":"Linux","password":true,"vac":true,"version":"7961495","steam_id":85568392925397959,"keywords":["nocrits","nodmgspread","payload","uncletopia"],"game_id":440,"stv_port":27056,"stv_name":"Uncletopia | Sydney | 5 | Stopwatch | STV","players":null},{"server_id":59,"name":"Uncletopia | Sydney | 6 | Community","name_short":"syd-6","host":"syd-1.au.uncletopia.com","port":27065,"enabled":true,"region":"au","cc":"au","latitude":-33.865143,"longitude":151.2099,"reserved":0,"last_update":"0001-01-01T00:00:00Z","name_a2s":"Uncletopia | Sydney | 6 | Community","protocol":17,"map":"workshop/cp_caldera_rc3.ugc2834196889","folder":"tf","game":"Team Fortress","app_id":440,"player_count":0,"max_players":24,"Bots":0,"server_type":"Dedicated","server_os":"Linux","password":true,"vac":true,"version":"7961495","steam_id":85568392925397960,"keywords":["cp","nocrits","nodmgspread","uncletopia"],"game_id":440,"stv_port":27066,"stv_name":"Uncletopia | Sydney | 6 | Community | STV","players":null},{"server_id":49,"name":"Uncletopia | Warsaw | 1 | One Thousand Uncles","name_short":"waw-1","host":"waw-1.pl.uncletopia.com","port":27015,"enabled":true,"region":"eu","cc":"pl","latitude":52.2297,"longitude":21.017532,"reserved":0,"last_update":"0001-01-01T00:00:00Z","name_a2s":"Uncletopia | Warsaw | 1 | One Thousand Uncles","protocol":17,"map":"pl_upward","folder":"tf","game":"Team Fortress","app_id":440,"player_count":25,"max_players":32,"Bots":16,"server_type":"Dedicated","server_os":"Linux","password":true,"vac":true,"version":"7961495","steam_id":85568392925397850,"keywords":["alltalk","bots","danepve","increased_maxplayers","nocrits","norespawntime","payload","uncletopia"],"game_id":440,"stv_port":0,"stv_name":"","players":[{"user_id":210,"name":"KIRSON","steam_id":76561199372227807,"connected_time":235000000000,"state":"active","ping":120},{"user_id":4,"name":"the baddest boy in btd5","steam_id":76561199487914508,"connected_time":11753000000000,"state":"active","ping":46},{"user_id":176,"name":"Tispy","steam_id":76561199207410049,"connected_time":2041000000000,"state":"active","ping":115},{"user_id":211,"name":"5UP3R TH30 B4G","steam_id":76561198852348375,"connected_time":104000000000,"state":"active","ping":450},{"user_id":212,"name":"Crusade","steam_id":76561199192979051,"connected_time":43000000000,"state":"active","ping":168},{"user_id":188,"name":"Dragon ùüöùüôùüôùüù","steam_id":76561199013842172,"connected_time":906000000000,"state":"active","ping":30},{"user_id":177,"name":"[HK]Êàë‰øÇÈ¶ôÊ∏Ø‰∫∫","steam_id":76561198165376815,"connected_time":2023000000000,"state":"active","ping":77},{"user_id":139,"name":"Fritzkrieg","steam_id":76561199231092470,"connected_time":4053000000000,"state":"active","ping":94},{"user_id":138,"name":"Meem Majn","steam_id":76561198847379858,"connected_time":4062000000000,"state":"active","ping":78}]},{"server_id":50,"name":"Uncletopia | Warsaw | 2 | One Thousand Uncles","name_short":"waw-2","host":"waw-1.pl.uncletopia.com","port":27025,"enabled":true,"region":"eu","cc":"pl","latitude":52.2297,"longitude":21.017532,"reserved":0,"last_update":"0001-01-01T00:00:00Z","name_a2s":"Uncletopia | Warsaw | 2 | One Thousand Uncles","protocol":17,"map":"cp_egypt_final","folder":"tf","game":"Team Fortress","app_id":440,"player_count":28,"max_players":32,"Bots":16,"server_type":"Dedicated","server_os":"Linux","password":true,"vac":true,"version":"7961495","steam_id":85568392925397851,"keywords":["alltalk","bots","cp","danepve","increased_maxplayers","nocrits","norespawntime","uncletopia"],"game_id":440,"stv_port":0,"stv_name":"","players":[{"user_id":285,"name":"Hinton","steam_id":76561198050018221,"connected_time":680000000000,"state":"active","ping":40},{"user_id":305,"name":"WomenBeardLike","steam_id":76561198390184314,"connected_time":32000000000,"state":"active","ping":76},{"user_id":282,"name":"SpineJuice","steam_id":76561199084272069,"connected_time":999000000000,"state":"active","ping":62},{"user_id":258,"name":"Riky95","steam_id":76561198095289436,"connected_time":2780000000000,"state":"active","ping":59},{"user_id":259,"name":"FinnishGuy","steam_id":76561198155380452,"connected_time":2749000000000,"state":"active","ping":87},{"user_id":253,"name":"Piquesque","steam_id":76561198286763046,"connected_time":4109000000000,"state":"active","ping":102},{"user_id":255,"name":"adv6","steam_id":76561198029789989,"connected_time":3866000000000,"state":"active","ping":63},{"user_id":302,"name":"SuperPickles","steam_id":76561198985177875,"connected_time":445000000000,"state":"active","ping":76},{"user_id":279,"name":"[Heavy Mandarin]","steam_id":76561198531978435,"connected_time":1751000000000,"state":"active","ping":81},{"user_id":280,"name":"high on tf2","steam_id":76561199252795027,"connected_time":1699000000000,"state":"active","ping":56},{"user_id":303,"name":"Miksi","steam_id":76561199138567944,"connected_time":245000000000,"state":"active","ping":59},{"user_id":284,"name":"Lukas","steam_id":76561198009118452,"connected_time":822000000000,"state":"active","ping":59}]},{"server_id":51,"name":"Uncletopia | Warsaw | 3 | All Maps","name_short":"waw-3","host":"waw-1.pl.uncletopia.com","port":27035,"enabled":true,"region":"eu","cc":"pl","latitude":52.2297,"longitude":21.017532,"reserved":0,"last_update":"0001-01-01T00:00:00Z","name_a2s":"Uncletopia | Warsaw | 3 | All Maps","protocol":17,"map":"koth_highpass","folder":"tf","game":"Team Fortress","app_id":440,"player_count":0,"max_players":24,"Bots":0,"server_type":"Dedicated","server_os":"Linux","password":true,"vac":true,"version":"7961495","steam_id":85568392925397852,"keywords":["cp","nocrits","nodmgspread","uncletopia"],"game_id":440,"stv_port":27036,"stv_name":"Uncletopia | Warsaw | 3 | All Maps | STV","players":null},{"server_id":52,"name":"Uncletopia | Warsaw | 4 | All Maps","name_short":"waw-4","host":"waw-1.pl.uncletopia.com","port":27045,"enabled":true,"region":"eu","cc":"pl","latitude":52.2297,"longitude":21.017532,"reserved":0,"last_update":"0001-01-01T00:00:00Z","name_a2s":"Uncletopia | Warsaw | 4 | All Maps","protocol":17,"map":"koth_highpass","folder":"tf","game":"Team Fortress","app_id":440,"player_count":0,"max_players":24,"Bots":0,"server_type":"Dedicated","server_os":"Linux","password":true,"vac":true,"version":"7961495","steam_id":85568392925397853,"keywords":["cp","nocrits","nodmgspread","uncletopia"],"game_id":440,"stv_port":27046,"stv_name":"Uncletopia | Warsaw | 4 | All Maps | STV","players":null},{"server_id":53,"name":"Uncletopia | Warsaw | 5 | Stopwatch","name_short":"waw-5","host":"waw-1.pl.uncletopia.com","port":27055,"enabled":true,"region":"eu","cc":"pl","latitude":52.2297,"longitude":21.017532,"reserved":0,"last_update":"0001-01-01T00:00:00Z","name_a2s":"Uncletopia | Warsaw | 5 | Stopwatch","protocol":17,"map":"pl_upward","folder":"tf","game":"Team Fortress","app_id":440,"player_count":0,"max_players":24,"Bots":0,"server_type":"Dedicated","server_os":"Linux","password":true,"vac":true,"version":"7961495","steam_id":85568392925397854,"keywords":["nocrits","nodmgspread","payload","uncletopia"],"game_id":440,"stv_port":27056,"stv_name":"Uncletopia | Warsaw | 5 | Stopwatch | STV","players":null},{"server_id":54,"name":"Uncletopia | Warsaw | 6 | Community","name_short":"waw-6","host":"waw-1.pl.uncletopia.com","port":27065,"enabled":true,"region":"eu","cc":"pl","latitude":52.2297,"longitude":21.017532,"reserved":0,"last_update":"0001-01-01T00:00:00Z","name_a2s":"Uncletopia | Warsaw | 6 | Community","protocol":17,"map":"workshop/cp_hazyfort_rc6.ugc1365963729","folder":"tf","game":"Team Fortress","app_id":440,"player_count":0,"max_players":24,"Bots":0,"server_type":"Dedicated","server_os":"Linux","password":true,"vac":true,"version":"7961495","steam_id":85568392925397856,"keywords":["cp","nocrits","nodmgspread","uncletopia"],"game_id":440,"stv_port":27066,"stv_name":"Uncletopia | Warsaw | 6 | Community | STV","players":null}]}