{"status":true,"message":"","result":[{"server_id":9,"name":"Uncletopia | Atlanta | 1 | All Maps","name_short":"atl-1","host":"atl-1.us.uncletopia.com","port":27015,"enabled":true,"region":"us-east","cc":"us","latitude":33.753746,"longitude":-84.38633,"reserved":0,"last_update":"0001-01-01T00:00:00Z","name_a2s":"Uncletopia | Atlanta | 1 | All Maps","protocol":17,"map":"pl_borneo","folder":"tf","game":"Team Fortress","app_id":440,"player_count":24,"max_players":24,"Bots":0,"server_type":"Dedicated","server_os":"Linux","password":true,"vac":true,"version":"7961495","steam_id":85568392924469982,"keywords":["nocrits","nodmgspread","payload","uncletopia"],"game_id":440,"stv_port":27016,"stv_name":"Uncletopia | Atlanta | 1 | All Maps | STV","players":[{"user_id":93,"name":"Strange Child","steam_id":76561198082523009,"connected_time":1549000000000,"state":"active","ping":83},{"user_id":102,"name":"Shrebbie","steam_id":76561198875230824,"connected_time":691000000000,"state":"active","ping":60},{"user_id":68,"name":"dad playing in between naps","steam_id":76561198009425458,"connected_time":4467000000000,"state":"active","ping":72},{"user_id":106,"name":"smugmirk","steam_id":76561198880748680,"connected_time":217000000000,"state":"active","ping":65},{"user_id":83,"name":"Gaming","steam_id":76561198107080532,"connected_time":2650000000000,"state":"active","ping":74},{"user_id":46,"name":"VisibleForce","steam_id":76561198104178938,"connected_time":6731000000000,"state":"active","ping":80},{"user_id":94,"name":"fLock","steam_id":76561198091578187,"connected_time":1432000000000,"state":"active","ping":61},{"user_id":51,"name":"Piggypot","steam_id":76561199106826976,"connected_time":6288000000000,"state":"active","ping":84},{"user_id":59,"name":"Ata","steam_id":76561198349085545,"connected_time":5020000000000,"state":"active","ping":78},{"user_id":107,"name":"garette*","steam_id":76561198330911140,"connected_time":212000000000,"state":"active","ping":75},{"user_id":81,"name":"Sunny D+","steam_id":76561197999371052,"connected_time":2709000000000,"state":"active","ping":82},{"user_id":108,"name":"Sunny","steam_id":76561198125892600,"connected_time":186000000000,"state":"active","ping":47},{"user_id":111,"name":"Pango","steam_id":76561198069811545,"connected_time":37000000000,"state":"active","ping":49},{"user_id":100,"name":"Amy Roxwell","steam_id":76561198303391830,"connected_time":1247000000000,"state":"active","ping":106},{"user_id":72,"name":"row","steam_id":76561198040946044,"connected_time":4014000000000,"state":"active","ping":84},{"user_id":109,"name":".BOS.Peppermint","steam_id":76561198842194846,"connected_time":159000000000,"state":"active","ping":72},{"user_id":96,"name":"CandorDanceFloor","steam_id":76561198062980511,"connected_time":1379000000000,"state":"active","ping":94},{"user_id":101,"name":"dongy","steam_id":76561198050319619,"connected_time":1107000000000,"state":"active","ping":171},{"user_id":89,"name":"luxin","steam_id":76561198399383047,"connected_time":2207000000000,"state":"active","ping":53},{"user_id":92,"name":"aaaxel","steam_id":76561198137430598,"connected_time":1722000000000,"state":"active","ping":75},{"user_id":98,"name":"DragonJimmy","steam_id":76561198272966565,"connected_time":1363000000000,"state":"active","ping":97},{"user_id":105,"name":"ChozoChorizo","steam_id":76561198272609196,"connected_time":309000000000,"state":"active","ping":58},{"user_id":99,"name":"allahsdroptop (Bag/Chaser)","steam_id":76561198133195238,"connected_time":1362000000000,"state":"active","ping":115},{"user_id":103,"name":"ATL1 | Woke Bush","steam_id":76561198047994501,"connected_time":327000000000,"state":"active","ping":45}]},{"server_id":104,"name":"Uncletopia | Atlanta | 2 | All Maps","name_short":"atl-2","host":"atl-1.us.uncletopia.com","port":27025,"enabled":true,"region":"us-east","cc":"us","latitude":33.753746,"longitude":-84.38633,"reserved":0,"last_update":"0001-01-01T00:00:00Z","name_a2s":"Uncletopia | Atlanta | 2 | All Maps","protocol":17,"map":"koth_cascade","folder":"tf","game":"Team Fortress","app_id":440,"player_count":0,"max_players":24,"Bots":0,"server_type":"Dedicated","server_os":"Linux","password":true,"vac":true,"version":"7961495","steam_id":85568392924469983,"keywords":["cp","nocrits","nodmgspread","uncletopia"],"game_id":440,"stv_port":27026,"stv_name":"Uncletopia | Atlanta | 2 | All Maps | STV","players":null},{"server_id":400,"name":"Uncletopia | Atlanta | 3 | Stopwatch","name_short":"atl-3","host":"atl-1.us.uncletopia.com","port":27035,"enabled":true,"region":"us-east","cc":"us","latitude":33.753746,"longitude":-84.38633,"reserved":0,"last_update":"0001-01-01T00:00:00Z","name_a2s":"Uncletopia | Atlanta | 3 | Stopwatch","protocol":17,"map":"koth_highpass","folder":"tf","game":"Team Fortress","app_id":440,"player_count":0,"max_players":24,"Bots":0,"server_type":"Dedicated","server_os":"Linux","password":true,"vac":true,"version":"7961495","steam_id":85568392924515187,"keywords":["cp","nocrits","nodmgspread","uncletopia"],"game_id":440,"stv_port":27036,"stv_name":"Uncletopia | Atlanta | 3 | Stopwatch | STV","players":null},{"server_id":401,"name":"Uncletopia | Atlanta | 4 | Community","name_short":"atl-4","host":"atl-1.us.uncletopia.com","port":27045,"enabled":true,"region":"us-east","cc":"us","latitude":33.753746,"longitude":-84.38633,"reserved":0,"last_update":"0001-01-01T00:00:00Z","name_a2s":"Uncletopia | Atlanta | 4 | Community","protocol":17,"map":"workshop/koth_product_final.ugc454272353","folder":"tf","game":"Team Fortress","app_id":440,"player_count":0,"max_players":24,"Bots":0,"server_type":"Dedicated","server_os":"Linux","password":true,"vac":true,"version":"7961495","steam_id":85568392924515188,"keywords":["cp","nocrits","nodmgspread","uncletopia"],"game_id":440,"stv_port":27046,"stv_name":"Uncletopia | Atlanta | 4 | Community | STV","players":null},{"server_id":2,"name":"Uncletopia | Chicago | 1 | All Maps","name_short":"chi-1","host":"chi-1.us.uncletopia.com","port":27015,"enabled":true,"region":"us-central","cc":"us","latitude":41.881832,"longitude":-87.62318,"reserved":0,"last_update":"0001-01-01T00:00:00Z","name_a2s":"Uncletopia | Chicago | 1 | All Maps","protocol":17,"map":"cp_dustbowl","folder":"tf","game":"Team Fortress","app_id":440,"player_count":24,"max_players":24,"Bots":0,"server_type":"Dedicated","server_os":"Linux","password":true,"vac":true,"version":"7961495","steam_id":85568392924469984,"keywords":["cp","nocrits","nodmgspread","uncletopia"],"game_id":440,"stv_port":27016,"stv_name":"Uncletopia | Chicago | 1 | All Maps | STV","players":[{"user_id":96,"name":"Homocide","steam_id":76561199500265332,"connected_time":839000000000,"state":"active","ping":69},{"user_id":66,"name":"Plinko","steam_id":76561198884912425,"connected_time":3513000000000,"state":"active","ping":68},{"user_id":100,"name":"cbv sdfdsxsxdqs","steam_id":76561198304661367,"connected_time":805000000000,"state":"active","ping":68},{"user_id":88,"name":"JAKandBEL","steam_id":76561198213060931,"connected_time":2303000000000,"state":"active","ping":57},{"user_id":53,"name":"JakeK","steam_id":76561198149375504,"connected_time":4460000000000,"state":"active","ping":68},{"user_id":95,"name":"olg","steam_id":76561198163423805,"connected_time":841000000000,"state":"active","ping":87},{"user_id":101,"name":"boo_thefeared","steam_id":76561198127967685,"connected_time":794000000000,"state":"active","ping":145},{"user_id":97,"name":"Captain","steam_id":76561198155723294,"connected_time":836000000000,"state":"active","ping":53},{"user_id":92,"name":"twix #IMSORRYGRAPEJUCE","steam_id":76561198040912048,"connected_time":1218000000000,"state":"active","ping":60},{"user_id":93,"name":"shmoke","steam_id":76561198056996952,"connected_time":857000000000,"state":"active","ping":66},{"user_id":98,"name":"the silly","steam_id":76561198850632709,"connected_time":835000000000,"state":"active","ping":78},{"user_id":110,"name":"HAWK_6155","steam_id":76561198085696816,"connected_time":389000000000,"state":"active","ping":84},{"user_id":59,"name":"PyroTechno","steam_id":76561198060929872,"connected_time":4001000000000,"state":"active","ping":66},{"user_id":72,"name":"Artgrendadier","steam_id":76561198063305359,"connected_time":2941000000000,"state":"active","ping":67},{"user_id":111,"name":"Chode Mode","steam_id":76561198353840477,"connected_time":292000000000,"state":"active","ping":51},{"user_id":75,"name":"fatrob","steam_id":76561198045647847,"connected_time":2843000000000,"state":"active","ping":94},{"user_id":86,"name":"That Darned Imp","steam_id":76561198854501307,"connected_time":2323000000000,"state":"active","ping":60},{"user_id":52,"name":"Dragus","steam_id":76561198032967285,"connected_time":4487000000000,"state":"active","ping":51},{"user_id":103,"name":"Yoshimelon","steam_id":76561198253054325,"connected_time":772000000000,"state":"active","ping":60},{"user_id":104,"name":"wafflehamster2000","steam_id":76561198849161820,"connected_time":768000000000,"state":"active","ping":72},{"user_id":76,"name":"Kavult","steam_id":76561198354865776,"connected_time":2835000000000,"state":"active","ping":92},{"user_id":105,"name":"SpongedSocks","steam_id":76561198374009086,"connected_time":758000000000,"state":"active","ping":69},{"user_id":108,"name":"Admiral Angry","steam_id":76561198058199206,"connected_time":729000000000,"state":"active","ping":59},{"user_id":69,"name":"poorman #1 sniper","steam_id":76561198447884169,"connected_time":3198000000000,"state":"active","ping":50}]},{"server_id":106,"name":"Uncletopia | Chicago | 2 | All Maps","name_short":"chi-2","host":"chi-1.us.uncletopia.com","port":27025,"enabled":true,"region":"us-central","cc":"us","latitude":41.881832,"longitude":-87.62318,"reserved":0,"last_update":"0001-01-01T00:00:00Z","name_a2s":"Uncletopia | Chicago | 2 | All Maps","protocol":17,"map":"pl_borneo","folder":"tf","game":"Team Fortress","app_id":440,"player_count":24,"max_players":24,"Bots":0,"server_type":"Dedicated","server_os":"Linux","password":true,"vac":true,"version":"7961495","steam_id":85568392924469985,"keywords":["nocrits","nodmgspread","payload","uncletopia"],"game_id":440,"stv_port":27026,"stv_name":"Uncletopia | Chicago | 2 | All Maps | STV","players":[{"user_id":12,"name":"custodian","steam_id":76561198058793778,"connected_time":3469000000000,"state":"active","ping":74},{"user_id":26,"name":"EggDroop","steam_id":76561198129588301,"connected_time":1507000000000,"state":"active","ping":80},{"user_id":9,"name":"Zeebop","steam_id":76561198148332988,"connected_time":3917000000000,"state":"active","ping":45},{"user_id":7,"name":"ninja45","steam_id":76561198150619521,"connected_time":4276000000000,"state":"active","ping":83},{"user_id":14,"name":"I eat kids","steam_id":76561199195104977,"connected_time":3431000000000,"state":"active","ping":78},{"user_id":17,"name":"mag","steam_id":76561198004065704,"connected_time":2178000000000,"state":"active","ping":86},{"user_id":55,"name":"Clean Lines","steam_id":76561197960691518,"connected_time":209000000000,"state":"active","ping":52},{"user_id":53,"name":"dipp","steam_id":76561198395577807,"connected_time":305000000000,"state":"active","ping":73},{"user_id":52,"name":"cadian guard drop engineer","steam_id":76561199104829802,"connected_time":331000000000,"state":"active","ping":149},{"user_id":27,"name":"magickxanadu","steam_id":76561199117360103,"connected_time":1458000000000,"state":"active","ping":84},{"user_id":48,"name":"Henry11799","steam_id":76561198121162774,"connected_time":746000000000,"state":"active","ping":76},{"user_id":24,"name":"Λlex","steam_id":76561198024967421,"connected_time":1674000000000,"state":"active","ping":105},{"user_id":54,"name":"big steve","steam_id":76561199037050183,"connected_time":268000000000,"state":"active","ping":76},{"user_id":50,"name":"Scoot the Burbs","steam_id":76561198079507179,"connected_time":537000000000,"state":"active","ping":78},{"user_id":31,"name":"helper npc","steam_id":76561198801207748,"connected_time":1372000000000,"state":"active","ping":65},{"user_id":56,"name":"Sergeant Joker LFT","steam_id":76561198854616604,"connected_time":41000000000,"state":"active","ping":73},{"user_id":34,"name":"Jabroni Kris","steam_id":76561198048736247,"connected_time":1313000000000,"state":"active","ping":94},{"user_id":38,"name":"armaghgeddon™","steam_id":76561198018519640,"connected_time":1273000000000,"state":"active","ping":83},{"user_id":46,"name":"Fluffeline","steam_id":76561198352909489,"connected_time":843000000000,"state":"active","ping":140},{"user_id":37,"name":"Big Bill Haywood","steam_id":76561198142290733,"connected_time":1297000000000,"state":"active","ping":73},{"user_id":40,"name":"Dragoon","steam_id":76561198143785423,"connected_time":1264000000000,"state":"active","ping":85},{"user_id":47,"name":"doug","steam_id":76561198020534493,"connected_time":840000000000,"state":"active","ping":61},{"user_id":51,"name":"bagel cream cheese","steam_id":76561198017954785,"connected_time":501000000000,"state":"active","ping":78},{"user_id":45,"name":"Ceige LFT","steam_id":76561198068538473,"connected_time":904000000000,"state":"active","ping":82}]},{"server_id":402,"name":"Uncletopia | Chicago | 3 | All Maps","name_short":"chi-3","host":"chi-1.us.uncletopia.com","port":27035,"enabled":true,"region":"us-central","cc":"us","latitude":41.881832,"longitude":-87.62318,"reserved":0,"last_update":"0001-01-01T00:00:00Z","name_a2s":"Uncletopia | Chicago | 3 | All Maps","protocol":17,"map":"ctf_landfall","folder":"tf","game":"Team Fortress","app_id":440,"player_count":24,"max_players":24,"Bots":0,"server_type":"Dedicated","server_os":"Linux","password":true,"vac":true,"version":"7961495","steam_id":85568392924515191,"keywords":["ctf","nocrits","nodmgspread","uncletopia"],"game_id":440,"stv_port":27036,"stv_name":"Uncletopia | Chicago | 3 | All Maps | STV","players":[{"user_id":193,"name":"lucky","steam_id":76561198323426623,"connected_time":4499000000000,"state":"active","ping":99},{"user_id":216,"name":"messenger zidgeon","steam_id":76561198098770013,"connected_time":2376000000000,"state":"active","ping":100},{"user_id":260,"name":"Hertz","steam_id":76561198310927351,"connected_time":138000000000,"state":"active","ping":143},{"user_id":181,"name":"MikeLovesRabbit","steam_id":76561197997742625,"connected_time":5560000000000,"state":"active","ping":65},{"user_id":217,"name":"rat 2","steam_id":76561198197297414,"connected_time":2238000000000,"state":"active","ping":36},{"user_id":205,"name":"The Washer of Dishes","steam_id":76561198028157625,"connected_time":3488000000000,"state":"active","ping":84},{"user_id":249,"name":"UwU hates you","steam_id":76561198997008290,"connected_time":950000000000,"state":"active","ping":68},{"user_id":234,"name":"Slip","steam_id":76561199057232579,"connected_time":1778000000000,"state":"active","ping":48},{"user_id":244,"name":"friendly salamander","steam_id":76561198888219116,"connected_time":1204000000000,"state":"active","ping":77},{"user_id":261,"name":"IPlayGamez","steam_id":76561198041387508,"connected_time":88000000000,"state":"active","ping":61},{"user_id":262,"name":"riley","steam_id":76561198133142520,"connected_time":14000000000,"state":"active","ping":50},{"user_id":247,"name":"The Honorable Sir Knish IV","steam_id":76561198427047948,"connected_time":1021000000000,"state":"active","ping":77},{"user_id":248,"name":"Prince Flip","steam_id":76561198023462157,"connected_time":996000000000,"state":"active","ping":137},{"user_id":257,"name":"mike penis","steam_id":76561198159339442,"connected_time":222000000000,"state":"active","ping":73},{"user_id":236,"name":"MaeDay","steam_id":76561198332344135,"connected_time":1733000000000,"state":"active","ping":64},{"user_id":255,"name":"transmasc kissing","steam_id":76561199102728775,"connected_time":627000000000,"state":"active","ping":85},{"user_id":253,"name":"Dabbledornk","steam_id":76561198065241300,"connected_time":778000000000,"state":"active","ping":59},{"user_id":212,"name":"Nefy","steam_id":76561198030017316,"connected_time":3168000000000,"state":"active","ping":70},{"user_id":259,"name":"joyeuxnoelle","steam_id":76561198062423120,"connected_time":158000000000,"state":"active","ping":78},{"user_id":173,"name":"ThatGamingKiwi","steam_id":76561199170522237,"connected_time":5940000000000,"state":"active","ping":75},{"user_id":231,"name":"ChillyJones","steam_id":76561198017658702,"connected_time":1854000000000,"state":"active","ping":79},{"user_id":238,"name":"Don't Fuckle with Shuckle","steam_id":76561199020102367,"connected_time":1701000000000,"state":"active","ping":84},{"user_id":245,"name":"fasterbum","steam_id":76561198142577444,"connected_time":1165000000000,"state":"active","ping":54},{"user_id":194,"name":"mkl","steam_id":76561197986401685,"connected_time":4499000000000,"state":"active","ping":83}]},{"server_id":403,"name":"Uncletopia | Chicago | 4 | All Maps","name_short":"chi-4","host":"chi-1.us.uncletopia.com","port":27045,"enabled":true,"region":"us-central","cc":"us","latitude":41.881832,"longitude":-87.62318,"reserved":0,"last_update":"0001-01-01T00:00:00Z","name_a2s":"Uncletopia | Chicago | 4 | All Maps","protocol":17,"map":"koth_cascade","folder":"tf","game":"Team Fortress","app_id":440,"player_count":2,"max_players":24,"Bots":0,"server_type":"Dedicated","server_os":"Linux","password":true,"vac":true,"version":"7961495","steam_id":85568392924515193,"keywords":["cp","nocrits","nodmgspread","uncletopia"],"game_id":440,"stv_port":27046,"stv_name":"Uncletopia | Chicago | 4 | All Maps | STV","players":[{"user_id":8,"name":"consumer of bonk","steam_id":76561199041402389,"connected_time":560000000000,"state":"active","ping":68},{"user_id":7,"name":"Ice","steam_id":76561198045076794,"connected_time":581000000000,"state":"active","ping":44}]},{"server_id":36,"name":"Uncletopia | Chicago | 5 | All Maps","name_short":"chi-5","host":"chi-2.us.uncletopia.com","port":27015,"enabled":true,"region":"us-central","cc":"us","latitude":41.881832,"longitude":-87.62318,"reserved":0,"last_update":"0001-01-01T00:00:00Z","name_a2s":"Uncletopia | Chicago | 5 | All Maps","protocol":17,"map":"koth_viaduct","folder":"tf","game":"Team Fortress","app_id":440,"player_count":0,"max_players":24,"Bots":0,"server_type":"Dedicated","server_os":"Linux","password":true,"vac":true,"version":"7961495","steam_id":85568392924866362,"keywords":["cp","nocrits","nodmgspread","uncletopia"],"game_id":440,"stv_port":27016,"stv_name":"Uncletopia | Chicago | 5 | All Maps | STV","players":null},{"server_id":37,"name":"Uncletopia | Chicago | 6 | All Maps","name_short":"chi-6","host":"chi-2.us.uncletopia.com","port":27025,"enabled":true,"region":"us-central","cc":"us","latitude":41.881832,"longitude":-87.62318,"reserved":0,"last_update":"0001-01-01T00:00:00Z","name_a2s":"Uncletopia | Chicago | 6 | All Maps","protocol":17,"map":"pl_frontier_final","folder":"tf","game":"Team Fortress","app_id":440,"player_count":0,"max_players":24,"Bots":0,"server_type":"Dedicated","server_os":"Linux","password":true,"vac":true,"version":"7961495","steam_id":85568392924866363,"keywords":["nocrits","nodmgspread","payload","uncletopia"],"game_id":440,"stv_port":27026,"stv_name":"Uncletopia | Chicago | 6 | All Maps | STV","players":null},{"server_id":38,"name":"Uncletopia | Chicago | 7 | Stopwatch","name_short":"chi-7","host":"chi-2.us.uncletopia.com","port":27035,"enabled":true,"region":"us-central","cc":"us","latitude":41.881832,"longitude":-87.62318,"reserved":0,"last_update":"0001-01-01T00:00:00Z","name_a2s":"Uncletopia | Chicago | 7 | Stopwatch","protocol":17,"map":"pl_badwater","folder":"tf","game":"Team Fortress","app_id":440,"player_count":0,"max_players":24,"Bots":0,"server_type":"Dedicated","server_os":"Linux","password":true,"vac":true,"version":"7961495","steam_id":85568392924866364,"keywords":["nocrits","nodmgspread","payload","uncletopia"],"game_id":440,"stv_port":27036,"stv_name":"Uncletopia | Chicago | 7 | Stopwatch | STV","players":null},{"server_id":39,"name":"Uncletopia | Chicago | 8 | Community","name_short":"chi-8","host":"chi-2.us.uncletopia.com","port":27045,"enabled":true,"region":"us-central","cc":"us","latitude":41.881832,"longitude":-87.62318,"reserved":0,"last_update":"0001-01-01T00:00:00Z","name_a2s":"Uncletopia | Chicago | 8 | Community","protocol":17,"map":"pl_pier","folder":"tf","game":"Team Fortress","app_id":440,"player_count":0,"max_players":24,"Bots":0,"server_type":"Dedicated","server_os":"Linux","password":true,"vac":true,"version":"7961495","steam_id":85568392924866365,"keywords":["nocrits","nodmgspread","payload","uncletopia"],"game_id":440,"stv_port":27046,"stv_name":"Uncletopia | Chicago | 8 | Community | STV","players":null},{"server_id":8,"name":"Uncletopia | Dallas | 1 | All Maps","name_short":"dal-1","host":"dal-1.us.uncletopia.com","port":27015,"enabled":true,"region":"us-central","cc":"us","latitude":32.779167,"longitude":-96.80889,"reserved":0,"last_update":"0001-01-01T00:00:00Z","name_a2s":"Uncletopia | Dallas | 1 | All Maps","protocol":17,"map":"pl_frontier_final","folder":"tf","game":"Team Fortress","app_id":440,"player_count":24,"max_players":24,"Bots":0,"server_type":"Dedicated","server_os":"Linux","password":true,"vac":true,"version":"7961495","steam_id":85568392924469986,"keywords":["nocrits","nodmgspread","payload","uncletopia"],"game_id":440,"stv_port":27016,"stv_name":"Uncletopia | Dallas | 1 | All Maps | STV","players":[{"user_id":11,"name":"SIMAX","steam_id":76561199243011400,"connected_time":6036000000000,"state":"active","ping":71},{"user_id":75,"name":"Prsm","steam_id":76561198053344995,"connected_time":833000000000,"state":"active","ping":75},{"user_id":66,"name":"Sizenberg","steam_id":76561198115842661,"connected_time":1055000000000,"state":"active","ping":93},{"user_id":18,"name":"Satori Komeiji","steam_id":76561198158211423,"connected_time":4365000000000,"state":"active","ping":83},{"user_id":67,"name":"t**** beheader","steam_id":76561199395351700,"connected_time":1053000000000,"state":"active","ping":72},{"user_id":47,"name":"Huloon","steam_id":76561198070837568,"connected_time":2804000000000,"state":"active","ping":70},{"user_id":82,"name":"SuperColie","steam_id":76561198438503152,"connected_time":293000000000,"state":"active","ping":76},{"user_id":70,"name":"john morant","steam_id":76561198133102865,"connected_time":1006000000000,"state":"active","ping":55},{"user_id":68,"name":"SHADOW","steam_id":76561198207768148,"connected_time":1053000000000,"state":"active","ping":96},{"user_id":31,"name":"Leftover Soup","steam_id":76561198112816872,"connected_time":3810000000000,"state":"active","ping":113},{"user_id":77,"name":"Beantama","steam_id":76561198986811476,"connected_time":761000000000,"state":"active","ping":68},{"user_id":63,"name":"BoxOfStaples","steam_id":76561198834773017,"connected_time":1860000000000,"state":"active","ping":85},{"user_id":71,"name":"Sunbather","steam_id":76561197967230865,"connected_time":967000000000,"state":"active","ping":56},{"user_id":50,"name":"Pulga Pelada","steam_id":76561198147163134,"connected_time":2693000000000,"state":"active","ping":197},{"user_id":41,"name":"the munch","steam_id":76561199164347838,"connected_time":3125000000000,"state":"active","ping":69},{"user_id":72,"name":"Surly Joe","steam_id":76561199150833796,"connected_time":962000000000,"state":"active","ping":94},{"user_id":61,"name":"Greasy Guavas","steam_id":76561198089650428,"connected_time":2148000000000,"state":"active","ping":66},{"user_id":73,"name":"Shooter of Walls","steam_id":76561197988105207,"connected_time":927000000000,"state":"active","ping":82},{"user_id":83,"name":"Jetstream Sam","steam_id":76561198842076296,"connected_time":169000000000,"state":"active","ping":48},{"user_id":79,"name":"VaL-ASROC","steam_id":76561198886493635,"connected_time":604000000000,"state":"active","ping":74},{"user_id":55,"name":"MerkyWaters","steam_id":76561197998853063,"connected_time":2516000000000,"state":"active","ping":86},{"user_id":56,"name":"Rob","steam_id":76561199187786660,"connected_time":2474000000000,"state":"active","ping":56},{"user_id":57,"name":"80proof","steam_id":76561198076695816,"connected_time":2463000000000,"state":"active","ping":60},{"user_id":81,"name":"Bankito","steam_id":76561198972260865,"connected_time":354000000000,"state":"active","ping":98}]},{"server_id":108,"name":"Uncletopia | Dallas | 2 | All Maps","name_short":"dal-2","host":"dal-1.us.uncletopia.com","port":27025,"enabled":true,"region":"us-central","cc":"us","latitude":32.779167,"longitude":-96.80889,"reserved":0,"last_update":"0001-01-01T00:00:00Z","name_a2s":"Uncletopia | Dallas | 2 | All Maps","protocol":17,"map":"cp_dustbowl","folder":"tf","game":"Team Fortress","app_id":440,"player_count":0,"max_players":24,"Bots":0,"server_type":"Dedicated","server_os":"Linux","password":true,"vac":true,"version":"7961495","steam_id":85568392924469988,"keywords":["cp","nocrits","nodmgspread","uncletopia"],"game_id":440,"stv_port":27026,"stv_name":"Uncletopia | Dallas | 2 | All Maps | STV","players":null},{"server_id":404,"name":"Uncletopia | Dallas | 3 | All Maps","name_short":"dal-3","host":"dal-1.us.uncletopia.com","port":27035,"enabled":true,"region":"us-central","cc":"us","latitude":32.779167,"longitude":-96.80889,"reserved":0,"last_update":"0001-01-01T00:00:00Z","name_a2s":"Uncletopia | Dallas | 3 | All Maps","protocol":17,"map":"cp_sunshine","folder":"tf","game":"Team Fortress","app_id":440,"player_count":0,"max_players":24,"Bots":0,"server_type":"Dedicated","server_os":"Linux","password":true,"vac":true,"version":"7961495","steam_id":85568392924515219,"keywords":["cp","nocrits","nodmgspread","uncletopia"],"game_id":440,"stv_port":27036,"stv_name":"Uncletopia | Dallas | 3 | All Maps | STV","players":null},{"server_id":405,"name":"Uncletopia | Dallas | 4 | Community","name_short":"dal-4","host":"dal-1.us.uncletopia.com","port":27045,"enabled":true,"region":"us-central","cc":"us","latitude":32.779167,"longitude":-96.80889,"reserved":0,"last_update":"0001-01-01T00:00:00Z","name_a2s":"Uncletopia | Dallas | 4 | Community","protocol":17,"map":"pl_pier","folder":"tf","game":"Team Fortress","app_id":440,"player_count":0,"max_players":24,"Bots":0,"server_type":"Dedicated","server_os":"Linux","password":true,"vac":true,"version":"7961495","steam_id":85568392924515220,"keywords":["nocrits","nodmgspread","payload","uncletopia"],"game_id":440,"stv_port":27046,"stv_name":"Uncletopia | Dallas | 4 | Community | STV","players":null},{"server_id":5,"name":"Uncletopia | Frankfurt | 1 | All Maps","name_short":"frk-1","host":"frk-1.de.uncletopia.com","port":27015,"enabled":true,"region":"eu","cc":"de","latitude":50.110924,"longitude":8.682127,"reserved":0,"last_update":"0001-01-01T00:00:00Z","name_a2s":"Uncletopia | Frankfurt | 1 | All Maps","protocol":17,"map":"cp_dustbowl","folder":"tf","game":"Team Fortress","app_id":440,"player_count":24,"max_players":24,"Bots":0,"server_type":"Dedicated","server_os":"Linux","password":true,"vac":true,"version":"7961495","steam_id":85568392924469989,"keywords":["cp","nocrits","nodmgspread","uncletopia"],"game_id":440,"stv_port":27016,"stv_name":"Uncletopia | Frankfurt | 1 | All Maps | STV","players":[{"user_id":246,"name":"kastanomata","steam_id":76561198271832763,"connected_time":946000000000,"state":"active","ping":79},{"user_id":245,"name":"josef.friztl.1934","steam_id":76561198371317553,"connected_time":964000000000,"state":"active","ping":92},{"user_id":222,"name":"anderGL7","steam_id":76561198042529664,"connected_time":1835000000000,"state":"active","ping":85},{"user_id":223,"name":"8 Ball","steam_id":76561197960988736,"connected_time":1829000000000,"state":"active","ping":61},{"user_id":238,"name":"Finem Belli","steam_id":76561198227177976,"connected_time":1404000000000,"state":"active","ping":46},{"user_id":247,"name":"Dingerfish","steam_id":76561199075378341,"connected_time":942000000000,"state":"active","ping":105},{"user_id":252,"name":"Dukebox","steam_id":76561197977447291,"connected_time":616000000000,"state":"active","ping":73},{"user_id":207,"name":"Naty","steam_id":76561198083488307,"connected_time":3622000000000,"state":"active","ping":68},{"user_id":253,"name":"Swani","steam_id":76561197984253846,"connected_time":256000000000,"state":"active","ping":93},{"user_id":208,"name":"Kyps","steam_id":76561198314814392,"connected_time":3617000000000,"state":"active","ping":48},{"user_id":174,"name":"neJ","steam_id":76561198003397488,"connected_time":5366000000000,"state":"active","ping":67},{"user_id":201,"name":"TheShadowScribe","steam_id":76561199037525945,"connected_time":3890000000000,"state":"active","ping":88},{"user_id":242,"name":"Zazou","steam_id":76561198028076362,"connected_time":981000000000,"state":"active","ping":56},{"user_id":240,"name":"Mia_","steam_id":76561198042757059,"connected_time":1292000000000,"state":"active","ping":58},{"user_id":74,"name":"endlesshills","steam_id":76561198081908373,"connected_time":12070000000000,"state":"active","ping":57},{"user_id":218,"name":"guru{Hari}","steam_id":76561197997001681,"connected_time":3444000000000,"state":"active","ping":65},{"user_id":186,"name":"Silverbolt","steam_id":76561198153165763,"connected_time":4761000000000,"state":"active","ping":65},{"user_id":243,"name":"LordTrap.exe","steam_id":76561198318089716,"connected_time":978000000000,"state":"active","ping":72},{"user_id":244,"name":"rets_","steam_id":76561198061551392,"connected_time":971000000000,"state":"active","ping":52},{"user_id":229,"name":"Serton♝","steam_id":76561198011061126,"connected_time":1731000000000,"state":"active","ping":85},{"user_id":251,"name":"Morpheus","steam_id":76561198984889776,"connected_time":828000000000,"state":"active","ping":71},{"user_id":241,"name":"Homosapien","steam_id":76561197972035953,"connected_time":1156000000000,"state":"active","ping":59},{"user_id":249,"name":"KYOTOTOKYO","steam_id":76561198013066317,"connected_time":924000000000,"state":"active","ping":67},{"user_id":233,"name":"Elsuedi","steam_id":76561198074722832,"connected_time":1720000000000,"state":"active","ping":56}]},{"server_id":110,"name":"Uncletopia | Frankfurt | 2 | All Maps","name_short":"frk-2","host":"frk-1.de.uncletopia.com","port":27025,"enabled":true,"region":"eu","cc":"de","latitude":50.110924,"longitude":8.682127,"reserved":0,"last_update":"0001-01-01T00:00:00Z","name_a2s":"Uncletopia | Frankfurt | 2 | All Maps","protocol":17,"map":"cp_snakewater_final1","folder":"tf","game":"Team Fortress","app_id":440,"player_count":24,"max_players":24,"Bots":0,"server_type":"Dedicated","server_os":"Linux","password":true,"vac":true,"version":"7961495","steam_id":85568392924469990,"keywords":["cp","nocrits","nodmgspread","uncletopia"],"game_id":440,"stv_port":27026,"stv_name":"Uncletopia | Frankfurt | 2 | All Maps | STV","players":[{"user_id":407,"name":"Captain Puddleboat","steam_id":76561198053913970,"connected_time":957000000000,"state":"active","ping":60},{"user_id":415,"name":"Rock..","steam_id":76561198004641963,"connected_time":567000000000,"state":"active","ping":87},{"user_id":404,"name":"we do a little trolling","steam_id":76561198980165139,"connected_time":1393000000000,"state":"active","ping":51},{"user_id":409,"name":"Abska","steam_id":76561198118323803,"connected_time":657000000000,"state":"active","ping":107},{"user_id":426,"name":"Polarite","steam_id":76561198100123498,"connected_time":53000000000,"state":"active","ping":90},{"user_id":336,"name":"iShockwave","steam_id":76561198404037424,"connected_time":5101000000000,"state":"active","ping":95},{"user_id":401,"name":"PanPatrik","steam_id":76561198293331527,"connected_time":1546000000000,"state":"active","ping":59},{"user_id":425,"name":"Escobar","steam_id":76561198089785078,"connected_time":105000000000,"state":"active","ping":118},{"user_id":410,"name":"Aeinzalot","steam_id":76561198195288449,"connected_time":654000000000,"state":"active","ping":61},{"user_id":416,"name":"Klikkxy","steam_id":76561199319171770,"connected_time":559000000000,"state":"active","ping":79},{"user_id":417,"name":"Fedmedio","steam_id":76561198128565110,"connected_time":545000000000,"state":"active","ping":61},{"user_id":353,"name":"hisham","steam_id":76561198414437290,"connected_time":4168000000000,"state":"active","ping":101},{"user_id":402,"name":"Dakeyras","steam_id":76561198057069564,"connected_time":1498000000000,"state":"active","ping":105},{"user_id":406,"name":"void","steam_id":76561198035831433,"connected_time":1188000000000,"state":"active","ping":71},{"user_id":357,"name":"Arsonist","steam_id":76561199087953833,"connected_time":3928000000000,"state":"active","ping":105},{"user_id":424,"name":"herrero_m_TF2EASY.COM","steam_id":76561199111992814,"connected_time":165000000000,"state":"active","ping":94},{"user_id":403,"name":"Cap","steam_id":76561198258586329,"connected_time":1496000000000,"state":"active","ping":70},{"user_id":398,"name":"LiptonIceTea","steam_id":76561198042418582,"connected_time":1887000000000,"state":"active","ping":84},{"user_id":419,"name":"marrutkis","steam_id":76561199226525404,"connected_time":528000000000,"state":"active","ping":87},{"user_id":420,"name":"grahn","steam_id":76561197965784238,"connected_time":521000000000,"state":"active","ping":60},{"user_id":427,"name":"ayu","steam_id":76561198871342329,"connected_time":49000000000,"state":"active","ping":199},{"user_id":374,"name":"Klifton","steam_id":76561198803743443,"connected_time":3186000000000,"state":"active","ping":74},{"user_id":422,"name":"Through Unity, Devastation","steam_id":76561198095448325,"connected_time":513000000000,"state":"active","ping":100},{"user_id":423,"name":"cof","steam_id":76561199128417805,"connected_time":501000000000,"state":"active","ping":68}]},{"server_id":308,"name":"Uncletopia | Frankfurt | 3 | All Maps","name_short":"frk-3","host":"frk-1.de.uncletopia.com","port":27035,"enabled":true,"region":"eu","cc":"de","latitude":50.110924,"longitude":8.682127,"reserved":0,"last_update":"0001-01-01T00:00:00Z","name_a2s":"Uncletopia | Frankfurt | 3 | All Maps","protocol":17,"map":"pl_badwater","folder":"tf","game":"Team Fortress","app_id":440,"player_count":24,"max_players":24,"Bots":0,"server_type":"Dedicated","server_os":"Linux","password":true,"vac":true,"version":"7961495","steam_id":85568392924504274,"keywords":["nocrits","nodmgspread","payload","uncletopia"],"game_id":440,"stv_port":27036,"stv_name":"Uncletopia | Frankfurt | 3 | All Maps | STV","players":[{"user_id":415,"name":"cecko","steam_id":76561198798721254,"connected_time":2495000000000,"state":"active","ping":72},{"user_id":453,"name":"Kanny","steam_id":76561198058810184,"connected_time":883000000000,"state":"active","ping":59},{"user_id":451,"name":"goblin","steam_id":76561198170334258,"connected_time":1013000000000,"state":"active","ping":88},{"user_id":446,"name":"Real (Real)","steam_id":76561198323425034,"connected_time":1345000000000,"state":"active","ping":63},{"user_id":430,"name":"jacio","steam_id":76561199491964000,"connected_time":1994000000000,"state":"active","ping":64},{"user_id":428,"name":"Ghost11","steam_id":76561198068892992,"connected_time":2109000000000,"state":"active","ping":109},{"user_id":419,"name":"ladies fear me","steam_id":76561199145943588,"connected_time":2330000000000,"state":"active","ping":66},{"user_id":420,"name":"Serg","steam_id":76561198218959001,"connected_time":2329000000000,"state":"active","ping":67},{"user_id":254,"name":"aisu","steam_id":76561198043768507,"connected_time":10855000000000,"state":"active","ping":179},{"user_id":421,"name":"Greem","steam_id":76561198241711724,"connected_time":2320000000000,"state":"active","ping":85},{"user_id":454,"name":"KFD","steam_id":76561198157183003,"connected_time":207000000000,"state":"active","ping":77},{"user_id":437,"name":"Dr.Blushi","steam_id":76561198043829926,"connected_time":1705000000000,"state":"active","ping":129},{"user_id":455,"name":"Pyrolander","steam_id":76561198050785450,"connected_time":81000000000,"state":"active","ping":48},{"user_id":452,"name":"mingsh'allah","steam_id":76561198254011269,"connected_time":925000000000,"state":"active","ping":90},{"user_id":441,"name":"Jimmy","steam_id":76561198133680783,"connected_time":1685000000000,"state":"active","ping":62},{"user_id":358,"name":"Jotman","steam_id":76561198302202478,"connected_time":6013000000000,"state":"active","ping":77},{"user_id":447,"name":"Urfangonultasadana","steam_id":76561199389286151,"connected_time":1273000000000,"state":"active","ping":102},{"user_id":406,"name":"SlaaneshBish","steam_id":76561198323219832,"connected_time":3166000000000,"state":"active","ping":178},{"user_id":423,"name":"джегеми хэпкингс","steam_id":76561198131531394,"connected_time":2287000000000,"state":"active","ping":89},{"user_id":442,"name":"Alter","steam_id":76561199135934698,"connected_time":1679000000000,"state":"active","ping":82},{"user_id":435,"name":"Spobs","steam_id":76561198090362809,"connected_time":1807000000000,"state":"active","ping":93},{"user_id":440,"name":"༼ ຈل͜ຈ༽","steam_id":76561198027166144,"connected_time":1701000000000,"state":"active","ping":80},{"user_id":361,"name":"Jeffrey Harpen","steam_id":76561199073314677,"connected_time":5995000000000,"state":"active","ping":72},{"user_id":429,"name":"Favi","steam_id":76561198013236935,"connected_time":2081000000000,"state":"active","ping":77}]},{"server_id":309,"name":"Uncletopia | Frankfurt | 4 | All Maps","name_short":"frk-4","host":"frk-1.de.uncletopia.com","port":27045,"enabled":true,"region":"eu","cc":"de","latitude":50.110924,"longitude":8.682127,"reserved":0,"last_update":"0001-01-01T00:00:00Z","name_a2s":"Uncletopia | Frankfurt | 4 | All Maps","protocol":17,"map":"cp_5gorge","folder":"tf","game":"Team Fortress","app_id":440,"player_count":24,"max_players":24,"Bots":0,"server_type":"Dedicated","server_os":"Linux","password":true,"vac":true,"version":"7961495","steam_id":85568392924504275,"keywords":["cp","nocrits","nodmgspread","uncletopia"],"game_id":440,"stv_port":27046,"stv_name":"Uncletopia | Frankfurt | 4 | All Maps | STV","players":[{"user_id":231,"name":"ouchie wouchies","steam_id":76561198105443986,"connected_time":603000000000,"state":"active","ping":79},{"user_id":233,"name":"Vischan but worse","steam_id":76561199371650805,"connected_time":177000000000,"state":"active","ping":86},{"user_id":225,"name":"Toasty5050","steam_id":76561198073540881,"connected_time":1320000000000,"state":"active","ping":44},{"user_id":234,"name":"Spinya","steam_id":76561198086653667,"connected_time":167000000000,"state":"active","ping":63},{"user_id":245,"name":"Colonel Dimanche","steam_id":76561197994792632,"connected_time":21000000000,"state":"spawning","ping":45},{"user_id":174,"name":"Lil Dicky","steam_id":76561198272586131,"connected_time":3517000000000,"state":"active","ping":80},{"user_id":232,"name":"D4ny0","steam_id":76561198035279148,"connected_time":581000000000,"state":"active","ping":54},{"user_id":209,"name":"BoJack","steam_id":76561199021228675,"connected_time":2176000000000,"state":"active","ping":75},{"user_id":240,"name":"Erty_Panker","steam_id":76561199387985706,"connected_time":69000000000,"state":"active","ping":103},{"user_id":235,"name":"Arnas445","steam_id":76561198148377210,"connected_time":158000000000,"state":"active","ping":75},{"user_id":175,"name":"Mr. Drive","steam_id":76561198100143769,"connected_time":3506000000000,"state":"active","ping":73},{"user_id":236,"name":"DudeoftheRock","steam_id":76561198059401865,"connected_time":141000000000,"state":"active","ping":71},{"user_id":186,"name":"Weezbeck","steam_id":76561198163487467,"connected_time":3254000000000,"state":"active","ping":85},{"user_id":207,"name":"Kali","steam_id":76561198796327257,"connected_time":2235000000000,"state":"active","ping":56},{"user_id":228,"name":"FISHTANK.LIVE__________________","steam_id":76561199293036742,"connected_time":1078000000000,"state":"active","ping":50},{"user_id":241,"name":"Shadow_kick","steam_id":76561198188851373,"connected_time":51000000000,"state":"active","ping":71},{"user_id":192,"name":"NESS","steam_id":76561197995225318,"connected_time":3170000000000,"state":"active","ping":58},{"user_id":230,"name":"Maru","steam_id":76561198030931030,"connected_time":646000000000,"state":"active","ping":66},{"user_id":213,"name":"Jessen2002","steam_id":76561198119503211,"connected_time":2142000000000,"state":"active","ping":55},{"user_id":243,"name":"joseph_biden_1942","steam_id":76561199415989636,"connected_time":41000000000,"state":"active","ping":97},{"user_id":238,"name":"Proofmean","steam_id":76561198878552103,"connected_time":130000000000,"state":"active","ping":60},{"user_id":215,"name":"oskaroku00","steam_id":76561199025360128,"connected_time":2103000000000,"state":"active","ping":74},{"user_id":190,"name":"Fatmagic Mukbang ASMR","steam_id":76561198063492110,"connected_time":3206000000000,"state":"active","ping":86},{"user_id":205,"name":"Sex Man TF2","steam_id":76561198798657045,"connected_time":2392000000000,"state":"active","ping":61}]},{"server_id":310,"name":"Uncletopia | Frankfurt | 5 | All Maps","name_short":"frk-5","host":"frk-1.de.uncletopia.com","port":27055,"enabled":true,"region":"eu","cc":"de","latitude":50.110924,"longitude":8.682127,"reserved":0,"last_update":"0001-01-01T00:00:00Z","name_a2s":"Uncletopia | Frankfurt | 5 | All Maps","protocol":17,"map":"pl_barnblitz","folder":"tf","game":"Team Fortress","app_id":440,"player_count":24,"max_players":24,"Bots":0,"server_type":"Dedicated","server_os":"Linux","password":true,"vac":true,"version":"7961495","steam_id":85568392924504277,"keywords":["nocrits","nodmgspread","payload","uncletopia"],"game_id":440,"stv_port":27056,"stv_name":"Uncletopia | Frankfurt | 5 | All Maps | STV","players":[{"user_id":483,"name":"Lord Philip","steam_id":76561198277097779,"connected_time":375000000000,"state":"active","ping":73},{"user_id":481,"name":"SaltyCupcakes","steam_id":76561198256386417,"connected_time":557000000000,"state":"active","ping":53},{"user_id":473,"name":"Hexagon","steam_id":76561198151205758,"connected_time":934000000000,"state":"active","ping":48},{"user_id":464,"name":"unlikely doe","steam_id":76561198194310655,"connected_time":1444000000000,"state":"active","ping":46},{"user_id":446,"name":"Gustinators","steam_id":76561198828274778,"connected_time":2035000000000,"state":"active","ping":59},{"user_id":474,"name":"Volxium ore","steam_id":76561198872222015,"connected_time":914000000000,"state":"active","ping":64},{"user_id":449,"name":"CH4","steam_id":76561198925658024,"connected_time":1957000000000,"state":"active","ping":69},{"user_id":459,"name":"Charged","steam_id":76561199127215130,"connected_time":1693000000000,"state":"active","ping":97},{"user_id":484,"name":"dsky","steam_id":76561198044839079,"connected_time":374000000000,"state":"active","ping":63},{"user_id":433,"name":"-RRAZALAS","steam_id":76561198043604364,"connected_time":3217000000000,"state":"active","ping":59},{"user_id":470,"name":"Erection Man","steam_id":76561198021714542,"connected_time":1001000000000,"state":"active","ping":60},{"user_id":451,"name":"releng0","steam_id":76561198120708390,"connected_time":1945000000000,"state":"active","ping":83},{"user_id":467,"name":"Ry4saur","steam_id":76561199501574261,"connected_time":1207000000000,"state":"active","ping":74},{"user_id":487,"name":"Bob Sacamano","steam_id":76561198085610701,"connected_time":341000000000,"state":"active","ping":86},{"user_id":471,"name":"The One (and only)","steam_id":76561198827193499,"connected_time":993000000000,"state":"active","ping":62},{"user_id":486,"name":"SciFurLycan","steam_id":76561198809333252,"connected_time":366000000000,"state":"active","ping":143},{"user_id":404,"name":"Righty","steam_id":76561199224705434,"connected_time":4514000000000,"state":"active","ping":117},{"user_id":485,"name":"Memper","steam_id":76561198066700614,"connected_time":369000000000,"state":"active","ping":76},{"user_id":479,"name":"Mr. Mundy","steam_id":76561198132008918,"connected_time":650000000000,"state":"active","ping":79},{"user_id":477,"name":"mage","steam_id":76561198049639319,"connected_time":910000000000,"state":"active","ping":69},{"user_id":434,"name":"KUMI","steam_id":76561198089207719,"connected_time":3194000000000,"state":"active","ping":81},{"user_id":453,"name":"Dirocks","steam_id":76561198138494815,"connected_time":1910000000000,"state":"active","ping":75},{"user_id":457,"name":"Happy Broccol","steam_id":76561198180667795,"connected_time":1813000000000,"state":"active","ping":72},{"user_id":478,"name":"Sarinosas","steam_id":76561198402688198,"connected_time":900000000000,"state":"active","ping":83}]},{"server_id":311,"name":"Uncletopia | Frankfurt | 6 | All Maps","name_short":"frk-6","host":"frk-1.de.uncletopia.com","port":27065,"enabled":true,"region":"eu","cc":"de","latitude":50.110924,"longitude":8.682127,"reserved":0,"last_update":"0001-01-01T00:00:00Z","name_a2s":"Uncletopia | Frankfurt | 6 | All Maps","protocol":17,"map":"pl_frontier_final","folder":"tf","game":"Team Fortress","app_id":440,"player_count":24,"max_players":24,"Bots":0,"server_type":"Dedicated","server_os":"Linux","password":true,"vac":true,"version":"7961495","steam_id":85568392924504278,"keywords":["nocrits","nodmgspread","payload","uncletopia"],"game_id":440,"stv_port":27066,"stv_name":"Uncletopia | Frankfurt | 6 | All Maps | STV","players":[{"user_id":492,"name":"FPFP","steam_id":76561198026073059,"connected_time":106000000000,"state":"active","ping":78},{"user_id":482,"name":"Cypher","steam_id":76561197996967254,"connected_time":1212000000000,"state":"active","ping":60},{"user_id":455,"name":"DA O","steam_id":76561199054036276,"connected_time":2414000000000,"state":"active","ping":62},{"user_id":493,"name":"yardy","steam_id":76561198079410772,"connected_time":104000000000,"state":"active","ping":84},{"user_id":478,"name":"flowerknight","steam_id":76561198301234180,"connected_time":1662000000000,"state":"active","ping":64},{"user_id":483,"name":"Lassie","steam_id":76561198131924713,"connected_time":1204000000000,"state":"active","ping":55},{"user_id":434,"name":"mossad sponsored intel backdoor","steam_id":76561198071882999,"connected_time":3325000000000,"state":"active","ping":94},{"user_id":491,"name":"MC DONALDS CHOOCHIE","steam_id":76561199012155377,"connected_time":177000000000,"state":"active","ping":45},{"user_id":494,"name":"zeppa114","steam_id":76561198065192734,"connected_time":90000000000,"state":"active","ping":59},{"user_id":488,"name":"_Shkoot","steam_id":76561198318170398,"connected_time":900000000000,"state":"active","ping":51},{"user_id":454,"name":"Beta Fish","steam_id":76561198073504861,"connected_time":2446000000000,"state":"active","ping":150},{"user_id":481,"name":"JujuBalu","steam_id":76561198207253071,"connected_time":1246000000000,"state":"active","ping":42},{"user_id":490,"name":"Vyrac","steam_id":76561198135931968,"connected_time":398000000000,"state":"active","ping":60},{"user_id":450,"name":"soder.","steam_id":76561199294336405,"connected_time":2620000000000,"state":"active","ping":71},{"user_id":489,"name":"Doctor Mobius","steam_id":76561197971281806,"connected_time":623000000000,"state":"active","ping":58},{"user_id":423,"name":"CumbustiblePunda","steam_id":76561197974274677,"connected_time":4487000000000,"state":"active","ping":45},{"user_id":485,"name":"dawg","steam_id":76561198848936142,"connected_time":1199000000000,"state":"active","ping":60},{"user_id":479,"name":"jovi_","steam_id":76561198449280552,"connected_time":1614000000000,"state":"active","ping":60},{"user_id":401,"name":"will toledo","steam_id":76561198111134021,"connected_time":6570000000000,"state":"active","ping":81},{"user_id":480,"name":"Rakiru","steam_id":76561198334097259,"connected_time":1586000000000,"state":"active","ping":101},{"user_id":438,"name":"Puro ♥","steam_id":76561198039016765,"connected_time":3178000000000,"state":"active","ping":82},{"user_id":447,"name":"Sir.JJ","steam_id":76561198020681204,"connected_time":2682000000000,"state":"active","ping":60},{"user_id":468,"name":"N1xD4","steam_id":76561199047686063,"connected_time":2185000000000,"state":"active","ping":65},{"user_id":484,"name":"Soverney","steam_id":76561197997961169,"connected_time":1200000000000,"state":"active","ping":103}]},{"server_id":23,"name":"Uncletopia | Frankfurt | 7 | Stopwatch","name_short":"frk-7","host":"frk-1.de.uncletopia.com","port":27075,"enabled":true,"region":"eu","cc":"de","latitude":50.110924,"longitude":8.682127,"reserved":0,"last_update":"0001-01-01T00:00:00Z","name_a2s":"Uncletopia | Frankfurt | 7 | Stopwatch","protocol":17,"map":"cp_sunshine","folder":"tf","game":"Team Fortress","app_id":440,"player_count":24,"max_players":24,"Bots":0,"server_type":"Dedicated","server_os":"Linux","password":true,"vac":true,"version":"7961495","steam_id":85568392924742827,"keywords":["cp","nocrits","nodmgspread","uncletopia"],"game_id":440,"stv_port":27076,"stv_name":"Uncletopia | Frankfurt | 7 | Stopwatch | STV","players":[{"user_id":35,"name":"Quartzy","steam_id":76561198313301520,"connected_time":1709000000000,"state":"active","ping":52},{"user_id":27,"name":"Mabert","steam_id":76561198436058407,"connected_time":3715000000000,"state":"active","ping":64},{"user_id":36,"name":"ashi","steam_id":76561198424646794,"connected_time":1357000000000,"state":"active","ping":102},{"user_id":40,"name":"Jizz Cumlay","steam_id":76561198145601800,"connected_time":1028000000000,"state":"active","ping":72},{"user_id":16,"name":"LeDrop James","steam_id":76561198074706076,"connected_time":7201000000000,"state":"active","ping":75},{"user_id":44,"name":"Frenchineer","steam_id":76561198353956500,"connected_time":827000000000,"state":"active","ping":104},{"user_id":65,"name":"TJ1212","steam_id":76561199013575313,"connected_time":205000000000,"state":"active","ping":63},{"user_id":69,"name":"mt","steam_id":76561197961319303,"connected_time":95000000000,"state":"active","ping":45},{"user_id":45,"name":"kornetov.vitalya","steam_id":76561199286034833,"connected_time":814000000000,"state":"active","ping":89},{"user_id":46,"name":"asdf","steam_id":76561199112671611,"connected_time":811000000000,"state":"active","ping":139},{"user_id":47,"name":"ow","steam_id":76561198121589024,"connected_time":764000000000,"state":"active","ping":72},{"user_id":70,"name":"Slimeby","steam_id":76561198353438688,"connected_time":37000000000,"state":"active","ping":71},{"user_id":53,"name":"Soldier_on_record_(F2P)","steam_id":76561199262720486,"connected_time":510000000000,"state":"active","ping":72},{"user_id":54,"name":"Bobirulez","steam_id":76561198009125458,"connected_time":489000000000,"state":"active","ping":75},{"user_id":55,"name":"Rachugh","steam_id":76561199235852578,"connected_time":488000000000,"state":"active","ping":177},{"user_id":68,"name":"ULTRAGURKATTV","steam_id":76561198113657772,"connected_time":136000000000,"state":"active","ping":73},{"user_id":72,"name":"shotgun sam","steam_id":76561199160884713,"connected_time":9000000000,"state":"active","ping":234},{"user_id":60,"name":"tf2 is immortal!!!!","steam_id":76561199478151089,"connected_time":270000000000,"state":"active","ping":129},{"user_id":61,"name":"Diva of Despair","steam_id":76561198064490192,"connected_time":250000000000,"state":"active","ping":45},{"user_id":62,"name":"Richard_HUN","steam_id":76561198299050967,"connected_time":248000000000,"state":"active","ping":92},{"user_id":63,"name":"demps","steam_id":76561198049405872,"connected_time":228000000000,"state":"active","ping":44},{"user_id":64,"name":"hbivnm","steam_id":76561197996468677,"connected_time":219000000000,"state":"active","ping":60},{"user_id":66,"name":"Zsamo95","steam_id":76561198974092363,"connected_time":145000000000,"state":"active","ping":94},{"user_id":67,"name":"aja","steam_id":76561198972253395,"connected_time":145000000000,"state":"active","ping":64}]},{"server_id":24,"name":"Uncletopia | Frankfurt | 8 | Community","name_short":"frk-8","host":"frk-1.de.uncletopia.com","port":27085,"enabled":true,"region":"eu","cc":"de","latitude":50.110924,"longitude":8.682127,"reserved":0,"last_update":"0001-01-01T00:00:00Z","name_a2s":"Uncletopia | Frankfurt | 8 | Community","protocol":17,"map":"workshop/pl_boundary_final1.ugc456799153","folder":"tf","game":"Team Fortress","app_id":440,"player_count":0,"max_players":24,"Bots":0,"server_type":"Dedicated","server_os":"Linux","password":true,"vac":true,"version":"7961495","steam_id":85568392924742828,"keywords":["nocrits","nodmgspread","payload","uncletopia"],"game_id":440,"stv_port":27086,"stv_name":"Uncletopia | Frankfurt | 8 | Community | STV","players":null},{"server_id":202,"name":"Uncletopia | Hong Kong | 1 | All Maps","name_short":"hgk-1","host":"hgk-1.hk.uncletopia.com","port":27015,"enabled":true,"region":"asia","cc":"hk","latitude":22.302711,"longitude":114.177216,"reserved":0,"last_update":"0001-01-01T00:00:00Z","name_a2s":"Uncletopia | Hong Kong | 1 | All Maps","protocol":17,"map":"koth_viaduct","folder":"tf","game":"Team Fortress","app_id":440,"player_count":0,"max_players":24,"Bots":0,"server_type":"Dedicated","server_os":"Linux","password":true,"vac":true,"version":"7961495","steam_id":85568392924494504,"keywords":["cp","nocrits","nodmgspread","uncletopia"],"game_id":440,"stv_port":27016,"stv_name":"Uncletopia | Hong Kong | 1 | All Maps | STV","players":null},{"server_id":1,"name":"Uncletopia | Los Angeles | 1 | All Maps","name_short":"lax-1","host":"lax-1.us.uncletopia.com","port":27015,"enabled":true,"region":"us-west","cc":"us","latitude":33.94279,"longitude":-118.41004,"reserved":0,"last_update":"0001-01-01T00:00:00Z","name_a2s":"Uncletopia | Los Angeles | 1 | All Maps","protocol":17,"map":"pl_snowycoast","folder":"tf","game":"Team Fortress","app_id":440,"player_count":0,"max_players":24,"Bots":0,"server_type":"Dedicated","server_os":"Linux","password":true,"vac":true,"version":"7961495","steam_id":85568392924469991,"keywords":["nocrits","nodmgspread","payload","uncletopia"],"game_id":440,"stv_port":27016,"stv_name":"Uncletopia | Los Angeles | 1 | All Maps | STV","players":null},{"server_id":112,"name":"Uncletopia | Los Angeles | 2 | All Maps","name_short":"lax-2","host":"lax-1.us.uncletopia.com","port":27025,"enabled":true,"region":"us-west","cc":"us","latitude":33.94279,"longitude":-118.41004,"reserved":0,"last_update":"0001-01-01T00:00:00Z","name_a2s":"Uncletopia | Los Angeles | 2 | All Maps","protocol":17,"map":"cp_altitude","folder":"tf","game":"Team Fortress","app_id":440,"player_count":0,"max_players":24,"Bots":0,"server_type":"Dedicated","server_os":"Linux","password":true,"vac":true,"version":"7961495","steam_id":85568392924469992,"keywords":["cp","nocrits","nodmgspread","uncletopia"],"game_id":440,"stv_port":27026,"stv_name":"Uncletopia | Los Angeles | 2 | All Maps | STV","players":null},{"server_id":324,"name":"Uncletopia | Los Angeles | 3 | All Maps","name_short":"lax-3","host":"lax-1.us.uncletopia.com","port":27035,"enabled":true,"region":"us-west","cc":"us","latitude":33.94279,"longitude":-118.41004,"reserved":0,"last_update":"0001-01-01T00:00:00Z","name_a2s":"Uncletopia | Los Angeles | 3 | All Maps","protocol":17,"map":"pl_frontier_final","folder":"tf","game":"Team Fortress","app_id":440,"player_count":0,"max_players":24,"Bots":0,"server_type":"Dedicated","server_os":"Linux","password":true,"vac":true,"version":"7961495","steam_id":85568392924510198,"keywords":["nocrits","nodmgspread","payload","uncletopia"],"game_id":440,"stv_port":27036,"stv_name":"Uncletopia | Los Angeles | 3 | All Maps | STV","players":null},{"server_id":25,"name":"Uncletopia | Los Angeles | 4 | Stopwatch","name_short":"lax-4","host":"lax-1.us.uncletopia.com","port":27045,"enabled":true,"region":"us-west","cc":"us","latitude":33.94279,"longitude":-118.41004,"reserved":0,"last_update":"0001-01-01T00:00:00Z","name_a2s":"Uncletopia | Los Angeles | 4 | Stopwatch","protocol":17,"map":"pl_barnblitz","folder":"tf","game":"Team Fortress","app_id":440,"player_count":0,"max_players":24,"Bots":0,"server_type":"Dedicated","server_os":"Linux","password":true,"vac":true,"version":"7961495","steam_id":85568392924510199,"keywords":["nocrits","nodmgspread","payload","uncletopia"],"game_id":440,"stv_port":27046,"stv_name":"Uncletopia | Los Angeles | 4 | Stopwatch | STV","players":null},{"server_id":11,"name":"Uncletopia | London | 1 | All Maps","name_short":"lon-1","host":"lon-1.uk.uncletopia.com","port":27015,"enabled":true,"region":"eu","cc":"gb","latitude":51.509865,"longitude":-0.118092,"reserved":0,"last_update":"0001-01-01T00:00:00Z","name_a2s":"Uncletopia | London | 1 | All Maps","protocol":17,"map":"pl_pier","folder":"tf","game":"Team Fortress","app_id":440,"player_count":24,"max_players":24,"Bots":0,"server_type":"Dedicated","server_os":"Linux","password":true,"vac":true,"version":"7961495","steam_id":85568392924367362,"keywords":["nocrits","nodmgspread","payload","uncletopia"],"game_id":440,"stv_port":27016,"stv_name":"Uncletopia | London | 1 | All Maps | STV","players":[{"user_id":631,"name":"Oldworldjazz","steam_id":76561198184632645,"connected_time":2222000000000,"state":"active","ping":101},{"user_id":628,"name":"Mono","steam_id":76561198114569493,"connected_time":2319000000000,"state":"active","ping":43},{"user_id":644,"name":"s a i","steam_id":76561197970379754,"connected_time":1071000000000,"state":"active","ping":61},{"user_id":638,"name":"Star Throne","steam_id":76561198132171027,"connected_time":1436000000000,"state":"active","ping":52},{"user_id":539,"name":"Finkaksu Devourer of Sour Candy","steam_id":76561198201389163,"connected_time":10190000000000,"state":"active","ping":71},{"user_id":646,"name":"Leif G.W.","steam_id":76561198366709899,"connected_time":1062000000000,"state":"active","ping":62},{"user_id":647,"name":"Mcdonalds poop","steam_id":76561198184360615,"connected_time":1045000000000,"state":"active","ping":105},{"user_id":639,"name":"Hugh","steam_id":76561198976348754,"connected_time":1433000000000,"state":"active","ping":48},{"user_id":659,"name":"Raivop","steam_id":76561197980854307,"connected_time":272000000000,"state":"active","ping":89},{"user_id":642,"name":"Gaius","steam_id":76561198188174963,"connected_time":1090000000000,"state":"active","ping":40},{"user_id":653,"name":"Udinese Dion","steam_id":76561198067931573,"connected_time":636000000000,"state":"active","ping":59},{"user_id":595,"name":"Croy","steam_id":76561197972552579,"connected_time":5169000000000,"state":"active","ping":45},{"user_id":610,"name":"TF2_F2P","steam_id":76561199065028772,"connected_time":3571000000000,"state":"active","ping":56},{"user_id":640,"name":"Jackal","steam_id":76561197992391962,"connected_time":1189000000000,"state":"active","ping":65},{"user_id":604,"name":"Doecheldorf","steam_id":76561198291628630,"connected_time":4145000000000,"state":"active","ping":56},{"user_id":645,"name":"KnugenIV","steam_id":76561198127091993,"connected_time":1070000000000,"state":"active","ping":55},{"user_id":656,"name":"SKY_","steam_id":76561198080980508,"connected_time":549000000000,"state":"active","ping":66},{"user_id":571,"name":"Tre3","steam_id":76561198054795379,"connected_time":6879000000000,"state":"active","ping":62},{"user_id":612,"name":"most sane mentalist","steam_id":76561198310095220,"connected_time":3261000000000,"state":"active","ping":38},{"user_id":658,"name":"Supercoxylac","steam_id":76561198376300138,"connected_time":400000000000,"state":"active","ping":70},{"user_id":657,"name":"Locke","steam_id":76561198339408300,"connected_time":487000000000,"state":"active","ping":61},{"user_id":643,"name":"trite","steam_id":76561197983765323,"connected_time":1078000000000,"state":"active","ping":55},{"user_id":625,"name":"TomNoSocks","steam_id":76561198114071046,"connected_time":2385000000000,"state":"active","ping":66},{"user_id":635,"name":"gnarly business","steam_id":76561198832688767,"connected_time":1566000000000,"state":"active","ping":52}]},{"server_id":114,"name":"Uncletopia | London | 2 | All Maps","name_short":"lon-2","host":"lon-1.uk.uncletopia.com","port":27025,"enabled":true,"region":"eu","cc":"gb","latitude":51.509865,"longitude":-0.118092,"reserved":0,"last_update":"0001-01-01T00:00:00Z","name_a2s":"Uncletopia | London | 2 | All Maps","protocol":17,"map":"pl_frontier_final","folder":"tf","game":"Team Fortress","app_id":440,"player_count":0,"max_players":24,"Bots":0,"server_type":"Dedicated","server_os":"Linux","password":true,"vac":true,"version":"7961495","steam_id":85568392924470941,"keywords":["nocrits","nodmgspread","payload","uncletopia"],"game_id":440,"stv_port":27026,"stv_name":"Uncletopia | London | 2 | All Maps | STV","players":null},{"server_id":320,"name":"Uncletopia | London | 3 | All Maps","name_short":"lon-3","host":"lon-1.uk.uncletopia.com","port":27035,"enabled":true,"region":"eu","cc":"gb","latitude":51.509865,"longitude":-0.118092,"reserved":0,"last_update":"0001-01-01T00:00:00Z","name_a2s":"Uncletopia | London | 3 | All Maps","protocol":17,"map":"pl_barnblitz","folder":"tf","game":"Team Fortress","app_id":440,"player_count":24,"max_players":24,"Bots":0,"server_type":"Dedicated","server_os":"Linux","password":true,"vac":true,"version":"7961495","steam_id":85568392924510192,"keywords":["nocrits","nodmgspread","payload","uncletopia"],"game_id":440,"stv_port":27036,"stv_name":"Uncletopia | London | 3 | All Maps | STV","players":[{"user_id":147,"name":"I jazzed myself","steam_id":76561198203016603,"connected_time":583000000000,"state":"active","ping":62},{"user_id":118,"name":"2006 Mitsubishi Lancer","steam_id":76561198036632498,"connected_time":3440000000000,"state":"active","ping":36},{"user_id":119,"name":"Codex","steam_id":76561198068748584,"connected_time":3436000000000,"state":"active","ping":44},{"user_id":133,"name":"A Fool or a Clown ?","steam_id":76561198173218318,"connected_time":1648000000000,"state":"active","ping":49},{"user_id":134,"name":"Luma","steam_id":76561198298242445,"connected_time":1645000000000,"state":"active","ping":45},{"user_id":138,"name":"Gir","steam_id":76561198075155374,"connected_time":1577000000000,"state":"active","ping":40},{"user_id":120,"name":"InfiniteLoop","steam_id":76561198346583346,"connected_time":3399000000000,"state":"active","ping":57},{"user_id":152,"name":":::::......::","steam_id":76561198208328357,"connected_time":56000000000,"state":"active","ping":89},{"user_id":108,"name":"selkie","steam_id":76561198329321007,"connected_time":3914000000000,"state":"active","ping":114},{"user_id":121,"name":"TPD16","steam_id":76561198354138834,"connected_time":3396000000000,"state":"active","ping":87},{"user_id":150,"name":"The_Jaystone","steam_id":76561198126280691,"connected_time":416000000000,"state":"active","ping":37},{"user_id":64,"name":"Sore Ass","steam_id":76561199367182571,"connected_time":5513000000000,"state":"active","ping":165},{"user_id":140,"name":"rex110","steam_id":76561198159631448,"connected_time":1346000000000,"state":"active","ping":78},{"user_id":90,"name":"Islamo-gauchiste privilegié","steam_id":76561198799097492,"connected_time":4576000000000,"state":"active","ping":45},{"user_id":153,"name":"Eric Catman","steam_id":76561198802117294,"connected_time":55000000000,"state":"active","ping":69},{"user_id":145,"name":"Kuru","steam_id":76561199075584453,"connected_time":1038000000000,"state":"active","ping":117},{"user_id":142,"name":"Egor Pomidor","steam_id":76561199175688390,"connected_time":1277000000000,"state":"active","ping":86},{"user_id":98,"name":"Zonts","steam_id":76561198850176432,"connected_time":4076000000000,"state":"active","ping":89},{"user_id":109,"name":"wheelie bin","steam_id":76561198040040328,"connected_time":3898000000000,"state":"active","ping":52},{"user_id":144,"name":"Mugzero","steam_id":76561198046582314,"connected_time":1172000000000,"state":"active","ping":44},{"user_id":110,"name":"PLSNO (RYAN)","steam_id":76561198086542505,"connected_time":3879000000000,"state":"active","ping":78},{"user_id":111,"name":"ｄｅｓｋｒａｙ","steam_id":76561198805536170,"connected_time":3868000000000,"state":"active","ping":81},{"user_id":149,"name":"Skarp","steam_id":76561198034398376,"connected_time":535000000000,"state":"active","ping":60},{"user_id":83,"name":"Piikov","steam_id":76561198142941074,"connected_time":4783000000000,"state":"active","ping":75}]},{"server_id":321,"name":"Uncletopia | London | 4 | All Maps","name_short":"lon-4","host":"lon-1.uk.uncletopia.com","port":27045,"enabled":true,"region":"eu","cc":"gb","latitude":51.509865,"longitude":-0.118092,"reserved":0,"last_update":"0001-01-01T00:00:00Z","name_a2s":"Uncletopia | London | 4 | All Maps","protocol":17,"map":"pl_swiftwater_final1","folder":"tf","game":"Team Fortress","app_id":440,"player_count":24,"max_players":24,"Bots":0,"server_type":"Dedicated","server_os":"Linux","password":true,"vac":true,"version":"7961495","steam_id":85568392924510193,"keywords":["nocrits","nodmgspread","payload","uncletopia"],"game_id":440,"stv_port":27046,"stv_name":"Uncletopia | London | 4 | All Maps | STV","players":[{"user_id":94,"name":"Frank Horrigan","steam_id":76561198209184131,"connected_time":597000000000,"state":"active","ping":68},{"user_id":81,"name":"haydar198112","steam_id":76561198131197590,"connected_time":1389000000000,"state":"active","ping":137},{"user_id":82,"name":"Snaky","steam_id":76561199000954430,"connected_time":1354000000000,"state":"active","ping":102},{"user_id":60,"name":"who is spikey mike?","steam_id":76561199169534004,"connected_time":2248000000000,"state":"active","ping":45},{"user_id":22,"name":"Ixsus\u003c3","steam_id":76561198094756869,"connected_time":4425000000000,"state":"active","ping":60},{"user_id":96,"name":"3L","steam_id":76561198007208996,"connected_time":567000000000,"state":"active","ping":52},{"user_id":91,"name":"quickfast","steam_id":76561199438900919,"connected_time":1081000000000,"state":"active","ping":43},{"user_id":98,"name":"Drinking Problem","steam_id":76561198319162953,"connected_time":266000000000,"state":"active","ping":68},{"user_id":99,"name":"ratot","steam_id":76561198063132645,"connected_time":209000000000,"state":"active","ping":48},{"user_id":92,"name":"Dr Zoidcrab","steam_id":76561198023709882,"connected_time":731000000000,"state":"active","ping":43},{"user_id":34,"name":"Smoking problem","steam_id":76561198361351449,"connected_time":3083000000000,"state":"active","ping":64},{"user_id":76,"name":"CreepingDeath","steam_id":76561198056588347,"connected_time":1486000000000,"state":"active","ping":60},{"user_id":56,"name":"Caruzon - Obismal","steam_id":76561198036211170,"connected_time":2437000000000,"state":"active","ping":81},{"user_id":65,"name":"Fran","steam_id":76561199070516960,"connected_time":1882000000000,"state":"active","ping":74},{"user_id":45,"name":"Moses","steam_id":76561198257652671,"connected_time":2838000000000,"state":"active","ping":69},{"user_id":86,"name":"Scrom","steam_id":76561199042488566,"connected_time":1313000000000,"state":"active","ping":45},{"user_id":41,"name":"A Very Disappointing Salad","steam_id":76561198020277939,"connected_time":2955000000000,"state":"active","ping":52},{"user_id":57,"name":"Macci - Obismal","steam_id":76561198050485404,"connected_time":2434000000000,"state":"active","ping":75},{"user_id":43,"name":"jjkun786","steam_id":76561199438517484,"connected_time":2942000000000,"state":"active","ping":41},{"user_id":97,"name":"Solymr ibn Wali Barad","steam_id":76561198044008976,"connected_time":488000000000,"state":"active","ping":77},{"user_id":74,"name":"Altraverdo","steam_id":76561198063933880,"connected_time":1496000000000,"state":"active","ping":45},{"user_id":48,"name":"Ullr","steam_id":76561198140547483,"connected_time":2821000000000,"state":"active","ping":45},{"user_id":78,"name":"BigDikNRJ - Obismal","steam_id":76561198055309521,"connected_time":1456000000000,"state":"active","ping":69},{"user_id":80,"name":"Lux","steam_id":76561198060417740,"connected_time":1425000000000,"state":"active","ping":49}]},{"server_id":21,"name":"Uncletopia | London | 5 | All Maps","name_short":"lon-5","host":"lon-1.uk.uncletopia.com","port":27055,"enabled":true,"region":"eu","cc":"gb","latitude":51.509865,"longitude":-0.118092,"reserved":0,"last_update":"0001-01-01T00:00:00Z","name_a2s":"Uncletopia | London | 5 | All Maps","protocol":17,"map":"pl_frontier_final","folder":"tf","game":"Team Fortress","app_id":440,"player_count":5,"max_players":24,"Bots":0,"server_type":"Dedicated","server_os":"Linux","password":true,"vac":true,"version":"7961495","steam_id":85568392924742829,"keywords":["nocrits","nodmgspread","payload","uncletopia"],"game_id":440,"stv_port":27056,"stv_name":"Uncletopia | London | 5 | All Maps | STV","players":[{"user_id":25,"name":"Gul'dan","steam_id":76561198240466940,"connected_time":132000000000,"state":"active","ping":71},{"user_id":26,"name":"Maoma112","steam_id":76561199012536447,"connected_time":17000000000,"state":"spawning","ping":88},{"user_id":11,"name":"Marcelguy","steam_id":76561199178442801,"connected_time":1499000000000,"state":"active","ping":212},{"user_id":24,"name":"Rummin","steam_id":76561198064739834,"connected_time":178000000000,"state":"active","ping":57},{"user_id":19,"name":"Piesel","steam_id":76561198985453063,"connected_time":467000000000,"state":"active","ping":73}]},{"server_id":22,"name":"Uncletopia | London | 6 | All Maps","name_short":"lon-6","host":"lon-1.uk.uncletopia.com","port":27065,"enabled":true,"region":"eu","cc":"gb","latitude":51.509865,"longitude":-0.118092,"reserved":0,"last_update":"0001-01-01T00:00:00Z","name_a2s":"Uncletopia | London | 6 | All Maps","protocol":17,"map":"koth_lakeside_final","folder":"tf","game":"Team Fortress","app_id":440,"player_count":6,"max_players":24,"Bots":0,"server_type":"Dedicated","server_os":"Linux","password":true,"vac":true,"version":"7961495","steam_id":85568392924742830,"keywords":["cp","nocrits","nodmgspread","uncletopia"],"game_id":440,"stv_port":27066,"stv_name":"Uncletopia | London | 6 | All Maps | STV","players":[{"user_id":37,"name":"Dr. Le Quack","steam_id":76561197995711176,"connected_time":1000000000000,"state":"active","ping":80},{"user_id":38,"name":"Bagingi","steam_id":76561198052197810,"connected_time":747000000000,"state":"active","ping":98},{"user_id":39,"name":"EmperorHaddad","steam_id":76561198308853672,"connected_time":506000000000,"state":"active","ping":53},{"user_id":40,"name":"Rynowm","steam_id":76561198136379860,"connected_time":369000000000,"state":"active","ping":59},{"user_id":41,"name":"Rez","steam_id":76561198410598772,"connected_time":159000000000,"state":"active","ping":38},{"user_id":42,"name":"Liberos","steam_id":76561198050029082,"connected_time":88000000000,"state":"active","ping":69}]},{"server_id":40,"name":"Uncletopia | London | 7 | Stopwatch","name_short":"lon-7","host":"lon-1.uk.uncletopia.com","port":27075,"enabled":true,"region":"eu","cc":"gb","latitude":51.509865,"longitude":-0.118092,"reserved":0,"last_update":"0001-01-01T00:00:00Z","name_a2s":"Uncletopia | London | 7 | Stopwatch","protocol":17,"map":"cp_granary","folder":"tf","game":"Team Fortress","app_id":440,"player_count":0,"max_players":24,"Bots":0,"server_type":"Dedicated","server_os":"Linux","password":true,"vac":true,"version":"7961495","steam_id":85568392924964314,"keywords":["cp","nocrits","nodmgspread","uncletopia"],"game_id":440,"stv_port":27076,"stv_name":"Uncletopia | London | 7 | Stopwatch | STV","players":null},{"server_id":41,"name":"Uncletopia | London | 8 | Community","name_short":"lon-8","host":"lon-1.uk.uncletopia.com","port":27085,"enabled":true,"region":"eu","cc":"gb","latitude":51.509865,"longitude":-0.118092,"reserved":0,"last_update":"0001-01-01T00:00:00Z","name_a2s":"Uncletopia | London | 8 | Community","protocol":17,"map":"workshop/koth_ashville_final.ugc2130459942","folder":"tf","game":"Team Fortress","app_id":440,"player_count":0,"max_players":24,"Bots":0,"server_type":"Dedicated","server_os":"Linux","password":true,"vac":true,"version":"7961495","steam_id":85568392924964315,"keywords":["cp","nocrits","nodmgspread","uncletopia"],"game_id":440,"stv_port":27086,"stv_name":"Uncletopia | London | 8 | Community | STV","players":null},{"server_id":300,"name":"Uncletopia | Montréal | 1 | One Thousand Uncles","name_short":"mtl-1","host":"mtl-1.ca.uncletopia.com","port":27015,"enabled":true,"region":"us-east","cc":"ca","latitude":45.50889,"longitude":-73.56167,"reserved":0,"last_update":"0001-01-01T00:00:00Z","name_a2s":"","protocol":0,"map":"","folder":"","game":"","app_id":0,"player_count":0,"max_players":0,"Bots":0,"server_type":"","server_os":"","password":false,"vac":false,"version":"","steam_id":0,"keywords":null,"game_id":0,"stv_port":0,"stv_name":"","players":null},{"server_id":301,"name":"Uncletopia | Montréal | 2 | One Thousand Uncles","name_short":"mtl-2","host":"mtl-1.ca.uncletopia.com","port":27025,"enabled":true,"region":"us-east","cc":"ca","latitude":45.50889,"longitude":-73.56167,"reserved":0,"last_update":"0001-01-01T00:00:00Z","name_a2s":"","protocol":0,"map":"","folder":"","game":"","app_id":0,"player_count":0,"max_players":0,"Bots":0,"server_type":"","server_os":"","password":false,"vac":false,"version":"","steam_id":0,"keywords":null,"game_id":0,"stv_port":0,"stv_name":"","players":null},{"server_id":302,"name":"Uncletopia | Montréal | 3 | One Thousand Uncles","name_short":"mtl-3","host":"mtl-1.ca.uncletopia.com","port":27035,"enabled":true,"region":"us-east","cc":"ca","latitude":45.50889,"longitude":-73.56167,"reserved":0,"last_update":"0001-01-01T00:00:00Z","name_a2s":"","protocol":0,"map":"","folder":"","game":"","app_id":0,"player_count":0,"max_players":0,"Bots":0,"server_type":"","server_os":"","password":false,"vac":false,"version":"","steam_id":0,"keywords":null,"game_id":0,"stv_port":0,"stv_name":"","players":null},{"server_id":13,"name":"Uncletopia | New York City | 1 | All Maps","name_short":"nyc-1","host":"nyc-1.us.uncletopia.com","port":27015,"enabled":true,"region":"us-east","cc":"us","latitude":40.73061,"longitude":-73.93524,"reserved":0,"last_update":"0001-01-01T00:00:00Z","name_a2s":"Uncletopia | New York City | 1 | All Maps","protocol":17,"map":"ctf_doublecross","folder":"tf","game":"Team Fortress","app_id":440,"player_count":24,"max_players":24,"Bots":0,"server_type":"Dedicated","server_os":"Linux","password":true,"vac":true,"version":"7961495","steam_id":85568392924469993,"keywords":["ctf","nocrits","nodmgspread","uncletopia"],"game_id":440,"stv_port":27016,"stv_name":"Uncletopia | New York City | 1 | All Maps | STV","players":[{"user_id":373,"name":"Trick Stab","steam_id":76561198149967340,"connected_time":48000000000,"state":"active","ping":79},{"user_id":284,"name":"::INVEST IN SKYNET::","steam_id":76561198144436132,"connected_time":8781000000000,"state":"active","ping":79},{"user_id":356,"name":"Phoysh","steam_id":76561198137111021,"connected_time":1791000000000,"state":"active","ping":119},{"user_id":340,"name":"GummybearKillr","steam_id":76561198031235750,"connected_time":3639000000000,"state":"active","ping":52},{"user_id":367,"name":"The Big","steam_id":76561198078572184,"connected_time":896000000000,"state":"active","ping":81},{"user_id":363,"name":"you forgot the sauce","steam_id":76561198387016713,"connected_time":1115000000000,"state":"active","ping":54},{"user_id":224,"name":"Naffu","steam_id":76561198036945403,"connected_time":15109000000000,"state":"active","ping":60},{"user_id":287,"name":"Nuclear Diarrhea","steam_id":76561198044278802,"connected_time":8277000000000,"state":"active","ping":64},{"user_id":349,"name":"Virg","steam_id":76561198397721937,"connected_time":3052000000000,"state":"active","ping":82},{"user_id":364,"name":"Matthew McConaughey","steam_id":76561198091893367,"connected_time":1097000000000,"state":"active","ping":56},{"user_id":345,"name":"james_bondage","steam_id":76561199476062624,"connected_time":3236000000000,"state":"active","ping":73},{"user_id":247,"name":"Kantamoe","steam_id":76561198046661611,"connected_time":12121000000000,"state":"active","ping":79},{"user_id":331,"name":"Rornir","steam_id":76561198081829615,"connected_time":4688000000000,"state":"active","ping":56},{"user_id":374,"name":"benny worm","steam_id":76561198163238434,"connected_time":21000000000,"state":"active","ping":45},{"user_id":339,"name":"Ya viene...🥵","steam_id":76561198298364415,"connected_time":4114000000000,"state":"active","ping":135},{"user_id":372,"name":"twinblock","steam_id":76561198157414556,"connected_time":60000000000,"state":"active","ping":91},{"user_id":368,"name":"Raine","steam_id":76561198055761141,"connected_time":872000000000,"state":"active","ping":78},{"user_id":351,"name":"iamtheSpicer","steam_id":76561198263557044,"connected_time":2509000000000,"state":"active","ping":72},{"user_id":315,"name":"1000 Gigglebytes of clown girls","steam_id":76561198290719848,"connected_time":5970000000000,"state":"active","ping":89},{"user_id":361,"name":"Sooch","steam_id":76561198007043697,"connected_time":1635000000000,"state":"active","ping":55},{"user_id":353,"name":"Cup # 17","steam_id":76561198132633180,"connected_time":2266000000000,"state":"active","ping":54},{"user_id":309,"name":"Sentry Gun Main Man","steam_id":76561198327938247,"connected_time":6570000000000,"state":"active","ping":90},{"user_id":365,"name":"Swedish Crowbar","steam_id":76561199105488936,"connected_time":944000000000,"state":"active","ping":133},{"user_id":371,"name":"cyberas","steam_id":76561198257092290,"connected_time":760000000000,"state":"active","ping":64}]},{"server_id":14,"name":"Uncletopia | New York City | 2 | All Maps","name_short":"nyc-2","host":"nyc-1.us.uncletopia.com","port":27025,"enabled":true,"region":"us-east","cc":"us","latitude":40.73061,"longitude":-73.93524,"reserved":0,"last_update":"0001-01-01T00:00:00Z","name_a2s":"Uncletopia | New York City | 2 | All Maps","protocol":17,"map":"cp_sunshine","folder":"tf","game":"Team Fortress","app_id":440,"player_count":0,"max_players":24,"Bots":0,"server_type":"Dedicated","server_os":"Linux","password":true,"vac":true,"version":"7961495","steam_id":85568392924469994,"keywords":["cp","nocrits","nodmgspread","uncletopia"],"game_id":440,"stv_port":27026,"stv_name":"Uncletopia | New York City | 2 | All Maps | STV","players":null},{"server_id":15,"name":"Uncletopia | New York City | 3 | Stopwatch","name_short":"nyc-3","host":"nyc-1.us.uncletopia.com","port":27035,"enabled":true,"region":"us-east","cc":"us","latitude":40.73061,"longitude":-73.93524,"reserved":0,"last_update":"0001-01-01T00:00:00Z","name_a2s":"Uncletopia | New York City | 3 | Stopwatch","protocol":17,"map":"workshop/koth_bagel_rc6.ugc2514036946","folder":"tf","game":"Team Fortress","app_id":440,"player_count":0,"max_players":24,"Bots":0,"server_type":"Dedicated","server_os":"Linux","password":true,"vac":true,"version":"7961495","steam_id":85568392924742820,"keywords":["cp","nocrits","nodmgspread","uncletopia"],"game_id":440,"stv_port":27036,"stv_name":"Uncletopia | New York City | 3 | Stopwatch | STV","players":null},{"server_id":16,"name":"Uncletopia | New York City | 4 | Community","name_short":"nyc-4","host":"nyc-1.us.uncletopia.com","port":27045,"enabled":true,"region":"us-east","cc":"us","latitude":40.73061,"longitude":-73.93524,"reserved":0,"last_update":"0001-01-01T00:00:00Z","name_a2s":"Uncletopia | New York City | 4 | Community","protocol":17,"map":"cp_altitude","folder":"tf","game":"Team Fortress","app_id":440,"player_count":0,"max_players":24,"Bots":0,"server_type":"Dedicated","server_os":"Linux","password":true,"vac":true,"version":"7961495","steam_id":85568392924742821,"keywords":["cp","nocrits","nodmgspread","uncletopia"],"game_id":440,"stv_port":27046,"stv_name":"Uncletopia | New York City | 4 | Community | STV","players":null},{"server_id":142,"name":"Uncletopia | São Paulo | 1 | All Maps","name_short":"sao-1","host":"sao-1.br.uncletopia.com","port":27015,"enabled":true,"region":"sa","cc":"br","latitude":-23.533773,"longitude":-46.62529,"reserved":0,"last_update":"0001-01-01T00:00:00Z","name_a2s":"Uncletopia | São Paulo | 1 | All Maps","protocol":17,"map":"koth_lakeside_final","folder":"tf","game":"Team Fortress","app_id":440,"player_count":0,"max_players":24,"Bots":0,"server_type":"Dedicated","server_os":"Linux","password":true,"vac":true,"version":"7961495","steam_id":85568392924469996,"keywords":["cp","nocrits","nodmgspread","uncletopia"],"game_id":440,"stv_port":27016,"stv_name":"Uncletopia | São Paulo | 1 | All Maps | STV","players":null},{"server_id":143,"name":"Uncletopia | São Paulo | 2 | Community","name_short":"sao-2","host":"sao-2.br.uncletopia.com","port":27015,"enabled":true,"region":"sa","cc":"br","latitude":-23.533773,"longitude":-46.62529,"reserved":0,"last_update":"0001-01-01T00:00:00Z","name_a2s":"Uncletopia | São Paulo | 2 | Community","protocol":17,"map":"workshop/koth_synthetic_rc6a.ugc1549817316","folder":"tf","game":"Team Fortress","app_id":440,"player_count":0,"max_players":24,"Bots":0,"server_type":"Dedicated","server_os":"Linux","password":true,"vac":true,"version":"7961495","steam_id":85568392924485349,"keywords":["cp","nocrits","nodmgspread","uncletopia"],"game_id":440,"stv_port":27016,"stv_name":"Uncletopia | São Paulo | 2 | Community | STV","players":null},{"server_id":7,"name":"Uncletopia | Seattle | 1 | All Maps","name_short":"sea-1","host":"sea-1.us.uncletopia.com","port":27015,"enabled":true,"region":"us-west","cc":"us","latitude":47.608013,"longitude":-122.33517,"reserved":0,"last_update":"0001-01-01T00:00:00Z","name_a2s":"Uncletopia | Seattle | 1 | All Maps","protocol":17,"map":"cp_altitude","folder":"tf","game":"Team Fortress","app_id":440,"player_count":24,"max_players":24,"Bots":0,"server_type":"Dedicated","server_os":"Linux","password":true,"vac":true,"version":"7961495","steam_id":85568392924469997,"keywords":["cp","nocrits","nodmgspread","uncletopia"],"game_id":440,"stv_port":27016,"stv_name":"Uncletopia | Seattle | 1 | All Maps | STV","players":[{"user_id":224,"name":"Eccentric","steam_id":76561198850391975,"connected_time":3504000000000,"state":"active","ping":145},{"user_id":248,"name":"Beef Wellington","steam_id":76561197995635241,"connected_time":267000000000,"state":"active","ping":174},{"user_id":252,"name":"Gary Budussy","steam_id":76561197969793969,"connected_time":57000000000,"state":"active","ping":80},{"user_id":238,"name":"Shark Sandwich","steam_id":76561198025007938,"connected_time":2351000000000,"state":"active","ping":45},{"user_id":233,"name":"box","steam_id":76561198049531483,"connected_time":2532000000000,"state":"active","ping":115},{"user_id":186,"name":"owl","steam_id":76561198088403016,"connected_time":8190000000000,"state":"active","ping":151},{"user_id":249,"name":"H.A.Z.E","steam_id":76561199247095754,"connected_time":258000000000,"state":"active","ping":57},{"user_id":235,"name":"Sudsen","steam_id":76561198370603787,"connected_time":2439000000000,"state":"active","ping":69},{"user_id":237,"name":"mambo","steam_id":76561198811561721,"connected_time":2364000000000,"state":"active","ping":89},{"user_id":250,"name":"evilOlive","steam_id":76561198106222025,"connected_time":257000000000,"state":"active","ping":80},{"user_id":176,"name":"spider","steam_id":76561198130032444,"connected_time":8657000000000,"state":"active","ping":45},{"user_id":147,"name":"Nescio","steam_id":76561198119526760,"connected_time":11308000000000,"state":"active","ping":105},{"user_id":218,"name":"NavyDinosaur","steam_id":76561198088459962,"connected_time":4249000000000,"state":"active","ping":74},{"user_id":206,"name":"lukamine","steam_id":76561198166827208,"connected_time":5448000000000,"state":"active","ping":45},{"user_id":242,"name":"Eden","steam_id":76561198081284664,"connected_time":1978000000000,"state":"active","ping":86},{"user_id":251,"name":"Noah1k","steam_id":76561199428633514,"connected_time":82000000000,"state":"active","ping":46},{"user_id":245,"name":"ArjayTheWeenie","steam_id":76561198275999294,"connected_time":1539000000000,"state":"active","ping":56},{"user_id":172,"name":"TacoMan","steam_id":76561198049405741,"connected_time":9155000000000,"state":"active","ping":132},{"user_id":230,"name":"TwoForFlinching","steam_id":76561198073814209,"connected_time":2873000000000,"state":"active","ping":110},{"user_id":228,"name":"Jimmy Fallon","steam_id":76561198069131730,"connected_time":3313000000000,"state":"active","ping":52},{"user_id":234,"name":"dep","steam_id":76561198044106812,"connected_time":2526000000000,"state":"active","ping":61},{"user_id":222,"name":"catgirl giantess in heat","steam_id":76561198439042583,"connected_time":3743000000000,"state":"active","ping":118},{"user_id":241,"name":"Buswolley","steam_id":76561197995205571,"connected_time":2177000000000,"state":"active","ping":60},{"user_id":247,"name":"fey","steam_id":76561198119191002,"connected_time":284000000000,"state":"active","ping":77}]},{"server_id":119,"name":"Uncletopia | Seattle | 2 | All Maps","name_short":"sea-2","host":"sea-1.us.uncletopia.com","port":27025,"enabled":true,"region":"us-west","cc":"us","latitude":47.608013,"longitude":-122.33517,"reserved":0,"last_update":"0001-01-01T00:00:00Z","name_a2s":"Uncletopia | Seattle | 2 | All Maps","protocol":17,"map":"pl_barnblitz","folder":"tf","game":"Team Fortress","app_id":440,"player_count":0,"max_players":24,"Bots":0,"server_type":"Dedicated","server_os":"Linux","password":true,"vac":true,"version":"7961495","steam_id":85568392924469998,"keywords":["nocrits","nodmgspread","payload","uncletopia"],"game_id":440,"stv_port":27026,"stv_name":"Uncletopia | Seattle | 2 | All Maps | STV","players":null},{"server_id":406,"name":"Uncletopia | Seattle | 3 | Stopwatch","name_short":"sea-3","host":"sea-1.us.uncletopia.com","port":27035,"enabled":true,"region":"us-west","cc":"us","latitude":47.608013,"longitude":-122.33517,"reserved":0,"last_update":"0001-01-01T00:00:00Z","name_a2s":"Uncletopia | Seattle | 3 | Stopwatch","protocol":17,"map":"pl_pier","folder":"tf","game":"Team Fortress","app_id":440,"player_count":0,"max_players":24,"Bots":0,"server_type":"Dedicated","server_os":"Linux","password":true,"vac":true,"version":"7961495","steam_id":85568392924515217,"keywords":["nocrits","nodmgspread","payload","uncletopia"],"game_id":440,"stv_port":27036,"stv_name":"Uncletopia | Seattle | 3 | Stopwatch | STV","players":null},{"server_id":17,"name":"Uncletopia | San Francisco | 1 | All Maps","name_short":"sfo-1","host":"sfo-1.us.uncletopia.com","port":27015,"enabled":true,"region":"us-west","cc":"us","latitude":37.77397,"longitude":-122.4313,"reserved":0,"last_update":"0001-01-01T00:00:00Z","name_a2s":"Uncletopia | San Francisco | 1 | All Maps","protocol":17,"map":"pl_pier","folder":"tf","game":"Team Fortress","app_id":440,"player_count":21,"max_players":24,"Bots":0,"server_type":"Dedicated","server_os":"Linux","password":true,"vac":true,"version":"7961495","steam_id":85568392924469999,"keywords":["nocrits","nodmgspread","payload","uncletopia"],"game_id":440,"stv_port":27016,"stv_name":"Uncletopia | San Francisco | 1 | All Maps | STV","players":[{"user_id":123,"name":"facedatfatchat","steam_id":76561198335285125,"connected_time":1504000000000,"state":"active","ping":75},{"user_id":165,"name":"yaldabaoth","steam_id":76561198084606869,"connected_time":43000000000,"state":"spawning","ping":104},{"user_id":120,"name":"Spy on cart","steam_id":76561198025466913,"connected_time":1871000000000,"state":"active","ping":38},{"user_id":115,"name":"noceof","steam_id":76561198043656816,"connected_time":2417000000000,"state":"active","ping":162},{"user_id":150,"name":"Iamnotapotato","steam_id":76561198201436018,"connected_time":470000000000,"state":"active","ping":99},{"user_id":157,"name":"Lavalace","steam_id":76561198073757592,"connected_time":290000000000,"state":"active","ping":99},{"user_id":126,"name":"IanTheAwsm","steam_id":76561198093031738,"connected_time":1117000000000,"state":"active","ping":104},{"user_id":121,"name":"30-50 feral hogs","steam_id":76561198073587145,"connected_time":1797000000000,"state":"active","ping":111},{"user_id":163,"name":"Crit-A-Cola enjoyer","steam_id":76561199100884248,"connected_time":79000000000,"state":"active","ping":68},{"user_id":164,"name":"frozenwasanokmovie","steam_id":76561198157407952,"connected_time":75000000000,"state":"active","ping":58},{"user_id":128,"name":"stewroogaming","steam_id":76561198967474350,"connected_time":1096000000000,"state":"active","ping":127},{"user_id":141,"name":"charles","steam_id":76561198135249177,"connected_time":706000000000,"state":"active","ping":90},{"user_id":166,"name":"The Potato Romancer","steam_id":76561198204197648,"connected_time":41000000000,"state":"active","ping":61},{"user_id":116,"name":"CantaloupeKing","steam_id":76561198041949472,"connected_time":2369000000000,"state":"active","ping":64},{"user_id":132,"name":"Chicken Gaming","steam_id":76561198976697705,"connected_time":1009000000000,"state":"active","ping":125},{"user_id":152,"name":"Dark Karl","steam_id":76561198115714484,"connected_time":408000000000,"state":"active","ping":83},{"user_id":147,"name":"460BF0 JustAWarper","steam_id":76561198850723295,"connected_time":666000000000,"state":"active","ping":75},{"user_id":160,"name":"yo mama","steam_id":76561198384866172,"connected_time":140000000000,"state":"active","ping":41},{"user_id":153,"name":"Toxic Medic Main (he/they)","steam_id":76561198009314845,"connected_time":406000000000,"state":"active","ping":63},{"user_id":162,"name":"C^a^L","steam_id":76561198241124222,"connected_time":114000000000,"state":"active","ping":45},{"user_id":156,"name":"OrangeShoes","steam_id":76561197971249940,"connected_time":368000000000,"state":"active","ping":103}]},{"server_id":18,"name":"Uncletopia | San Francisco | 2 | All Maps","name_short":"sfo-2","host":"sfo-1.us.uncletopia.com","port":27025,"enabled":true,"region":"us-west","cc":"us","latitude":37.77397,"longitude":-122.4313,"reserved":0,"last_update":"0001-01-01T00:00:00Z","name_a2s":"Uncletopia | San Francisco | 2 | All Maps","protocol":17,"map":"pl_upward","folder":"tf","game":"Team Fortress","app_id":440,"player_count":0,"max_players":24,"Bots":0,"server_type":"Dedicated","server_os":"Linux","password":true,"vac":true,"version":"7961495","steam_id":85568392924470000,"keywords":["nocrits","nodmgspread","payload","uncletopia"],"game_id":440,"stv_port":27026,"stv_name":"Uncletopia | San Francisco | 2 | All Maps | STV","players":null},{"server_id":19,"name":"Uncletopia | San Francisco | 3 | Stopwatch","name_short":"sfo-3","host":"sfo-1.us.uncletopia.com","port":27035,"enabled":true,"region":"us-west","cc":"us","latitude":37.77397,"longitude":-122.4313,"reserved":0,"last_update":"0001-01-01T00:00:00Z","name_a2s":"Uncletopia | San Francisco | 3 | Stopwatch","protocol":17,"map":"pl_pier","folder":"tf","game":"Team Fortress","app_id":440,"player_count":0,"max_players":24,"Bots":0,"server_type":"Dedicated","server_os":"Linux","password":true,"vac":true,"version":"7961495","steam_id":85568392924742824,"keywords":["nocrits","nodmgspread","payload","uncletopia"],"game_id":440,"stv_port":27036,"stv_name":"Uncletopia | San Francisco | 3 | Stopwatch | STV","players":null},{"server_id":20,"name":"Uncletopia | San Francisco | 4 | Community","name_short":"sfo-4","host":"sfo-1.us.uncletopia.com","port":27045,"enabled":true,"region":"us-west","cc":"us","latitude":37.77397,"longitude":-122.4313,"reserved":0,"last_update":"0001-01-01T00:00:00Z","name_a2s":"Uncletopia | San Francisco | 4 | Community","protocol":17,"map":"pl_pier","folder":"tf","game":"Team Fortress","app_id":440,"player_count":0,"max_players":24,"Bots":0,"server_type":"Dedicated","server_os":"Linux","password":true,"vac":true,"version":"7961495","steam_id":85568392924742826,"keywords":["nocrits","nodmgspread","payload","uncletopia"],"game_id":440,"stv_port":27046,"stv_name":"Uncletopia | San Francisco | 4 | Community | STV","players":null},{"server_id":141,"name":"Uncletopia | Sydney | 1 | All Maps","name_short":"syd-1","host":"syd-1.au.uncletopia.com","port":27015,"enabled":true,"region":"au","cc":"au","latitude":-33.865143,"longitude":151.2099,"reserved":0,"last_update":"0001-01-01T00:00:00Z","name_a2s":"Uncletopia | Sydney | 1 | All Maps","protocol":17,"map":"ctf_2fort","folder":"tf","game":"Team Fortress","app_id":440,"player_count":0,"max_players":24,"Bots":0,"server_type":"Dedicated","server_os":"Linux","password":true,"vac":true,"version":"7961495","steam_id":85568392924470001,"keywords":["ctf","nocrits","nodmgspread","uncletopia"],"game_id":440,"stv_port":27016,"stv_name":"Uncletopia | Sydney | 1 | All Maps | STV","players":null},{"server_id":123,"name":"Uncletopia | Sydney | 2 | All Maps","name_short":"syd-2","host":"syd-1.au.uncletopia.com","port":27025,"enabled":true,"region":"au","cc":"au","latitude":-33.865143,"longitude":151.2099,"reserved":0,"last_update":"0001-01-01T00:00:00Z","name_a2s":"Uncletopia | Sydney | 2 | All Maps","protocol":17,"map":"koth_lakeside_final","folder":"tf","game":"Team Fortress","app_id":440,"player_count":0,"max_players":24,"Bots":0,"server_type":"Dedicated","server_os":"Linux","password":true,"vac":true,"version":"7961495","steam_id":85568392924470002,"keywords":["cp","nocrits","nodmgspread","uncletopia"],"game_id":440,"stv_port":27026,"stv_name":"Uncletopia | Sydney | 2 | All Maps | STV","players":null},{"server_id":395,"name":"Uncletopia | Sydney | 3 | All Maps","name_short":"syd-3","host":"syd-1.au.uncletopia.com","port":27035,"enabled":true,"region":"au","cc":"au","latitude":-33.865143,"longitude":151.2099,"reserved":0,"last_update":"0001-01-01T00:00:00Z","name_a2s":"Uncletopia | Sydney | 3 | All Maps","protocol":17,"map":"pl_frontier_final","folder":"tf","game":"Team Fortress","app_id":440,"player_count":0,"max_players":24,"Bots":0,"server_type":"Dedicated","server_os":"Linux","password":true,"vac":true,"version":"7961495","steam_id":85568392925194467,"keywords":["nocrits","nodmgspread","payload","uncletopia"],"game_id":440,"stv_port":27036,"stv_name":"Uncletopia | Sydney | 3 | All Maps | STV","players":null},{"server_id":396,"name":"Uncletopia | Sydney | 4 | All Maps","name_short":"syd-4","host":"syd-1.au.uncletopia.com","port":27045,"enabled":true,"region":"au","cc":"au","latitude":-33.865143,"longitude":151.2099,"reserved":0,"last_update":"0001-01-01T00:00:00Z","name_a2s":"Uncletopia | Sydney | 4 | All Maps","protocol":17,"map":"koth_lakeside_final","folder":"tf","game":"Team Fortress","app_id":440,"player_count":0,"max_players":24,"Bots":0,"server_type":"Dedicated","server_os":"Linux","password":true,"vac":true,"version":"7961495","steam_id":85568392925397958,"keywords":["cp","nocrits","nodmgspread","uncletopia"],"game_id":440,"stv_port":27046,"stv_name":"Uncletopia | Sydney | 4 | All Maps | STV","players":null},{"server_id":58,"name":"Uncletopia | Sydney | 5 | Stopwatch","name_short":"syd-5","host":"syd-1.au.uncletopia.com","port":27055,"enabled":true,"region":"au","cc":"au","latitude":-33.865143,"longitude":151.2099,"reserved":0,"last_update":"0001-01-01T00:00:00Z","name_a2s":"Uncletopia | Sydney | 5 | Stopwatch","protocol":17,"map":"pl_swiftwater_final1","folder":"tf","game":"Team Fortress","app_id":440,"player_count":0,"max_players":24,"Bots":0,"server_type":"Dedicated","server_os":"Linux","password":true,"vac":true,"version":"7961495","steam_id":85568392925397959,"keywords":["nocrits","nodmgspread","payload","uncletopia"],"game_id":440,"stv_port":27056,"stv_name":"Uncletopia | Sydney | 5 | Stopwatch | STV","players":null},{"server_id":59,"name":"Uncletopia | Sydney | 6 | Community","name_short":"syd-6","host":"syd-1.au.uncletopia.com","port":27065,"enabled":true,"region":"au","cc":"au","latitude":-33.865143,"longitude":151.2099,"reserved":0,"last_update":"0001-01-01T00:00:00Z","name_a2s":"Uncletopia | Sydney | 6 | Community","protocol":17,"map":"workshop/pl_corrode_rc2.ugc546577989","folder":"tf","game":"Team Fortress","app_id":440,"player_count":0,"max_players":24,"Bots":0,"server_type":"Dedicated","server_os":"Linux","password":true,"vac":true,"version":"7961495","steam_id":85568392925397960,"keywords":["nocrits","nodmgspread","payload","uncletopia"],"game_id":440,"stv_port":27066,"stv_name":"Uncletopia | Sydney | 6 | Community | STV","players":null},{"server_id":49,"name":"Uncletopia | Warsaw | 1 | One Thousand Uncles","name_short":"waw-1","host":"waw-1.pl.uncletopia.com","port":27015,"enabled":true,"region":"eu","cc":"pl","latitude":52.2297,"longitude":21.017532,"reserved":0,"last_update":"0001-01-01T00:00:00Z","name_a2s":"Uncletopia | Warsaw | 1 | One Thousand Uncles","protocol":17,"map":"cp_mercenarypark","folder":"tf","game":"Team Fortress","app_id":440,"player_count":28,"max_players":32,"Bots":16,"server_type":"Dedicated","server_os":"Linux","password":true,"vac":true,"version":"7961495","steam_id":85568392925397850,"keywords":["alltalk","bots","cp","danepve","increased_maxplayers","nocrits","norespawntime","uncletopia"],"game_id":440,"stv_port":0,"stv_name":"","players":[{"user_id":422,"name":"Ziemniaczki z koperkiem","steam_id":76561198829123464,"connected_time":1643000000000,"state":"active","ping":42},{"user_id":341,"name":"Meat Dragon","steam_id":76561198120319256,"connected_time":7454000000000,"state":"active","ping":157},{"user_id":387,"name":"capetanunito","steam_id":76561199364524852,"connected_time":4355000000000,"state":"active","ping":101},{"user_id":311,"name":"♦Deutsche Maschine♦","steam_id":76561199240841303,"connected_time":10262000000000,"state":"active","ping":57},{"user_id":434,"name":"ペペ","steam_id":76561198202690328,"connected_time":201000000000,"state":"active","ping":89},{"user_id":421,"name":"photonbinding","steam_id":76561198250996330,"connected_time":2234000000000,"state":"active","ping":175},{"user_id":416,"name":"Virgil","steam_id":76561198248786778,"connected_time":2589000000000,"state":"active","ping":138},{"user_id":358,"name":"Hoflett","steam_id":76561198873156806,"connected_time":5698000000000,"state":"active","ping":88},{"user_id":420,"name":"scott","steam_id":76561199329784491,"connected_time":2239000000000,"state":"active","ping":91},{"user_id":436,"name":"Captian Wobbs","steam_id":76561198142884936,"connected_time":23000000000,"state":"active","ping":184},{"user_id":424,"name":"Uncle Moomin","steam_id":76561198011628656,"connected_time":1345000000000,"state":"active","ping":80},{"user_id":406,"name":"JoeFalco","steam_id":76561198064005012,"connected_time":3088000000000,"state":"active","ping":202}]},{"server_id":50,"name":"Uncletopia | Warsaw | 2 | One Thousand Uncles","name_short":"waw-2","host":"waw-1.pl.uncletopia.com","port":27025,"enabled":true,"region":"eu","cc":"pl","latitude":52.2297,"longitude":21.017532,"reserved":0,"last_update":"0001-01-01T00:00:00Z","name_a2s":"Uncletopia | Warsaw | 2 | One Thousand Uncles","protocol":17,"map":"pl_pier","folder":"tf","game":"Team Fortress","app_id":440,"player_count":32,"max_players":32,"Bots":16,"server_type":"Dedicated","server_os":"Linux","password":true,"vac":true,"version":"7961495","steam_id":85568392925397851,"keywords":["alltalk","bots","danepve","increased_maxplayers","nocrits","norespawntime","payload","uncletopia"],"game_id":440,"stv_port":0,"stv_name":"","players":[{"user_id":387,"name":"Valoxi","steam_id":76561197995042938,"connected_time":4226000000000,"state":"active","ping":66},{"user_id":370,"name":"unstable","steam_id":76561198969620854,"connected_time":4469000000000,"state":"active","ping":215},{"user_id":403,"name":"Quartermistress","steam_id":76561198140199123,"connected_time":1108000000000,"state":"active","ping":74},{"user_id":416,"name":"Grandpa","steam_id":76561198444746954,"connected_time":294000000000,"state":"active","ping":44},{"user_id":407,"name":"dnik9999","steam_id":76561198347141181,"connected_time":877000000000,"state":"active","ping":97},{"user_id":404,"name":"Lukas","steam_id":76561198009118452,"connected_time":1050000000000,"state":"active","ping":59},{"user_id":405,"name":"spykerhyk","steam_id":76561198051161355,"connected_time":1025000000000,"state":"active","ping":65},{"user_id":420,"name":"vit0","steam_id":76561199088019029,"connected_time":112000000000,"state":"active","ping":77},{"user_id":402,"name":"Itai","steam_id":76561198804555329,"connected_time":1391000000000,"state":"active","ping":118},{"user_id":406,"name":"Dreu","steam_id":76561198075647310,"connected_time":1016000000000,"state":"active","ping":79},{"user_id":408,"name":"pavelexe","steam_id":76561199145156055,"connected_time":806000000000,"state":"active","ping":55},{"user_id":409,"name":"kakash","steam_id":76561199420637314,"connected_time":795000000000,"state":"active","ping":82},{"user_id":417,"name":"matvejisakov7","steam_id":76561199493568179,"connected_time":289000000000,"state":"active","ping":118},{"user_id":412,"name":"ruffeeh","steam_id":76561197995517185,"connected_time":511000000000,"state":"active","ping":60},{"user_id":421,"name":"A Red Brick","steam_id":76561198317522580,"connected_time":105000000000,"state":"active","ping":100},{"user_id":415,"name":"Duckelekuuk","steam_id":76561198068249150,"connected_time":379000000000,"state":"active","ping":74}]},{"server_id":51,"name":"Uncletopia | Warsaw | 3 | All Maps","name_short":"waw-3","host":"waw-1.pl.uncletopia.com","port":27035,"enabled":true,"region":"eu","cc":"pl","latitude":52.2297,"longitude":21.017532,"reserved":0,"last_update":"0001-01-01T00:00:00Z","name_a2s":"Uncletopia | Warsaw | 3 | All Maps","protocol":17,"map":"koth_cascade","folder":"tf","game":"Team Fortress","app_id":440,"player_count":0,"max_players":24,"Bots":0,"server_type":"Dedicated","server_os":"Linux","password":true,"vac":true,"version":"7961495","steam_id":85568392925397852,"keywords":["cp","nocrits","nodmgspread","uncletopia"],"game_id":440,"stv_port":27036,"stv_name":"Uncletopia | Warsaw | 3 | All Maps | STV","players":null},{"server_id":52,"name":"Uncletopia | Warsaw | 4 | All Maps","name_short":"waw-4","host":"waw-1.pl.uncletopia.com","port":27045,"enabled":true,"region":"eu","cc":"pl","latitude":52.2297,"longitude":21.017532,"reserved":0,"last_update":"0001-01-01T00:00:00Z","name_a2s":"Uncletopia | Warsaw | 4 | All Maps","protocol":17,"map":"pl_frontier_final","folder":"tf","game":"Team Fortress","app_id":440,"player_count":0,"max_players":24,"Bots":0,"server_type":"Dedicated","server_os":"Linux","password":true,"vac":true,"version":"7961495","steam_id":85568392925397853,"keywords":["nocrits","nodmgspread","payload","uncletopia"],"game_id":440,"stv_port":27046,"stv_name":"Uncletopia | Warsaw | 4 | All Maps | STV","players":null},{"server_id":53,"name":"Uncletopia | Warsaw | 5 | Stopwatch","name_short":"waw-5","host":"waw-1.pl.uncletopia.com","port":27055,"enabled":true,"region":"eu","cc":"pl","latitude":52.2297,"longitude":21.017532,"reserved":0,"last_update":"0001-01-01T00:00:00Z","name_a2s":"Uncletopia | Warsaw | 5 | Stopwatch","protocol":17,"map":"koth_lakeside_final","folder":"tf","game":"Team Fortress","app_id":440,"player_count":0,"max_players":24,"Bots":0,"server_type":"Dedicated","server_os":"Linux","password":true,"vac":true,"version":"7961495","steam_id":85568392925397854,"keywords":["cp","nocrits","nodmgspread","uncletopia"],"game_id":440,"stv_port":27056,"stv_name":"Uncletopia | Warsaw | 5 | Stopwatch | STV","players":null},{"server_id":54,"name":"Uncletopia | Warsaw | 6 | Community","name_short":"waw-6","host":"waw-1.pl.uncletopia.com","port":27065,"enabled":true,"region":"eu","cc":"pl","latitude":52.2297,"longitude":21.017532,"reserved":0,"last_update":"0001-01-01T00:00:00Z","name_a2s":"Uncletopia | Warsaw | 6 | Community","protocol":17,"map":"workshop/pl_corrode_rc2.ugc546577989","folder":"tf","game":"Team Fortress","app_id":440,"player_count":2,"max_players":24,"Bots":0,"server_type":"Dedicated","server_os":"Linux","password":true,"vac":true,"version":"7961495","steam_id":85568392925397856,"keywords":["nocrits","nodmgspread","payload","uncletopia"],"game_id":440,"stv_port":27066,"stv_name":"Uncletopia | Warsaw | 6 | Community | STV","players":[{"user_id":5,"name":"Moondrop","steam_id":76561199421181719,"connected_time":3573000000000,"state":"active","ping":64},{"user_id":14,"name":"TheAnonymeKiller","steam_id":76561198190680978,"connected_time":338000000000,"state":"active","ping":75}]}]}