{"status":true,"message":"","result":[{"server_id":9,"name":"Uncletopia | Atlanta | 1 | All Maps","name_short":"atl-1","host":"atl-1.us.uncletopia.com","port":27015,"enabled":true,"region":"us-east","cc":"us","latitude":33.753746,"longitude":-84.38633,"reserved":0,"last_update":"0001-01-01T00:00:00Z","name_a2s":"Uncletopia | Atlanta | 1 | All Maps","protocol":17,"map":"pl_barnblitz","folder":"tf","game":"Team Fortress","app_id":440,"player_count":24,"max_players":24,"Bots":0,"server_type":"Dedicated","server_os":"Linux","password":true,"vac":true,"version":"7742253","steam_id":85568392924469982,"keywords":["nocrits","nodmgspread","payload","uncletopia"],"game_id":440,"stv_port":27016,"stv_name":"Uncletopia | Atlanta | 1 | All Maps | STV","players":[{"user_id":205,"name":"Megadesk","steam_id":76561198078219641,"connected_time":6253000000000,"state":"active","ping":63},{"user_id":241,"name":"poogoblin49","steam_id":76561198124866303,"connected_time":3380000000000,"state":"active","ping":57},{"user_id":296,"name":"Spy_Is_Pye","steam_id":76561199439622967,"connected_time":225000000000,"state":"active","ping":69},{"user_id":264,"name":"Snazzi","steam_id":76561198085208276,"connected_time":2153000000000,"state":"active","ping":68},{"user_id":282,"name":"ThatOneKaiser","steam_id":76561198799231254,"connected_time":1319000000000,"state":"active","ping":76},{"user_id":286,"name":"ericgaming2013","steam_id":76561198422891994,"connected_time":1209000000000,"state":"active","ping":93},{"user_id":287,"name":"Boot","steam_id":76561198423162555,"connected_time":1207000000000,"state":"active","ping":58},{"user_id":265,"name":"febfowl","steam_id":76561198023888890,"connected_time":2144000000000,"state":"active","ping":73},{"user_id":283,"name":"Flaire Pancake","steam_id":76561198040646457,"connected_time":1291000000000,"state":"active","ping":75},{"user_id":238,"name":"newyears.jimmy.2014","steam_id":76561199177672325,"connected_time":3870000000000,"state":"active","ping":42},{"user_id":290,"name":"yomommasabitch","steam_id":76561198323217150,"connected_time":487000000000,"state":"active","ping":60},{"user_id":266,"name":"Carl","steam_id":76561198103072673,"connected_time":2140000000000,"state":"active","ping":76},{"user_id":292,"name":"Rhutebeer","steam_id":76561198018302761,"connected_time":413000000000,"state":"active","ping":82},{"user_id":289,"name":"ATL1 | to4st","steam_id":76561198981009008,"connected_time":674000000000,"state":"active","ping":75},{"user_id":236,"name":"shaderoses","steam_id":76561198070800500,"connected_time":4171000000000,"state":"active","ping":68},{"user_id":279,"name":"Mr. Cheesey","steam_id":76561198153462183,"connected_time":1494000000000,"state":"active","ping":76},{"user_id":295,"name":"Waffles","steam_id":76561198448806517,"connected_time":313000000000,"state":"active","ping":87},{"user_id":294,"name":"ATL1 | Lav4ie [txc]","steam_id":76561198825997674,"connected_time":373000000000,"state":"active","ping":53},{"user_id":257,"name":"David De Bergerac","steam_id":76561198010306294,"connected_time":2737000000000,"state":"active","ping":79},{"user_id":285,"name":"yomokha lft","steam_id":76561198063175935,"connected_time":1255000000000,"state":"active","ping":60},{"user_id":261,"name":"_DrunkenGibberish_","steam_id":76561199123070071,"connected_time":2470000000000,"state":"active","ping":124},{"user_id":280,"name":"Quiggles","steam_id":76561199177247655,"connected_time":1494000000000,"state":"active","ping":60},{"user_id":195,"name":"D-MROMA","steam_id":76561198837664861,"connected_time":7501000000000,"state":"active","ping":81},{"user_id":278,"name":"ATL1 | Twa","steam_id":76561198295529541,"connected_time":1626000000000,"state":"active","ping":77}]},{"server_id":400,"name":"Uncletopia | Atlanta | 3 | Stopwatch Beta","name_short":"atl-3","host":"atl-1.us.uncletopia.com","port":27035,"enabled":true,"region":"us-east","cc":"us","latitude":33.753746,"longitude":-84.38633,"reserved":0,"last_update":"0001-01-01T00:00:00Z","name_a2s":"Uncletopia | Atlanta | 3 | Stopwatch Beta","protocol":17,"map":"pl_pier","folder":"tf","game":"Team Fortress","app_id":440,"player_count":0,"max_players":24,"Bots":0,"server_type":"Dedicated","server_os":"Linux","password":true,"vac":true,"version":"7742253","steam_id":85568392924515187,"keywords":["nocrits","nodmgspread","payload","uncletopia"],"game_id":440,"stv_port":27036,"stv_name":"Uncletopia | Atlanta | 3 | Stopwatch Beta | STV","players":null},{"server_id":401,"name":"Uncletopia | Atlanta | 4 | No Payload","name_short":"atl-4","host":"atl-1.us.uncletopia.com","port":27045,"enabled":true,"region":"us-east","cc":"us","latitude":33.753746,"longitude":-84.38633,"reserved":0,"last_update":"0001-01-01T00:00:00Z","name_a2s":"Uncletopia | Atlanta | 4 | No Payload","protocol":17,"map":"pl_pier","folder":"tf","game":"Team Fortress","app_id":440,"player_count":0,"max_players":24,"Bots":0,"server_type":"Dedicated","server_os":"Linux","password":true,"vac":true,"version":"7723704","steam_id":85568392924515188,"keywords":["nocrits","nodmgspread","payload","uncletopia"],"game_id":440,"stv_port":27046,"stv_name":"Uncletopia | Atlanta | 4 | No Payload | STV","players":null},{"server_id":2,"name":"Uncletopia | Chicago | 1 | All Maps","name_short":"chi-1","host":"chi-1.us.uncletopia.com","port":27015,"enabled":true,"region":"us-central","cc":"us","latitude":41.881832,"longitude":-87.62318,"reserved":0,"last_update":"0001-01-01T00:00:00Z","name_a2s":"Uncletopia | Chicago | 1 | All Maps","protocol":17,"map":"cp_gorge","folder":"tf","game":"Team Fortress","app_id":440,"player_count":24,"max_players":24,"Bots":0,"server_type":"Dedicated","server_os":"Linux","password":true,"vac":true,"version":"7742253","steam_id":85568392924469984,"keywords":["cp","nocrits","nodmgspread","uncletopia"],"game_id":440,"stv_port":27016,"stv_name":"Uncletopia | Chicago | 1 | All Maps | STV","players":[{"user_id":86,"name":"Stapler","steam_id":76561198099295077,"connected_time":3815000000000,"state":"active","ping":90},{"user_id":124,"name":"sunsetteOS","steam_id":76561198030654079,"connected_time":1524000000000,"state":"active","ping":60},{"user_id":89,"name":"goggleOgler","steam_id":76561198044853829,"connected_time":3631000000000,"state":"active","ping":56},{"user_id":146,"name":"Jason Voorhees","steam_id":76561198358987380,"connected_time":239000000000,"state":"active","ping":92},{"user_id":147,"name":"DagyDin","steam_id":76561199212257554,"connected_time":151000000000,"state":"active","ping":58},{"user_id":132,"name":"TeeTree","steam_id":76561198862307874,"connected_time":1235000000000,"state":"active","ping":60},{"user_id":145,"name":"33","steam_id":76561198894676484,"connected_time":356000000000,"state":"active","ping":108},{"user_id":117,"name":"Catboy Potemkin","steam_id":76561198078474420,"connected_time":1875000000000,"state":"active","ping":65},{"user_id":102,"name":"Hylic","steam_id":76561199051314589,"connected_time":3111000000000,"state":"active","ping":61},{"user_id":73,"name":"Soju","steam_id":76561198044130442,"connected_time":4939000000000,"state":"active","ping":68},{"user_id":99,"name":"Pennis the Menace","steam_id":76561198254878037,"connected_time":3405000000000,"state":"active","ping":60},{"user_id":141,"name":"OnTheWarField","steam_id":76561199375735140,"connected_time":418000000000,"state":"active","ping":73},{"user_id":115,"name":"Alt","steam_id":76561197992591984,"connected_time":2026000000000,"state":"active","ping":60},{"user_id":88,"name":"‚ô•Stephiebees‚ô•","steam_id":76561198021529860,"connected_time":3635000000000,"state":"active","ping":106},{"user_id":119,"name":"Anxiety","steam_id":76561198365627687,"connected_time":1731000000000,"state":"active","ping":107},{"user_id":133,"name":"CrystallineGazer","steam_id":76561198263749440,"connected_time":1184000000000,"state":"active","ping":49},{"user_id":126,"name":"Lexi uwu","steam_id":76561198003037190,"connected_time":1423000000000,"state":"active","ping":87},{"user_id":143,"name":"brandnewdog","steam_id":76561198882758067,"connected_time":378000000000,"state":"active","ping":94},{"user_id":110,"name":"I like cheese (real)","steam_id":76561198882837408,"connected_time":2394000000000,"state":"active","ping":100},{"user_id":144,"name":"MrPainface","steam_id":76561198047626099,"connected_time":373000000000,"state":"active","ping":46},{"user_id":134,"name":"boofgall319","steam_id":76561199122095813,"connected_time":1159000000000,"state":"active","ping":72},{"user_id":85,"name":"Merchants of Misery","steam_id":76561199188142396,"connected_time":4108000000000,"state":"active","ping":91},{"user_id":123,"name":"kb","steam_id":76561198115914109,"connected_time":1619000000000,"state":"active","ping":67},{"user_id":91,"name":"Ademar","steam_id":76561199391802581,"connected_time":3628000000000,"state":"active","ping":67}]},{"server_id":106,"name":"Uncletopia | Chicago | 2 | All Maps","name_short":"chi-2","host":"chi-1.us.uncletopia.com","port":27025,"enabled":true,"region":"us-central","cc":"us","latitude":41.881832,"longitude":-87.62318,"reserved":0,"last_update":"0001-01-01T00:00:00Z","name_a2s":"Uncletopia | Chicago | 2 | All Maps","protocol":17,"map":"pl_barnblitz","folder":"tf","game":"Team Fortress","app_id":440,"player_count":24,"max_players":24,"Bots":0,"server_type":"Dedicated","server_os":"Linux","password":true,"vac":true,"version":"7742253","steam_id":85568392924469985,"keywords":["nocrits","nodmgspread","payload","uncletopia"],"game_id":440,"stv_port":27026,"stv_name":"Uncletopia | Chicago | 2 | All Maps | STV","players":[{"user_id":184,"name":"Strange","steam_id":76561198310853086,"connected_time":5487000000000,"state":"active","ping":117},{"user_id":253,"name":"dan","steam_id":76561198061589465,"connected_time":1434000000000,"state":"active","ping":98},{"user_id":254,"name":"HellRaiser","steam_id":76561199051660033,"connected_time":1415000000000,"state":"active","ping":68},{"user_id":255,"name":"Scent Tree","steam_id":76561198444371121,"connected_time":1406000000000,"state":"active","ping":79},{"user_id":256,"name":"helpme","steam_id":76561199219344943,"connected_time":1394000000000,"state":"active","ping":59},{"user_id":246,"name":"brynoffiepie008","steam_id":76561199065378685,"connected_time":1856000000000,"state":"active","ping":142},{"user_id":236,"name":"i suffer from ligma","steam_id":76561199158496518,"connected_time":2171000000000,"state":"active","ping":76},{"user_id":220,"name":"Donkey","steam_id":76561197968155896,"connected_time":3140000000000,"state":"active","ping":57},{"user_id":258,"name":"DOMO_MR_ROBOTO","steam_id":76561198077108345,"connected_time":1339000000000,"state":"active","ping":88},{"user_id":222,"name":"Mrs.Donkey","steam_id":76561197970143019,"connected_time":3121000000000,"state":"active","ping":57},{"user_id":239,"name":"LuckyExplosion_TTV","steam_id":76561198447673571,"connected_time":1954000000000,"state":"active","ping":72},{"user_id":257,"name":"[chef] iron","steam_id":76561197970888616,"connected_time":1361000000000,"state":"active","ping":45},{"user_id":266,"name":"Piyono","steam_id":76561197962188504,"connected_time":500000000000,"state":"active","ping":66},{"user_id":237,"name":"Pills","steam_id":76561198799440163,"connected_time":2116000000000,"state":"active","ping":100},{"user_id":225,"name":"nhbiker","steam_id":76561198081277675,"connected_time":3043000000000,"state":"active","ping":60},{"user_id":265,"name":"hahafunnygaming","steam_id":76561198904087936,"connected_time":871000000000,"state":"active","ping":80},{"user_id":260,"name":"SHARK0!","steam_id":76561199391489466,"connected_time":1251000000000,"state":"active","ping":64},{"user_id":268,"name":"Sir Severus","steam_id":76561198061295188,"connected_time":141000000000,"state":"active","ping":84},{"user_id":261,"name":"Patisserie","steam_id":76561198239169752,"connected_time":1229000000000,"state":"active","ping":60},{"user_id":243,"name":"Vem","steam_id":76561198117273112,"connected_time":1892000000000,"state":"active","ping":65},{"user_id":263,"name":"Mr Sir Logan","steam_id":76561198088803891,"connected_time":1199000000000,"state":"active","ping":106},{"user_id":244,"name":"Furry Saul Goodman","steam_id":76561198069580305,"connected_time":1882000000000,"state":"active","ping":47},{"user_id":245,"name":"cl0useau","steam_id":76561198191050167,"connected_time":1876000000000,"state":"active","ping":77},{"user_id":267,"name":"Snale","steam_id":76561198039517965,"connected_time":457000000000,"state":"active","ping":131}]},{"server_id":402,"name":"Uncletopia | Chicago | 3 | All Maps","name_short":"chi-3","host":"chi-1.us.uncletopia.com","port":27035,"enabled":true,"region":"us-central","cc":"us","latitude":41.881832,"longitude":-87.62318,"reserved":0,"last_update":"0001-01-01T00:00:00Z","name_a2s":"Uncletopia | Chicago | 3 | All Maps","protocol":17,"map":"pl_coal_event","folder":"tf","game":"Team Fortress","app_id":440,"player_count":24,"max_players":24,"Bots":0,"server_type":"Dedicated","server_os":"Linux","password":true,"vac":true,"version":"7742253","steam_id":85568392924515191,"keywords":["nocrits","nodmgspread","payload","uncletopia"],"game_id":440,"stv_port":27036,"stv_name":"Uncletopia | Chicago | 3 | All Maps | STV","players":[{"user_id":264,"name":"Lish","steam_id":76561198133985045,"connected_time":1032000000000,"state":"active","ping":72},{"user_id":249,"name":"Dinosaur","steam_id":76561198854695804,"connected_time":2413000000000,"state":"active","ping":74},{"user_id":265,"name":"later aligater","steam_id":76561198021609442,"connected_time":883000000000,"state":"active","ping":59},{"user_id":80,"name":"[slug]","steam_id":76561197989592178,"connected_time":16142000000000,"state":"active","ping":66},{"user_id":225,"name":"FACTS \u0026 LQGIC","steam_id":76561197995211570,"connected_time":3851000000000,"state":"active","ping":63},{"user_id":276,"name":"cave full of snakes","steam_id":76561199084459911,"connected_time":110000000000,"state":"active","ping":96},{"user_id":273,"name":"Silly Scientist","steam_id":76561199199886079,"connected_time":468000000000,"state":"active","ping":67},{"user_id":261,"name":"Vivzen","steam_id":76561198972619900,"connected_time":1060000000000,"state":"active","ping":65},{"user_id":244,"name":"Gump","steam_id":76561198799744386,"connected_time":2966000000000,"state":"active","ping":67},{"user_id":272,"name":"demoknight tf2","steam_id":76561198070393998,"connected_time":547000000000,"state":"active","ping":61},{"user_id":277,"name":"soup time","steam_id":76561197961488590,"connected_time":45000000000,"state":"active","ping":63},{"user_id":271,"name":"Only One Jhakobi","steam_id":76561197993641141,"connected_time":624000000000,"state":"active","ping":58},{"user_id":219,"name":"the deadliest pyroshark","steam_id":76561198374227766,"connected_time":4800000000000,"state":"active","ping":71},{"user_id":274,"name":"nalezinik","steam_id":76561198030026119,"connected_time":359000000000,"state":"active","ping":65},{"user_id":232,"name":"DeckofDragons","steam_id":76561198057398213,"connected_time":3468000000000,"state":"active","ping":73},{"user_id":207,"name":"santas.secret.sauce","steam_id":76561198042464635,"connected_time":7203000000000,"state":"active","ping":78},{"user_id":269,"name":"Comfy Monkey","steam_id":76561197998434936,"connected_time":753000000000,"state":"active","ping":51},{"user_id":259,"name":"CryoCrab12","steam_id":76561198398818373,"connected_time":1620000000000,"state":"active","ping":89},{"user_id":210,"name":"OlympicChamp_12 | Trade.tf","steam_id":76561198830574526,"connected_time":6901000000000,"state":"active","ping":132},{"user_id":260,"name":"Alexandria Ocasio-Cortez","steam_id":76561199045876530,"connected_time":1070000000000,"state":"active","ping":105},{"user_id":270,"name":"Curdledwizard","steam_id":76561198020051289,"connected_time":736000000000,"state":"active","ping":74},{"user_id":257,"name":"GuyGoom","steam_id":76561198254522178,"connected_time":1746000000000,"state":"active","ping":61},{"user_id":239,"name":"Tobaggan","steam_id":76561198164274041,"connected_time":3090000000000,"state":"active","ping":79},{"user_id":263,"name":"TYL‚òÅR","steam_id":76561198082995812,"connected_time":1053000000000,"state":"active","ping":74}]},{"server_id":403,"name":"Uncletopia | Chicago | 4 | All Maps","name_short":"chi-4","host":"chi-1.us.uncletopia.com","port":27045,"enabled":true,"region":"us-central","cc":"us","latitude":41.881832,"longitude":-87.62318,"reserved":0,"last_update":"0001-01-01T00:00:00Z","name_a2s":"Uncletopia | Chicago | 4 | All Maps","protocol":17,"map":"pl_borneo","folder":"tf","game":"Team Fortress","app_id":440,"player_count":5,"max_players":24,"Bots":0,"server_type":"Dedicated","server_os":"Linux","password":true,"vac":true,"version":"7742253","steam_id":85568392924515193,"keywords":["nocrits","nodmgspread","payload","uncletopia"],"game_id":440,"stv_port":27046,"stv_name":"Uncletopia | Chicago | 4 | All Maps | STV","players":[{"user_id":88,"name":"Japanese Rabbit Enthusiast","steam_id":76561199134895220,"connected_time":16000000000,"state":"active","ping":62},{"user_id":80,"name":"Heckteck","steam_id":76561199098393174,"connected_time":926000000000,"state":"active","ping":84},{"user_id":72,"name":"Salixiola","steam_id":76561198042177809,"connected_time":2027000000000,"state":"active","ping":67},{"user_id":31,"name":"Solaire","steam_id":76561198035762837,"connected_time":4069000000000,"state":"active","ping":86},{"user_id":68,"name":"Thog","steam_id":76561198093699060,"connected_time":2150000000000,"state":"active","ping":73}]},{"server_id":36,"name":"Uncletopia | Chicago | 5 | All Maps","name_short":"chi-5","host":"chi-2.us.uncletopia.com","port":27015,"enabled":true,"region":"us-central","cc":"us","latitude":41.881832,"longitude":-87.62318,"reserved":0,"last_update":"0001-01-01T00:00:00Z","name_a2s":"Uncletopia | Chicago | 5 | All Maps","protocol":17,"map":"pl_coal_event","folder":"tf","game":"Team Fortress","app_id":440,"player_count":23,"max_players":24,"Bots":0,"server_type":"Dedicated","server_os":"Linux","password":true,"vac":true,"version":"7742253","steam_id":85568392924866362,"keywords":["nocrits","nodmgspread","payload","uncletopia"],"game_id":440,"stv_port":27016,"stv_name":"Uncletopia | Chicago | 5 | All Maps | STV","players":[{"user_id":429,"name":"Chuburn","steam_id":76561199078803862,"connected_time":7557000000000,"state":"active","ping":61},{"user_id":459,"name":"kohi","steam_id":76561198319990195,"connected_time":5124000000000,"state":"active","ping":87},{"user_id":511,"name":"‚àÄ…ê","steam_id":76561198139718219,"connected_time":289000000000,"state":"active","ping":65},{"user_id":494,"name":"Kevin","steam_id":76561198359971852,"connected_time":1701000000000,"state":"active","ping":65},{"user_id":512,"name":"lwyr","steam_id":76561198007982579,"connected_time":261000000000,"state":"active","ping":58},{"user_id":513,"name":"segway cop","steam_id":76561198225609936,"connected_time":135000000000,"state":"active","ping":52},{"user_id":503,"name":"technoninja395","steam_id":76561199368978007,"connected_time":973000000000,"state":"active","ping":65},{"user_id":460,"name":"HollyBlocky","steam_id":76561198030156100,"connected_time":5119000000000,"state":"active","ping":72},{"user_id":423,"name":"artemisjackson2","steam_id":76561199094686268,"connected_time":7978000000000,"state":"active","ping":60},{"user_id":489,"name":"Mr. Ruckus","steam_id":76561198339566190,"connected_time":1996000000000,"state":"active","ping":82},{"user_id":520,"name":"Smet19","steam_id":76561198118455606,"connected_time":41000000000,"state":"active","ping":61},{"user_id":508,"name":"Aster","steam_id":76561198037920420,"connected_time":547000000000,"state":"active","ping":106},{"user_id":510,"name":"TheKyleB","steam_id":76561198202515104,"connected_time":438000000000,"state":"active","ping":104},{"user_id":514,"name":"amazing","steam_id":76561198386233160,"connected_time":114000000000,"state":"active","ping":84},{"user_id":509,"name":"quandavious dinglebottom","steam_id":76561199078842978,"connected_time":463000000000,"state":"active","ping":62},{"user_id":517,"name":"nerb","steam_id":76561198038080028,"connected_time":76000000000,"state":"active","ping":95},{"user_id":470,"name":"‚ù§Dumpster Cat‚ù§","steam_id":76561199200969139,"connected_time":4060000000000,"state":"active","ping":110},{"user_id":469,"name":"PizzaPasta","steam_id":76561199125109082,"connected_time":4357000000000,"state":"active","ping":83},{"user_id":516,"name":"french press of bel-air","steam_id":76561198024315203,"connected_time":86000000000,"state":"active","ping":76},{"user_id":518,"name":"The Power","steam_id":76561198060566884,"connected_time":64000000000,"state":"active","ping":138},{"user_id":465,"name":"Nassu","steam_id":76561198147367577,"connected_time":4918000000000,"state":"active","ping":65},{"user_id":519,"name":"Dr Oshawott","steam_id":76561198042021629,"connected_time":62000000000,"state":"active","ping":63},{"user_id":506,"name":"bad","steam_id":76561198287124402,"connected_time":610000000000,"state":"active","ping":79}]},{"server_id":37,"name":"Uncletopia | Chicago | 6 | All Maps","name_short":"chi-6","host":"chi-2.us.uncletopia.com","port":27025,"enabled":true,"region":"us-central","cc":"us","latitude":41.881832,"longitude":-87.62318,"reserved":0,"last_update":"0001-01-01T00:00:00Z","name_a2s":"Uncletopia | Chicago | 6 | All Maps","protocol":17,"map":"pl_borneo","folder":"tf","game":"Team Fortress","app_id":440,"player_count":24,"max_players":24,"Bots":0,"server_type":"Dedicated","server_os":"Linux","password":true,"vac":true,"version":"7742253","steam_id":85568392924866363,"keywords":["nocrits","nodmgspread","payload","uncletopia"],"game_id":440,"stv_port":27026,"stv_name":"Uncletopia | Chicago | 6 | All Maps | STV","players":[{"user_id":234,"name":"the dingler man","steam_id":76561199099203623,"connected_time":1127000000000,"state":"active","ping":90},{"user_id":235,"name":"Anisthoptera","steam_id":76561198089015294,"connected_time":1010000000000,"state":"active","ping":99},{"user_id":189,"name":"Razz","steam_id":76561198158027533,"connected_time":2991000000000,"state":"active","ping":51},{"user_id":190,"name":"t.tv/stabslive","steam_id":76561198293116584,"connected_time":2941000000000,"state":"active","ping":75},{"user_id":177,"name":"Sticxs","steam_id":76561198053369354,"connected_time":4064000000000,"state":"active","ping":67},{"user_id":153,"name":"Ap1hw","steam_id":76561199122883466,"connected_time":5183000000000,"state":"active","ping":159},{"user_id":231,"name":"zabes","steam_id":76561199066803158,"connected_time":1367000000000,"state":"active","ping":71},{"user_id":227,"name":"1920","steam_id":76561198111669774,"connected_time":1410000000000,"state":"active","ping":49},{"user_id":173,"name":"Wilhelmktx","steam_id":76561198158102295,"connected_time":4201000000000,"state":"active","ping":64},{"user_id":228,"name":"Goat","steam_id":76561198109415404,"connected_time":1405000000000,"state":"active","ping":164},{"user_id":207,"name":"Ultra Dripstinct","steam_id":76561199059257565,"connected_time":2317000000000,"state":"active","ping":92},{"user_id":250,"name":"tim-","steam_id":76561199119101315,"connected_time":340000000000,"state":"active","ping":87},{"user_id":249,"name":"ADHDking","steam_id":76561198116099017,"connected_time":444000000000,"state":"active","ping":56},{"user_id":232,"name":"-TG morlo^","steam_id":76561198249301650,"connected_time":1363000000000,"state":"active","ping":154},{"user_id":248,"name":"yeahelliot","steam_id":76561198167299951,"connected_time":469000000000,"state":"active","ping":62},{"user_id":251,"name":"Sicko Mode (Chris Pratt Cover)","steam_id":76561198315786174,"connected_time":335000000000,"state":"active","ping":80},{"user_id":237,"name":"guamguy01","steam_id":76561198127707782,"connected_time":962000000000,"state":"active","ping":85},{"user_id":254,"name":"Chrisont","steam_id":76561198259800070,"connected_time":146000000000,"state":"active","ping":81},{"user_id":247,"name":"toastman","steam_id":76561198207073088,"connected_time":536000000000,"state":"active","ping":67},{"user_id":245,"name":"thomasdee725","steam_id":76561199189526173,"connected_time":643000000000,"state":"active","ping":80},{"user_id":220,"name":"Im totally a hacker","steam_id":76561198888005736,"connected_time":1693000000000,"state":"active","ping":74},{"user_id":243,"name":"Thessalonians 5:26","steam_id":76561199236719411,"connected_time":713000000000,"state":"active","ping":69},{"user_id":244,"name":"noot noot","steam_id":76561198318446417,"connected_time":712000000000,"state":"active","ping":76},{"user_id":255,"name":"cornealvase9152","steam_id":76561198851958868,"connected_time":117000000000,"state":"active","ping":104}]},{"server_id":38,"name":"Uncletopia | Chicago | 7 | Stopwatch Beta","name_short":"chi-7","host":"chi-2.us.uncletopia.com","port":27035,"enabled":true,"region":"us-central","cc":"us","latitude":41.881832,"longitude":-87.62318,"reserved":0,"last_update":"0001-01-01T00:00:00Z","name_a2s":"Uncletopia | Chicago | 7 | Stopwatch Beta","protocol":17,"map":"workshop/pl_badwater_pro_v12.ugc2142942074","folder":"tf","game":"Team Fortress","app_id":440,"player_count":0,"max_players":24,"Bots":0,"server_type":"Dedicated","server_os":"Linux","password":true,"vac":true,"version":"7742253","steam_id":85568392924866364,"keywords":["nocrits","nodmgspread","payload","uncletopia"],"game_id":440,"stv_port":27036,"stv_name":"Uncletopia | Chicago | 7 | Stopwatch Beta | STV","players":null},{"server_id":39,"name":"Uncletopia | Chicago | 8 | Community","name_short":"chi-8","host":"chi-2.us.uncletopia.com","port":27045,"enabled":true,"region":"us-central","cc":"us","latitude":41.881832,"longitude":-87.62318,"reserved":0,"last_update":"0001-01-01T00:00:00Z","name_a2s":"Uncletopia | Chicago | 8 | Community","protocol":17,"map":"workshop/rd_asteroid_redux_rc9.ugc2154902912","folder":"tf","game":"Team Fortress","app_id":440,"player_count":0,"max_players":24,"Bots":0,"server_type":"Dedicated","server_os":"Linux","password":true,"vac":true,"version":"7742253","steam_id":85568392924866365,"keywords":["beta","nocrits","nodmgspread","rd","uncletopia"],"game_id":440,"stv_port":27046,"stv_name":"Uncletopia | Chicago | 8 | Community | STV","players":null},{"server_id":8,"name":"Uncletopia | Dallas | 1 | All Maps","name_short":"dal-1","host":"dal-1.us.uncletopia.com","port":27015,"enabled":true,"region":"us-central","cc":"us","latitude":32.779167,"longitude":-96.80889,"reserved":0,"last_update":"0001-01-01T00:00:00Z","name_a2s":"Uncletopia | Dallas | 1 | All Maps","protocol":17,"map":"pl_upward","folder":"tf","game":"Team Fortress","app_id":440,"player_count":22,"max_players":24,"Bots":0,"server_type":"Dedicated","server_os":"Linux","password":true,"vac":true,"version":"7742253","steam_id":85568392924469986,"keywords":["nocrits","nodmgspread","payload","uncletopia"],"game_id":440,"stv_port":27016,"stv_name":"Uncletopia | Dallas | 1 | All Maps | STV","players":[{"user_id":393,"name":"Rin \"Hindwing\" Redtail","steam_id":76561199074865638,"connected_time":2514000000000,"state":"active","ping":55},{"user_id":408,"name":"Bootstrap","steam_id":76561199110353614,"connected_time":1991000000000,"state":"active","ping":85},{"user_id":448,"name":"exotic.luke","steam_id":76561198126466112,"connected_time":7000000000,"state":"spawning","ping":58},{"user_id":440,"name":"KGbrody","steam_id":76561198847830882,"connected_time":476000000000,"state":"active","ping":40},{"user_id":447,"name":"Giver of Head","steam_id":76561198119266943,"connected_time":62000000000,"state":"active","ping":76},{"user_id":391,"name":"Modern Day Wizard","steam_id":76561198354689252,"connected_time":2570000000000,"state":"active","ping":58},{"user_id":446,"name":"Portabello","steam_id":76561198092412930,"connected_time":170000000000,"state":"active","ping":77},{"user_id":364,"name":"Shalom","steam_id":76561198410005222,"connected_time":3912000000000,"state":"active","ping":61},{"user_id":444,"name":"DarkMatterKid","steam_id":76561198264356024,"connected_time":335000000000,"state":"active","ping":81},{"user_id":433,"name":"breathing meat donut","steam_id":76561198123566649,"connected_time":687000000000,"state":"active","ping":58},{"user_id":428,"name":"GW4D","steam_id":76561198268791283,"connected_time":800000000000,"state":"active","ping":78},{"user_id":434,"name":"[LINUX] F2P=S*(M/B)+H || Spy!","steam_id":76561198093538786,"connected_time":684000000000,"state":"active","ping":45},{"user_id":435,"name":"rainbowmaster25!","steam_id":76561199215255414,"connected_time":662000000000,"state":"active","ping":70},{"user_id":449,"name":"5yt","steam_id":76561198041643833,"connected_time":0,"state":"connecting","ping":0},{"user_id":445,"name":"Zeemii","steam_id":76561198809299581,"connected_time":254000000000,"state":"active","ping":65},{"user_id":437,"name":"COYOTE","steam_id":76561198988066988,"connected_time":619000000000,"state":"active","ping":93},{"user_id":400,"name":"Gian","steam_id":76561198041434512,"connected_time":2290000000000,"state":"active","ping":105},{"user_id":295,"name":"hikari ‚ô•","steam_id":76561198265633146,"connected_time":10472000000000,"state":"active","ping":73},{"user_id":387,"name":"Elmer J. Fapp","steam_id":76561198049339994,"connected_time":2811000000000,"state":"active","ping":62},{"user_id":442,"name":"Gardenof_onion","steam_id":76561198182087497,"connected_time":420000000000,"state":"active","ping":50},{"user_id":438,"name":"Double Donk Gaming","steam_id":76561198209881263,"connected_time":612000000000,"state":"active","ping":86},{"user_id":441,"name":"Professor Sex","steam_id":76561198396414319,"connected_time":470000000000,"state":"active","ping":76}]},{"server_id":108,"name":"Uncletopia | Dallas | 2 | All Maps","name_short":"dal-2","host":"dal-1.us.uncletopia.com","port":27025,"enabled":true,"region":"us-central","cc":"us","latitude":32.779167,"longitude":-96.80889,"reserved":0,"last_update":"0001-01-01T00:00:00Z","name_a2s":"Uncletopia | Dallas | 2 | All Maps","protocol":17,"map":"koth_cascade","folder":"tf","game":"Team Fortress","app_id":440,"player_count":0,"max_players":24,"Bots":0,"server_type":"Dedicated","server_os":"Linux","password":true,"vac":true,"version":"7742253","steam_id":85568392924469988,"keywords":["cp","nocrits","nodmgspread","uncletopia"],"game_id":440,"stv_port":27026,"stv_name":"Uncletopia | Dallas | 2 | All Maps | STV","players":null},{"server_id":5,"name":"Uncletopia | Frankfurt | 1 | All Maps","name_short":"frk-1","host":"frk-1.de.uncletopia.com","port":27015,"enabled":true,"region":"eu","cc":"de","latitude":50.110924,"longitude":8.682127,"reserved":0,"last_update":"0001-01-01T00:00:00Z","name_a2s":"Uncletopia | Frankfurt | 1 | All Maps","protocol":17,"map":"pl_borneo","folder":"tf","game":"Team Fortress","app_id":440,"player_count":24,"max_players":24,"Bots":0,"server_type":"Dedicated","server_os":"Linux","password":true,"vac":true,"version":"7742253","steam_id":85568392924469989,"keywords":["nocrits","nodmgspread","payload","uncletopia"],"game_id":440,"stv_port":27016,"stv_name":"Uncletopia | Frankfurt | 1 | All Maps | STV","players":[{"user_id":672,"name":"murf","steam_id":76561199184831395,"connected_time":546000000000,"state":"active","ping":48},{"user_id":655,"name":"disturbing polish father","steam_id":76561198126398022,"connected_time":2419000000000,"state":"active","ping":74},{"user_id":673,"name":"TSx* Naxer","steam_id":76561198011986779,"connected_time":487000000000,"state":"active","ping":61},{"user_id":666,"name":"leonardini.w #SaveTF2","steam_id":76561199097963071,"connected_time":2002000000000,"state":"active","ping":82},{"user_id":671,"name":"Viperense","steam_id":76561198036206811,"connected_time":996000000000,"state":"active","ping":77},{"user_id":607,"name":"donk donk","steam_id":76561197980736364,"connected_time":7717000000000,"state":"active","ping":75},{"user_id":653,"name":"..","steam_id":76561198380752444,"connected_time":2426000000000,"state":"active","ping":69},{"user_id":649,"name":"freemantel30","steam_id":76561198065669800,"connected_time":3642000000000,"state":"active","ping":50},{"user_id":657,"name":"jovi_","steam_id":76561198449280552,"connected_time":2383000000000,"state":"active","ping":65},{"user_id":615,"name":"zero","steam_id":76561198055365234,"connected_time":7245000000000,"state":"active","ping":75},{"user_id":670,"name":"Makeways","steam_id":76561198274466477,"connected_time":1175000000000,"state":"active","ping":74},{"user_id":674,"name":"Oupa [·¥ô-Œº]","steam_id":76561198418538887,"connected_time":482000000000,"state":"active","ping":91},{"user_id":638,"name":"Luke SpyWalker","steam_id":76561198008643276,"connected_time":4860000000000,"state":"active","ping":58},{"user_id":614,"name":"Sneakykindaham","steam_id":76561198158743287,"connected_time":7297000000000,"state":"active","ping":55},{"user_id":683,"name":"ToniGAM3S","steam_id":76561198128605351,"connected_time":41000000000,"state":"active","ping":53},{"user_id":675,"name":"Utvar","steam_id":76561198131838460,"connected_time":463000000000,"state":"active","ping":59},{"user_id":676,"name":"crouds","steam_id":76561198094204545,"connected_time":426000000000,"state":"active","ping":74},{"user_id":654,"name":"CRWND","steam_id":76561198329810027,"connected_time":2425000000000,"state":"active","ping":56},{"user_id":668,"name":"Bobo","steam_id":76561198052308399,"connected_time":1929000000000,"state":"active","ping":48},{"user_id":677,"name":"Mankor","steam_id":76561198020439322,"connected_time":421000000000,"state":"active","ping":54},{"user_id":678,"name":"TSx* Dante","steam_id":76561198139309331,"connected_time":417000000000,"state":"active","ping":61},{"user_id":679,"name":"Darkmaen","steam_id":76561198060543390,"connected_time":408000000000,"state":"active","ping":47},{"user_id":601,"name":"Hexagon","steam_id":76561198151205758,"connected_time":8502000000000,"state":"active","ping":46},{"user_id":682,"name":"Brob Isn't Real","steam_id":76561199105529860,"connected_time":65000000000,"state":"active","ping":82}]},{"server_id":110,"name":"Uncletopia | Frankfurt | 2 | All Maps","name_short":"frk-2","host":"frk-1.de.uncletopia.com","port":27025,"enabled":true,"region":"eu","cc":"de","latitude":50.110924,"longitude":8.682127,"reserved":0,"last_update":"0001-01-01T00:00:00Z","name_a2s":"Uncletopia | Frankfurt | 2 | All Maps","protocol":17,"map":"pl_pier","folder":"tf","game":"Team Fortress","app_id":440,"player_count":24,"max_players":24,"Bots":0,"server_type":"Dedicated","server_os":"Linux","password":true,"vac":true,"version":"7742253","steam_id":85568392924469990,"keywords":["nocrits","nodmgspread","payload","uncletopia"],"game_id":440,"stv_port":27026,"stv_name":"Uncletopia | Frankfurt | 2 | All Maps | STV","players":[{"user_id":441,"name":"Spectre","steam_id":76561198025652246,"connected_time":197000000000,"state":"active","ping":136},{"user_id":421,"name":"henider","steam_id":76561198887181229,"connected_time":1075000000000,"state":"active","ping":46},{"user_id":443,"name":"Towercat","steam_id":76561198013141793,"connected_time":51000000000,"state":"active","ping":62},{"user_id":420,"name":"Parapluie","steam_id":76561197971640301,"connected_time":1092000000000,"state":"active","ping":45},{"user_id":444,"name":"Regal Dreamer","steam_id":76561197997588945,"connected_time":38000000000,"state":"spawning","ping":88},{"user_id":310,"name":"MagicTITIKAKA","steam_id":76561198129509548,"connected_time":7464000000000,"state":"active","ping":98},{"user_id":433,"name":"tamz","steam_id":76561198146873972,"connected_time":625000000000,"state":"active","ping":34},{"user_id":407,"name":"Glass Kon","steam_id":76561198000042666,"connected_time":1538000000000,"state":"active","ping":144},{"user_id":432,"name":"–¢—Ä—É–ø –í–æ–ª–æ–¥—è","steam_id":76561198035718457,"connected_time":657000000000,"state":"active","ping":84},{"user_id":440,"name":"wads","steam_id":76561198175406562,"connected_time":240000000000,"state":"active","ping":61},{"user_id":330,"name":"It's clear that it's not ok","steam_id":76561198123064906,"connected_time":5983000000000,"state":"active","ping":72},{"user_id":442,"name":"ball sniffa","steam_id":76561199022705805,"connected_time":91000000000,"state":"active","ping":58},{"user_id":445,"name":"Boycie","steam_id":76561198179116027,"connected_time":27000000000,"state":"active","ping":199},{"user_id":398,"name":"Tengu","steam_id":76561198024146649,"connected_time":1766000000000,"state":"active","ping":48},{"user_id":417,"name":"rambunctious","steam_id":76561198202278348,"connected_time":1211000000000,"state":"active","ping":69},{"user_id":435,"name":"Dolphin2011","steam_id":76561197997323419,"connected_time":574000000000,"state":"active","ping":86},{"user_id":399,"name":"MordyQ","steam_id":76561198025613597,"connected_time":1757000000000,"state":"active","ping":93},{"user_id":447,"name":"Mor'du","steam_id":76561198274105878,"connected_time":11000000000,"state":"active","ping":99},{"user_id":427,"name":"haah waaw","steam_id":76561197997807016,"connected_time":865000000000,"state":"active","ping":75},{"user_id":446,"name":"Gorilla","steam_id":76561199250963099,"connected_time":14000000000,"state":"active","ping":69},{"user_id":363,"name":"BeS","steam_id":76561198045752247,"connected_time":4487000000000,"state":"active","ping":58},{"user_id":436,"name":"ACG_Dubsy","steam_id":76561198797308565,"connected_time":567000000000,"state":"active","ping":80},{"user_id":412,"name":"onku","steam_id":76561199230709660,"connected_time":1344000000000,"state":"active","ping":45},{"user_id":448,"name":"Ecton","steam_id":76561198025103720,"connected_time":7000000000,"state":"spawning","ping":60}]},{"server_id":308,"name":"Uncletopia | Frankfurt | 3 | All Maps","name_short":"frk-3","host":"frk-1.de.uncletopia.com","port":27035,"enabled":true,"region":"eu","cc":"de","latitude":50.110924,"longitude":8.682127,"reserved":0,"last_update":"0001-01-01T00:00:00Z","name_a2s":"Uncletopia | Frankfurt | 3 | All Maps","protocol":17,"map":"koth_suijin","folder":"tf","game":"Team Fortress","app_id":440,"player_count":8,"max_players":24,"Bots":0,"server_type":"Dedicated","server_os":"Linux","password":true,"vac":true,"version":"7742253","steam_id":85568392924504274,"keywords":["cp","nocrits","nodmgspread","uncletopia"],"game_id":440,"stv_port":27036,"stv_name":"Uncletopia | Frankfurt | 3 | All Maps | STV","players":[{"user_id":122,"name":"BaTTLe","steam_id":76561198003936517,"connected_time":86000000000,"state":"active","ping":60},{"user_id":102,"name":"Slav-matros","steam_id":76561198251977912,"connected_time":2256000000000,"state":"active","ping":52},{"user_id":29,"name":"jingleboob","steam_id":76561198097507847,"connected_time":8248000000000,"state":"active","ping":63},{"user_id":31,"name":"jingleelf coordinator","steam_id":76561198170609049,"connected_time":8165000000000,"state":"active","ping":68},{"user_id":118,"name":"The Trimp Squire","steam_id":76561198367203640,"connected_time":1202000000000,"state":"active","ping":48},{"user_id":112,"name":"Midoriaga","steam_id":76561198010699090,"connected_time":1580000000000,"state":"active","ping":45},{"user_id":82,"name":"LasseMedQ","steam_id":76561198088534679,"connected_time":4826000000000,"state":"active","ping":60},{"user_id":115,"name":"Z'nacky09","steam_id":76561198041994406,"connected_time":1281000000000,"state":"active","ping":69}]},{"server_id":309,"name":"Uncletopia | Frankfurt | 4 | All Maps","name_short":"frk-4","host":"frk-1.de.uncletopia.com","port":27045,"enabled":true,"region":"eu","cc":"de","latitude":50.110924,"longitude":8.682127,"reserved":0,"last_update":"0001-01-01T00:00:00Z","name_a2s":"Uncletopia | Frankfurt | 4 | All Maps","protocol":17,"map":"cp_snakewater_final1","folder":"tf","game":"Team Fortress","app_id":440,"player_count":20,"max_players":24,"Bots":0,"server_type":"Dedicated","server_os":"Linux","password":true,"vac":true,"version":"7742253","steam_id":85568392924504275,"keywords":["cp","nocrits","nodmgspread","uncletopia"],"game_id":440,"stv_port":27046,"stv_name":"Uncletopia | Frankfurt | 4 | All Maps | STV","players":[{"user_id":452,"name":"1 month Big Earner challenge","steam_id":76561198799097492,"connected_time":2659000000000,"state":"active","ping":46},{"user_id":469,"name":"clraffell","steam_id":76561198904469197,"connected_time":2137000000000,"state":"active","ping":66},{"user_id":471,"name":"pizzahawaiiEnjoyerwithbigdick","steam_id":76561198079752629,"connected_time":1895000000000,"state":"active","ping":57},{"user_id":481,"name":"nobody","steam_id":76561198180637374,"connected_time":779000000000,"state":"active","ping":84},{"user_id":473,"name":"xing xilling","steam_id":76561198053394831,"connected_time":1467000000000,"state":"active","ping":59},{"user_id":474,"name":"big boi","steam_id":76561198033467299,"connected_time":1175000000000,"state":"active","ping":122},{"user_id":475,"name":"random dude","steam_id":76561199312009998,"connected_time":1157000000000,"state":"active","ping":65},{"user_id":462,"name":"arisu","steam_id":76561199010825303,"connected_time":2484000000000,"state":"active","ping":69},{"user_id":485,"name":"lofi hip hop beats","steam_id":76561198348048790,"connected_time":36000000000,"state":"active","ping":67},{"user_id":457,"name":"zezoca 75","steam_id":76561198880439803,"connected_time":2590000000000,"state":"active","ping":91},{"user_id":455,"name":"My pee is red","steam_id":76561198219126032,"connected_time":2607000000000,"state":"active","ping":74},{"user_id":349,"name":"Charles Darwin","steam_id":76561197973496139,"connected_time":11291000000000,"state":"active","ping":58},{"user_id":483,"name":"olemonade57","steam_id":76561198979531971,"connected_time":386000000000,"state":"active","ping":65},{"user_id":477,"name":"Haunted Holmes","steam_id":76561198092371786,"connected_time":1119000000000,"state":"active","ping":58},{"user_id":463,"name":"rosepinkyfuzz","steam_id":76561198018546334,"connected_time":2479000000000,"state":"active","ping":61},{"user_id":478,"name":"Qwaden","steam_id":76561198881784698,"connected_time":1111000000000,"state":"active","ping":72},{"user_id":482,"name":"Samwise","steam_id":76561198160115838,"connected_time":643000000000,"state":"active","ping":68},{"user_id":465,"name":"htraB","steam_id":76561198043122677,"connected_time":2402000000000,"state":"active","ping":55},{"user_id":466,"name":"Daddy Donovan","steam_id":76561198140938904,"connected_time":2395000000000,"state":"active","ping":62},{"user_id":467,"name":"the joy of recycling","steam_id":76561198138509827,"connected_time":2379000000000,"state":"active","ping":77}]},{"server_id":310,"name":"Uncletopia | Frankfurt | 5 | All Maps","name_short":"frk-5","host":"frk-1.de.uncletopia.com","port":27055,"enabled":true,"region":"eu","cc":"de","latitude":50.110924,"longitude":8.682127,"reserved":0,"last_update":"0001-01-01T00:00:00Z","name_a2s":"Uncletopia | Frankfurt | 5 | All Maps","protocol":17,"map":"pl_swiftwater_final1","folder":"tf","game":"Team Fortress","app_id":440,"player_count":24,"max_players":24,"Bots":0,"server_type":"Dedicated","server_os":"Linux","password":true,"vac":true,"version":"7742253","steam_id":85568392924504277,"keywords":["nocrits","nodmgspread","payload","uncletopia"],"game_id":440,"stv_port":27056,"stv_name":"Uncletopia | Frankfurt | 5 | All Maps | STV","players":[{"user_id":247,"name":"MrBanana","steam_id":76561198116021623,"connected_time":1253000000000,"state":"active","ping":45},{"user_id":243,"name":"Lazulura","steam_id":76561198103569919,"connected_time":1562000000000,"state":"active","ping":92},{"user_id":214,"name":"RebirthInFire","steam_id":76561198200555755,"connected_time":3101000000000,"state":"active","ping":51},{"user_id":244,"name":"Pootis","steam_id":76561198215703496,"connected_time":1341000000000,"state":"active","ping":50},{"user_id":220,"name":"DogBazooka23","steam_id":76561198251943518,"connected_time":2999000000000,"state":"active","ping":58},{"user_id":262,"name":"Boyarishnik","steam_id":76561198986324207,"connected_time":248000000000,"state":"active","ping":76},{"user_id":233,"name":"Condigium","steam_id":76561198838929185,"connected_time":2056000000000,"state":"active","ping":51},{"user_id":234,"name":"Kroto","steam_id":76561198056233760,"connected_time":2038000000000,"state":"active","ping":60},{"user_id":257,"name":"Brica","steam_id":76561198196324799,"connected_time":621000000000,"state":"active","ping":67},{"user_id":194,"name":"Liba","steam_id":76561198118006754,"connected_time":4080000000000,"state":"active","ping":75},{"user_id":263,"name":"FishNachoz","steam_id":76561198026519426,"connected_time":237000000000,"state":"active","ping":76},{"user_id":198,"name":"cl","steam_id":76561199436640904,"connected_time":3943000000000,"state":"active","ping":66},{"user_id":255,"name":"Hetmanych","steam_id":76561198870926865,"connected_time":719000000000,"state":"active","ping":50},{"user_id":238,"name":"dgz","steam_id":76561197979345019,"connected_time":1993000000000,"state":"active","ping":89},{"user_id":254,"name":"Alfred2.2","steam_id":76561198339314744,"connected_time":881000000000,"state":"active","ping":64},{"user_id":245,"name":"Zeppelin","steam_id":76561198154867991,"connected_time":1328000000000,"state":"active","ping":49},{"user_id":193,"name":"GOUD","steam_id":76561198071823072,"connected_time":4129000000000,"state":"active","ping":76},{"user_id":206,"name":"GodOfGobboz","steam_id":76561198154677956,"connected_time":3718000000000,"state":"active","ping":68},{"user_id":261,"name":"Dr Sex","steam_id":76561198029044617,"connected_time":472000000000,"state":"active","ping":64},{"user_id":226,"name":"Barnaby","steam_id":76561198130191090,"connected_time":2328000000000,"state":"active","ping":69},{"user_id":242,"name":"Tank","steam_id":76561199059174576,"connected_time":1631000000000,"state":"active","ping":119},{"user_id":260,"name":"DvB","steam_id":76561198066357763,"connected_time":522000000000,"state":"active","ping":132},{"user_id":258,"name":"viddy","steam_id":76561198004383856,"connected_time":619000000000,"state":"active","ping":106},{"user_id":259,"name":"AmadStatistician","steam_id":76561198163654770,"connected_time":598000000000,"state":"active","ping":61}]},{"server_id":311,"name":"Uncletopia | Frankfurt | 6 | All Maps","name_short":"frk-6","host":"frk-1.de.uncletopia.com","port":27065,"enabled":true,"region":"eu","cc":"de","latitude":50.110924,"longitude":8.682127,"reserved":0,"last_update":"0001-01-01T00:00:00Z","name_a2s":"Uncletopia | Frankfurt | 6 | All Maps","protocol":17,"map":"pl_barnblitz","folder":"tf","game":"Team Fortress","app_id":440,"player_count":24,"max_players":24,"Bots":0,"server_type":"Dedicated","server_os":"Linux","password":true,"vac":true,"version":"7742253","steam_id":85568392924504278,"keywords":["nocrits","nodmgspread","payload","uncletopia"],"game_id":440,"stv_port":27066,"stv_name":"Uncletopia | Frankfurt | 6 | All Maps | STV","players":[{"user_id":632,"name":"Tohtori gerhard (official)","steam_id":76561198835081622,"connected_time":298000000000,"state":"active","ping":101},{"user_id":633,"name":"lolimsogreat21","steam_id":76561199052033788,"connected_time":287000000000,"state":"active","ping":69},{"user_id":630,"name":"JIJI","steam_id":76561198137597283,"connected_time":618000000000,"state":"active","ping":99},{"user_id":634,"name":"zasvicuful","steam_id":76561198186803294,"connected_time":281000000000,"state":"active","ping":75},{"user_id":613,"name":"o_o","steam_id":76561198113045011,"connected_time":1324000000000,"state":"active","ping":92},{"user_id":635,"name":"Mango Fett","steam_id":76561198287346193,"connected_time":254000000000,"state":"active","ping":70},{"user_id":588,"name":"TheGreenWolf","steam_id":76561198170607033,"connected_time":2935000000000,"state":"active","ping":74},{"user_id":606,"name":"Welder","steam_id":76561198355300561,"connected_time":1513000000000,"state":"active","ping":64},{"user_id":576,"name":"After8","steam_id":76561198090750865,"connected_time":4254000000000,"state":"active","ping":74},{"user_id":615,"name":"Uncle Owen","steam_id":76561198157999291,"connected_time":1291000000000,"state":"active","ping":89},{"user_id":617,"name":"Ruben Zo","steam_id":76561198063855616,"connected_time":1243000000000,"state":"active","ping":75},{"user_id":533,"name":"a medical potato(f2p)","steam_id":76561199152936401,"connected_time":7645000000000,"state":"active","ping":96},{"user_id":636,"name":"chuumin","steam_id":76561198993127867,"connected_time":160000000000,"state":"active","ping":96},{"user_id":619,"name":"‚ú™Zeco","steam_id":76561198071365472,"connected_time":1060000000000,"state":"active","ping":94},{"user_id":620,"name":"szebniok ‚òÉ‚ùÑüéÑ","steam_id":76561198031435395,"connected_time":1053000000000,"state":"active","ping":61},{"user_id":637,"name":"SIUUUUU","steam_id":76561199023265517,"connected_time":144000000000,"state":"active","ping":41},{"user_id":638,"name":"SpilledMilk","steam_id":76561198174123971,"connected_time":140000000000,"state":"active","ping":50},{"user_id":622,"name":"Butt Hurling","steam_id":76561198093229786,"connected_time":941000000000,"state":"active","ping":64},{"user_id":627,"name":"RazOverdrive","steam_id":76561198000794210,"connected_time":714000000000,"state":"active","ping":55},{"user_id":596,"name":"ScarredPixel123","steam_id":76561199165112703,"connected_time":2804000000000,"state":"active","ping":82},{"user_id":579,"name":"Taipan66","steam_id":76561198154094423,"connected_time":3791000000000,"state":"active","ping":73},{"user_id":639,"name":"OrazioPala","steam_id":76561199074174856,"connected_time":130000000000,"state":"active","ping":66},{"user_id":625,"name":"Frog","steam_id":76561198043981067,"connected_time":844000000000,"state":"active","ping":74},{"user_id":601,"name":"Saba","steam_id":76561198158253332,"connected_time":1927000000000,"state":"active","ping":95}]},{"server_id":23,"name":"Uncletopia | Frankfurt | 7 | Stopwatch Beta","name_short":"frk-7","host":"frk-1.de.uncletopia.com","port":27075,"enabled":true,"region":"eu","cc":"de","latitude":50.110924,"longitude":8.682127,"reserved":0,"last_update":"0001-01-01T00:00:00Z","name_a2s":"Uncletopia | Frankfurt | 7 | Stopwatch Beta","protocol":17,"map":"pl_upward","folder":"tf","game":"Team Fortress","app_id":440,"player_count":2,"max_players":24,"Bots":0,"server_type":"Dedicated","server_os":"Linux","password":true,"vac":true,"version":"7742253","steam_id":85568392924742827,"keywords":["nocrits","nodmgspread","payload","uncletopia"],"game_id":440,"stv_port":27076,"stv_name":"Uncletopia | Frankfurt | 7 | Stopwatch Beta | STV","players":[{"user_id":24,"name":"Canard","steam_id":76561199049344513,"connected_time":196000000000,"state":"active","ping":56},{"user_id":25,"name":"sealboi8","steam_id":76561199352872924,"connected_time":131000000000,"state":"active","ping":75}]},{"server_id":24,"name":"Uncletopia | Frankfurt | 8 | Community","name_short":"frk-8","host":"frk-1.de.uncletopia.com","port":27085,"enabled":true,"region":"eu","cc":"de","latitude":50.110924,"longitude":8.682127,"reserved":0,"last_update":"0001-01-01T00:00:00Z","name_a2s":"Uncletopia | Frankfurt | 8 | Community","protocol":17,"map":"workshop/koth_ashville_final.ugc2130459942","folder":"tf","game":"Team Fortress","app_id":440,"player_count":0,"max_players":24,"Bots":0,"server_type":"Dedicated","server_os":"Linux","password":true,"vac":true,"version":"7742253","steam_id":85568392924742828,"keywords":["cp","nocrits","nodmgspread","uncletopia"],"game_id":440,"stv_port":27086,"stv_name":"Uncletopia | Frankfurt | 8 | Community | STV","players":null},{"server_id":202,"name":"Uncletopia | Hong Kong | 1 | All Maps","name_short":"hgk-1","host":"hgk-1.hk.uncletopia.com","port":27015,"enabled":true,"region":"asia","cc":"hk","latitude":22.302711,"longitude":114.177216,"reserved":0,"last_update":"0001-01-01T00:00:00Z","name_a2s":"Uncletopia | Hong Kong | 1 | All Maps","protocol":17,"map":"pl_borneo","folder":"tf","game":"Team Fortress","app_id":440,"player_count":0,"max_players":24,"Bots":0,"server_type":"Dedicated","server_os":"Linux","password":true,"vac":true,"version":"7742253","steam_id":85568392924494504,"keywords":["nocrits","nodmgspread","payload","uncletopia"],"game_id":440,"stv_port":27016,"stv_name":"Uncletopia | Hong Kong | 1 | All Maps | STV","players":null},{"server_id":1,"name":"Uncletopia | Los Angeles | 1 | All Maps","name_short":"lax-1","host":"lax-1.us.uncletopia.com","port":27015,"enabled":true,"region":"us-west","cc":"us","latitude":33.94279,"longitude":-118.41004,"reserved":0,"last_update":"0001-01-01T00:00:00Z","name_a2s":"Uncletopia | Los Angeles | 1 | All Maps","protocol":17,"map":"koth_lakeside_final","folder":"tf","game":"Team Fortress","app_id":440,"player_count":0,"max_players":24,"Bots":0,"server_type":"Dedicated","server_os":"Linux","password":true,"vac":true,"version":"7742253","steam_id":85568392924469991,"keywords":["cp","nocrits","nodmgspread","uncletopia"],"game_id":440,"stv_port":27016,"stv_name":"Uncletopia | Los Angeles | 1 | All Maps | STV","players":null},{"server_id":112,"name":"Uncletopia | Los Angeles | 2 | All Maps","name_short":"lax-2","host":"lax-1.us.uncletopia.com","port":27025,"enabled":true,"region":"us-west","cc":"us","latitude":33.94279,"longitude":-118.41004,"reserved":0,"last_update":"0001-01-01T00:00:00Z","name_a2s":"Uncletopia | Los Angeles | 2 | All Maps","protocol":17,"map":"pl_frontier_final","folder":"tf","game":"Team Fortress","app_id":440,"player_count":0,"max_players":24,"Bots":0,"server_type":"Dedicated","server_os":"Linux","password":true,"vac":true,"version":"7742253","steam_id":85568392924469992,"keywords":["nocrits","nodmgspread","payload","uncletopia"],"game_id":440,"stv_port":27026,"stv_name":"Uncletopia | Los Angeles | 2 | All Maps | STV","players":null},{"server_id":324,"name":"Uncletopia | Los Angeles | 3 | All Maps","name_short":"lax-3","host":"lax-1.us.uncletopia.com","port":27035,"enabled":true,"region":"us-west","cc":"us","latitude":33.94279,"longitude":-118.41004,"reserved":0,"last_update":"0001-01-01T00:00:00Z","name_a2s":"Uncletopia | Los Angeles | 3 | All Maps","protocol":17,"map":"koth_lakeside_final","folder":"tf","game":"Team Fortress","app_id":440,"player_count":0,"max_players":24,"Bots":0,"server_type":"Dedicated","server_os":"Linux","password":true,"vac":true,"version":"7742253","steam_id":85568392924510198,"keywords":["cp","nocrits","nodmgspread","uncletopia"],"game_id":440,"stv_port":27036,"stv_name":"Uncletopia | Los Angeles | 3 | All Maps | STV","players":null},{"server_id":25,"name":"Uncletopia | Los Angeles | 4 | Stopwatch Beta","name_short":"lax-4","host":"lax-1.us.uncletopia.com","port":27045,"enabled":true,"region":"us-west","cc":"us","latitude":33.94279,"longitude":-118.41004,"reserved":0,"last_update":"0001-01-01T00:00:00Z","name_a2s":"Uncletopia | Los Angeles | 4 | Stopwatch Beta","protocol":17,"map":"cp_snakewater_final1","folder":"tf","game":"Team Fortress","app_id":440,"player_count":0,"max_players":24,"Bots":0,"server_type":"Dedicated","server_os":"Linux","password":true,"vac":true,"version":"7742253","steam_id":85568392924510199,"keywords":["cp","nocrits","nodmgspread","uncletopia"],"game_id":440,"stv_port":27046,"stv_name":"Uncletopia | Los Angeles | 4 | Stopwatch Beta | STV","players":null},{"server_id":11,"name":"Uncletopia | London | 1 | All Maps","name_short":"lon-1","host":"lon-1.uk.uncletopia.com","port":27015,"enabled":true,"region":"eu","cc":"gb","latitude":51.509865,"longitude":-0.118092,"reserved":0,"last_update":"0001-01-01T00:00:00Z","name_a2s":"Uncletopia | London | 1 | All Maps","protocol":17,"map":"pl_upward","folder":"tf","game":"Team Fortress","app_id":440,"player_count":25,"max_players":24,"Bots":0,"server_type":"Dedicated","server_os":"Linux","password":true,"vac":true,"version":"7742253","steam_id":85568392924367362,"keywords":["nocrits","nodmgspread","payload","uncletopia"],"game_id":440,"stv_port":27016,"stv_name":"Uncletopia | London | 1 | All Maps | STV","players":[{"user_id":814,"name":"JohnarasGamer1","steam_id":76561198365929872,"connected_time":1409000000000,"state":"active","ping":84},{"user_id":692,"name":"sigma female","steam_id":76561198298576765,"connected_time":5020000000000,"state":"active","ping":64},{"user_id":824,"name":"|20BB)\u003eMach","steam_id":76561198952487564,"connected_time":933000000000,"state":"active","ping":90},{"user_id":839,"name":"MrXtr","steam_id":76561198966247397,"connected_time":11000000000,"state":"spawning","ping":69},{"user_id":826,"name":"under her spell","steam_id":76561198083017384,"connected_time":857000000000,"state":"active","ping":36},{"user_id":817,"name":"criminal","steam_id":76561198101597453,"connected_time":1377000000000,"state":"active","ping":58},{"user_id":672,"name":"‚ú™ J4Ck0","steam_id":76561198094911581,"connected_time":5304000000000,"state":"active","ping":50},{"user_id":819,"name":"LavenderJayJay","steam_id":76561198966667657,"connected_time":1291000000000,"state":"active","ping":46},{"user_id":785,"name":"ÏõÉ","steam_id":76561199026097466,"connected_time":2487000000000,"state":"active","ping":76},{"user_id":833,"name":"Dominus.","steam_id":76561199065917088,"connected_time":319000000000,"state":"active","ping":60},{"user_id":828,"name":"svepitos","steam_id":76561198287351235,"connected_time":800000000000,"state":"active","ping":60},{"user_id":753,"name":"Kurage","steam_id":76561198021221288,"connected_time":3419000000000,"state":"active","ping":70},{"user_id":788,"name":"Dakeyras","steam_id":76561198057069564,"connected_time":2343000000000,"state":"active","ping":92},{"user_id":786,"name":"Nedge","steam_id":76561197963549701,"connected_time":2451000000000,"state":"active","ping":51},{"user_id":825,"name":"C1nnamon_cookie","steam_id":76561199155374388,"connected_time":927000000000,"state":"active","ping":89},{"user_id":827,"name":"kavun","steam_id":76561198023461869,"connected_time":824000000000,"state":"active","ping":79},{"user_id":735,"name":"Mannequin","steam_id":76561198128833974,"connected_time":3907000000000,"state":"active","ping":56},{"user_id":834,"name":"YEEET","steam_id":76561198914938199,"connected_time":230000000000,"state":"connecting","ping":0},{"user_id":836,"name":"*·µó·µò·µè·µè·∂¶·µâ*","steam_id":76561199105418003,"connected_time":165000000000,"state":"active","ping":49},{"user_id":816,"name":"HI5","steam_id":76561198065748504,"connected_time":1398000000000,"state":"active","ping":87},{"user_id":821,"name":"Heretican","steam_id":76561198018202228,"connected_time":1132000000000,"state":"active","ping":55},{"user_id":829,"name":"Mankle","steam_id":76561198018537806,"connected_time":764000000000,"state":"active","ping":73},{"user_id":832,"name":"BrownBreadMan","steam_id":76561199092834214,"connected_time":394000000000,"state":"active","ping":52},{"user_id":838,"name":"Cryo","steam_id":76561198324132940,"connected_time":154000000000,"state":"active","ping":79},{"user_id":638,"name":"jones","steam_id":76561198073975078,"connected_time":5644000000000,"state":"active","ping":101}]},{"server_id":114,"name":"Uncletopia | London | 2 | All Maps","name_short":"lon-2","host":"lon-1.uk.uncletopia.com","port":27025,"enabled":true,"region":"eu","cc":"gb","latitude":51.509865,"longitude":-0.118092,"reserved":0,"last_update":"0001-01-01T00:00:00Z","name_a2s":"Uncletopia | London | 2 | All Maps","protocol":17,"map":"pl_upward","folder":"tf","game":"Team Fortress","app_id":440,"player_count":24,"max_players":24,"Bots":0,"server_type":"Dedicated","server_os":"Linux","password":true,"vac":true,"version":"7742253","steam_id":85568392924470941,"keywords":["nocrits","nodmgspread","payload","uncletopia"],"game_id":440,"stv_port":27026,"stv_name":"Uncletopia | London | 2 | All Maps | STV","players":[{"user_id":475,"name":"omnibombulator","steam_id":76561198025858897,"connected_time":4913000000000,"state":"active","ping":46},{"user_id":519,"name":"Two Thousand and Fun","steam_id":76561198030956814,"connected_time":1884000000000,"state":"active","ping":40},{"user_id":549,"name":"PongiBoti","steam_id":76561199447073400,"connected_time":108000000000,"state":"active","ping":80},{"user_id":541,"name":"Jostorrr","steam_id":76561198058970006,"connected_time":344000000000,"state":"active","ping":64},{"user_id":535,"name":"K3YRING","steam_id":76561198408597576,"connected_time":416000000000,"state":"active","ping":96},{"user_id":526,"name":"yuh","steam_id":76561199005555839,"connected_time":1552000000000,"state":"active","ping":81},{"user_id":516,"name":"Burpman","steam_id":76561198022897937,"connected_time":2064000000000,"state":"active","ping":47},{"user_id":543,"name":"Furious Frenchman","steam_id":76561198082076952,"connected_time":329000000000,"state":"active","ping":61},{"user_id":531,"name":"Lods of Emone","steam_id":76561198188642265,"connected_time":900000000000,"state":"active","ping":46},{"user_id":542,"name":"MAJAX","steam_id":76561198254828632,"connected_time":337000000000,"state":"active","ping":68},{"user_id":521,"name":"Old Man Winter","steam_id":76561198007653168,"connected_time":1807000000000,"state":"active","ping":57},{"user_id":544,"name":"The cost of living in the UK","steam_id":76561199000520747,"connected_time":329000000000,"state":"active","ping":47},{"user_id":520,"name":"CAMON ENGELAND","steam_id":76561198054301125,"connected_time":1868000000000,"state":"active","ping":83},{"user_id":550,"name":"Random Rock","steam_id":76561199013795985,"connected_time":49000000000,"state":"active","ping":77},{"user_id":511,"name":"s a i","steam_id":76561197970379754,"connected_time":2630000000000,"state":"active","ping":60},{"user_id":500,"name":"tf2god2007","steam_id":76561198084174868,"connected_time":3638000000000,"state":"active","ping":60},{"user_id":545,"name":"Superiumentarius","steam_id":76561198081642249,"connected_time":325000000000,"state":"active","ping":60},{"user_id":491,"name":"Suspicious Cabin","steam_id":76561198083261198,"connected_time":4326000000000,"state":"active","ping":55},{"user_id":546,"name":"Steven Universe ‚ô¶","steam_id":76561198162858633,"connected_time":308000000000,"state":"active","ping":68},{"user_id":530,"name":"this is personal now","steam_id":76561198000369215,"connected_time":920000000000,"state":"active","ping":52},{"user_id":533,"name":"DeKritteh","steam_id":76561198113945397,"connected_time":595000000000,"state":"active","ping":67},{"user_id":547,"name":"AsuX","steam_id":76561197990333289,"connected_time":299000000000,"state":"active","ping":60},{"user_id":548,"name":"Denialman (Muted)","steam_id":76561198309182092,"connected_time":293000000000,"state":"active","ping":69},{"user_id":509,"name":"IX","steam_id":76561198039589783,"connected_time":2764000000000,"state":"active","ping":51}]},{"server_id":320,"name":"Uncletopia | London | 3 | All Maps","name_short":"lon-3","host":"lon-1.uk.uncletopia.com","port":27035,"enabled":true,"region":"eu","cc":"gb","latitude":51.509865,"longitude":-0.118092,"reserved":0,"last_update":"0001-01-01T00:00:00Z","name_a2s":"Uncletopia | London | 3 | All Maps","protocol":17,"map":"cp_mountainlab","folder":"tf","game":"Team Fortress","app_id":440,"player_count":24,"max_players":24,"Bots":0,"server_type":"Dedicated","server_os":"Linux","password":true,"vac":true,"version":"7742253","steam_id":85568392924510192,"keywords":["cp","nocrits","nodmgspread","uncletopia"],"game_id":440,"stv_port":27036,"stv_name":"Uncletopia | London | 3 | All Maps | STV","players":[{"user_id":288,"name":"Bigson","steam_id":76561198114214362,"connected_time":275000000000,"state":"active","ping":51},{"user_id":230,"name":"reshiram","steam_id":76561198059782462,"connected_time":3458000000000,"state":"active","ping":59},{"user_id":286,"name":"bliss","steam_id":76561198067459427,"connected_time":321000000000,"state":"active","ping":54},{"user_id":282,"name":"?","steam_id":76561198030022305,"connected_time":404000000000,"state":"active","ping":89},{"user_id":265,"name":"cyanic","steam_id":76561198047828651,"connected_time":1878000000000,"state":"active","ping":52},{"user_id":283,"name":"Enforcer02","steam_id":76561197966045944,"connected_time":349000000000,"state":"active","ping":61},{"user_id":284,"name":"juicymangoes","steam_id":76561198131670413,"connected_time":348000000000,"state":"active","ping":62},{"user_id":274,"name":"BlueBlueFox","steam_id":76561198053817230,"connected_time":1330000000000,"state":"active","ping":93},{"user_id":275,"name":"Rackzo","steam_id":76561197960862491,"connected_time":1322000000000,"state":"active","ping":74},{"user_id":268,"name":"Peaced.old","steam_id":76561197993682469,"connected_time":1819000000000,"state":"active","ping":48},{"user_id":220,"name":"Bluetooth Headphones gaming","steam_id":76561198848650365,"connected_time":3838000000000,"state":"active","ping":95},{"user_id":276,"name":"Alkuuda","steam_id":76561198038236332,"connected_time":1312000000000,"state":"active","ping":112},{"user_id":267,"name":"BigZZZ","steam_id":76561197998461614,"connected_time":1832000000000,"state":"active","ping":56},{"user_id":285,"name":"0.000000001","steam_id":76561198279584681,"connected_time":343000000000,"state":"active","ping":88},{"user_id":269,"name":"egg","steam_id":76561198865283728,"connected_time":1792000000000,"state":"active","ping":57},{"user_id":279,"name":"Sonnakai","steam_id":76561198051688749,"connected_time":868000000000,"state":"active","ping":44},{"user_id":281,"name":"Meatballs","steam_id":76561198005948884,"connected_time":724000000000,"state":"active","ping":51},{"user_id":280,"name":"Viliamd1","steam_id":76561198055703857,"connected_time":793000000000,"state":"active","ping":80},{"user_id":257,"name":"ArekanPL","steam_id":76561198306811916,"connected_time":2393000000000,"state":"active","ping":71},{"user_id":287,"name":"L78k3","steam_id":76561198042189577,"connected_time":315000000000,"state":"active","ping":51},{"user_id":259,"name":"KarlRanzeier","steam_id":76561198066281337,"connected_time":2348000000000,"state":"active","ping":60},{"user_id":270,"name":"Burgermeister","steam_id":76561199454619979,"connected_time":1782000000000,"state":"active","ping":131},{"user_id":289,"name":"üß±Big Murstenüß±","steam_id":76561199073257952,"connected_time":260000000000,"state":"active","ping":74},{"user_id":244,"name":"wolfgang","steam_id":76561199111818670,"connected_time":3002000000000,"state":"active","ping":92}]},{"server_id":321,"name":"Uncletopia | London | 4 | All Maps","name_short":"lon-4","host":"lon-1.uk.uncletopia.com","port":27045,"enabled":true,"region":"eu","cc":"gb","latitude":51.509865,"longitude":-0.118092,"reserved":0,"last_update":"0001-01-01T00:00:00Z","name_a2s":"Uncletopia | London | 4 | All Maps","protocol":17,"map":"pl_pier","folder":"tf","game":"Team Fortress","app_id":440,"player_count":24,"max_players":24,"Bots":0,"server_type":"Dedicated","server_os":"Linux","password":true,"vac":true,"version":"7742253","steam_id":85568392924510193,"keywords":["nocrits","nodmgspread","payload","uncletopia"],"game_id":440,"stv_port":27046,"stv_name":"Uncletopia | London | 4 | All Maps | STV","players":[{"user_id":811,"name":"Lewee","steam_id":76561198058828018,"connected_time":687000000000,"state":"active","ping":46},{"user_id":812,"name":"—Ç—É–∫–∫—É –∏—Ä–º–∞","steam_id":76561197998715016,"connected_time":645000000000,"state":"active","ping":65},{"user_id":791,"name":"hamude.alsarhan2011","steam_id":76561199259727736,"connected_time":3132000000000,"state":"active","ping":75},{"user_id":778,"name":"KFD","steam_id":76561198157183003,"connected_time":3977000000000,"state":"active","ping":83},{"user_id":779,"name":"luma","steam_id":76561198081649669,"connected_time":3948000000000,"state":"active","ping":76},{"user_id":774,"name":"Vladimir Lenin","steam_id":76561199438120787,"connected_time":4136000000000,"state":"active","ping":52},{"user_id":813,"name":"zek","steam_id":76561198862763731,"connected_time":546000000000,"state":"active","ping":65},{"user_id":807,"name":"Hey, I¬¥m Andy!","steam_id":76561198060337777,"connected_time":2018000000000,"state":"active","ping":79},{"user_id":776,"name":"UNO, The Ubisoft Original","steam_id":76561198846784757,"connected_time":4107000000000,"state":"active","ping":60},{"user_id":810,"name":"[AL]-SON-GOHAN","steam_id":76561198010435147,"connected_time":1585000000000,"state":"active","ping":76},{"user_id":789,"name":"VioBeeyo ‚ô•","steam_id":76561198066258544,"connected_time":3388000000000,"state":"active","ping":60},{"user_id":793,"name":"Micha≈Ç","steam_id":76561198320346362,"connected_time":3124000000000,"state":"active","ping":68},{"user_id":722,"name":"Lennox","steam_id":76561198069063554,"connected_time":8702000000000,"state":"active","ping":54},{"user_id":780,"name":"Like Ahayo LXIX","steam_id":76561198368508349,"connected_time":3940000000000,"state":"active","ping":90},{"user_id":814,"name":"EZPK","steam_id":76561197987474355,"connected_time":528000000000,"state":"active","ping":64},{"user_id":802,"name":"Krabs","steam_id":76561198161679477,"connected_time":2591000000000,"state":"active","ping":46},{"user_id":824,"name":"K'aax Itzam","steam_id":76561198044024509,"connected_time":149000000000,"state":"active","ping":71},{"user_id":817,"name":"Max Andrew","steam_id":76561198158955194,"connected_time":480000000000,"state":"active","ping":62},{"user_id":798,"name":"Zigguski","steam_id":76561198022990016,"connected_time":2824000000000,"state":"active","ping":51},{"user_id":808,"name":"MAKENTAKEN","steam_id":76561199127359587,"connected_time":1885000000000,"state":"active","ping":100},{"user_id":821,"name":"CEO of Pen Island","steam_id":76561198037212191,"connected_time":241000000000,"state":"active","ping":63},{"user_id":723,"name":"PlacebO.-","steam_id":76561197973577950,"connected_time":8701000000000,"state":"active","ping":64},{"user_id":818,"name":"Zelmor","steam_id":76561197997708311,"connected_time":480000000000,"state":"active","ping":48},{"user_id":823,"name":"Saint","steam_id":76561198303326214,"connected_time":195000000000,"state":"active","ping":79}]},{"server_id":21,"name":"Uncletopia | London | 5 | All Maps","name_short":"lon-5","host":"lon-1.uk.uncletopia.com","port":27055,"enabled":true,"region":"eu","cc":"gb","latitude":51.509865,"longitude":-0.118092,"reserved":0,"last_update":"0001-01-01T00:00:00Z","name_a2s":"Uncletopia | London | 5 | All Maps","protocol":17,"map":"cp_sunshine","folder":"tf","game":"Team Fortress","app_id":440,"player_count":0,"max_players":24,"Bots":0,"server_type":"Dedicated","server_os":"Linux","password":true,"vac":true,"version":"7742253","steam_id":85568392924742829,"keywords":["cp","nocrits","nodmgspread","uncletopia"],"game_id":440,"stv_port":27056,"stv_name":"Uncletopia | London | 5 | All Maps | STV","players":null},{"server_id":22,"name":"Uncletopia | London | 6 | All Maps","name_short":"lon-6","host":"lon-1.uk.uncletopia.com","port":27065,"enabled":true,"region":"eu","cc":"gb","latitude":51.509865,"longitude":-0.118092,"reserved":0,"last_update":"0001-01-01T00:00:00Z","name_a2s":"Uncletopia | London | 6 | All Maps","protocol":17,"map":"pl_borneo","folder":"tf","game":"Team Fortress","app_id":440,"player_count":24,"max_players":24,"Bots":0,"server_type":"Dedicated","server_os":"Linux","password":true,"vac":true,"version":"7742253","steam_id":85568392924742830,"keywords":["nocrits","nodmgspread","payload","uncletopia"],"game_id":440,"stv_port":27066,"stv_name":"Uncletopia | London | 6 | All Maps | STV","players":[{"user_id":493,"name":"Uncle Lame","steam_id":76561198089003514,"connected_time":1639000000000,"state":"active","ping":58},{"user_id":460,"name":"jt7","steam_id":76561198073655162,"connected_time":3119000000000,"state":"active","ping":76},{"user_id":480,"name":"timothytreestand-041165","steam_id":76561197995676953,"connected_time":2526000000000,"state":"active","ping":61},{"user_id":511,"name":"SuperBob103","steam_id":76561199175360012,"connected_time":658000000000,"state":"active","ping":54},{"user_id":509,"name":"Joe","steam_id":76561198061717026,"connected_time":743000000000,"state":"active","ping":46},{"user_id":510,"name":"LasagnaLarry22","steam_id":76561198089478290,"connected_time":734000000000,"state":"active","ping":50},{"user_id":483,"name":"ShoobyDooby","steam_id":76561198118473910,"connected_time":2321000000000,"state":"active","ping":52},{"user_id":504,"name":"Femboy Francis","steam_id":76561198992297033,"connected_time":1067000000000,"state":"active","ping":154},{"user_id":516,"name":"Raptor51island","steam_id":76561198203661320,"connected_time":179000000000,"state":"active","ping":68},{"user_id":468,"name":"Jamie Hyneman","steam_id":76561198364121077,"connected_time":2862000000000,"state":"active","ping":91},{"user_id":466,"name":"Billy Genie","steam_id":76561198061724014,"connected_time":2934000000000,"state":"active","ping":42},{"user_id":489,"name":"Penis Contortionist","steam_id":76561198073663784,"connected_time":1911000000000,"state":"active","ping":73},{"user_id":490,"name":"sokucu tr","steam_id":76561198055422721,"connected_time":1804000000000,"state":"active","ping":103},{"user_id":514,"name":"Julez","steam_id":76561198045505082,"connected_time":348000000000,"state":"active","ping":75},{"user_id":495,"name":"rummy","steam_id":76561197997573379,"connected_time":1576000000000,"state":"active","ping":41},{"user_id":513,"name":"TheMilOne","steam_id":76561198058910512,"connected_time":423000000000,"state":"active","ping":71},{"user_id":512,"name":"Chilchang Billing","steam_id":76561197993300020,"connected_time":599000000000,"state":"active","ping":75},{"user_id":496,"name":"p!ke","steam_id":76561198416081952,"connected_time":1572000000000,"state":"active","ping":64},{"user_id":505,"name":"Yakashii","steam_id":76561198073297078,"connected_time":1062000000000,"state":"active","ping":61},{"user_id":517,"name":"Enda","steam_id":76561198202980164,"connected_time":140000000000,"state":"active","ping":86},{"user_id":498,"name":"MoreGun","steam_id":76561199157555246,"connected_time":1504000000000,"state":"active","ping":67},{"user_id":500,"name":"waffle toaster","steam_id":76561198799089628,"connected_time":1386000000000,"state":"active","ping":49},{"user_id":501,"name":"torn","steam_id":76561198223003236,"connected_time":1377000000000,"state":"active","ping":58},{"user_id":506,"name":"ShinxPasta","steam_id":76561198217784611,"connected_time":1001000000000,"state":"active","ping":63}]},{"server_id":40,"name":"Uncletopia | London | 7 | No Payload","name_short":"lon-7","host":"lon-1.uk.uncletopia.com","port":27075,"enabled":true,"region":"eu","cc":"gb","latitude":51.509865,"longitude":-0.118092,"reserved":0,"last_update":"0001-01-01T00:00:00Z","name_a2s":"Uncletopia | London | 7 | No Payload","protocol":17,"map":"koth_lakeside_final","folder":"tf","game":"Team Fortress","app_id":440,"player_count":0,"max_players":24,"Bots":0,"server_type":"Dedicated","server_os":"Linux","password":true,"vac":true,"version":"7742253","steam_id":85568392924964314,"keywords":["cp","nocrits","nodmgspread","uncletopia"],"game_id":440,"stv_port":27076,"stv_name":"Uncletopia | London | 7 | No Payload | STV","players":null},{"server_id":41,"name":"Uncletopia | London | 8 | Community","name_short":"lon-8","host":"lon-1.uk.uncletopia.com","port":27085,"enabled":true,"region":"eu","cc":"gb","latitude":51.509865,"longitude":-0.118092,"reserved":0,"last_update":"0001-01-01T00:00:00Z","name_a2s":"Uncletopia | London | 8 | Community","protocol":17,"map":"workshop/koth_ashville_final.ugc2130459942","folder":"tf","game":"Team Fortress","app_id":440,"player_count":0,"max_players":24,"Bots":0,"server_type":"Dedicated","server_os":"Linux","password":true,"vac":true,"version":"7742253","steam_id":85568392924964315,"keywords":["cp","nocrits","nodmgspread","uncletopia"],"game_id":440,"stv_port":27086,"stv_name":"Uncletopia | London | 8 | Community | STV","players":null},{"server_id":300,"name":"Uncletopia | Montr√©al | 1 | All Maps","name_short":"mtl-1","host":"mtl-1.ca.uncletopia.com","port":27015,"enabled":true,"region":"us-east","cc":"ca","latitude":45.50889,"longitude":-73.56167,"reserved":0,"last_update":"0001-01-01T00:00:00Z","name_a2s":"Uncletopia | Montr√©al | 1 | All Maps","protocol":17,"map":"cp_snakewater_final1","folder":"tf","game":"Team Fortress","app_id":440,"player_count":0,"max_players":24,"Bots":0,"server_type":"Dedicated","server_os":"Linux","password":true,"vac":true,"version":"7742253","steam_id":85568392924500087,"keywords":["cp","nocrits","nodmgspread","uncletopia"],"game_id":440,"stv_port":27016,"stv_name":"Uncletopia | Montr√©al | 1 | All Maps | STV","players":null},{"server_id":301,"name":"Uncletopia | Montr√©al | 2 | All Maps","name_short":"mtl-2","host":"mtl-1.ca.uncletopia.com","port":27025,"enabled":true,"region":"us-east","cc":"ca","latitude":45.50889,"longitude":-73.56167,"reserved":0,"last_update":"0001-01-01T00:00:00Z","name_a2s":"Uncletopia | Montr√©al | 2 | All Maps","protocol":17,"map":"cp_badlands","folder":"tf","game":"Team Fortress","app_id":440,"player_count":13,"max_players":24,"Bots":0,"server_type":"Dedicated","server_os":"Linux","password":true,"vac":true,"version":"7742253","steam_id":85568392924500088,"keywords":["cp","nocrits","nodmgspread","uncletopia"],"game_id":440,"stv_port":27026,"stv_name":"Uncletopia | Montr√©al | 2 | All Maps | STV","players":[{"user_id":135,"name":"BREADCHEESE","steam_id":76561199085219706,"connected_time":3931000000000,"state":"active","ping":78},{"user_id":177,"name":"Kingaasohk","steam_id":76561198431532962,"connected_time":413000000000,"state":"active","ping":118},{"user_id":178,"name":"RedRanger5577","steam_id":76561199031344500,"connected_time":390000000000,"state":"active","ping":121},{"user_id":79,"name":"Hipp-Dip","steam_id":76561199027874633,"connected_time":7312000000000,"state":"active","ping":48},{"user_id":80,"name":"KRATOS MESSI","steam_id":76561199074026132,"connected_time":7299000000000,"state":"active","ping":58},{"user_id":152,"name":"Spade","steam_id":76561198014983267,"connected_time":2388000000000,"state":"active","ping":68},{"user_id":179,"name":"Birdie Smalls","steam_id":76561198208947105,"connected_time":159000000000,"state":"active","ping":47},{"user_id":168,"name":"`Jace","steam_id":76561198002440462,"connected_time":1531000000000,"state":"active","ping":46},{"user_id":180,"name":"static","steam_id":76561199093261935,"connected_time":94000000000,"state":"active","ping":62},{"user_id":181,"name":"Uhonlapjanteszika","steam_id":76561199431280503,"connected_time":22000000000,"state":"spawning","ping":1001},{"user_id":170,"name":"unsubtract","steam_id":76561198865158742,"connected_time":1480000000000,"state":"active","ping":48},{"user_id":172,"name":"nugenthunter9","steam_id":76561199454496627,"connected_time":1428000000000,"state":"active","ping":76},{"user_id":125,"name":"IPlayGamez","steam_id":76561198041387508,"connected_time":4486000000000,"state":"active","ping":53}]},{"server_id":302,"name":"Uncletopia | Montr√©al | 3 | All Maps","name_short":"mtl-3","host":"mtl-1.ca.uncletopia.com","port":27035,"enabled":true,"region":"us-east","cc":"ca","latitude":45.50889,"longitude":-73.56167,"reserved":0,"last_update":"0001-01-01T00:00:00Z","name_a2s":"Uncletopia | Montr√©al | 3 | All Maps","protocol":17,"map":"cp_mountainlab","folder":"tf","game":"Team Fortress","app_id":440,"player_count":0,"max_players":24,"Bots":0,"server_type":"Dedicated","server_os":"Linux","password":true,"vac":true,"version":"7742253","steam_id":85568392924500089,"keywords":["cp","nocrits","nodmgspread","uncletopia"],"game_id":440,"stv_port":27036,"stv_name":"Uncletopia | Montr√©al | 3 | All Maps | STV","players":null},{"server_id":303,"name":"Uncletopia | Montr√©al | 4 | No Payload","name_short":"mtl-4","host":"mtl-1.ca.uncletopia.com","port":27045,"enabled":true,"region":"us-east","cc":"ca","latitude":45.50889,"longitude":-73.56167,"reserved":0,"last_update":"0001-01-01T00:00:00Z","name_a2s":"Uncletopia | Montr√©al | 4 | No Payload","protocol":17,"map":"koth_sawmill","folder":"tf","game":"Team Fortress","app_id":440,"player_count":0,"max_players":24,"Bots":0,"server_type":"Dedicated","server_os":"Linux","password":true,"vac":true,"version":"7742253","steam_id":85568392924500090,"keywords":["cp","nocrits","nodmgspread","uncletopia"],"game_id":440,"stv_port":27046,"stv_name":"Uncletopia | Montr√©al | 4 | No Payload | STV","players":null},{"server_id":13,"name":"Uncletopia | New York City | 1 | All Maps","name_short":"nyc-1","host":"nyc-1.us.uncletopia.com","port":27015,"enabled":true,"region":"us-east","cc":"us","latitude":40.73061,"longitude":-73.93524,"reserved":0,"last_update":"0001-01-01T00:00:00Z","name_a2s":"Uncletopia | New York City | 1 | All Maps","protocol":17,"map":"koth_highpass","folder":"tf","game":"Team Fortress","app_id":440,"player_count":0,"max_players":24,"Bots":0,"server_type":"Dedicated","server_os":"Linux","password":true,"vac":true,"version":"7742253","steam_id":85568392924469993,"keywords":["cp","nocrits","nodmgspread","uncletopia"],"game_id":440,"stv_port":27016,"stv_name":"Uncletopia | New York City | 1 | All Maps | STV","players":null},{"server_id":14,"name":"Uncletopia | New York City | 2 | All Maps","name_short":"nyc-2","host":"nyc-1.us.uncletopia.com","port":27025,"enabled":true,"region":"us-east","cc":"us","latitude":40.73061,"longitude":-73.93524,"reserved":0,"last_update":"0001-01-01T00:00:00Z","name_a2s":"Uncletopia | New York City | 2 | All Maps","protocol":17,"map":"cp_altitude","folder":"tf","game":"Team Fortress","app_id":440,"player_count":1,"max_players":24,"Bots":0,"server_type":"Dedicated","server_os":"Linux","password":true,"vac":true,"version":"7742253","steam_id":85568392924469994,"keywords":["cp","nocrits","nodmgspread","uncletopia"],"game_id":440,"stv_port":27026,"stv_name":"Uncletopia | New York City | 2 | All Maps | STV","players":[{"user_id":16,"name":"Crimsonmask270","steam_id":76561198866479715,"connected_time":126000000000,"state":"active","ping":117}]},{"server_id":15,"name":"Uncletopia | New York City | 3 | Stopwatch Beta","name_short":"nyc-3","host":"nyc-1.us.uncletopia.com","port":27035,"enabled":true,"region":"us-east","cc":"us","latitude":40.73061,"longitude":-73.93524,"reserved":0,"last_update":"0001-01-01T00:00:00Z","name_a2s":"Uncletopia | New York City | 3 | Stopwatch Beta","protocol":17,"map":"pl_pier","folder":"tf","game":"Team Fortress","app_id":440,"player_count":0,"max_players":24,"Bots":0,"server_type":"Dedicated","server_os":"Linux","password":true,"vac":true,"version":"7742253","steam_id":85568392924742820,"keywords":["nocrits","nodmgspread","payload","uncletopia"],"game_id":440,"stv_port":27036,"stv_name":"Uncletopia | New York City | 3 | Stopwatch Beta | STV","players":null},{"server_id":16,"name":"Uncletopia | New York City | 4 | Community","name_short":"nyc-4","host":"nyc-1.us.uncletopia.com","port":27045,"enabled":true,"region":"us-east","cc":"us","latitude":40.73061,"longitude":-73.93524,"reserved":0,"last_update":"0001-01-01T00:00:00Z","name_a2s":"Uncletopia | New York City | 4 | Community","protocol":17,"map":"koth_viaduct","folder":"tf","game":"Team Fortress","app_id":440,"player_count":0,"max_players":24,"Bots":0,"server_type":"Dedicated","server_os":"Linux","password":true,"vac":true,"version":"7742253","steam_id":85568392924742821,"keywords":["cp","nocrits","nodmgspread","uncletopia"],"game_id":440,"stv_port":27046,"stv_name":"Uncletopia | New York City | 4 | Community | STV","players":null},{"server_id":142,"name":"Uncletopia | S√£o Paulo | 1 | All Maps","name_short":"sao-1","host":"sao-1.br.uncletopia.com","port":27015,"enabled":true,"region":"sa","cc":"br","latitude":-23.533773,"longitude":-46.62529,"reserved":0,"last_update":"0001-01-01T00:00:00Z","name_a2s":"Uncletopia | S√£o Paulo | 1 | All Maps","protocol":17,"map":"koth_lakeside_final","folder":"tf","game":"Team Fortress","app_id":440,"player_count":2,"max_players":24,"Bots":0,"server_type":"Dedicated","server_os":"Linux","password":true,"vac":true,"version":"7742253","steam_id":85568392924469996,"keywords":["cp","nocrits","nodmgspread","uncletopia"],"game_id":440,"stv_port":27016,"stv_name":"Uncletopia | S√£o Paulo | 1 | All Maps | STV","players":[{"user_id":23,"name":"AtUm","steam_id":76561199025395478,"connected_time":1437000000000,"state":"active","ping":63},{"user_id":21,"name":"jr_rusty","steam_id":76561198313937899,"connected_time":1983000000000,"state":"active","ping":45}]},{"server_id":143,"name":"Uncletopia | S√£o Paulo | 2 | All Maps","name_short":"sao-2","host":"sao-2.br.uncletopia.com","port":27015,"enabled":true,"region":"sa","cc":"br","latitude":-23.533773,"longitude":-46.62529,"reserved":0,"last_update":"0001-01-01T00:00:00Z","name_a2s":"Uncletopia | S√£o Paulo | 2 | All Maps","protocol":17,"map":"koth_viaduct","folder":"tf","game":"Team Fortress","app_id":440,"player_count":0,"max_players":24,"Bots":0,"server_type":"Dedicated","server_os":"Linux","password":true,"vac":true,"version":"7742253","steam_id":85568392924485349,"keywords":["cp","nocrits","nodmgspread","uncletopia"],"game_id":440,"stv_port":27016,"stv_name":"Uncletopia | S√£o Paulo | 2 | All Maps | STV","players":null},{"server_id":7,"name":"Uncletopia | Seattle | 1 | All Maps","name_short":"sea-1","host":"sea-1.us.uncletopia.com","port":27015,"enabled":true,"region":"us-west","cc":"us","latitude":47.608013,"longitude":-122.33517,"reserved":0,"last_update":"0001-01-01T00:00:00Z","name_a2s":"Uncletopia | Seattle | 1 | All Maps","protocol":17,"map":"pl_snowycoast","folder":"tf","game":"Team Fortress","app_id":440,"player_count":23,"max_players":24,"Bots":0,"server_type":"Dedicated","server_os":"Linux","password":true,"vac":true,"version":"7742253","steam_id":85568392924469997,"keywords":["nocrits","nodmgspread","payload","uncletopia"],"game_id":440,"stv_port":27016,"stv_name":"Uncletopia | Seattle | 1 | All Maps | STV","players":[{"user_id":106,"name":"xaltar","steam_id":76561198049915836,"connected_time":83000000000,"state":"active","ping":74},{"user_id":103,"name":"blessed yule","steam_id":76561198146228439,"connected_time":240000000000,"state":"active","ping":45},{"user_id":21,"name":"Syn_Contamino5311","steam_id":76561199454661432,"connected_time":6396000000000,"state":"active","ping":64},{"user_id":102,"name":"pcplace","steam_id":76561198097987387,"connected_time":255000000000,"state":"active","ping":47},{"user_id":83,"name":"TURBODERP","steam_id":76561198023405216,"connected_time":2026000000000,"state":"active","ping":91},{"user_id":104,"name":"Krieg","steam_id":76561198094517450,"connected_time":220000000000,"state":"active","ping":52},{"user_id":25,"name":"kawakami_fan_225","steam_id":76561198799336176,"connected_time":5848000000000,"state":"active","ping":127},{"user_id":93,"name":"tophawkyy","steam_id":76561199075934685,"connected_time":861000000000,"state":"active","ping":81},{"user_id":92,"name":"trackpad gaming | f2p","steam_id":76561198840414371,"connected_time":877000000000,"state":"active","ping":53},{"user_id":81,"name":"GloomyShroomy","steam_id":76561199150895700,"connected_time":2058000000000,"state":"active","ping":72},{"user_id":105,"name":"Scoron","steam_id":76561198062099305,"connected_time":186000000000,"state":"active","ping":74},{"user_id":96,"name":"Lorne Chrones","steam_id":76561198023781211,"connected_time":825000000000,"state":"active","ping":99},{"user_id":32,"name":"DennethThaThinather","steam_id":76561198098121768,"connected_time":5367000000000,"state":"active","ping":54},{"user_id":94,"name":"Sad Sapling","steam_id":76561198075612150,"connected_time":852000000000,"state":"active","ping":88},{"user_id":68,"name":"ThatGuyFromClass","steam_id":76561198445601688,"connected_time":3308000000000,"state":"active","ping":119},{"user_id":85,"name":"‡∂û","steam_id":76561198256701755,"connected_time":1735000000000,"state":"active","ping":67},{"user_id":100,"name":"Surly Joe","steam_id":76561199150833796,"connected_time":535000000000,"state":"active","ping":101},{"user_id":89,"name":"Sorta Mera?","steam_id":76561198340743816,"connected_time":1409000000000,"state":"active","ping":84},{"user_id":101,"name":"gatorbelt","steam_id":76561198145784505,"connected_time":505000000000,"state":"active","ping":80},{"user_id":60,"name":"Mr.Thirteen","steam_id":76561198047468836,"connected_time":3635000000000,"state":"active","ping":69},{"user_id":72,"name":"kebo","steam_id":76561198237159430,"connected_time":2686000000000,"state":"active","ping":82},{"user_id":71,"name":"Dimple","steam_id":76561198980324190,"connected_time":2858000000000,"state":"active","ping":55},{"user_id":44,"name":"noraneko","steam_id":76561198025418738,"connected_time":4767000000000,"state":"active","ping":59}]},{"server_id":119,"name":"Uncletopia | Seattle | 2 | All Maps","name_short":"sea-2","host":"sea-1.us.uncletopia.com","port":27025,"enabled":true,"region":"us-west","cc":"us","latitude":47.608013,"longitude":-122.33517,"reserved":0,"last_update":"0001-01-01T00:00:00Z","name_a2s":"Uncletopia | Seattle | 2 | All Maps","protocol":17,"map":"pl_upward","folder":"tf","game":"Team Fortress","app_id":440,"player_count":24,"max_players":24,"Bots":0,"server_type":"Dedicated","server_os":"Linux","password":true,"vac":true,"version":"7742253","steam_id":85568392924469998,"keywords":["nocrits","nodmgspread","payload","uncletopia"],"game_id":440,"stv_port":27026,"stv_name":"Uncletopia | Seattle | 2 | All Maps | STV","players":[{"user_id":22,"name":"Christmas?!!!!1!11","steam_id":76561199100225735,"connected_time":2369000000000,"state":"active","ping":54},{"user_id":48,"name":"Wso1123","steam_id":76561198048040111,"connected_time":792000000000,"state":"active","ping":53},{"user_id":12,"name":"Femboy Claus","steam_id":76561198821534354,"connected_time":3470000000000,"state":"active","ping":74},{"user_id":15,"name":"Arson","steam_id":76561198424050828,"connected_time":3413000000000,"state":"active","ping":194},{"user_id":38,"name":"Definitely Not A Replicant.","steam_id":76561198087464370,"connected_time":1056000000000,"state":"active","ping":121},{"user_id":26,"name":"Auto","steam_id":76561199002386599,"connected_time":1801000000000,"state":"active","ping":103},{"user_id":24,"name":"d4N13L_0100110","steam_id":76561199082205133,"connected_time":2053000000000,"state":"active","ping":70},{"user_id":39,"name":"Idontknow","steam_id":76561199207044048,"connected_time":1044000000000,"state":"active","ping":44},{"user_id":27,"name":"misu","steam_id":76561198402791683,"connected_time":1754000000000,"state":"active","ping":104},{"user_id":29,"name":"your friends dad","steam_id":76561199062326425,"connected_time":1469000000000,"state":"active","ping":52},{"user_id":30,"name":"Carte","steam_id":76561198077424488,"connected_time":1354000000000,"state":"active","ping":75},{"user_id":45,"name":"Turtle","steam_id":76561198262110064,"connected_time":867000000000,"state":"active","ping":122},{"user_id":50,"name":"Buckytr","steam_id":76561198096335025,"connected_time":461000000000,"state":"active","ping":65},{"user_id":33,"name":"trapper wit som swag+i lurk too","steam_id":76561198885055475,"connected_time":1262000000000,"state":"active","ping":60},{"user_id":34,"name":"Alpharius","steam_id":76561197996284353,"connected_time":1247000000000,"state":"active","ping":70},{"user_id":35,"name":"SNGmagician","steam_id":76561198025905802,"connected_time":1228000000000,"state":"active","ping":62},{"user_id":36,"name":"Nicoarn121","steam_id":76561198156297440,"connected_time":1127000000000,"state":"active","ping":106},{"user_id":51,"name":"thebestman982","steam_id":76561199001698710,"connected_time":92000000000,"state":"active","ping":90},{"user_id":40,"name":"Kitsu ‚ô•","steam_id":76561198091741658,"connected_time":1007000000000,"state":"active","ping":75},{"user_id":41,"name":"B-0-D-I-E ‚úì","steam_id":76561198079474904,"connected_time":979000000000,"state":"active","ping":60},{"user_id":42,"name":"swaggdood","steam_id":76561198076173018,"connected_time":974000000000,"state":"active","ping":70},{"user_id":52,"name":"hugo","steam_id":76561198119139218,"connected_time":11000000000,"state":"spawning","ping":126},{"user_id":47,"name":"Sexy dude","steam_id":76561199001836057,"connected_time":831000000000,"state":"active","ping":81},{"user_id":49,"name":"oil","steam_id":76561198099980149,"connected_time":772000000000,"state":"active","ping":75}]},{"server_id":406,"name":"Uncletopia | Seattle | 3 | Stopwatch Beta","name_short":"sea-3","host":"sea-1.us.uncletopia.com","port":27035,"enabled":true,"region":"us-west","cc":"us","latitude":47.608013,"longitude":-122.33517,"reserved":0,"last_update":"0001-01-01T00:00:00Z","name_a2s":"Uncletopia | Seattle | 3 | Stopwatch Beta","protocol":17,"map":"workshop/koth_ramjam_rc1.ugc459778887","folder":"tf","game":"Team Fortress","app_id":440,"player_count":4,"max_players":24,"Bots":0,"server_type":"Dedicated","server_os":"Linux","password":true,"vac":true,"version":"7742253","steam_id":85568392924515217,"keywords":["cp","nocrits","nodmgspread","uncletopia"],"game_id":440,"stv_port":27036,"stv_name":"Uncletopia | Seattle | 3 | Stopwatch Beta | STV","players":[{"user_id":57,"name":"Minecraftalex365","steam_id":76561198821706797,"connected_time":960000000000,"state":"active","ping":109},{"user_id":58,"name":"ZŒ£TŒõœæ","steam_id":76561197975951817,"connected_time":502000000000,"state":"active","ping":118},{"user_id":61,"name":"BleeboBleebo","steam_id":76561198151549658,"connected_time":139000000000,"state":"active","ping":120},{"user_id":62,"name":"The big broski","steam_id":76561198347675302,"connected_time":126000000000,"state":"active","ping":79}]},{"server_id":17,"name":"Uncletopia | San Francisco | 1 | All Maps","name_short":"sfo-1","host":"sfo-1.us.uncletopia.com","port":27015,"enabled":true,"region":"us-west","cc":"us","latitude":37.77397,"longitude":-122.4313,"reserved":0,"last_update":"0001-01-01T00:00:00Z","name_a2s":"Uncletopia | San Francisco | 1 | All Maps","protocol":17,"map":"koth_lakeside_final","folder":"tf","game":"Team Fortress","app_id":440,"player_count":18,"max_players":24,"Bots":0,"server_type":"Dedicated","server_os":"Linux","password":true,"vac":true,"version":"7742253","steam_id":85568392924469999,"keywords":["cp","nocrits","nodmgspread","uncletopia"],"game_id":440,"stv_port":27016,"stv_name":"Uncletopia | San Francisco | 1 | All Maps | STV","players":[{"user_id":28,"name":"hoOmIN","steam_id":76561198334947079,"connected_time":7122000000000,"state":"active","ping":58},{"user_id":123,"name":"dosimeter","steam_id":76561198039608940,"connected_time":413000000000,"state":"active","ping":65},{"user_id":76,"name":"jungus","steam_id":76561198129862008,"connected_time":3900000000000,"state":"active","ping":58},{"user_id":101,"name":"wilson7*","steam_id":76561198109989416,"connected_time":1516000000000,"state":"active","ping":60},{"user_id":129,"name":"8BitFenix","steam_id":76561198349016671,"connected_time":101000000000,"state":"active","ping":50},{"user_id":116,"name":"warscout101bro","steam_id":76561198813489938,"connected_time":702000000000,"state":"active","ping":59},{"user_id":130,"name":"city wok","steam_id":76561198416545930,"connected_time":13000000000,"state":"active","ping":34},{"user_id":107,"name":"SenTreats","steam_id":76561198085835841,"connected_time":1121000000000,"state":"active","ping":63},{"user_id":75,"name":"Mignyanne :3","steam_id":76561198048754056,"connected_time":3990000000000,"state":"active","ping":50},{"user_id":131,"name":"Rabbit Captain Guykatsu","steam_id":76561198035469897,"connected_time":11000000000,"state":"spawning","ping":95},{"user_id":127,"name":"Amateur Glaswegian","steam_id":76561198030851956,"connected_time":323000000000,"state":"active","ping":62},{"user_id":35,"name":"ObiWonJacobi","steam_id":76561198041921071,"connected_time":6784000000000,"state":"active","ping":113},{"user_id":36,"name":"Piper","steam_id":76561198059054032,"connected_time":6778000000000,"state":"active","ping":90},{"user_id":121,"name":"corbenis","steam_id":76561199012442511,"connected_time":517000000000,"state":"active","ping":59},{"user_id":122,"name":"\u003c`)))))\u003c fish","steam_id":76561198410078962,"connected_time":466000000000,"state":"active","ping":68},{"user_id":124,"name":"Platinum","steam_id":76561198052463484,"connected_time":402000000000,"state":"active","ping":62},{"user_id":78,"name":"OH JIMMY I'M HOME #SaveTf2","steam_id":76561198396658806,"connected_time":3381000000000,"state":"active","ping":48},{"user_id":126,"name":"Impmon","steam_id":76561198046375806,"connected_time":340000000000,"state":"active","ping":136}]},{"server_id":18,"name":"Uncletopia | San Francisco | 2 | All Maps","name_short":"sfo-2","host":"sfo-1.us.uncletopia.com","port":27025,"enabled":true,"region":"us-west","cc":"us","latitude":37.77397,"longitude":-122.4313,"reserved":0,"last_update":"0001-01-01T00:00:00Z","name_a2s":"Uncletopia | San Francisco | 2 | All Maps","protocol":17,"map":"koth_cascade","folder":"tf","game":"Team Fortress","app_id":440,"player_count":0,"max_players":24,"Bots":0,"server_type":"Dedicated","server_os":"Linux","password":true,"vac":true,"version":"7742253","steam_id":85568392924470000,"keywords":["cp","nocrits","nodmgspread","uncletopia"],"game_id":440,"stv_port":27026,"stv_name":"Uncletopia | San Francisco | 2 | All Maps | STV","players":null},{"server_id":19,"name":"Uncletopia | San Francisco | 3 | Stopwatch Beta","name_short":"sfo-3","host":"sfo-1.us.uncletopia.com","port":27035,"enabled":true,"region":"us-west","cc":"us","latitude":37.77397,"longitude":-122.4313,"reserved":0,"last_update":"0001-01-01T00:00:00Z","name_a2s":"Uncletopia | San Francisco | 3 | Stopwatch Beta","protocol":17,"map":"koth_lakeside_final","folder":"tf","game":"Team Fortress","app_id":440,"player_count":0,"max_players":24,"Bots":0,"server_type":"Dedicated","server_os":"Linux","password":true,"vac":true,"version":"7742253","steam_id":85568392924742824,"keywords":["cp","nocrits","nodmgspread","uncletopia"],"game_id":440,"stv_port":27036,"stv_name":"Uncletopia | San Francisco | 3 | Stopwatch Beta | STV","players":null},{"server_id":20,"name":"Uncletopia | San Francisco | 4 | Community","name_short":"sfo-4","host":"sfo-1.us.uncletopia.com","port":27045,"enabled":true,"region":"us-west","cc":"us","latitude":37.77397,"longitude":-122.4313,"reserved":0,"last_update":"0001-01-01T00:00:00Z","name_a2s":"Uncletopia | San Francisco | 4 | Community","protocol":17,"map":"workshop/koth_ashville_final.ugc2130459942","folder":"tf","game":"Team Fortress","app_id":440,"player_count":0,"max_players":24,"Bots":0,"server_type":"Dedicated","server_os":"Linux","password":true,"vac":true,"version":"7742253","steam_id":85568392924742826,"keywords":["cp","nocrits","nodmgspread","uncletopia"],"game_id":440,"stv_port":27046,"stv_name":"Uncletopia | San Francisco | 4 | Community | STV","players":null},{"server_id":141,"name":"Uncletopia | Sydney | 1 | All Maps","name_short":"syd-1","host":"syd-1.au.uncletopia.com","port":27015,"enabled":true,"region":"au","cc":"au","latitude":-33.865143,"longitude":151.2099,"reserved":0,"last_update":"0001-01-01T00:00:00Z","name_a2s":"Uncletopia | Sydney | 1 | All Maps","protocol":17,"map":"koth_lakeside_final","folder":"tf","game":"Team Fortress","app_id":440,"player_count":0,"max_players":24,"Bots":0,"server_type":"Dedicated","server_os":"Linux","password":true,"vac":true,"version":"7742253","steam_id":85568392924470001,"keywords":["cp","nocrits","nodmgspread","uncletopia"],"game_id":440,"stv_port":27016,"stv_name":"Uncletopia | Sydney | 1 | All Maps | STV","players":null},{"server_id":123,"name":"Uncletopia | Sydney | 2 | All Maps","name_short":"syd-2","host":"syd-1.au.uncletopia.com","port":27025,"enabled":true,"region":"au","cc":"au","latitude":-33.865143,"longitude":151.2099,"reserved":0,"last_update":"0001-01-01T00:00:00Z","name_a2s":"Uncletopia | Sydney | 2 | All Maps","protocol":17,"map":"pl_badwater","folder":"tf","game":"Team Fortress","app_id":440,"player_count":0,"max_players":24,"Bots":0,"server_type":"Dedicated","server_os":"Linux","password":true,"vac":true,"version":"7742253","steam_id":85568392924470002,"keywords":["nocrits","nodmgspread","payload","uncletopia"],"game_id":440,"stv_port":27026,"stv_name":"Uncletopia | Sydney | 2 | All Maps | STV","players":null},{"server_id":395,"name":"Uncletopia | Sydney | 3 | All Maps","name_short":"syd-3","host":"syd-1.au.uncletopia.com","port":27035,"enabled":true,"region":"au","cc":"au","latitude":-33.865143,"longitude":151.2099,"reserved":0,"last_update":"0001-01-01T00:00:00Z","name_a2s":"Uncletopia | Sydney | 3 | All Maps","protocol":17,"map":"pl_badwater","folder":"tf","game":"Team Fortress","app_id":440,"player_count":5,"max_players":24,"Bots":0,"server_type":"Dedicated","server_os":"Linux","password":true,"vac":true,"version":"7742253","steam_id":85568392925194467,"keywords":["nocrits","nodmgspread","payload","uncletopia"],"game_id":440,"stv_port":27036,"stv_name":"Uncletopia | Sydney | 3 | All Maps | STV","players":[{"user_id":24,"name":"carrot monster","steam_id":76561199056025092,"connected_time":929000000000,"state":"active","ping":52},{"user_id":12,"name":"MR Martian","steam_id":76561198157854561,"connected_time":3157000000000,"state":"active","ping":85},{"user_id":16,"name":"Skidt","steam_id":76561199229045278,"connected_time":2285000000000,"state":"active","ping":220},{"user_id":22,"name":"Thyme","steam_id":76561199162911227,"connected_time":1289000000000,"state":"active","ping":77},{"user_id":23,"name":"ZaEpicScout205","steam_id":76561198170693338,"connected_time":1222000000000,"state":"active","ping":83}]},{"server_id":396,"name":"Uncletopia | Sydney | 4 | All Maps","name_short":"syd-4","host":"syd-1.au.uncletopia.com","port":27045,"enabled":true,"region":"au","cc":"au","latitude":-33.865143,"longitude":151.2099,"reserved":0,"last_update":"0001-01-01T00:00:00Z","name_a2s":"Uncletopia | Sydney | 4 | All Maps","protocol":17,"map":"pl_frontier_final","folder":"tf","game":"Team Fortress","app_id":440,"player_count":0,"max_players":24,"Bots":0,"server_type":"Dedicated","server_os":"Linux","password":true,"vac":true,"version":"7742253","steam_id":85568392925397958,"keywords":["nocrits","nodmgspread","payload","uncletopia"],"game_id":440,"stv_port":27046,"stv_name":"Uncletopia | Sydney | 4 | All Maps | STV","players":null},{"server_id":58,"name":"Uncletopia | Sydney | 5 | Stopwatch Beta","name_short":"syd-5","host":"syd-1.au.uncletopia.com","port":27055,"enabled":true,"region":"au","cc":"au","latitude":-33.865143,"longitude":151.2099,"reserved":0,"last_update":"0001-01-01T00:00:00Z","name_a2s":"Uncletopia | Sydney | 5 | Stopwatch Beta","protocol":17,"map":"workshop/koth_clearcut_b15.ugc2107050255","folder":"tf","game":"Team Fortress","app_id":440,"player_count":0,"max_players":24,"Bots":0,"server_type":"Dedicated","server_os":"Linux","password":true,"vac":true,"version":"7742253","steam_id":85568392925397959,"keywords":["cp","nocrits","nodmgspread","uncletopia"],"game_id":440,"stv_port":27056,"stv_name":"Uncletopia | Sydney | 5 | Stopwatch Beta | STV","players":null},{"server_id":59,"name":"Uncletopia | Sydney | 6 | Community","name_short":"syd-6","host":"syd-1.au.uncletopia.com","port":27065,"enabled":true,"region":"au","cc":"au","latitude":-33.865143,"longitude":151.2099,"reserved":0,"last_update":"0001-01-01T00:00:00Z","name_a2s":"Uncletopia | Sydney | 6 | Community","protocol":17,"map":"workshop/cp_reckoner_rc6.ugc674719999","folder":"tf","game":"Team Fortress","app_id":440,"player_count":0,"max_players":24,"Bots":0,"server_type":"Dedicated","server_os":"Linux","password":true,"vac":true,"version":"7742253","steam_id":85568392925397960,"keywords":["cp","nocrits","nodmgspread","uncletopia"],"game_id":440,"stv_port":27066,"stv_name":"Uncletopia | Sydney | 6 | Community | STV","players":null},{"server_id":49,"name":"Uncletopia | Warsaw | 1 | All Maps","name_short":"waw-1","host":"waw-1.pl.uncletopia.com","port":27015,"enabled":true,"region":"eu","cc":"pl","latitude":52.2297,"longitude":21.017532,"reserved":0,"last_update":"0001-01-01T00:00:00Z","name_a2s":"","protocol":0,"map":"","folder":"","game":"","app_id":0,"player_count":0,"max_players":0,"Bots":0,"server_type":"","server_os":"","password":false,"vac":false,"version":"","steam_id":0,"keywords":null,"game_id":0,"stv_port":0,"stv_name":"","players":null},{"server_id":50,"name":"Uncletopia | Warsaw | 2 | All Maps","name_short":"waw-2","host":"waw-1.pl.uncletopia.com","port":27025,"enabled":true,"region":"eu","cc":"pl","latitude":52.2297,"longitude":21.017532,"reserved":0,"last_update":"0001-01-01T00:00:00Z","name_a2s":"Uncletopia | Warsaw | 2 | All Maps","protocol":17,"map":"pl_borneo","folder":"tf","game":"Team Fortress","app_id":440,"player_count":0,"max_players":24,"Bots":0,"server_type":"Dedicated","server_os":"Linux","password":true,"vac":true,"version":"7742253","steam_id":85568392925397851,"keywords":["nocrits","nodmgspread","payload","uncletopia"],"game_id":440,"stv_port":27026,"stv_name":"Uncletopia | Warsaw | 2 | All Maps | STV","players":null},{"server_id":51,"name":"Uncletopia | Warsaw | 3 | All Maps","name_short":"waw-3","host":"waw-1.pl.uncletopia.com","port":27035,"enabled":true,"region":"eu","cc":"pl","latitude":52.2297,"longitude":21.017532,"reserved":0,"last_update":"0001-01-01T00:00:00Z","name_a2s":"Uncletopia | Warsaw | 3 | All Maps","protocol":17,"map":"koth_cascade","folder":"tf","game":"Team Fortress","app_id":440,"player_count":0,"max_players":24,"Bots":0,"server_type":"Dedicated","server_os":"Linux","password":true,"vac":true,"version":"7742253","steam_id":85568392925397852,"keywords":["cp","nocrits","nodmgspread","uncletopia"],"game_id":440,"stv_port":27036,"stv_name":"Uncletopia | Warsaw | 3 | All Maps | STV","players":null},{"server_id":52,"name":"Uncletopia | Warsaw | 4 | All Maps","name_short":"waw-4","host":"waw-1.pl.uncletopia.com","port":27045,"enabled":true,"region":"eu","cc":"pl","latitude":52.2297,"longitude":21.017532,"reserved":0,"last_update":"0001-01-01T00:00:00Z","name_a2s":"Uncletopia | Warsaw | 4 | All Maps","protocol":17,"map":"pl_swiftwater_final1","folder":"tf","game":"Team Fortress","app_id":440,"player_count":0,"max_players":24,"Bots":0,"server_type":"Dedicated","server_os":"Linux","password":true,"vac":true,"version":"7742253","steam_id":85568392925397853,"keywords":["nocrits","nodmgspread","payload","uncletopia"],"game_id":440,"stv_port":27046,"stv_name":"Uncletopia | Warsaw | 4 | All Maps | STV","players":null},{"server_id":53,"name":"Uncletopia | Warsaw | 5 | Stopwatch Beta","name_short":"waw-5","host":"waw-1.pl.uncletopia.com","port":27055,"enabled":true,"region":"eu","cc":"pl","latitude":52.2297,"longitude":21.017532,"reserved":0,"last_update":"0001-01-01T00:00:00Z","name_a2s":"Uncletopia | Warsaw | 5 | Stopwatch Beta","protocol":17,"map":"pl_swiftwater_final1","folder":"tf","game":"Team Fortress","app_id":440,"player_count":0,"max_players":24,"Bots":0,"server_type":"Dedicated","server_os":"Linux","password":true,"vac":true,"version":"7742253","steam_id":85568392925397854,"keywords":["nocrits","nodmgspread","payload","uncletopia"],"game_id":440,"stv_port":27056,"stv_name":"Uncletopia | Warsaw | 5 | Stopwatch Beta | STV","players":null},{"server_id":54,"name":"Uncletopia | Warsaw | 6 | Community","name_short":"waw-6","host":"waw-1.pl.uncletopia.com","port":27065,"enabled":true,"region":"eu","cc":"pl","latitude":52.2297,"longitude":21.017532,"reserved":0,"last_update":"0001-01-01T00:00:00Z","name_a2s":"Uncletopia | Warsaw | 6 | Community","protocol":17,"map":"workshop/koth_ashville_final.ugc2130459942","folder":"tf","game":"Team Fortress","app_id":440,"player_count":0,"max_players":24,"Bots":0,"server_type":"Dedicated","server_os":"Linux","password":true,"vac":true,"version":"7742253","steam_id":85568392925397856,"keywords":["cp","nocrits","nodmgspread","uncletopia"],"game_id":440,"stv_port":27066,"stv_name":"Uncletopia | Warsaw | 6 | Community | STV","players":null}]}