{"status":true,"message":"","result":[{"server_id":9,"name":"Uncletopia | Atlanta | 1 | All Maps","name_short":"atl-1","host":"atl-1.us.uncletopia.com","port":27015,"enabled":true,"region":"us-east","cc":"us","latitude":33.753746,"longitude":-84.38633,"reserved":0,"last_update":"0001-01-01T00:00:00Z","name_a2s":"Uncletopia | Atlanta | 1 | All Maps","protocol":17,"map":"pl_snowycoast","folder":"tf","game":"Team Fortress","app_id":440,"player_count":19,"max_players":24,"Bots":0,"server_type":"Dedicated","server_os":"Linux","password":true,"vac":true,"version":"7961495","steam_id":85568392924469982,"keywords":["nocrits","nodmgspread","payload","uncletopia"],"game_id":440,"stv_port":27016,"stv_name":"Uncletopia | Atlanta | 1 | All Maps | STV","players":null},{"server_id":104,"name":"Uncletopia | Atlanta | 2 | All Maps","name_short":"atl-2","host":"atl-1.us.uncletopia.com","port":27025,"enabled":true,"region":"us-east","cc":"us","latitude":33.753746,"longitude":-84.38633,"reserved":0,"last_update":"0001-01-01T00:00:00Z","name_a2s":"","protocol":0,"map":"","folder":"","game":"","app_id":0,"player_count":0,"max_players":0,"Bots":0,"server_type":"","server_os":"","password":false,"vac":false,"version":"","steam_id":0,"keywords":null,"game_id":0,"stv_port":0,"stv_name":"","players":null},{"server_id":400,"name":"Uncletopia | Atlanta | 3 | All Maps","name_short":"atl-3","host":"atl-1.us.uncletopia.com","port":27035,"enabled":true,"region":"us-east","cc":"us","latitude":33.753746,"longitude":-84.38633,"reserved":0,"last_update":"0001-01-01T00:00:00Z","name_a2s":"","protocol":0,"map":"","folder":"","game":"","app_id":0,"player_count":0,"max_players":0,"Bots":0,"server_type":"","server_os":"","password":false,"vac":false,"version":"","steam_id":0,"keywords":null,"game_id":0,"stv_port":0,"stv_name":"","players":null},{"server_id":401,"name":"Uncletopia | Atlanta | 4 | Community","name_short":"atl-4","host":"atl-1.us.uncletopia.com","port":27045,"enabled":true,"region":"us-east","cc":"us","latitude":33.753746,"longitude":-84.38633,"reserved":0,"last_update":"0001-01-01T00:00:00Z","name_a2s":"","protocol":0,"map":"","folder":"","game":"","app_id":0,"player_count":0,"max_players":0,"Bots":0,"server_type":"","server_os":"","password":false,"vac":false,"version":"","steam_id":0,"keywords":null,"game_id":0,"stv_port":0,"stv_name":"","players":null},{"server_id":2,"name":"Uncletopia | Chicago | 1 | All Maps","name_short":"chi-1","host":"chi-1.us.uncletopia.com","port":27015,"enabled":true,"region":"us-central","cc":"us","latitude":41.881832,"longitude":-87.62318,"reserved":0,"last_update":"0001-01-01T00:00:00Z","name_a2s":"Uncletopia | Chicago | 1 | All Maps","protocol":17,"map":"pl_frontier_final","folder":"tf","game":"Team Fortress","app_id":440,"player_count":24,"max_players":24,"Bots":0,"server_type":"Dedicated","server_os":"Linux","password":true,"vac":true,"version":"7961495","steam_id":85568392924469984,"keywords":["nocrits","nodmgspread","payload","uncletopia"],"game_id":440,"stv_port":27016,"stv_name":"Uncletopia | Chicago | 1 | All Maps | STV","players":[{"user_id":602,"name":"Phony brave","steam_id":76561198163563548,"connected_time":2200000000000,"state":"active","ping":52},{"user_id":588,"name":"elyktsorb","steam_id":76561198158964488,"connected_time":3217000000000,"state":"active","ping":58},{"user_id":567,"name":"seldom","steam_id":76561198166193756,"connected_time":5815000000000,"state":"active","ping":76},{"user_id":545,"name":"★RIVI★","steam_id":76561198086635699,"connected_time":7271000000000,"state":"active","ping":84},{"user_id":607,"name":"Puke Skyfucker","steam_id":76561198012846213,"connected_time":1249000000000,"state":"active","ping":71},{"user_id":591,"name":"DinkleBerg","steam_id":76561198891626233,"connected_time":2471000000000,"state":"active","ping":73},{"user_id":596,"name":"Bort","steam_id":76561198048992198,"connected_time":2418000000000,"state":"active","ping":60},{"user_id":616,"name":"Pablo","steam_id":76561199036648192,"connected_time":829000000000,"state":"active","ping":119},{"user_id":578,"name":"StonedGiant","steam_id":76561197984386932,"connected_time":4401000000000,"state":"active","ping":54},{"user_id":585,"name":"Man Time","steam_id":76561198151147218,"connected_time":3476000000000,"state":"active","ping":79},{"user_id":617,"name":"Chad Thundercock","steam_id":76561198338224564,"connected_time":724000000000,"state":"active","ping":86},{"user_id":613,"name":"TheFriendlyPybro","steam_id":76561198119425604,"connected_time":964000000000,"state":"active","ping":75},{"user_id":604,"name":"ash","steam_id":76561198127890645,"connected_time":1791000000000,"state":"active","ping":87},{"user_id":559,"name":"TheOneZoot","steam_id":76561198121944243,"connected_time":6315000000000,"state":"active","ping":79},{"user_id":610,"name":"ElBentz","steam_id":76561199059582221,"connected_time":1051000000000,"state":"active","ping":101},{"user_id":615,"name":"Wizard Raccoon","steam_id":76561198072562591,"connected_time":885000000000,"state":"active","ping":84},{"user_id":606,"name":"xXx_FukkyBr4inz69_xXx \u0026","steam_id":76561198027321950,"connected_time":1403000000000,"state":"active","ping":89},{"user_id":611,"name":"nelly modelo","steam_id":76561198044875206,"connected_time":1045000000000,"state":"active","ping":90},{"user_id":603,"name":"Chicken Burger","steam_id":76561198358529311,"connected_time":2043000000000,"state":"active","ping":106},{"user_id":521,"name":"Your Local Queer Librarian","steam_id":76561198013077080,"connected_time":8754000000000,"state":"active","ping":56},{"user_id":491,"name":"AimBütter","steam_id":76561198060108739,"connected_time":11757000000000,"state":"active","ping":91},{"user_id":612,"name":"Fumpo","steam_id":76561198206873365,"connected_time":1034000000000,"state":"active","ping":70},{"user_id":595,"name":"papa","steam_id":76561198109308860,"connected_time":2440000000000,"state":"active","ping":61},{"user_id":586,"name":"magickxanadu","steam_id":76561199117360103,"connected_time":3463000000000,"state":"active","ping":78}]},{"server_id":106,"name":"Uncletopia | Chicago | 2 | All Maps","name_short":"chi-2","host":"chi-1.us.uncletopia.com","port":27025,"enabled":true,"region":"us-central","cc":"us","latitude":41.881832,"longitude":-87.62318,"reserved":0,"last_update":"0001-01-01T00:00:00Z","name_a2s":"Uncletopia | Chicago | 2 | All Maps","protocol":17,"map":"pl_upward","folder":"tf","game":"Team Fortress","app_id":440,"player_count":24,"max_players":24,"Bots":0,"server_type":"Dedicated","server_os":"Linux","password":true,"vac":true,"version":"7961495","steam_id":85568392924469985,"keywords":["nocrits","nodmgspread","payload","uncletopia"],"game_id":440,"stv_port":27026,"stv_name":"Uncletopia | Chicago | 2 | All Maps | STV","players":[{"user_id":877,"name":"Six Piece Chicken McNobody","steam_id":76561198129848222,"connected_time":1200000000000,"state":"active","ping":66},{"user_id":814,"name":"westward (was/were)","steam_id":76561198805512350,"connected_time":2510000000000,"state":"active","ping":110},{"user_id":906,"name":"Hidden Phantom","steam_id":76561198115531799,"connected_time":470000000000,"state":"active","ping":76},{"user_id":756,"name":"James Cordon","steam_id":76561198089294060,"connected_time":5143000000000,"state":"active","ping":68},{"user_id":790,"name":"aciddragon","steam_id":76561198151211107,"connected_time":3134000000000,"state":"active","ping":116},{"user_id":774,"name":"Urbanzpinapple","steam_id":76561198115426938,"connected_time":4513000000000,"state":"active","ping":142},{"user_id":799,"name":"TheRatman","steam_id":76561197975916410,"connected_time":2637000000000,"state":"active","ping":74},{"user_id":781,"name":"Soupy Meal","steam_id":76561199056842761,"connected_time":4369000000000,"state":"active","ping":98},{"user_id":838,"name":"Ian_Marshmallow","steam_id":76561198226159304,"connected_time":2050000000000,"state":"active","ping":60},{"user_id":773,"name":"GreekGoat_Coffee","steam_id":76561198129331088,"connected_time":4570000000000,"state":"active","ping":45},{"user_id":766,"name":"Jovo","steam_id":76561197993265970,"connected_time":4996000000000,"state":"active","ping":79},{"user_id":846,"name":"Flexo","steam_id":76561198111618506,"connected_time":1883000000000,"state":"active","ping":118},{"user_id":873,"name":"Fantastic","steam_id":76561198079088978,"connected_time":1231000000000,"state":"active","ping":45},{"user_id":847,"name":"jayhong","steam_id":76561198046772832,"connected_time":1860000000000,"state":"active","ping":33},{"user_id":850,"name":"Belloq","steam_id":76561198060279052,"connected_time":1815000000000,"state":"active","ping":52},{"user_id":886,"name":"shaq$","steam_id":76561198045246504,"connected_time":985000000000,"state":"active","ping":56},{"user_id":918,"name":"SD","steam_id":76561198217410988,"connected_time":346000000000,"state":"active","ping":105},{"user_id":866,"name":"YeshieSirYesSir","steam_id":76561198080214214,"connected_time":1426000000000,"state":"active","ping":45},{"user_id":909,"name":"cup","steam_id":76561198121245586,"connected_time":423000000000,"state":"active","ping":93},{"user_id":812,"name":"MegaBruh","steam_id":76561198191771321,"connected_time":2513000000000,"state":"active","ping":94},{"user_id":771,"name":"thecal","steam_id":76561198307893384,"connected_time":4737000000000,"state":"active","ping":58},{"user_id":821,"name":"Kirby.exe","steam_id":76561198242714582,"connected_time":2378000000000,"state":"active","ping":73},{"user_id":813,"name":"The mook","steam_id":76561198963551905,"connected_time":2513000000000,"state":"active","ping":65},{"user_id":793,"name":"susie deltarune (real)","steam_id":76561198044923865,"connected_time":3077000000000,"state":"active","ping":106}]},{"server_id":402,"name":"Uncletopia | Chicago | 3 | All Maps","name_short":"chi-3","host":"chi-1.us.uncletopia.com","port":27035,"enabled":true,"region":"us-central","cc":"us","latitude":41.881832,"longitude":-87.62318,"reserved":0,"last_update":"0001-01-01T00:00:00Z","name_a2s":"Uncletopia | Chicago | 3 | All Maps","protocol":17,"map":"pl_badwater","folder":"tf","game":"Team Fortress","app_id":440,"player_count":24,"max_players":24,"Bots":0,"server_type":"Dedicated","server_os":"Linux","password":true,"vac":true,"version":"7961495","steam_id":85568392924515191,"keywords":["nocrits","nodmgspread","payload","uncletopia"],"game_id":440,"stv_port":27036,"stv_name":"Uncletopia | Chicago | 3 | All Maps | STV","players":[{"user_id":766,"name":"$LLE","steam_id":76561198163166969,"connected_time":2245000000000,"state":"active","ping":74},{"user_id":770,"name":"Accursed Bear (she/her)","steam_id":76561198182999386,"connected_time":2042000000000,"state":"active","ping":58},{"user_id":693,"name":"James","steam_id":76561198081313916,"connected_time":8173000000000,"state":"active","ping":74},{"user_id":760,"name":"Rockgraham101","steam_id":76561198171740458,"connected_time":3505000000000,"state":"active","ping":69},{"user_id":740,"name":"Walkiing","steam_id":76561198074473413,"connected_time":5530000000000,"state":"active","ping":38},{"user_id":709,"name":"Amoxicilina","steam_id":76561198168486429,"connected_time":7351000000000,"state":"active","ping":118},{"user_id":774,"name":"femboy toucher","steam_id":76561198087039429,"connected_time":1923000000000,"state":"active","ping":76},{"user_id":769,"name":"AutoCon17","steam_id":76561198209977473,"connected_time":2061000000000,"state":"active","ping":45},{"user_id":771,"name":"Adum","steam_id":76561198181162382,"connected_time":2029000000000,"state":"active","ping":85},{"user_id":764,"name":"pabloramirez1998@gmail.com","steam_id":76561198969675306,"connected_time":3154000000000,"state":"active","ping":62},{"user_id":779,"name":"strawberry","steam_id":76561198101926397,"connected_time":337000000000,"state":"active","ping":49},{"user_id":747,"name":"nucket","steam_id":76561198028658527,"connected_time":5117000000000,"state":"active","ping":105},{"user_id":743,"name":"carly rae jepsen","steam_id":76561198336144991,"connected_time":5484000000000,"state":"active","ping":62},{"user_id":618,"name":"morsetime","steam_id":76561199116362348,"connected_time":13185000000000,"state":"active","ping":88},{"user_id":726,"name":"Robin","steam_id":76561198121165149,"connected_time":6396000000000,"state":"active","ping":40},{"user_id":772,"name":"mild","steam_id":76561198082470182,"connected_time":1980000000000,"state":"active","ping":104},{"user_id":758,"name":"Billychicken54","steam_id":76561198022365463,"connected_time":3957000000000,"state":"active","ping":63},{"user_id":696,"name":"RusticCarp42989","steam_id":76561198361151865,"connected_time":8158000000000,"state":"active","ping":131},{"user_id":777,"name":"Fat lazy useless Engineer","steam_id":76561199020244051,"connected_time":888000000000,"state":"active","ping":96},{"user_id":707,"name":"SiltyStar85","steam_id":76561198309175923,"connected_time":7533000000000,"state":"active","ping":75},{"user_id":759,"name":"butterthoughts","steam_id":76561198025120284,"connected_time":3949000000000,"state":"active","ping":76},{"user_id":773,"name":"n00b31","steam_id":76561197999478291,"connected_time":1940000000000,"state":"active","ping":94},{"user_id":765,"name":"SpockASD","steam_id":76561198307516731,"connected_time":2498000000000,"state":"active","ping":82},{"user_id":763,"name":"the real big sips","steam_id":76561197999945358,"connected_time":3416000000000,"state":"active","ping":62}]},{"server_id":403,"name":"Uncletopia | Chicago | 4 | All Maps","name_short":"chi-4","host":"chi-1.us.uncletopia.com","port":27045,"enabled":true,"region":"us-central","cc":"us","latitude":41.881832,"longitude":-87.62318,"reserved":0,"last_update":"0001-01-01T00:00:00Z","name_a2s":"Uncletopia | Chicago | 4 | All Maps","protocol":17,"map":"pl_upward","folder":"tf","game":"Team Fortress","app_id":440,"player_count":24,"max_players":24,"Bots":0,"server_type":"Dedicated","server_os":"Linux","password":true,"vac":true,"version":"7961495","steam_id":85568392924515193,"keywords":["nocrits","nodmgspread","payload","uncletopia"],"game_id":440,"stv_port":27046,"stv_name":"Uncletopia | Chicago | 4 | All Maps | STV","players":[{"user_id":339,"name":"Oddball","steam_id":76561198040440984,"connected_time":353000000000,"state":"active","ping":65},{"user_id":320,"name":"._.","steam_id":76561198300316801,"connected_time":2046000000000,"state":"active","ping":58},{"user_id":308,"name":"Topfix","steam_id":76561198038899333,"connected_time":4091000000000,"state":"active","ping":54},{"user_id":302,"name":"drwwby","steam_id":76561198067741339,"connected_time":4660000000000,"state":"active","ping":57},{"user_id":321,"name":"caption cool","steam_id":76561197990612056,"connected_time":1736000000000,"state":"active","ping":47},{"user_id":317,"name":"g.","steam_id":76561197981404672,"connected_time":2573000000000,"state":"active","ping":67},{"user_id":323,"name":"Lorberry","steam_id":76561198023706058,"connected_time":1717000000000,"state":"active","ping":35},{"user_id":335,"name":"Switchclackback","steam_id":76561198014355417,"connected_time":845000000000,"state":"active","ping":54},{"user_id":334,"name":"Banned from Goodwill","steam_id":76561198408159536,"connected_time":875000000000,"state":"active","ping":51},{"user_id":342,"name":"Capt.Swag","steam_id":76561198088340994,"connected_time":286000000000,"state":"active","ping":77},{"user_id":298,"name":"wckid","steam_id":76561198044856349,"connected_time":4973000000000,"state":"active","ping":54},{"user_id":343,"name":"the pest","steam_id":76561198826298849,"connected_time":106000000000,"state":"active","ping":102},{"user_id":299,"name":"Laogh Marbh","steam_id":76561198115240256,"connected_time":4876000000000,"state":"active","ping":56},{"user_id":337,"name":"Crim","steam_id":76561198301292105,"connected_time":753000000000,"state":"active","ping":84},{"user_id":328,"name":"GoldtoothFour","steam_id":76561198055529332,"connected_time":1646000000000,"state":"active","ping":55},{"user_id":314,"name":"spartanman284","steam_id":76561198952947651,"connected_time":2952000000000,"state":"active","ping":79},{"user_id":304,"name":"Piyono","steam_id":76561197962188504,"connected_time":4312000000000,"state":"active","ping":70},{"user_id":318,"name":"Aaron","steam_id":76561198091157802,"connected_time":2485000000000,"state":"active","ping":70},{"user_id":341,"name":"k8o","steam_id":76561198042481882,"connected_time":342000000000,"state":"active","ping":51},{"user_id":336,"name":"bur","steam_id":76561198004231658,"connected_time":821000000000,"state":"active","ping":79},{"user_id":329,"name":"SmearierGold7","steam_id":76561198065689410,"connected_time":1645000000000,"state":"active","ping":75},{"user_id":312,"name":"plokmijnuhbygvtfcrdxeszwaq","steam_id":76561198175741741,"connected_time":4068000000000,"state":"active","ping":73},{"user_id":274,"name":"Talented","steam_id":76561198800259660,"connected_time":7288000000000,"state":"active","ping":62},{"user_id":330,"name":"Doofenshmirtz Evil Inc.","steam_id":76561198439793697,"connected_time":1642000000000,"state":"active","ping":77}]},{"server_id":36,"name":"Uncletopia | Chicago | 5 | All Maps","name_short":"chi-5","host":"chi-2.us.uncletopia.com","port":27015,"enabled":true,"region":"us-central","cc":"us","latitude":41.881832,"longitude":-87.62318,"reserved":0,"last_update":"0001-01-01T00:00:00Z","name_a2s":"Uncletopia | Chicago | 5 | All Maps","protocol":17,"map":"pl_frontier_final","folder":"tf","game":"Team Fortress","app_id":440,"player_count":24,"max_players":24,"Bots":0,"server_type":"Dedicated","server_os":"Linux","password":true,"vac":true,"version":"7961495","steam_id":85568392924866362,"keywords":["nocrits","nodmgspread","payload","uncletopia"],"game_id":440,"stv_port":27016,"stv_name":"Uncletopia | Chicago | 5 | All Maps | STV","players":[{"user_id":374,"name":"BronzeLeagueHero","steam_id":76561198088309711,"connected_time":4127000000000,"state":"active","ping":85},{"user_id":298,"name":"AlexLovesYou","steam_id":76561199163263543,"connected_time":8721000000000,"state":"active","ping":102},{"user_id":405,"name":"Squigatoni","steam_id":76561199433391962,"connected_time":469000000000,"state":"active","ping":85},{"user_id":401,"name":"Five","steam_id":76561198026640473,"connected_time":488000000000,"state":"active","ping":68},{"user_id":402,"name":"gendermutt","steam_id":76561198152857317,"connected_time":483000000000,"state":"active","ping":54},{"user_id":403,"name":"big man","steam_id":76561199031963925,"connected_time":476000000000,"state":"active","ping":79},{"user_id":393,"name":"Hertz","steam_id":76561198245322982,"connected_time":1316000000000,"state":"active","ping":45},{"user_id":356,"name":"SchmitySchmit","steam_id":76561198127024448,"connected_time":4426000000000,"state":"active","ping":59},{"user_id":377,"name":"Dirachi","steam_id":76561198148186898,"connected_time":4025000000000,"state":"active","ping":68},{"user_id":301,"name":"x","steam_id":76561198013735714,"connected_time":8687000000000,"state":"active","ping":78},{"user_id":404,"name":"Lemon","steam_id":76561198119362095,"connected_time":474000000000,"state":"active","ping":59},{"user_id":396,"name":"t","steam_id":76561198175988929,"connected_time":1087000000000,"state":"active","ping":66},{"user_id":406,"name":"sunny","steam_id":76561198069380992,"connected_time":461000000000,"state":"active","ping":84},{"user_id":362,"name":"Horizon","steam_id":76561198088957930,"connected_time":4376000000000,"state":"active","ping":53},{"user_id":388,"name":"Ibrahim","steam_id":76561198028320625,"connected_time":1708000000000,"state":"active","ping":67},{"user_id":397,"name":"hud_saytext_time 0","steam_id":76561198010327228,"connected_time":1056000000000,"state":"active","ping":167},{"user_id":370,"name":"Kdash","steam_id":76561198043829155,"connected_time":4177000000000,"state":"active","ping":75},{"user_id":389,"name":"RipHunter77","steam_id":76561198272973014,"connected_time":1672000000000,"state":"active","ping":84},{"user_id":385,"name":"FParadox5150","steam_id":76561198180675907,"connected_time":2167000000000,"state":"active","ping":73},{"user_id":378,"name":"Cyb3rCrunk","steam_id":76561198426463025,"connected_time":3974000000000,"state":"active","ping":71},{"user_id":390,"name":"Ace Chromatica","steam_id":76561198042211131,"connected_time":1662000000000,"state":"active","ping":60},{"user_id":399,"name":"Herr Müller","steam_id":76561198064876829,"connected_time":520000000000,"state":"active","ping":94},{"user_id":373,"name":"Lego Yoda","steam_id":76561199008362890,"connected_time":4166000000000,"state":"active","ping":73},{"user_id":305,"name":"corntent","steam_id":76561198824847948,"connected_time":8646000000000,"state":"active","ping":62}]},{"server_id":37,"name":"Uncletopia | Chicago | 6 | All Maps","name_short":"chi-6","host":"chi-2.us.uncletopia.com","port":27025,"enabled":true,"region":"us-central","cc":"us","latitude":41.881832,"longitude":-87.62318,"reserved":0,"last_update":"0001-01-01T00:00:00Z","name_a2s":"Uncletopia | Chicago | 6 | All Maps","protocol":17,"map":"pl_swiftwater_final1","folder":"tf","game":"Team Fortress","app_id":440,"player_count":24,"max_players":24,"Bots":0,"server_type":"Dedicated","server_os":"Linux","password":true,"vac":true,"version":"7961495","steam_id":85568392924866363,"keywords":["nocrits","nodmgspread","payload","uncletopia"],"game_id":440,"stv_port":27026,"stv_name":"Uncletopia | Chicago | 6 | All Maps | STV","players":[{"user_id":265,"name":"CrunchCisco","steam_id":76561199162724832,"connected_time":3491000000000,"state":"active","ping":79},{"user_id":278,"name":"I'll suck ur toes","steam_id":76561198028157625,"connected_time":2798000000000,"state":"active","ping":86},{"user_id":290,"name":"-W3E- grim10465","steam_id":76561198045698581,"connected_time":1907000000000,"state":"active","ping":52},{"user_id":301,"name":"Scut","steam_id":76561198973734291,"connected_time":668000000000,"state":"active","ping":92},{"user_id":280,"name":"Cosmic sR","steam_id":76561198081738675,"connected_time":2629000000000,"state":"active","ping":90},{"user_id":305,"name":"chimpin","steam_id":76561198858089300,"connected_time":622000000000,"state":"active","ping":75},{"user_id":282,"name":"Hipkid81","steam_id":76561198209679029,"connected_time":2290000000000,"state":"active","ping":86},{"user_id":311,"name":"HaphazardHazel","steam_id":76561198316812693,"connected_time":115000000000,"state":"active","ping":101},{"user_id":296,"name":"AJTarcza","steam_id":76561198070800190,"connected_time":1415000000000,"state":"active","ping":89},{"user_id":284,"name":"Holo Spida","steam_id":76561199067325962,"connected_time":2265000000000,"state":"active","ping":92},{"user_id":298,"name":"Rudy","steam_id":76561198013456828,"connected_time":724000000000,"state":"active","ping":68},{"user_id":90,"name":"Nexus","steam_id":76561198305472434,"connected_time":16240000000000,"state":"active","ping":111},{"user_id":310,"name":"CHIEF_JUSTICE_FUCKASS","steam_id":76561199261675844,"connected_time":532000000000,"state":"active","ping":101},{"user_id":288,"name":"Dr Oshawott","steam_id":76561198042021629,"connected_time":1985000000000,"state":"active","ping":67},{"user_id":297,"name":"Toonice","steam_id":76561198402994885,"connected_time":852000000000,"state":"active","ping":82},{"user_id":277,"name":"morphine","steam_id":76561198072124799,"connected_time":2909000000000,"state":"active","ping":93},{"user_id":242,"name":"nomad","steam_id":76561197998740399,"connected_time":5003000000000,"state":"active","ping":67},{"user_id":293,"name":"eish","steam_id":76561198089463603,"connected_time":1780000000000,"state":"active","ping":127},{"user_id":243,"name":"C Papi","steam_id":76561198027779564,"connected_time":4999000000000,"state":"active","ping":58},{"user_id":291,"name":"Envidia","steam_id":76561198141640643,"connected_time":1906000000000,"state":"active","ping":129},{"user_id":304,"name":"sorash","steam_id":76561198082006215,"connected_time":646000000000,"state":"active","ping":59},{"user_id":300,"name":"ʕ•ᴥ•ʔ the bear","steam_id":76561197989591976,"connected_time":707000000000,"state":"active","ping":81},{"user_id":295,"name":"Flowers","steam_id":76561198031669899,"connected_time":1594000000000,"state":"active","ping":92},{"user_id":285,"name":"the indomitable human spirit","steam_id":76561198277163301,"connected_time":2265000000000,"state":"active","ping":75}]},{"server_id":38,"name":"Uncletopia | Chicago | 7 | Stopwatch Beta","name_short":"chi-7","host":"chi-2.us.uncletopia.com","port":27035,"enabled":true,"region":"us-central","cc":"us","latitude":41.881832,"longitude":-87.62318,"reserved":0,"last_update":"0001-01-01T00:00:00Z","name_a2s":"Uncletopia | Chicago | 7 | Stopwatch Beta","protocol":17,"map":"pl_badwater","folder":"tf","game":"Team Fortress","app_id":440,"player_count":0,"max_players":24,"Bots":0,"server_type":"Dedicated","server_os":"Linux","password":true,"vac":true,"version":"7961495","steam_id":85568392924866364,"keywords":["nocrits","nodmgspread","payload","uncletopia"],"game_id":440,"stv_port":27036,"stv_name":"Uncletopia | Chicago | 7 | Stopwatch Beta | STV","players":null},{"server_id":39,"name":"Uncletopia | Chicago | 8 | Community","name_short":"chi-8","host":"chi-2.us.uncletopia.com","port":27045,"enabled":true,"region":"us-central","cc":"us","latitude":41.881832,"longitude":-87.62318,"reserved":0,"last_update":"0001-01-01T00:00:00Z","name_a2s":"Uncletopia | Chicago | 8 | Community","protocol":17,"map":"workshop/koth_slaughter_rc1.ugc1712845210","folder":"tf","game":"Team Fortress","app_id":440,"player_count":24,"max_players":24,"Bots":0,"server_type":"Dedicated","server_os":"Linux","password":true,"vac":true,"version":"7961495","steam_id":85568392924866365,"keywords":["cp","nocrits","nodmgspread","uncletopia"],"game_id":440,"stv_port":27046,"stv_name":"Uncletopia | Chicago | 8 | Community | STV","players":[{"user_id":316,"name":"draculaura (g3)","steam_id":76561198982584470,"connected_time":1419000000000,"state":"active","ping":102},{"user_id":295,"name":"[ᎴᏋᏋᎮ] Danmar33","steam_id":76561198056453091,"connected_time":2949000000000,"state":"active","ping":52},{"user_id":332,"name":"Lifial","steam_id":76561198271885819,"connected_time":352000000000,"state":"active","ping":77},{"user_id":323,"name":"One Horned Bitch Destroyer","steam_id":76561198045810191,"connected_time":1025000000000,"state":"active","ping":98},{"user_id":334,"name":"Brendan","steam_id":76561198041079914,"connected_time":141000000000,"state":"active","ping":73},{"user_id":133,"name":"Alunatic14","steam_id":76561198309321593,"connected_time":13451000000000,"state":"active","ping":86},{"user_id":336,"name":"ROGUE-PLANET","steam_id":76561198116023052,"connected_time":101000000000,"state":"active","ping":75},{"user_id":333,"name":"Ashes!","steam_id":76561197998475441,"connected_time":337000000000,"state":"active","ping":90},{"user_id":322,"name":"Captain Emerald The Changeling","steam_id":76561198320651177,"connected_time":1061000000000,"state":"active","ping":65},{"user_id":284,"name":"SilentFootba11","steam_id":76561199006570947,"connected_time":3225000000000,"state":"active","ping":86},{"user_id":328,"name":"Jaydyn","steam_id":76561198140326797,"connected_time":908000000000,"state":"active","ping":81},{"user_id":311,"name":"teegs","steam_id":76561198067905221,"connected_time":1901000000000,"state":"active","ping":57},{"user_id":317,"name":"Toddler Odder","steam_id":76561198045300476,"connected_time":1411000000000,"state":"active","ping":47},{"user_id":258,"name":"DeckofDragons","steam_id":76561198057398213,"connected_time":5002000000000,"state":"active","ping":76},{"user_id":302,"name":"Orakcaj","steam_id":76561198080563935,"connected_time":2504000000000,"state":"active","ping":40},{"user_id":325,"name":"Hirochi","steam_id":76561198850339384,"connected_time":937000000000,"state":"active","ping":71},{"user_id":318,"name":"slugmundo","steam_id":76561198073549508,"connected_time":1406000000000,"state":"active","ping":80},{"user_id":326,"name":"Spare(8)Ball","steam_id":76561197982432995,"connected_time":937000000000,"state":"active","ping":102},{"user_id":278,"name":"Deft","steam_id":76561198830325466,"connected_time":4029000000000,"state":"active","ping":61},{"user_id":327,"name":"SouperBad","steam_id":76561198116690686,"connected_time":923000000000,"state":"active","ping":56},{"user_id":330,"name":"Idiotden","steam_id":76561199340950135,"connected_time":788000000000,"state":"active","ping":100},{"user_id":331,"name":"Movarc'h Princess","steam_id":76561198024057411,"connected_time":722000000000,"state":"active","ping":60},{"user_id":274,"name":"Bartisfunny64","steam_id":76561199031813278,"connected_time":4365000000000,"state":"active","ping":65},{"user_id":293,"name":"Induce Salt","steam_id":76561198116645978,"connected_time":2995000000000,"state":"active","ping":60}]},{"server_id":8,"name":"Uncletopia | Dallas | 1 | All Maps","name_short":"dal-1","host":"dal-1.us.uncletopia.com","port":27015,"enabled":true,"region":"us-central","cc":"us","latitude":32.779167,"longitude":-96.80889,"reserved":0,"last_update":"0001-01-01T00:00:00Z","name_a2s":"Uncletopia | Dallas | 1 | All Maps","protocol":17,"map":"pl_swiftwater_final1","folder":"tf","game":"Team Fortress","app_id":440,"player_count":24,"max_players":24,"Bots":0,"server_type":"Dedicated","server_os":"Linux","password":true,"vac":true,"version":"7961495","steam_id":85568392924469986,"keywords":["nocrits","nodmgspread","payload","uncletopia"],"game_id":440,"stv_port":27016,"stv_name":"Uncletopia | Dallas | 1 | All Maps | STV","players":[{"user_id":417,"name":"Bogey","steam_id":76561198096227944,"connected_time":3535000000000,"state":"active","ping":44},{"user_id":452,"name":"NormanVillage","steam_id":76561198330337371,"connected_time":283000000000,"state":"active","ping":95},{"user_id":435,"name":"Savory Red Sauce","steam_id":76561198071825947,"connected_time":2159000000000,"state":"active","ping":44},{"user_id":450,"name":"flintdotcom #TransRights","steam_id":76561199198577763,"connected_time":332000000000,"state":"active","ping":60},{"user_id":451,"name":"frank","steam_id":76561198137777483,"connected_time":329000000000,"state":"active","ping":84},{"user_id":453,"name":"GibbusGod","steam_id":76561199232436690,"connected_time":223000000000,"state":"active","ping":75},{"user_id":421,"name":"Anon","steam_id":76561198109740776,"connected_time":3068000000000,"state":"active","ping":89},{"user_id":440,"name":"Crispy","steam_id":76561198037481161,"connected_time":1587000000000,"state":"active","ping":71},{"user_id":437,"name":"Billy Mays","steam_id":76561197998876324,"connected_time":2142000000000,"state":"active","ping":99},{"user_id":439,"name":"Kiso 火","steam_id":76561198141026844,"connected_time":1654000000000,"state":"active","ping":135},{"user_id":388,"name":"Mephistopheles","steam_id":76561198253731826,"connected_time":5689000000000,"state":"active","ping":90},{"user_id":431,"name":"X P X","steam_id":76561198372411760,"connected_time":2480000000000,"state":"active","ping":85},{"user_id":413,"name":"MeMyBongusAndTheGreatOutdoors","steam_id":76561198097708978,"connected_time":3797000000000,"state":"active","ping":64},{"user_id":447,"name":"Zhing","steam_id":76561198097160898,"connected_time":346000000000,"state":"active","ping":80},{"user_id":424,"name":"rAnch","steam_id":76561198024562587,"connected_time":2851000000000,"state":"active","ping":43},{"user_id":430,"name":"TAMU ClariNate","steam_id":76561198452988152,"connected_time":2572000000000,"state":"active","ping":69},{"user_id":349,"name":"Ferguson","steam_id":76561198121349387,"connected_time":9600000000000,"state":"active","ping":58},{"user_id":420,"name":"BackwardsEagle","steam_id":76561199013712612,"connected_time":3104000000000,"state":"active","ping":97},{"user_id":448,"name":"Bird","steam_id":76561198061274314,"connected_time":346000000000,"state":"active","ping":85},{"user_id":397,"name":"Punished Shitster","steam_id":76561198150452857,"connected_time":5273000000000,"state":"active","ping":50},{"user_id":444,"name":"GLG.Liz","steam_id":76561198021957956,"connected_time":365000000000,"state":"active","ping":52},{"user_id":382,"name":"David De Bergerac","steam_id":76561198010306294,"connected_time":6522000000000,"state":"active","ping":92},{"user_id":454,"name":"GoiDimLi","steam_id":76561198053286433,"connected_time":130000000000,"state":"active","ping":159},{"user_id":338,"name":"PROFILE NAME","steam_id":76561199438851854,"connected_time":11466000000000,"state":"active","ping":119}]},{"server_id":108,"name":"Uncletopia | Dallas | 2 | All Maps","name_short":"dal-2","host":"dal-1.us.uncletopia.com","port":27025,"enabled":true,"region":"us-central","cc":"us","latitude":32.779167,"longitude":-96.80889,"reserved":0,"last_update":"0001-01-01T00:00:00Z","name_a2s":"Uncletopia | Dallas | 2 | All Maps","protocol":17,"map":"pl_badwater","folder":"tf","game":"Team Fortress","app_id":440,"player_count":24,"max_players":24,"Bots":0,"server_type":"Dedicated","server_os":"Linux","password":true,"vac":true,"version":"7961495","steam_id":85568392924469988,"keywords":["nocrits","nodmgspread","payload","uncletopia"],"game_id":440,"stv_port":27026,"stv_name":"Uncletopia | Dallas | 2 | All Maps | STV","players":[{"user_id":388,"name":"Sarbanes-Oxley","steam_id":76561197975898479,"connected_time":258000000000,"state":"active","ping":53},{"user_id":363,"name":"emerie","steam_id":76561198406252824,"connected_time":2348000000000,"state":"active","ping":105},{"user_id":352,"name":"☙ Corrupt ❧","steam_id":76561197977631915,"connected_time":3049000000000,"state":"active","ping":70},{"user_id":315,"name":"-Rλ҉inyCloudCore","steam_id":76561198028799685,"connected_time":6291000000000,"state":"active","ping":76},{"user_id":387,"name":"Daddy’s Special Boy!","steam_id":76561198152454725,"connected_time":445000000000,"state":"active","ping":64},{"user_id":384,"name":"armpit fetishist","steam_id":76561199008452637,"connected_time":533000000000,"state":"active","ping":138},{"user_id":371,"name":"Kenny","steam_id":76561199005805984,"connected_time":2071000000000,"state":"active","ping":44},{"user_id":355,"name":"孫子","steam_id":76561198083112681,"connected_time":2468000000000,"state":"active","ping":54},{"user_id":358,"name":"Fightin Cow","steam_id":76561198080941486,"connected_time":2447000000000,"state":"active","ping":62},{"user_id":377,"name":"task","steam_id":76561198284992433,"connected_time":1337000000000,"state":"active","ping":77},{"user_id":383,"name":"Sanic_Bum","steam_id":76561198094179822,"connected_time":676000000000,"state":"active","ping":74},{"user_id":379,"name":"Cereal","steam_id":76561198128418112,"connected_time":1131000000000,"state":"active","ping":96},{"user_id":370,"name":"TechnoBear2099","steam_id":76561198238863596,"connected_time":2092000000000,"state":"active","ping":52},{"user_id":298,"name":"Ichthyology Enthusiast","steam_id":76561198854662187,"connected_time":7627000000000,"state":"active","ping":54},{"user_id":378,"name":"eis","steam_id":76561198830293087,"connected_time":1257000000000,"state":"active","ping":63},{"user_id":347,"name":"irritable vowel syndrome","steam_id":76561198117033273,"connected_time":3520000000000,"state":"active","ping":178},{"user_id":361,"name":"exten-z","steam_id":76561198004359190,"connected_time":2411000000000,"state":"active","ping":76},{"user_id":318,"name":"tiernan330","steam_id":76561198271912722,"connected_time":6278000000000,"state":"active","ping":88},{"user_id":357,"name":"Da_Doc","steam_id":76561199037986321,"connected_time":2460000000000,"state":"active","ping":78},{"user_id":381,"name":"oh god i'm gonna CHUM","steam_id":76561198019210187,"connected_time":878000000000,"state":"active","ping":50},{"user_id":319,"name":"Yapple Dapple","steam_id":76561198082422815,"connected_time":6274000000000,"state":"active","ping":71},{"user_id":367,"name":"npc energy","steam_id":76561198035342207,"connected_time":2209000000000,"state":"active","ping":60},{"user_id":375,"name":"All Bark Love Bites","steam_id":76561198971285292,"connected_time":1640000000000,"state":"active","ping":63},{"user_id":385,"name":"newport menthol 100s CEO","steam_id":76561198050976060,"connected_time":507000000000,"state":"active","ping":80}]},{"server_id":404,"name":"Uncletopia | Dallas | 3 | All Maps","name_short":"dal-3","host":"dal-1.us.uncletopia.com","port":27035,"enabled":true,"region":"us-central","cc":"us","latitude":32.779167,"longitude":-96.80889,"reserved":0,"last_update":"0001-01-01T00:00:00Z","name_a2s":"Uncletopia | Dallas | 3 | All Maps","protocol":17,"map":"pl_upward","folder":"tf","game":"Team Fortress","app_id":440,"player_count":24,"max_players":24,"Bots":0,"server_type":"Dedicated","server_os":"Linux","password":true,"vac":true,"version":"7961495","steam_id":85568392924515219,"keywords":["nocrits","nodmgspread","payload","uncletopia"],"game_id":440,"stv_port":27036,"stv_name":"Uncletopia | Dallas | 3 | All Maps | STV","players":[{"user_id":471,"name":"Snoopy","steam_id":76561198273735974,"connected_time":2337000000000,"state":"active","ping":80},{"user_id":492,"name":"Xero","steam_id":76561198118612292,"connected_time":229000000000,"state":"active","ping":61},{"user_id":468,"name":"DREW PEACOCK","steam_id":76561198065057392,"connected_time":2489000000000,"state":"active","ping":93},{"user_id":478,"name":"errant","steam_id":76561197961758410,"connected_time":1412000000000,"state":"active","ping":34},{"user_id":460,"name":"corviraptor (\u003c--- awesome)","steam_id":76561198058284392,"connected_time":2896000000000,"state":"active","ping":68},{"user_id":479,"name":"Cassius Money","steam_id":76561197979696414,"connected_time":1389000000000,"state":"active","ping":71},{"user_id":443,"name":"totally not a pile of beans","steam_id":76561198119851931,"connected_time":3818000000000,"state":"active","ping":99},{"user_id":485,"name":"Brown_Dream","steam_id":76561198975766145,"connected_time":1006000000000,"state":"active","ping":92},{"user_id":481,"name":"kibsta","steam_id":76561198991982630,"connected_time":1236000000000,"state":"active","ping":74},{"user_id":455,"name":"نصلي من أجل سقوطه","steam_id":76561198021308963,"connected_time":3143000000000,"state":"active","ping":69},{"user_id":486,"name":"fdsarewqqqqq","steam_id":76561199216983585,"connected_time":950000000000,"state":"active","ping":89},{"user_id":483,"name":"Rock005 Enjoyer","steam_id":76561198401455467,"connected_time":1204000000000,"state":"active","ping":92},{"user_id":491,"name":"z.","steam_id":76561198009773129,"connected_time":356000000000,"state":"active","ping":86},{"user_id":494,"name":"Chrits","steam_id":76561198072082596,"connected_time":0,"state":"spawning","ping":38},{"user_id":457,"name":"mellowhype","steam_id":76561198040675606,"connected_time":3104000000000,"state":"active","ping":49},{"user_id":490,"name":"Im Groot","steam_id":76561198294943420,"connected_time":407000000000,"state":"active","ping":128},{"user_id":493,"name":"Michaelpc1","steam_id":76561198088365519,"connected_time":128000000000,"state":"active","ping":90},{"user_id":466,"name":"dailyspesh","steam_id":76561197988072369,"connected_time":2642000000000,"state":"active","ping":98},{"user_id":477,"name":"Howell at the Moon","steam_id":76561198060827426,"connected_time":1628000000000,"state":"active","ping":81},{"user_id":484,"name":"chicken joe from surfs up 2","steam_id":76561198060807152,"connected_time":1178000000000,"state":"active","ping":119},{"user_id":489,"name":"BlasterPrime","steam_id":76561198084154062,"connected_time":462000000000,"state":"active","ping":60},{"user_id":441,"name":"你好","steam_id":76561198873043242,"connected_time":3926000000000,"state":"active","ping":138},{"user_id":474,"name":"dylan","steam_id":76561198822573920,"connected_time":2303000000000,"state":"active","ping":71},{"user_id":401,"name":"lker","steam_id":76561197976975075,"connected_time":6987000000000,"state":"active","ping":58}]},{"server_id":405,"name":"Uncletopia | Dallas | 4 | Community","name_short":"dal-4","host":"dal-1.us.uncletopia.com","port":27045,"enabled":true,"region":"us-central","cc":"us","latitude":32.779167,"longitude":-96.80889,"reserved":0,"last_update":"0001-01-01T00:00:00Z","name_a2s":"Uncletopia | Dallas | 4 | Community","protocol":17,"map":"workshop/cp_snowbase_b18.ugc2081770490","folder":"tf","game":"Team Fortress","app_id":440,"player_count":24,"max_players":24,"Bots":0,"server_type":"Dedicated","server_os":"Linux","password":true,"vac":true,"version":"7961495","steam_id":85568392924515220,"keywords":["cp","nocrits","nodmgspread","uncletopia"],"game_id":440,"stv_port":27046,"stv_name":"Uncletopia | Dallas | 4 | Community | STV","players":[{"user_id":117,"name":"I GOT LAID AT SHEN YUN 2023","steam_id":76561198844003641,"connected_time":2681000000000,"state":"active","ping":86},{"user_id":135,"name":"smittenkittenmittens","steam_id":76561198130900442,"connected_time":1111000000000,"state":"active","ping":113},{"user_id":84,"name":"Foxyz","steam_id":76561198040642992,"connected_time":5403000000000,"state":"active","ping":165},{"user_id":145,"name":"Xyk","steam_id":76561198023268899,"connected_time":405000000000,"state":"active","ping":90},{"user_id":136,"name":"beguilingfool","steam_id":76561199128745972,"connected_time":1099000000000,"state":"active","ping":115},{"user_id":80,"name":"DELTRON ZERO","steam_id":76561198081123470,"connected_time":5612000000000,"state":"active","ping":62},{"user_id":110,"name":"rainbowmaster25!","steam_id":76561199215255414,"connected_time":3022000000000,"state":"active","ping":83},{"user_id":150,"name":"Lezabel","steam_id":76561198970753261,"connected_time":173000000000,"state":"active","ping":75},{"user_id":88,"name":"Freddi Fish owes me $5","steam_id":76561198112705880,"connected_time":4887000000000,"state":"active","ping":82},{"user_id":92,"name":"BlueEyesDankDragon","steam_id":76561198359988117,"connected_time":4738000000000,"state":"active","ping":119},{"user_id":122,"name":"dave","steam_id":76561198135961731,"connected_time":2513000000000,"state":"active","ping":66},{"user_id":146,"name":"Nine-Tails Delsin","steam_id":76561198149825187,"connected_time":402000000000,"state":"active","ping":152},{"user_id":103,"name":"Stillkill","steam_id":76561198065069057,"connected_time":4167000000000,"state":"active","ping":32},{"user_id":107,"name":"scottbagel","steam_id":76561199144640325,"connected_time":3324000000000,"state":"active","ping":45},{"user_id":52,"name":"Gelliterate","steam_id":76561198107233070,"connected_time":7302000000000,"state":"active","ping":56},{"user_id":153,"name":"kazoo2","steam_id":76561198260473504,"connected_time":11000000000,"state":"spawning","ping":156},{"user_id":149,"name":"pyrosnark","steam_id":76561198981868580,"connected_time":214000000000,"state":"active","ping":90},{"user_id":99,"name":"Moonflower ✦","steam_id":76561198191782483,"connected_time":4464000000000,"state":"active","ping":51},{"user_id":125,"name":"de1deonlyvic","steam_id":76561199072005203,"connected_time":2228000000000,"state":"active","ping":92},{"user_id":126,"name":"Mr. E","steam_id":76561198060381147,"connected_time":2202000000000,"state":"active","ping":100},{"user_id":143,"name":"Rat5555546","steam_id":76561199350546592,"connected_time":416000000000,"state":"active","ping":97},{"user_id":152,"name":"?pengin","steam_id":76561198254236408,"connected_time":151000000000,"state":"active","ping":97},{"user_id":148,"name":"Loashes","steam_id":76561198119608299,"connected_time":263000000000,"state":"active","ping":80},{"user_id":114,"name":"laddie","steam_id":76561198063029230,"connected_time":2900000000000,"state":"active","ping":90}]},{"server_id":5,"name":"Uncletopia | Frankfurt | 1 | All Maps","name_short":"frk-1","host":"frk-1.de.uncletopia.com","port":27015,"enabled":true,"region":"eu","cc":"de","latitude":50.110924,"longitude":8.682127,"reserved":0,"last_update":"0001-01-01T00:00:00Z","name_a2s":"Uncletopia | Frankfurt | 1 | All Maps","protocol":17,"map":"pl_badwater","folder":"tf","game":"Team Fortress","app_id":440,"player_count":0,"max_players":24,"Bots":0,"server_type":"Dedicated","server_os":"Linux","password":true,"vac":true,"version":"7961495","steam_id":85568392924469989,"keywords":["nocrits","nodmgspread","payload","uncletopia"],"game_id":440,"stv_port":27016,"stv_name":"Uncletopia | Frankfurt | 1 | All Maps | STV","players":null},{"server_id":110,"name":"Uncletopia | Frankfurt | 2 | All Maps","name_short":"frk-2","host":"frk-1.de.uncletopia.com","port":27025,"enabled":true,"region":"eu","cc":"de","latitude":50.110924,"longitude":8.682127,"reserved":0,"last_update":"0001-01-01T00:00:00Z","name_a2s":"Uncletopia | Frankfurt | 2 | All Maps","protocol":17,"map":"koth_lakeside_final","folder":"tf","game":"Team Fortress","app_id":440,"player_count":0,"max_players":24,"Bots":0,"server_type":"Dedicated","server_os":"Linux","password":true,"vac":true,"version":"7961495","steam_id":85568392924469990,"keywords":["cp","nocrits","nodmgspread","uncletopia"],"game_id":440,"stv_port":27026,"stv_name":"Uncletopia | Frankfurt | 2 | All Maps | STV","players":null},{"server_id":308,"name":"Uncletopia | Frankfurt | 3 | All Maps","name_short":"frk-3","host":"frk-1.de.uncletopia.com","port":27035,"enabled":true,"region":"eu","cc":"de","latitude":50.110924,"longitude":8.682127,"reserved":0,"last_update":"0001-01-01T00:00:00Z","name_a2s":"Uncletopia | Frankfurt | 3 | All Maps","protocol":17,"map":"cp_sunshine","folder":"tf","game":"Team Fortress","app_id":440,"player_count":0,"max_players":24,"Bots":0,"server_type":"Dedicated","server_os":"Linux","password":true,"vac":true,"version":"7961495","steam_id":85568392924504274,"keywords":["cp","nocrits","nodmgspread","uncletopia"],"game_id":440,"stv_port":27036,"stv_name":"Uncletopia | Frankfurt | 3 | All Maps | STV","players":null},{"server_id":309,"name":"Uncletopia | Frankfurt | 4 | All Maps","name_short":"frk-4","host":"frk-1.de.uncletopia.com","port":27045,"enabled":true,"region":"eu","cc":"de","latitude":50.110924,"longitude":8.682127,"reserved":0,"last_update":"0001-01-01T00:00:00Z","name_a2s":"Uncletopia | Frankfurt | 4 | All Maps","protocol":17,"map":"cp_altitude","folder":"tf","game":"Team Fortress","app_id":440,"player_count":0,"max_players":24,"Bots":0,"server_type":"Dedicated","server_os":"Linux","password":true,"vac":true,"version":"7961495","steam_id":85568392924504275,"keywords":["cp","nocrits","nodmgspread","uncletopia"],"game_id":440,"stv_port":27046,"stv_name":"Uncletopia | Frankfurt | 4 | All Maps | STV","players":null},{"server_id":310,"name":"Uncletopia | Frankfurt | 5 | All Maps","name_short":"frk-5","host":"frk-1.de.uncletopia.com","port":27055,"enabled":true,"region":"eu","cc":"de","latitude":50.110924,"longitude":8.682127,"reserved":0,"last_update":"0001-01-01T00:00:00Z","name_a2s":"Uncletopia | Frankfurt | 5 | All Maps","protocol":17,"map":"cp_process_final","folder":"tf","game":"Team Fortress","app_id":440,"player_count":0,"max_players":24,"Bots":0,"server_type":"Dedicated","server_os":"Linux","password":true,"vac":true,"version":"7961495","steam_id":85568392924504277,"keywords":["cp","nocrits","nodmgspread","uncletopia"],"game_id":440,"stv_port":27056,"stv_name":"Uncletopia | Frankfurt | 5 | All Maps | STV","players":null},{"server_id":311,"name":"Uncletopia | Frankfurt | 6 | All Maps","name_short":"frk-6","host":"frk-1.de.uncletopia.com","port":27065,"enabled":true,"region":"eu","cc":"de","latitude":50.110924,"longitude":8.682127,"reserved":0,"last_update":"0001-01-01T00:00:00Z","name_a2s":"Uncletopia | Frankfurt | 6 | All Maps","protocol":17,"map":"pl_barnblitz","folder":"tf","game":"Team Fortress","app_id":440,"player_count":0,"max_players":24,"Bots":0,"server_type":"Dedicated","server_os":"Linux","password":true,"vac":true,"version":"7961495","steam_id":85568392924504278,"keywords":["nocrits","nodmgspread","payload","uncletopia"],"game_id":440,"stv_port":27066,"stv_name":"Uncletopia | Frankfurt | 6 | All Maps | STV","players":null},{"server_id":23,"name":"Uncletopia | Frankfurt | 7 | Stopwatch Beta","name_short":"frk-7","host":"frk-1.de.uncletopia.com","port":27075,"enabled":true,"region":"eu","cc":"de","latitude":50.110924,"longitude":8.682127,"reserved":0,"last_update":"0001-01-01T00:00:00Z","name_a2s":"Uncletopia | Frankfurt | 7 | Stopwatch Beta","protocol":17,"map":"koth_cascade","folder":"tf","game":"Team Fortress","app_id":440,"player_count":0,"max_players":24,"Bots":0,"server_type":"Dedicated","server_os":"Linux","password":true,"vac":true,"version":"7961495","steam_id":85568392924742827,"keywords":["cp","nocrits","nodmgspread","uncletopia"],"game_id":440,"stv_port":27076,"stv_name":"Uncletopia | Frankfurt | 7 | Stopwatch Beta | STV","players":null},{"server_id":24,"name":"Uncletopia | Frankfurt | 8 | Community","name_short":"frk-8","host":"frk-1.de.uncletopia.com","port":27085,"enabled":true,"region":"eu","cc":"de","latitude":50.110924,"longitude":8.682127,"reserved":0,"last_update":"0001-01-01T00:00:00Z","name_a2s":"Uncletopia | Frankfurt | 8 | Community","protocol":17,"map":"cp_dustbowl","folder":"tf","game":"Team Fortress","app_id":440,"player_count":0,"max_players":24,"Bots":0,"server_type":"Dedicated","server_os":"Linux","password":true,"vac":true,"version":"7961495","steam_id":85568392924742828,"keywords":["cp","nocrits","nodmgspread","uncletopia"],"game_id":440,"stv_port":27086,"stv_name":"Uncletopia | Frankfurt | 8 | Community | STV","players":null},{"server_id":202,"name":"Uncletopia | Hong Kong | 1 | All Maps","name_short":"hgk-1","host":"hgk-1.hk.uncletopia.com","port":27015,"enabled":true,"region":"asia","cc":"hk","latitude":22.302711,"longitude":114.177216,"reserved":0,"last_update":"0001-01-01T00:00:00Z","name_a2s":"Uncletopia | Hong Kong | 1 | All Maps","protocol":17,"map":"koth_viaduct","folder":"tf","game":"Team Fortress","app_id":440,"player_count":0,"max_players":24,"Bots":0,"server_type":"Dedicated","server_os":"Linux","password":true,"vac":true,"version":"7961495","steam_id":85568392924494504,"keywords":["cp","nocrits","nodmgspread","uncletopia"],"game_id":440,"stv_port":27016,"stv_name":"Uncletopia | Hong Kong | 1 | All Maps | STV","players":null},{"server_id":1,"name":"Uncletopia | Los Angeles | 1 | All Maps","name_short":"lax-1","host":"lax-1.us.uncletopia.com","port":27015,"enabled":true,"region":"us-west","cc":"us","latitude":33.94279,"longitude":-118.41004,"reserved":0,"last_update":"0001-01-01T00:00:00Z","name_a2s":"Uncletopia | Los Angeles | 1 | All Maps","protocol":17,"map":"pl_frontier_final","folder":"tf","game":"Team Fortress","app_id":440,"player_count":22,"max_players":24,"Bots":0,"server_type":"Dedicated","server_os":"Linux","password":true,"vac":true,"version":"7961495","steam_id":85568392924469991,"keywords":["nocrits","nodmgspread","payload","uncletopia"],"game_id":440,"stv_port":27016,"stv_name":"Uncletopia | Los Angeles | 1 | All Maps | STV","players":[{"user_id":397,"name":"Dr. Zoidburg","steam_id":76561198174593497,"connected_time":407000000000,"state":"active","ping":90},{"user_id":378,"name":"TüCold","steam_id":76561198111278197,"connected_time":2300000000000,"state":"active","ping":55},{"user_id":367,"name":"Kng","steam_id":76561198993248203,"connected_time":3329000000000,"state":"active","ping":120},{"user_id":321,"name":"eh gaming","steam_id":76561198056075147,"connected_time":7220000000000,"state":"active","ping":165},{"user_id":395,"name":"LEE","steam_id":76561199127408846,"connected_time":599000000000,"state":"active","ping":62},{"user_id":382,"name":"Eugene Thaddeus Hinkle V","steam_id":76561198821535846,"connected_time":2207000000000,"state":"active","ping":105},{"user_id":357,"name":"Pybro's Day Off","steam_id":76561197996353534,"connected_time":4736000000000,"state":"active","ping":51},{"user_id":379,"name":"M. Night Shalome","steam_id":76561198094909472,"connected_time":2245000000000,"state":"active","ping":116},{"user_id":373,"name":"AXZIOM","steam_id":76561198255074952,"connected_time":2743000000000,"state":"active","ping":66},{"user_id":392,"name":"Ralph Kramden (Slim Charles)","steam_id":76561197981687895,"connected_time":792000000000,"state":"active","ping":64},{"user_id":381,"name":"MayKaye","steam_id":76561199016092265,"connected_time":2228000000000,"state":"active","ping":60},{"user_id":398,"name":"soup bowl","steam_id":76561198126134338,"connected_time":17000000000,"state":"spawning","ping":44},{"user_id":387,"name":"I'mFromSpace","steam_id":76561198808969653,"connected_time":1728000000000,"state":"active","ping":59},{"user_id":375,"name":"HeHedron","steam_id":76561199199667164,"connected_time":2562000000000,"state":"active","ping":65},{"user_id":372,"name":"Dive(z)","steam_id":76561198140843225,"connected_time":2808000000000,"state":"active","ping":67},{"user_id":383,"name":"type \"bad med\" to kick","steam_id":76561198076402476,"connected_time":2170000000000,"state":"active","ping":67},{"user_id":390,"name":"WalnutWanker","steam_id":76561198287476517,"connected_time":1533000000000,"state":"active","ping":51},{"user_id":386,"name":"Dr. Kaine","steam_id":76561197982183984,"connected_time":1790000000000,"state":"active","ping":77},{"user_id":389,"name":"nae nae goblin68","steam_id":76561199115259028,"connected_time":1546000000000,"state":"active","ping":95},{"user_id":347,"name":"HanakoToast","steam_id":76561198045233131,"connected_time":5664000000000,"state":"active","ping":68},{"user_id":399,"name":"Antonpirulero10","steam_id":76561198253036781,"connected_time":3000000000,"state":"spawning","ping":67},{"user_id":365,"name":"PunyHappyFace","steam_id":76561198118059305,"connected_time":3604000000000,"state":"active","ping":44}]},{"server_id":112,"name":"Uncletopia | Los Angeles | 2 | All Maps","name_short":"lax-2","host":"lax-1.us.uncletopia.com","port":27025,"enabled":true,"region":"us-west","cc":"us","latitude":33.94279,"longitude":-118.41004,"reserved":0,"last_update":"0001-01-01T00:00:00Z","name_a2s":"Uncletopia | Los Angeles | 2 | All Maps","protocol":17,"map":"pl_swiftwater_final1","folder":"tf","game":"Team Fortress","app_id":440,"player_count":0,"max_players":24,"Bots":0,"server_type":"Dedicated","server_os":"Linux","password":true,"vac":true,"version":"7961495","steam_id":85568392924469992,"keywords":["nocrits","nodmgspread","payload","uncletopia"],"game_id":440,"stv_port":27026,"stv_name":"Uncletopia | Los Angeles | 2 | All Maps | STV","players":null},{"server_id":324,"name":"Uncletopia | Los Angeles | 3 | All Maps","name_short":"lax-3","host":"lax-1.us.uncletopia.com","port":27035,"enabled":true,"region":"us-west","cc":"us","latitude":33.94279,"longitude":-118.41004,"reserved":0,"last_update":"0001-01-01T00:00:00Z","name_a2s":"Uncletopia | Los Angeles | 3 | All Maps","protocol":17,"map":"koth_highpass","folder":"tf","game":"Team Fortress","app_id":440,"player_count":0,"max_players":24,"Bots":0,"server_type":"Dedicated","server_os":"Linux","password":true,"vac":true,"version":"7961495","steam_id":85568392924510198,"keywords":["cp","nocrits","nodmgspread","uncletopia"],"game_id":440,"stv_port":27036,"stv_name":"Uncletopia | Los Angeles | 3 | All Maps | STV","players":null},{"server_id":25,"name":"Uncletopia | Los Angeles | 4 | Stopwatch Beta","name_short":"lax-4","host":"lax-1.us.uncletopia.com","port":27045,"enabled":true,"region":"us-west","cc":"us","latitude":33.94279,"longitude":-118.41004,"reserved":0,"last_update":"0001-01-01T00:00:00Z","name_a2s":"Uncletopia | Los Angeles | 4 | Stopwatch Beta","protocol":17,"map":"workshop/pl_vigil_rc9.ugc1266210012","folder":"tf","game":"Team Fortress","app_id":440,"player_count":0,"max_players":24,"Bots":0,"server_type":"Dedicated","server_os":"Linux","password":true,"vac":true,"version":"7961495","steam_id":85568392924510199,"keywords":["nocrits","nodmgspread","payload","uncletopia"],"game_id":440,"stv_port":27046,"stv_name":"Uncletopia | Los Angeles | 4 | Stopwatch Beta | STV","players":null},{"server_id":11,"name":"Uncletopia | London | 1 | All Maps","name_short":"lon-1","host":"lon-1.uk.uncletopia.com","port":27015,"enabled":true,"region":"eu","cc":"gb","latitude":51.509865,"longitude":-0.118092,"reserved":0,"last_update":"0001-01-01T00:00:00Z","name_a2s":"Uncletopia | London | 1 | All Maps","protocol":17,"map":"pl_swiftwater_final1","folder":"tf","game":"Team Fortress","app_id":440,"player_count":24,"max_players":24,"Bots":0,"server_type":"Dedicated","server_os":"Linux","password":true,"vac":true,"version":"7961495","steam_id":85568392924367362,"keywords":["nocrits","nodmgspread","payload","uncletopia"],"game_id":440,"stv_port":27016,"stv_name":"Uncletopia | London | 1 | All Maps | STV","players":[{"user_id":841,"name":"Not Steven","steam_id":76561198051881261,"connected_time":3246000000000,"state":"active","ping":37},{"user_id":877,"name":"☆ Etna ☆","steam_id":76561198043111229,"connected_time":213000000000,"state":"active","ping":68},{"user_id":854,"name":"FurthestBen","steam_id":76561198056681239,"connected_time":1933000000000,"state":"active","ping":63},{"user_id":874,"name":"ElElliot","steam_id":76561198842278840,"connected_time":353000000000,"state":"active","ping":115},{"user_id":881,"name":"Revenge of the Jews in 3D","steam_id":76561199381623663,"connected_time":46000000000,"state":"active","ping":109},{"user_id":873,"name":"yuno appreciator","steam_id":76561198083286511,"connected_time":389000000000,"state":"active","ping":59},{"user_id":804,"name":"Dante","steam_id":76561198867107032,"connected_time":5592000000000,"state":"active","ping":135},{"user_id":878,"name":"Ran33","steam_id":76561197991474499,"connected_time":211000000000,"state":"active","ping":88},{"user_id":866,"name":"seigfried","steam_id":76561198047260133,"connected_time":757000000000,"state":"active","ping":79},{"user_id":829,"name":"Kabachok Aeronavt","steam_id":76561198123659806,"connected_time":3563000000000,"state":"active","ping":101},{"user_id":867,"name":"spooz","steam_id":76561198100590571,"connected_time":661000000000,"state":"active","ping":49},{"user_id":819,"name":"Maks","steam_id":76561198315278876,"connected_time":3920000000000,"state":"active","ping":48},{"user_id":880,"name":"MrDickRichards","steam_id":76561198402143091,"connected_time":197000000000,"state":"active","ping":57},{"user_id":849,"name":"N5LH","steam_id":76561199112528775,"connected_time":2572000000000,"state":"active","ping":123},{"user_id":868,"name":"Bluth Banana","steam_id":76561197997642178,"connected_time":650000000000,"state":"active","ping":66},{"user_id":839,"name":"crqt2 Armando","steam_id":76561198863720301,"connected_time":3456000000000,"state":"active","ping":63},{"user_id":832,"name":"froglids","steam_id":76561198045466919,"connected_time":3543000000000,"state":"active","ping":72},{"user_id":863,"name":"frosty","steam_id":76561198094560834,"connected_time":1070000000000,"state":"active","ping":46},{"user_id":827,"name":"Seanstarman Phillips","steam_id":76561198059812384,"connected_time":3658000000000,"state":"active","ping":60},{"user_id":834,"name":"bird ideas","steam_id":76561199480942903,"connected_time":3501000000000,"state":"active","ping":75},{"user_id":835,"name":"Hydrone","steam_id":76561198046485365,"connected_time":3496000000000,"state":"active","ping":54},{"user_id":836,"name":"Qwerty","steam_id":76561198023525894,"connected_time":3494000000000,"state":"active","ping":92},{"user_id":882,"name":"Dead Kitten","steam_id":76561198152132092,"connected_time":43000000000,"state":"active","ping":76},{"user_id":838,"name":"POU cherry","steam_id":76561199006915718,"connected_time":3488000000000,"state":"active","ping":60}]},{"server_id":114,"name":"Uncletopia | London | 2 | All Maps","name_short":"lon-2","host":"lon-1.uk.uncletopia.com","port":27025,"enabled":true,"region":"eu","cc":"gb","latitude":51.509865,"longitude":-0.118092,"reserved":0,"last_update":"0001-01-01T00:00:00Z","name_a2s":"Uncletopia | London | 2 | All Maps","protocol":17,"map":"pl_snowycoast","folder":"tf","game":"Team Fortress","app_id":440,"player_count":0,"max_players":24,"Bots":0,"server_type":"Dedicated","server_os":"Linux","password":true,"vac":true,"version":"7961495","steam_id":85568392924470941,"keywords":["nocrits","nodmgspread","payload","uncletopia"],"game_id":440,"stv_port":27026,"stv_name":"Uncletopia | London | 2 | All Maps | STV","players":null},{"server_id":320,"name":"Uncletopia | London | 3 | All Maps","name_short":"lon-3","host":"lon-1.uk.uncletopia.com","port":27035,"enabled":true,"region":"eu","cc":"gb","latitude":51.509865,"longitude":-0.118092,"reserved":0,"last_update":"0001-01-01T00:00:00Z","name_a2s":"Uncletopia | London | 3 | All Maps","protocol":17,"map":"pl_pier","folder":"tf","game":"Team Fortress","app_id":440,"player_count":0,"max_players":24,"Bots":0,"server_type":"Dedicated","server_os":"Linux","password":true,"vac":true,"version":"7961495","steam_id":85568392924510192,"keywords":["nocrits","nodmgspread","payload","uncletopia"],"game_id":440,"stv_port":27036,"stv_name":"Uncletopia | London | 3 | All Maps | STV","players":null},{"server_id":321,"name":"Uncletopia | London | 4 | All Maps","name_short":"lon-4","host":"lon-1.uk.uncletopia.com","port":27045,"enabled":true,"region":"eu","cc":"gb","latitude":51.509865,"longitude":-0.118092,"reserved":0,"last_update":"0001-01-01T00:00:00Z","name_a2s":"Uncletopia | London | 4 | All Maps","protocol":17,"map":"pl_upward","folder":"tf","game":"Team Fortress","app_id":440,"player_count":0,"max_players":24,"Bots":0,"server_type":"Dedicated","server_os":"Linux","password":true,"vac":true,"version":"7961495","steam_id":85568392924510193,"keywords":["nocrits","nodmgspread","payload","uncletopia"],"game_id":440,"stv_port":27046,"stv_name":"Uncletopia | London | 4 | All Maps | STV","players":null},{"server_id":21,"name":"Uncletopia | London | 5 | All Maps","name_short":"lon-5","host":"lon-1.uk.uncletopia.com","port":27055,"enabled":true,"region":"eu","cc":"gb","latitude":51.509865,"longitude":-0.118092,"reserved":0,"last_update":"0001-01-01T00:00:00Z","name_a2s":"Uncletopia | London | 5 | All Maps","protocol":17,"map":"pl_upward","folder":"tf","game":"Team Fortress","app_id":440,"player_count":0,"max_players":24,"Bots":0,"server_type":"Dedicated","server_os":"Linux","password":true,"vac":true,"version":"7961495","steam_id":85568392924742829,"keywords":["nocrits","nodmgspread","payload","uncletopia"],"game_id":440,"stv_port":27056,"stv_name":"Uncletopia | London | 5 | All Maps | STV","players":null},{"server_id":22,"name":"Uncletopia | London | 6 | All Maps","name_short":"lon-6","host":"lon-1.uk.uncletopia.com","port":27065,"enabled":true,"region":"eu","cc":"gb","latitude":51.509865,"longitude":-0.118092,"reserved":0,"last_update":"0001-01-01T00:00:00Z","name_a2s":"Uncletopia | London | 6 | All Maps","protocol":17,"map":"cp_mountainlab","folder":"tf","game":"Team Fortress","app_id":440,"player_count":0,"max_players":24,"Bots":0,"server_type":"Dedicated","server_os":"Linux","password":true,"vac":true,"version":"7961495","steam_id":85568392924742830,"keywords":["cp","nocrits","nodmgspread","uncletopia"],"game_id":440,"stv_port":27066,"stv_name":"Uncletopia | London | 6 | All Maps | STV","players":null},{"server_id":40,"name":"Uncletopia | London | 7 | No Payload","name_short":"lon-7","host":"lon-1.uk.uncletopia.com","port":27075,"enabled":true,"region":"eu","cc":"gb","latitude":51.509865,"longitude":-0.118092,"reserved":0,"last_update":"0001-01-01T00:00:00Z","name_a2s":"Uncletopia | London | 7 | No Payload","protocol":17,"map":"cp_junction_final","folder":"tf","game":"Team Fortress","app_id":440,"player_count":2,"max_players":24,"Bots":0,"server_type":"Dedicated","server_os":"Linux","password":true,"vac":true,"version":"7961495","steam_id":85568392924964314,"keywords":["cp","nocrits","nodmgspread","uncletopia"],"game_id":440,"stv_port":27076,"stv_name":"Uncletopia | London | 7 | No Payload | STV","players":[{"user_id":228,"name":"Slessplee","steam_id":76561198315732431,"connected_time":4152000000000,"state":"active","ping":164},{"user_id":229,"name":"Cosmic Yoshi","steam_id":76561199195528497,"connected_time":4085000000000,"state":"active","ping":175}]},{"server_id":41,"name":"Uncletopia | London | 8 | Community","name_short":"lon-8","host":"lon-1.uk.uncletopia.com","port":27085,"enabled":true,"region":"eu","cc":"gb","latitude":51.509865,"longitude":-0.118092,"reserved":0,"last_update":"0001-01-01T00:00:00Z","name_a2s":"Uncletopia | London | 8 | Community","protocol":17,"map":"workshop/pl_divulgence_b4b.ugc2884808746","folder":"tf","game":"Team Fortress","app_id":440,"player_count":0,"max_players":24,"Bots":0,"server_type":"Dedicated","server_os":"Linux","password":true,"vac":true,"version":"7961495","steam_id":85568392924964315,"keywords":["nocrits","nodmgspread","payload","uncletopia"],"game_id":440,"stv_port":27086,"stv_name":"Uncletopia | London | 8 | Community | STV","players":null},{"server_id":300,"name":"Uncletopia | Montréal | 1 | All Maps","name_short":"mtl-1","host":"mtl-1.ca.uncletopia.com","port":27015,"enabled":true,"region":"us-east","cc":"ca","latitude":45.50889,"longitude":-73.56167,"reserved":0,"last_update":"0001-01-01T00:00:00Z","name_a2s":"Uncletopia | Montréal | 1 | All Maps","protocol":17,"map":"pl_barnblitz","folder":"tf","game":"Team Fortress","app_id":440,"player_count":0,"max_players":24,"Bots":0,"server_type":"Dedicated","server_os":"Linux","password":true,"vac":true,"version":"7961495","steam_id":85568392924500087,"keywords":["nocrits","nodmgspread","payload","uncletopia"],"game_id":440,"stv_port":27016,"stv_name":"Uncletopia | Montréal | 1 | All Maps | STV","players":null},{"server_id":301,"name":"Uncletopia | Montréal | 2 | All Maps","name_short":"mtl-2","host":"mtl-1.ca.uncletopia.com","port":27025,"enabled":true,"region":"us-east","cc":"ca","latitude":45.50889,"longitude":-73.56167,"reserved":0,"last_update":"0001-01-01T00:00:00Z","name_a2s":"Uncletopia | Montréal | 2 | All Maps","protocol":17,"map":"koth_cascade","folder":"tf","game":"Team Fortress","app_id":440,"player_count":6,"max_players":24,"Bots":0,"server_type":"Dedicated","server_os":"Linux","password":true,"vac":true,"version":"7961495","steam_id":85568392924500088,"keywords":["cp","nocrits","nodmgspread","uncletopia"],"game_id":440,"stv_port":27026,"stv_name":"Uncletopia | Montréal | 2 | All Maps | STV","players":[{"user_id":5,"name":"\u003e:3 Muiramme εїз","steam_id":76561197994458543,"connected_time":312000000000,"state":"active","ping":104},{"user_id":6,"name":"Munky","steam_id":76561197993491054,"connected_time":304000000000,"state":"active","ping":99},{"user_id":8,"name":"uhooter","steam_id":76561198007829078,"connected_time":243000000000,"state":"active","ping":45},{"user_id":9,"name":"engineer in a box","steam_id":76561197964842685,"connected_time":99000000000,"state":"active","ping":130},{"user_id":10,"name":"Canonically Garbage","steam_id":76561198802410416,"connected_time":26000000000,"state":"active","ping":75},{"user_id":11,"name":"6+3 Thequirka #ForBlu2th","steam_id":76561198968058652,"connected_time":24000000000,"state":"active","ping":110}]},{"server_id":302,"name":"Uncletopia | Montréal | 3 | All Maps","name_short":"mtl-3","host":"mtl-1.ca.uncletopia.com","port":27035,"enabled":true,"region":"us-east","cc":"ca","latitude":45.50889,"longitude":-73.56167,"reserved":0,"last_update":"0001-01-01T00:00:00Z","name_a2s":"Uncletopia | Montréal | 3 | All Maps","protocol":17,"map":"pl_pier","folder":"tf","game":"Team Fortress","app_id":440,"player_count":0,"max_players":24,"Bots":0,"server_type":"Dedicated","server_os":"Linux","password":true,"vac":true,"version":"7961495","steam_id":85568392924500089,"keywords":["nocrits","nodmgspread","payload","uncletopia"],"game_id":440,"stv_port":27036,"stv_name":"Uncletopia | Montréal | 3 | All Maps | STV","players":null},{"server_id":303,"name":"Uncletopia | Montréal | 4 | No Payload","name_short":"mtl-4","host":"mtl-1.ca.uncletopia.com","port":27045,"enabled":true,"region":"us-east","cc":"ca","latitude":45.50889,"longitude":-73.56167,"reserved":0,"last_update":"0001-01-01T00:00:00Z","name_a2s":"Uncletopia | Montréal | 4 | No Payload","protocol":17,"map":"koth_lakeside_final","folder":"tf","game":"Team Fortress","app_id":440,"player_count":0,"max_players":24,"Bots":0,"server_type":"Dedicated","server_os":"Linux","password":true,"vac":true,"version":"7961495","steam_id":85568392924500090,"keywords":["cp","nocrits","nodmgspread","uncletopia"],"game_id":440,"stv_port":27046,"stv_name":"Uncletopia | Montréal | 4 | No Payload | STV","players":null},{"server_id":13,"name":"Uncletopia | New York City | 1 | All Maps","name_short":"nyc-1","host":"nyc-1.us.uncletopia.com","port":27015,"enabled":true,"region":"us-east","cc":"us","latitude":40.73061,"longitude":-73.93524,"reserved":0,"last_update":"0001-01-01T00:00:00Z","name_a2s":"Uncletopia | New York City | 1 | All Maps","protocol":17,"map":"pl_badwater","folder":"tf","game":"Team Fortress","app_id":440,"player_count":24,"max_players":24,"Bots":0,"server_type":"Dedicated","server_os":"Linux","password":true,"vac":true,"version":"7961495","steam_id":85568392924469993,"keywords":["nocrits","nodmgspread","payload","uncletopia"],"game_id":440,"stv_port":27016,"stv_name":"Uncletopia | New York City | 1 | All Maps | STV","players":[{"user_id":457,"name":"Tri_Hunter","steam_id":76561198108176706,"connected_time":1463000000000,"state":"active","ping":55},{"user_id":451,"name":"Stop Being Mad,Be Happy","steam_id":76561198201276909,"connected_time":2210000000000,"state":"active","ping":75},{"user_id":465,"name":"Parth Makeo","steam_id":76561198002516581,"connected_time":772000000000,"state":"active","ping":39},{"user_id":431,"name":"for the king","steam_id":76561197973488858,"connected_time":3554000000000,"state":"active","ping":45},{"user_id":376,"name":"็Periculosum PhD in Funny","steam_id":76561198123370914,"connected_time":8962000000000,"state":"active","ping":88},{"user_id":471,"name":"ATL1 | on my hunting trip","steam_id":76561198315341646,"connected_time":532000000000,"state":"active","ping":85},{"user_id":472,"name":"King of Ping","steam_id":76561198278737470,"connected_time":481000000000,"state":"active","ping":54},{"user_id":314,"name":"ATL1 | cola","steam_id":76561198374390458,"connected_time":14052000000000,"state":"active","ping":60},{"user_id":461,"name":"creeper6868","steam_id":76561198441641149,"connected_time":1440000000000,"state":"active","ping":85},{"user_id":445,"name":"Aeris","steam_id":76561198287271028,"connected_time":2434000000000,"state":"active","ping":77},{"user_id":435,"name":"Captain Bug","steam_id":76561198137763878,"connected_time":3403000000000,"state":"active","ping":75},{"user_id":438,"name":"Mr. Durian","steam_id":76561198093813212,"connected_time":2675000000000,"state":"active","ping":54},{"user_id":446,"name":"ATL 1 | Save your wifi","steam_id":76561198286147372,"connected_time":2428000000000,"state":"active","ping":82},{"user_id":460,"name":"uheggwhite","steam_id":76561199199795741,"connected_time":1443000000000,"state":"active","ping":99},{"user_id":382,"name":"Bert.","steam_id":76561198140666346,"connected_time":7894000000000,"state":"active","ping":48},{"user_id":469,"name":"thixon","steam_id":76561198046655575,"connected_time":545000000000,"state":"active","ping":46},{"user_id":429,"name":"Ω Das Gebeine Δ","steam_id":76561198063665024,"connected_time":3571000000000,"state":"active","ping":127},{"user_id":456,"name":"4jess20","steam_id":76561199488852383,"connected_time":1466000000000,"state":"active","ping":58},{"user_id":442,"name":"Grand Piano Tuna","steam_id":76561198135137213,"connected_time":2466000000000,"state":"active","ping":70},{"user_id":473,"name":"GaydsIdit","steam_id":76561198827963575,"connected_time":287000000000,"state":"active","ping":52},{"user_id":444,"name":"patdine","steam_id":76561198060865671,"connected_time":2453000000000,"state":"active","ping":66},{"user_id":468,"name":"Machine Girl - SAD CLAPS","steam_id":76561198294013916,"connected_time":552000000000,"state":"active","ping":46},{"user_id":462,"name":"fab☆","steam_id":76561198238959852,"connected_time":1284000000000,"state":"active","ping":73},{"user_id":470,"name":"weewa","steam_id":76561198064876090,"connected_time":545000000000,"state":"active","ping":61}]},{"server_id":14,"name":"Uncletopia | New York City | 2 | All Maps","name_short":"nyc-2","host":"nyc-1.us.uncletopia.com","port":27025,"enabled":true,"region":"us-east","cc":"us","latitude":40.73061,"longitude":-73.93524,"reserved":0,"last_update":"0001-01-01T00:00:00Z","name_a2s":"Uncletopia | New York City | 2 | All Maps","protocol":17,"map":"pl_borneo","folder":"tf","game":"Team Fortress","app_id":440,"player_count":24,"max_players":24,"Bots":0,"server_type":"Dedicated","server_os":"Linux","password":true,"vac":true,"version":"7961495","steam_id":85568392924469994,"keywords":["nocrits","nodmgspread","payload","uncletopia"],"game_id":440,"stv_port":27026,"stv_name":"Uncletopia | New York City | 2 | All Maps | STV","players":[{"user_id":688,"name":"Cookie","steam_id":76561198047736899,"connected_time":1620000000000,"state":"active","ping":32},{"user_id":700,"name":"Xraverz","steam_id":76561198008891628,"connected_time":528000000000,"state":"active","ping":84},{"user_id":689,"name":"ShmixyTheBishop","steam_id":76561199281919953,"connected_time":1605000000000,"state":"active","ping":156},{"user_id":685,"name":"D.E.O","steam_id":76561198096992957,"connected_time":1929000000000,"state":"active","ping":117},{"user_id":686,"name":"keffers","steam_id":76561198202338796,"connected_time":1837000000000,"state":"active","ping":82},{"user_id":667,"name":"tonybaloney","steam_id":76561199434233117,"connected_time":3455000000000,"state":"active","ping":87},{"user_id":680,"name":"lost in spaaaaace","steam_id":76561199085974120,"connected_time":2704000000000,"state":"active","ping":57},{"user_id":694,"name":"Nogard015","steam_id":76561198302867168,"connected_time":1339000000000,"state":"active","ping":67},{"user_id":683,"name":"Awesome Style Gaming","steam_id":76561198311537713,"connected_time":2163000000000,"state":"active","ping":82},{"user_id":659,"name":"TLG, Certified Gamer Mom","steam_id":76561198076669951,"connected_time":4407000000000,"state":"active","ping":58},{"user_id":690,"name":"RatedM4Matt","steam_id":76561198086141042,"connected_time":1579000000000,"state":"active","ping":67},{"user_id":691,"name":"Classy","steam_id":76561198128415840,"connected_time":1555000000000,"state":"active","ping":54},{"user_id":697,"name":"Vibrantword3732","steam_id":76561198916638641,"connected_time":667000000000,"state":"active","ping":115},{"user_id":494,"name":"[NAME-REDACTED]","steam_id":76561198035682975,"connected_time":16064000000000,"state":"active","ping":54},{"user_id":699,"name":"noodle leg","steam_id":76561198303462970,"connected_time":561000000000,"state":"active","ping":55},{"user_id":579,"name":"triple_range_merge","steam_id":76561198991225026,"connected_time":9242000000000,"state":"active","ping":62},{"user_id":647,"name":"Foonut","steam_id":76561198075740574,"connected_time":5166000000000,"state":"active","ping":75},{"user_id":692,"name":"Generator","steam_id":76561198011762257,"connected_time":1504000000000,"state":"active","ping":129},{"user_id":678,"name":"Feldum","steam_id":76561198032537700,"connected_time":3049000000000,"state":"active","ping":78},{"user_id":675,"name":"Thunderous","steam_id":76561198192752793,"connected_time":3320000000000,"state":"active","ping":55},{"user_id":673,"name":"A Puppy","steam_id":76561198828184456,"connected_time":3390000000000,"state":"active","ping":48},{"user_id":682,"name":"Ballistic","steam_id":76561197992355477,"connected_time":2345000000000,"state":"active","ping":62},{"user_id":696,"name":"❄Admiral Pete❄ The Penguin","steam_id":76561198452656581,"connected_time":884000000000,"state":"active","ping":73},{"user_id":681,"name":"MAXIMUS","steam_id":76561198085809453,"connected_time":2449000000000,"state":"active","ping":84}]},{"server_id":15,"name":"Uncletopia | New York City | 3 | Stopwatch Beta","name_short":"nyc-3","host":"nyc-1.us.uncletopia.com","port":27035,"enabled":true,"region":"us-east","cc":"us","latitude":40.73061,"longitude":-73.93524,"reserved":0,"last_update":"0001-01-01T00:00:00Z","name_a2s":"Uncletopia | New York City | 3 | Stopwatch Beta","protocol":17,"map":"cp_sunshine","folder":"tf","game":"Team Fortress","app_id":440,"player_count":24,"max_players":24,"Bots":0,"server_type":"Dedicated","server_os":"Linux","password":true,"vac":true,"version":"7961495","steam_id":85568392924742820,"keywords":["cp","nocrits","nodmgspread","uncletopia"],"game_id":440,"stv_port":27036,"stv_name":"Uncletopia | New York City | 3 | Stopwatch Beta | STV","players":[{"user_id":160,"name":"FluffyNinjaRobatech","steam_id":76561197981072423,"connected_time":2869000000000,"state":"active","ping":106},{"user_id":203,"name":"32cm","steam_id":76561198847749278,"connected_time":93000000000,"state":"active","ping":89},{"user_id":199,"name":"checkswing","steam_id":76561198999816132,"connected_time":782000000000,"state":"active","ping":87},{"user_id":189,"name":"Frisbee","steam_id":76561197962808987,"connected_time":1856000000000,"state":"active","ping":86},{"user_id":115,"name":"Aldinach","steam_id":76561198079912615,"connected_time":5897000000000,"state":"active","ping":60},{"user_id":186,"name":"Techo","steam_id":76561199169405285,"connected_time":2119000000000,"state":"active","ping":129},{"user_id":196,"name":"Melonfrog","steam_id":76561198389885427,"connected_time":1150000000000,"state":"active","ping":109},{"user_id":163,"name":"a leaf","steam_id":76561198242599168,"connected_time":2822000000000,"state":"active","ping":109},{"user_id":202,"name":"SD-N","steam_id":76561199488989511,"connected_time":149000000000,"state":"active","ping":127},{"user_id":173,"name":"toastman","steam_id":76561198207073088,"connected_time":2658000000000,"state":"active","ping":85},{"user_id":200,"name":"Burks","steam_id":76561198134813531,"connected_time":624000000000,"state":"active","ping":87},{"user_id":187,"name":"Hob-Goblin Jim The IV","steam_id":76561199046650666,"connected_time":2094000000000,"state":"active","ping":72},{"user_id":197,"name":"Bat(Magnetized to your head)","steam_id":76561198976521735,"connected_time":1134000000000,"state":"active","ping":109},{"user_id":112,"name":"super clickteam fusion","steam_id":76561198275101482,"connected_time":6067000000000,"state":"active","ping":140},{"user_id":201,"name":"Kiphus","steam_id":76561198025289407,"connected_time":465000000000,"state":"active","ping":74},{"user_id":190,"name":"orgasmo","steam_id":76561198047355245,"connected_time":1764000000000,"state":"active","ping":49},{"user_id":198,"name":"hashmap","steam_id":76561198043794014,"connected_time":886000000000,"state":"active","ping":60},{"user_id":150,"name":"I shovel mayonnaise in mouth","steam_id":76561199123118241,"connected_time":3901000000000,"state":"active","ping":133},{"user_id":178,"name":"ricebox","steam_id":76561197998059533,"connected_time":2610000000000,"state":"active","ping":44},{"user_id":194,"name":"Bewen","steam_id":76561198325334261,"connected_time":1434000000000,"state":"active","ping":45},{"user_id":180,"name":"ehs","steam_id":76561198431048339,"connected_time":2599000000000,"state":"active","ping":124},{"user_id":152,"name":"Lumi","steam_id":76561198089978036,"connected_time":3569000000000,"state":"active","ping":59},{"user_id":182,"name":"gIBBY","steam_id":76561198080099598,"connected_time":2581000000000,"state":"active","ping":45},{"user_id":109,"name":"Lux E Tenebris","steam_id":76561198072664199,"connected_time":6619000000000,"state":"active","ping":67}]},{"server_id":16,"name":"Uncletopia | New York City | 4 | Community","name_short":"nyc-4","host":"nyc-1.us.uncletopia.com","port":27045,"enabled":true,"region":"us-east","cc":"us","latitude":40.73061,"longitude":-73.93524,"reserved":0,"last_update":"0001-01-01T00:00:00Z","name_a2s":"Uncletopia | New York City | 4 | Community","protocol":17,"map":"workshop/cp_mannbase_rc2a.ugc1900737467","folder":"tf","game":"Team Fortress","app_id":440,"player_count":0,"max_players":24,"Bots":0,"server_type":"Dedicated","server_os":"Linux","password":true,"vac":true,"version":"7961495","steam_id":85568392924742821,"keywords":["cp","nocrits","nodmgspread","uncletopia"],"game_id":440,"stv_port":27046,"stv_name":"Uncletopia | New York City | 4 | Community | STV","players":null},{"server_id":142,"name":"Uncletopia | São Paulo | 1 | All Maps","name_short":"sao-1","host":"sao-1.br.uncletopia.com","port":27015,"enabled":true,"region":"sa","cc":"br","latitude":-23.533773,"longitude":-46.62529,"reserved":0,"last_update":"0001-01-01T00:00:00Z","name_a2s":"Uncletopia | São Paulo | 1 | All Maps","protocol":17,"map":"koth_cascade","folder":"tf","game":"Team Fortress","app_id":440,"player_count":0,"max_players":24,"Bots":0,"server_type":"Dedicated","server_os":"Linux","password":true,"vac":true,"version":"7961495","steam_id":85568392924469996,"keywords":["cp","nocrits","nodmgspread","uncletopia"],"game_id":440,"stv_port":27016,"stv_name":"Uncletopia | São Paulo | 1 | All Maps | STV","players":null},{"server_id":143,"name":"Uncletopia | São Paulo | 2 | Community","name_short":"sao-2","host":"sao-2.br.uncletopia.com","port":27015,"enabled":true,"region":"sa","cc":"br","latitude":-23.533773,"longitude":-46.62529,"reserved":0,"last_update":"0001-01-01T00:00:00Z","name_a2s":"Uncletopia | São Paulo | 2 | Community","protocol":17,"map":"workshop/cp_indulge.ugc528106646","folder":"tf","game":"Team Fortress","app_id":440,"player_count":0,"max_players":24,"Bots":0,"server_type":"Dedicated","server_os":"Linux","password":true,"vac":true,"version":"7961495","steam_id":85568392924485349,"keywords":["cp","nocrits","nodmgspread","uncletopia"],"game_id":440,"stv_port":27016,"stv_name":"Uncletopia | São Paulo | 2 | Community | STV","players":null},{"server_id":7,"name":"Uncletopia | Seattle | 1 | All Maps","name_short":"sea-1","host":"sea-1.us.uncletopia.com","port":27015,"enabled":true,"region":"us-west","cc":"us","latitude":47.608013,"longitude":-122.33517,"reserved":0,"last_update":"0001-01-01T00:00:00Z","name_a2s":"Uncletopia | Seattle | 1 | All Maps","protocol":17,"map":"pl_upward","folder":"tf","game":"Team Fortress","app_id":440,"player_count":24,"max_players":24,"Bots":0,"server_type":"Dedicated","server_os":"Linux","password":true,"vac":true,"version":"7961495","steam_id":85568392924469997,"keywords":["nocrits","nodmgspread","payload","uncletopia"],"game_id":440,"stv_port":27016,"stv_name":"Uncletopia | Seattle | 1 | All Maps | STV","players":[{"user_id":753,"name":"help","steam_id":76561198171840525,"connected_time":1261000000000,"state":"active","ping":47},{"user_id":739,"name":"Forty","steam_id":76561198257410181,"connected_time":3076000000000,"state":"active","ping":60},{"user_id":685,"name":"CashGordon","steam_id":76561197975594096,"connected_time":8011000000000,"state":"active","ping":39},{"user_id":755,"name":"Daz","steam_id":76561198041431938,"connected_time":809000000000,"state":"active","ping":52},{"user_id":748,"name":"Pukei-Pukei","steam_id":76561197992722546,"connected_time":1433000000000,"state":"active","ping":87},{"user_id":733,"name":"birthday BLU3 🎉","steam_id":76561198059652670,"connected_time":3657000000000,"state":"active","ping":47},{"user_id":695,"name":"BolognaWithOlives","steam_id":76561198101262668,"connected_time":7392000000000,"state":"active","ping":77},{"user_id":744,"name":"Luca","steam_id":76561198125087140,"connected_time":2618000000000,"state":"active","ping":45},{"user_id":756,"name":"tree","steam_id":76561198025773277,"connected_time":641000000000,"state":"active","ping":62},{"user_id":758,"name":"Bendidy","steam_id":76561198041964300,"connected_time":431000000000,"state":"active","ping":76},{"user_id":673,"name":"ilun","steam_id":76561198042913843,"connected_time":9015000000000,"state":"active","ping":60},{"user_id":761,"name":"McDonald","steam_id":76561199028533497,"connected_time":318000000000,"state":"active","ping":74},{"user_id":751,"name":"O","steam_id":76561198450073779,"connected_time":1425000000000,"state":"active","ping":49},{"user_id":725,"name":"Nukenfutz","steam_id":76561198135666783,"connected_time":4399000000000,"state":"active","ping":52},{"user_id":730,"name":"aisu","steam_id":76561198043768507,"connected_time":3716000000000,"state":"active","ping":90},{"user_id":729,"name":"Geobeetle","steam_id":76561198207400124,"connected_time":3741000000000,"state":"active","ping":60},{"user_id":738,"name":"spenca","steam_id":76561198025371154,"connected_time":3085000000000,"state":"active","ping":74},{"user_id":720,"name":"ORANGE","steam_id":76561198000401769,"connected_time":4552000000000,"state":"active","ping":57},{"user_id":726,"name":"30-50 feral hogs","steam_id":76561198073587145,"connected_time":4087000000000,"state":"active","ping":116},{"user_id":713,"name":"PvZ Enthusiast","steam_id":76561199089562026,"connected_time":5111000000000,"state":"active","ping":55},{"user_id":703,"name":"Ayayayayayahuasca","steam_id":76561199002906056,"connected_time":6399000000000,"state":"active","ping":51},{"user_id":747,"name":"greens beans","steam_id":76561198153611491,"connected_time":2235000000000,"state":"active","ping":47},{"user_id":732,"name":"a cat plushie","steam_id":76561198080046542,"connected_time":3662000000000,"state":"active","ping":41},{"user_id":752,"name":"Haydob13","steam_id":76561198110378191,"connected_time":1424000000000,"state":"active","ping":80}]},{"server_id":119,"name":"Uncletopia | Seattle | 2 | All Maps","name_short":"sea-2","host":"sea-1.us.uncletopia.com","port":27025,"enabled":true,"region":"us-west","cc":"us","latitude":47.608013,"longitude":-122.33517,"reserved":0,"last_update":"0001-01-01T00:00:00Z","name_a2s":"Uncletopia | Seattle | 2 | All Maps","protocol":17,"map":"cp_dustbowl","folder":"tf","game":"Team Fortress","app_id":440,"player_count":23,"max_players":24,"Bots":0,"server_type":"Dedicated","server_os":"Linux","password":true,"vac":true,"version":"7961495","steam_id":85568392924469998,"keywords":["cp","nocrits","nodmgspread","uncletopia"],"game_id":440,"stv_port":27026,"stv_name":"Uncletopia | Seattle | 2 | All Maps | STV","players":[{"user_id":348,"name":"Sniff","steam_id":76561198010270922,"connected_time":1252000000000,"state":"active","ping":50},{"user_id":346,"name":"noblehallett","steam_id":76561197990994280,"connected_time":1755000000000,"state":"active","ping":50},{"user_id":351,"name":"GotYourGoat","steam_id":76561197995171850,"connected_time":1081000000000,"state":"active","ping":46},{"user_id":353,"name":"Mr. Ravioli","steam_id":76561197996625649,"connected_time":764000000000,"state":"active","ping":57},{"user_id":309,"name":"THE_VIRTUAL_MAN.exe","steam_id":76561197999522253,"connected_time":3627000000000,"state":"active","ping":36},{"user_id":352,"name":"silly jester","steam_id":76561198079609974,"connected_time":995000000000,"state":"active","ping":86},{"user_id":325,"name":"RagingRoosevelt","steam_id":76561197985483153,"connected_time":2452000000000,"state":"active","ping":75},{"user_id":328,"name":"Major_Pippy","steam_id":76561198004482878,"connected_time":2319000000000,"state":"active","ping":50},{"user_id":323,"name":"thats so cool","steam_id":76561198046880196,"connected_time":2500000000000,"state":"active","ping":112},{"user_id":335,"name":"Nortel Network Telephone T7316","steam_id":76561198399261089,"connected_time":2021000000000,"state":"active","ping":61},{"user_id":350,"name":"Sly Marbo","steam_id":76561198135271741,"connected_time":1138000000000,"state":"active","ping":56},{"user_id":333,"name":"{AVG} Xx_Half-Life2fan420_xX","steam_id":76561199231634222,"connected_time":2110000000000,"state":"active","ping":88},{"user_id":334,"name":"flamingdorit0s","steam_id":76561198869206247,"connected_time":2108000000000,"state":"active","ping":95},{"user_id":359,"name":"Pegway","steam_id":76561198044303814,"connected_time":250000000000,"state":"active","ping":121},{"user_id":349,"name":"Grungus","steam_id":76561198047700230,"connected_time":1242000000000,"state":"active","ping":68},{"user_id":360,"name":"Outlier","steam_id":76561199093787770,"connected_time":248000000000,"state":"active","ping":133},{"user_id":354,"name":"Herdez Hot Salsa","steam_id":76561197991740906,"connected_time":746000000000,"state":"active","ping":112},{"user_id":341,"name":"thealphabetsoup","steam_id":76561198028148682,"connected_time":1956000000000,"state":"active","ping":47},{"user_id":342,"name":"ultrakillfan82","steam_id":76561198294601519,"connected_time":1946000000000,"state":"active","ping":35},{"user_id":362,"name":"selling rice","steam_id":76561198063357023,"connected_time":123000000000,"state":"active","ping":60},{"user_id":361,"name":"Kittystalker","steam_id":76561198046886077,"connected_time":238000000000,"state":"active","ping":90},{"user_id":355,"name":"General Fisticuffs","steam_id":76561198255721392,"connected_time":608000000000,"state":"active","ping":113},{"user_id":304,"name":"i wish i were a bird","steam_id":76561199224976982,"connected_time":4160000000000,"state":"active","ping":111}]},{"server_id":406,"name":"Uncletopia | Seattle | 3 | Stopwatch Beta","name_short":"sea-3","host":"sea-1.us.uncletopia.com","port":27035,"enabled":true,"region":"us-west","cc":"us","latitude":47.608013,"longitude":-122.33517,"reserved":0,"last_update":"0001-01-01T00:00:00Z","name_a2s":"Uncletopia | Seattle | 3 | Stopwatch Beta","protocol":17,"map":"workshop/koth_ramjam_rc1.ugc459778887","folder":"tf","game":"Team Fortress","app_id":440,"player_count":0,"max_players":24,"Bots":0,"server_type":"Dedicated","server_os":"Linux","password":true,"vac":true,"version":"7961495","steam_id":85568392924515217,"keywords":["cp","nocrits","nodmgspread","uncletopia"],"game_id":440,"stv_port":27036,"stv_name":"Uncletopia | Seattle | 3 | Stopwatch Beta | STV","players":null},{"server_id":17,"name":"Uncletopia | San Francisco | 1 | All Maps","name_short":"sfo-1","host":"sfo-1.us.uncletopia.com","port":27015,"enabled":true,"region":"us-west","cc":"us","latitude":37.77397,"longitude":-122.4313,"reserved":0,"last_update":"0001-01-01T00:00:00Z","name_a2s":"Uncletopia | San Francisco | 1 | All Maps","protocol":17,"map":"pl_borneo","folder":"tf","game":"Team Fortress","app_id":440,"player_count":24,"max_players":24,"Bots":0,"server_type":"Dedicated","server_os":"Linux","password":true,"vac":true,"version":"7961495","steam_id":85568392924469999,"keywords":["nocrits","nodmgspread","payload","uncletopia"],"game_id":440,"stv_port":27016,"stv_name":"Uncletopia | San Francisco | 1 | All Maps | STV","players":[{"user_id":127,"name":"gamer_cruncher","steam_id":76561198973306314,"connected_time":4270000000000,"state":"active","ping":52},{"user_id":156,"name":"Yakul","steam_id":76561198100040013,"connected_time":3048000000000,"state":"active","ping":128},{"user_id":180,"name":"OneMisguidedSlyGuy","steam_id":76561198372243261,"connected_time":1603000000000,"state":"active","ping":47},{"user_id":183,"name":"Mom","steam_id":76561198207936000,"connected_time":1534000000000,"state":"active","ping":42},{"user_id":154,"name":"||BassMan||","steam_id":76561198279865229,"connected_time":3088000000000,"state":"active","ping":78},{"user_id":204,"name":"EatSomeBEES","steam_id":76561198047334307,"connected_time":272000000000,"state":"active","ping":69},{"user_id":173,"name":"Cookies","steam_id":76561199099061813,"connected_time":2220000000000,"state":"active","ping":67},{"user_id":201,"name":"Megatron G","steam_id":76561198168864083,"connected_time":392000000000,"state":"active","ping":61},{"user_id":184,"name":"Fractured_Mango","steam_id":76561199013113268,"connected_time":1527000000000,"state":"active","ping":83},{"user_id":185,"name":"Manchurian Bandit","steam_id":76561198072410042,"connected_time":1525000000000,"state":"active","ping":59},{"user_id":171,"name":"Higuma","steam_id":76561198375229012,"connected_time":2538000000000,"state":"active","ping":57},{"user_id":192,"name":"n99k","steam_id":76561198203732449,"connected_time":1395000000000,"state":"active","ping":105},{"user_id":177,"name":"chanoc","steam_id":76561198026734746,"connected_time":1892000000000,"state":"active","ping":51},{"user_id":193,"name":"Probably Still a Furry","steam_id":76561198816076211,"connected_time":1389000000000,"state":"active","ping":56},{"user_id":202,"name":"Starkiller","steam_id":76561198101643120,"connected_time":388000000000,"state":"active","ping":75},{"user_id":188,"name":"Pez","steam_id":76561199197778137,"connected_time":1472000000000,"state":"active","ping":86},{"user_id":189,"name":"cat (real)","steam_id":76561198885041703,"connected_time":1457000000000,"state":"active","ping":123},{"user_id":112,"name":"A UsedNom","steam_id":76561198402832756,"connected_time":5273000000000,"state":"active","ping":52},{"user_id":198,"name":"Drake from State Farm","steam_id":76561199069029812,"connected_time":675000000000,"state":"active","ping":59},{"user_id":175,"name":"DrWilloughby","steam_id":76561198095260357,"connected_time":2119000000000,"state":"active","ping":72},{"user_id":194,"name":"Mud Goblin","steam_id":76561198839118505,"connected_time":1382000000000,"state":"active","ping":82},{"user_id":199,"name":"NubNub21","steam_id":76561197995743317,"connected_time":462000000000,"state":"active","ping":116},{"user_id":197,"name":"jon pickle water","steam_id":76561199036212135,"connected_time":838000000000,"state":"active","ping":79},{"user_id":206,"name":"Wolfer","steam_id":76561198098153246,"connected_time":212000000000,"state":"active","ping":91}]},{"server_id":18,"name":"Uncletopia | San Francisco | 2 | All Maps","name_short":"sfo-2","host":"sfo-1.us.uncletopia.com","port":27025,"enabled":true,"region":"us-west","cc":"us","latitude":37.77397,"longitude":-122.4313,"reserved":0,"last_update":"0001-01-01T00:00:00Z","name_a2s":"Uncletopia | San Francisco | 2 | All Maps","protocol":17,"map":"pl_badwater","folder":"tf","game":"Team Fortress","app_id":440,"player_count":24,"max_players":24,"Bots":0,"server_type":"Dedicated","server_os":"Linux","password":true,"vac":true,"version":"7961495","steam_id":85568392924470000,"keywords":["nocrits","nodmgspread","payload","uncletopia"],"game_id":440,"stv_port":27026,"stv_name":"Uncletopia | San Francisco | 2 | All Maps | STV","players":[{"user_id":226,"name":"Whiskey","steam_id":76561198858154667,"connected_time":2129000000000,"state":"active","ping":54},{"user_id":241,"name":"Capybara Enjoyer","steam_id":76561199147114434,"connected_time":772000000000,"state":"active","ping":121},{"user_id":213,"name":"shitass | troutsupply.net","steam_id":76561198210572481,"connected_time":3540000000000,"state":"active","ping":51},{"user_id":246,"name":"Sunkendarkcat","steam_id":76561198834672736,"connected_time":642000000000,"state":"active","ping":68},{"user_id":222,"name":"Seanvich","steam_id":76561198065805500,"connected_time":2861000000000,"state":"active","ping":101},{"user_id":227,"name":"BurningKev","steam_id":76561198057688837,"connected_time":2119000000000,"state":"active","ping":74},{"user_id":240,"name":"stboncho","steam_id":76561198172275301,"connected_time":1099000000000,"state":"active","ping":60},{"user_id":228,"name":"WarBorg","steam_id":76561198929639228,"connected_time":2113000000000,"state":"active","ping":45},{"user_id":242,"name":"teratoma","steam_id":76561198179249054,"connected_time":767000000000,"state":"active","ping":40},{"user_id":201,"name":"Caspian","steam_id":76561199041466962,"connected_time":4967000000000,"state":"active","ping":59},{"user_id":224,"name":"Grand","steam_id":76561198290143399,"connected_time":2788000000000,"state":"active","ping":75},{"user_id":225,"name":"Truffles","steam_id":76561198095868800,"connected_time":2530000000000,"state":"active","ping":111},{"user_id":243,"name":"kriggly kriggly goo","steam_id":76561198197838803,"connected_time":762000000000,"state":"active","ping":59},{"user_id":244,"name":"Sgt. Satire","steam_id":76561198104193483,"connected_time":735000000000,"state":"active","ping":73},{"user_id":165,"name":"Pablo's nuts","steam_id":76561198062763756,"connected_time":6367000000000,"state":"active","ping":96},{"user_id":230,"name":"Grassman (Cc)","steam_id":76561198026488532,"connected_time":2097000000000,"state":"active","ping":51},{"user_id":231,"name":"Eurobeat too loud, can't hear :","steam_id":76561198330743199,"connected_time":2094000000000,"state":"active","ping":55},{"user_id":232,"name":"hash","steam_id":76561198058516339,"connected_time":2087000000000,"state":"active","ping":61},{"user_id":102,"name":"riSygneD","steam_id":76561198331618687,"connected_time":11205000000000,"state":"active","ping":45},{"user_id":209,"name":"Chaptain","steam_id":76561198452725739,"connected_time":4157000000000,"state":"active","ping":91},{"user_id":237,"name":"PTR","steam_id":76561198237253772,"connected_time":1756000000000,"state":"active","ping":86},{"user_id":233,"name":"JV","steam_id":76561199107368676,"connected_time":2082000000000,"state":"active","ping":63},{"user_id":247,"name":"krootonitron","steam_id":76561198114113037,"connected_time":403000000000,"state":"active","ping":44},{"user_id":245,"name":"jooce box","steam_id":76561198162717644,"connected_time":732000000000,"state":"active","ping":55}]},{"server_id":19,"name":"Uncletopia | San Francisco | 3 | Stopwatch Beta","name_short":"sfo-3","host":"sfo-1.us.uncletopia.com","port":27035,"enabled":true,"region":"us-west","cc":"us","latitude":37.77397,"longitude":-122.4313,"reserved":0,"last_update":"0001-01-01T00:00:00Z","name_a2s":"Uncletopia | San Francisco | 3 | Stopwatch Beta","protocol":17,"map":"pl_borneo","folder":"tf","game":"Team Fortress","app_id":440,"player_count":0,"max_players":24,"Bots":0,"server_type":"Dedicated","server_os":"Linux","password":true,"vac":true,"version":"7961495","steam_id":85568392924742824,"keywords":["nocrits","nodmgspread","payload","uncletopia"],"game_id":440,"stv_port":27036,"stv_name":"Uncletopia | San Francisco | 3 | Stopwatch Beta | STV","players":null},{"server_id":20,"name":"Uncletopia | San Francisco | 4 | Community","name_short":"sfo-4","host":"sfo-1.us.uncletopia.com","port":27045,"enabled":true,"region":"us-west","cc":"us","latitude":37.77397,"longitude":-122.4313,"reserved":0,"last_update":"0001-01-01T00:00:00Z","name_a2s":"Uncletopia | San Francisco | 4 | Community","protocol":17,"map":"workshop/cp_bruhstbowl_b6.ugc2878604990","folder":"tf","game":"Team Fortress","app_id":440,"player_count":0,"max_players":24,"Bots":0,"server_type":"Dedicated","server_os":"Linux","password":true,"vac":true,"version":"7961495","steam_id":85568392924742826,"keywords":["cp","nocrits","nodmgspread","uncletopia"],"game_id":440,"stv_port":27046,"stv_name":"Uncletopia | San Francisco | 4 | Community | STV","players":null},{"server_id":141,"name":"Uncletopia | Sydney | 1 | All Maps","name_short":"syd-1","host":"syd-1.au.uncletopia.com","port":27015,"enabled":true,"region":"au","cc":"au","latitude":-33.865143,"longitude":151.2099,"reserved":0,"last_update":"0001-01-01T00:00:00Z","name_a2s":"Uncletopia | Sydney | 1 | All Maps","protocol":17,"map":"koth_highpass","folder":"tf","game":"Team Fortress","app_id":440,"player_count":0,"max_players":24,"Bots":0,"server_type":"Dedicated","server_os":"Linux","password":true,"vac":true,"version":"7961495","steam_id":85568392924470001,"keywords":["cp","nocrits","nodmgspread","uncletopia"],"game_id":440,"stv_port":27016,"stv_name":"Uncletopia | Sydney | 1 | All Maps | STV","players":null},{"server_id":123,"name":"Uncletopia | Sydney | 2 | All Maps","name_short":"syd-2","host":"syd-1.au.uncletopia.com","port":27025,"enabled":true,"region":"au","cc":"au","latitude":-33.865143,"longitude":151.2099,"reserved":0,"last_update":"0001-01-01T00:00:00Z","name_a2s":"Uncletopia | Sydney | 2 | All Maps","protocol":17,"map":"koth_cascade","folder":"tf","game":"Team Fortress","app_id":440,"player_count":0,"max_players":24,"Bots":0,"server_type":"Dedicated","server_os":"Linux","password":true,"vac":true,"version":"7961495","steam_id":85568392924470002,"keywords":["cp","nocrits","nodmgspread","uncletopia"],"game_id":440,"stv_port":27026,"stv_name":"Uncletopia | Sydney | 2 | All Maps | STV","players":null},{"server_id":395,"name":"Uncletopia | Sydney | 3 | All Maps","name_short":"syd-3","host":"syd-1.au.uncletopia.com","port":27035,"enabled":true,"region":"au","cc":"au","latitude":-33.865143,"longitude":151.2099,"reserved":0,"last_update":"0001-01-01T00:00:00Z","name_a2s":"Uncletopia | Sydney | 3 | All Maps","protocol":17,"map":"cp_altitude","folder":"tf","game":"Team Fortress","app_id":440,"player_count":19,"max_players":24,"Bots":0,"server_type":"Dedicated","server_os":"Linux","password":true,"vac":true,"version":"7961495","steam_id":85568392925194467,"keywords":["cp","nocrits","nodmgspread","uncletopia"],"game_id":440,"stv_port":27036,"stv_name":"Uncletopia | Sydney | 3 | All Maps | STV","players":[{"user_id":47,"name":"Tees","steam_id":76561199174602317,"connected_time":2442000000000,"state":"active","ping":51},{"user_id":58,"name":"Wigglytuff","steam_id":76561198011032527,"connected_time":1728000000000,"state":"active","ping":65},{"user_id":24,"name":"VyKK0iolet","steam_id":76561199439296450,"connected_time":5024000000000,"state":"active","ping":87},{"user_id":85,"name":"Office","steam_id":76561198059380714,"connected_time":61000000000,"state":"active","ping":80},{"user_id":31,"name":"wom","steam_id":76561199375834537,"connected_time":4041000000000,"state":"active","ping":131},{"user_id":84,"name":"rich","steam_id":76561198003594944,"connected_time":129000000000,"state":"active","ping":46},{"user_id":74,"name":"cakey_127","steam_id":76561199011472417,"connected_time":485000000000,"state":"active","ping":62},{"user_id":70,"name":"Michaelsoft Binbows","steam_id":76561198422847304,"connected_time":639000000000,"state":"active","ping":69},{"user_id":59,"name":"Golfing with Joel","steam_id":76561199161637215,"connected_time":1623000000000,"state":"active","ping":97},{"user_id":56,"name":"payn.","steam_id":76561199277321828,"connected_time":1947000000000,"state":"active","ping":63},{"user_id":57,"name":"PenTor","steam_id":76561199273454595,"connected_time":1799000000000,"state":"active","ping":173},{"user_id":40,"name":"Pickled Cow","steam_id":76561198292517991,"connected_time":2848000000000,"state":"active","ping":42},{"user_id":60,"name":"TLatham22","steam_id":76561198368199532,"connected_time":1384000000000,"state":"active","ping":52},{"user_id":61,"name":"BingusLover❤","steam_id":76561198168709587,"connected_time":1315000000000,"state":"active","ping":76},{"user_id":81,"name":"skinny loser man","steam_id":76561198094041769,"connected_time":175000000000,"state":"active","ping":30},{"user_id":86,"name":"Empolé","steam_id":76561198363939040,"connected_time":27000000000,"state":"spawning","ping":297},{"user_id":77,"name":"DKC","steam_id":76561198313578155,"connected_time":251000000000,"state":"active","ping":44},{"user_id":67,"name":"bukubukuchagama","steam_id":76561198079873281,"connected_time":879000000000,"state":"active","ping":58},{"user_id":79,"name":"Phins Up","steam_id":76561197998319441,"connected_time":244000000000,"state":"active","ping":81}]},{"server_id":396,"name":"Uncletopia | Sydney | 4 | All Maps","name_short":"syd-4","host":"syd-1.au.uncletopia.com","port":27045,"enabled":true,"region":"au","cc":"au","latitude":-33.865143,"longitude":151.2099,"reserved":0,"last_update":"0001-01-01T00:00:00Z","name_a2s":"Uncletopia | Sydney | 4 | All Maps","protocol":17,"map":"cp_snakewater_final1","folder":"tf","game":"Team Fortress","app_id":440,"player_count":0,"max_players":24,"Bots":0,"server_type":"Dedicated","server_os":"Linux","password":true,"vac":true,"version":"7961495","steam_id":85568392925397958,"keywords":["cp","nocrits","nodmgspread","uncletopia"],"game_id":440,"stv_port":27046,"stv_name":"Uncletopia | Sydney | 4 | All Maps | STV","players":null},{"server_id":58,"name":"Uncletopia | Sydney | 5 | Stopwatch Beta","name_short":"syd-5","host":"syd-1.au.uncletopia.com","port":27055,"enabled":true,"region":"au","cc":"au","latitude":-33.865143,"longitude":151.2099,"reserved":0,"last_update":"0001-01-01T00:00:00Z","name_a2s":"Uncletopia | Sydney | 5 | Stopwatch Beta","protocol":17,"map":"koth_viaduct","folder":"tf","game":"Team Fortress","app_id":440,"player_count":0,"max_players":24,"Bots":0,"server_type":"Dedicated","server_os":"Linux","password":true,"vac":true,"version":"7961495","steam_id":85568392925397959,"keywords":["cp","nocrits","nodmgspread","uncletopia"],"game_id":440,"stv_port":27056,"stv_name":"Uncletopia | Sydney | 5 | Stopwatch Beta | STV","players":null},{"server_id":59,"name":"Uncletopia | Sydney | 6 | Community","name_short":"syd-6","host":"syd-1.au.uncletopia.com","port":27065,"enabled":true,"region":"au","cc":"au","latitude":-33.865143,"longitude":151.2099,"reserved":0,"last_update":"0001-01-01T00:00:00Z","name_a2s":"Uncletopia | Sydney | 6 | Community","protocol":17,"map":"koth_cascade","folder":"tf","game":"Team Fortress","app_id":440,"player_count":0,"max_players":24,"Bots":0,"server_type":"Dedicated","server_os":"Linux","password":true,"vac":true,"version":"7961495","steam_id":85568392925397960,"keywords":["cp","nocrits","nodmgspread","uncletopia"],"game_id":440,"stv_port":27066,"stv_name":"Uncletopia | Sydney | 6 | Community | STV","players":null},{"server_id":49,"name":"Uncletopia | Warsaw | 1 | All Maps","name_short":"waw-1","host":"waw-1.pl.uncletopia.com","port":27015,"enabled":true,"region":"eu","cc":"pl","latitude":52.2297,"longitude":21.017532,"reserved":0,"last_update":"0001-01-01T00:00:00Z","name_a2s":"Uncletopia | Warsaw | 1 | All Maps","protocol":17,"map":"koth_viaduct","folder":"tf","game":"Team Fortress","app_id":440,"player_count":0,"max_players":24,"Bots":0,"server_type":"Dedicated","server_os":"Linux","password":true,"vac":true,"version":"7961495","steam_id":85568392925397850,"keywords":["cp","nocrits","nodmgspread","uncletopia"],"game_id":440,"stv_port":27016,"stv_name":"Uncletopia | Warsaw | 1 | All Maps | STV","players":null},{"server_id":50,"name":"Uncletopia | Warsaw | 2 | All Maps","name_short":"waw-2","host":"waw-1.pl.uncletopia.com","port":27025,"enabled":true,"region":"eu","cc":"pl","latitude":52.2297,"longitude":21.017532,"reserved":0,"last_update":"0001-01-01T00:00:00Z","name_a2s":"Uncletopia | Warsaw | 2 | All Maps","protocol":17,"map":"koth_cascade","folder":"tf","game":"Team Fortress","app_id":440,"player_count":0,"max_players":24,"Bots":0,"server_type":"Dedicated","server_os":"Linux","password":true,"vac":true,"version":"7961495","steam_id":85568392925397851,"keywords":["cp","nocrits","nodmgspread","uncletopia"],"game_id":440,"stv_port":27026,"stv_name":"Uncletopia | Warsaw | 2 | All Maps | STV","players":null},{"server_id":51,"name":"Uncletopia | Warsaw | 3 | All Maps","name_short":"waw-3","host":"waw-1.pl.uncletopia.com","port":27035,"enabled":true,"region":"eu","cc":"pl","latitude":52.2297,"longitude":21.017532,"reserved":0,"last_update":"0001-01-01T00:00:00Z","name_a2s":"Uncletopia | Warsaw | 3 | All Maps","protocol":17,"map":"pl_borneo","folder":"tf","game":"Team Fortress","app_id":440,"player_count":0,"max_players":24,"Bots":0,"server_type":"Dedicated","server_os":"Linux","password":true,"vac":true,"version":"7961495","steam_id":85568392925397852,"keywords":["nocrits","nodmgspread","payload","uncletopia"],"game_id":440,"stv_port":27036,"stv_name":"Uncletopia | Warsaw | 3 | All Maps | STV","players":null},{"server_id":52,"name":"Uncletopia | Warsaw | 4 | All Maps","name_short":"waw-4","host":"waw-1.pl.uncletopia.com","port":27045,"enabled":true,"region":"eu","cc":"pl","latitude":52.2297,"longitude":21.017532,"reserved":0,"last_update":"0001-01-01T00:00:00Z","name_a2s":"Uncletopia | Warsaw | 4 | All Maps","protocol":17,"map":"cp_altitude","folder":"tf","game":"Team Fortress","app_id":440,"player_count":0,"max_players":24,"Bots":0,"server_type":"Dedicated","server_os":"Linux","password":true,"vac":true,"version":"7961495","steam_id":85568392925397853,"keywords":["cp","nocrits","nodmgspread","uncletopia"],"game_id":440,"stv_port":27046,"stv_name":"Uncletopia | Warsaw | 4 | All Maps | STV","players":null},{"server_id":53,"name":"Uncletopia | Warsaw | 5 | Stopwatch Beta","name_short":"waw-5","host":"waw-1.pl.uncletopia.com","port":27055,"enabled":true,"region":"eu","cc":"pl","latitude":52.2297,"longitude":21.017532,"reserved":0,"last_update":"0001-01-01T00:00:00Z","name_a2s":"Uncletopia | Warsaw | 5 | Stopwatch Beta","protocol":17,"map":"cp_granary","folder":"tf","game":"Team Fortress","app_id":440,"player_count":0,"max_players":24,"Bots":0,"server_type":"Dedicated","server_os":"Linux","password":true,"vac":true,"version":"7961495","steam_id":85568392925397854,"keywords":["cp","nocrits","nodmgspread","uncletopia"],"game_id":440,"stv_port":27056,"stv_name":"Uncletopia | Warsaw | 5 | Stopwatch Beta | STV","players":null},{"server_id":54,"name":"Uncletopia | Warsaw | 6 | Community","name_short":"waw-6","host":"waw-1.pl.uncletopia.com","port":27065,"enabled":true,"region":"eu","cc":"pl","latitude":52.2297,"longitude":21.017532,"reserved":0,"last_update":"0001-01-01T00:00:00Z","name_a2s":"Uncletopia | Warsaw | 6 | Community","protocol":17,"map":"workshop/koth_product_final.ugc454272353","folder":"tf","game":"Team Fortress","app_id":440,"player_count":0,"max_players":24,"Bots":0,"server_type":"Dedicated","server_os":"Linux","password":true,"vac":true,"version":"7961495","steam_id":85568392925397856,"keywords":["cp","nocrits","nodmgspread","uncletopia"],"game_id":440,"stv_port":27066,"stv_name":"Uncletopia | Warsaw | 6 | Community | STV","players":null}]}