{"status":true,"message":"","result":[{"server_id":9,"name":"Uncletopia | Atlanta | 1 | All Maps","name_short":"atl-1","host":"atl-1.us.uncletopia.com","port":27015,"enabled":true,"region":"us-east","cc":"us","latitude":33.753746,"longitude":-84.38633,"reserved":0,"last_update":"0001-01-01T00:00:00Z","name_a2s":"Uncletopia | Atlanta | 1 | All Maps","protocol":17,"map":"pl_swiftwater_final1","folder":"tf","game":"Team Fortress","app_id":440,"player_count":0,"max_players":24,"Bots":0,"server_type":"Dedicated","server_os":"Linux","password":true,"vac":true,"version":"7932396","steam_id":85568392924469982,"keywords":["nocrits","nodmgspread","payload","uncletopia"],"game_id":440,"stv_port":27016,"stv_name":"Uncletopia | Atlanta | 1 | All Maps | STV","players":null},{"server_id":104,"name":"Uncletopia | Atlanta | 2 | All Maps","name_short":"atl-2","host":"atl-1.us.uncletopia.com","port":27025,"enabled":true,"region":"us-east","cc":"us","latitude":33.753746,"longitude":-84.38633,"reserved":0,"last_update":"0001-01-01T00:00:00Z","name_a2s":"Uncletopia | Atlanta | 2 | All Maps","protocol":17,"map":"koth_highpass","folder":"tf","game":"Team Fortress","app_id":440,"player_count":0,"max_players":24,"Bots":0,"server_type":"Dedicated","server_os":"Linux","password":true,"vac":true,"version":"7932396","steam_id":85568392924469983,"keywords":["cp","nocrits","nodmgspread","uncletopia"],"game_id":440,"stv_port":27026,"stv_name":"Uncletopia | Atlanta | 2 | All Maps | STV","players":null},{"server_id":400,"name":"Uncletopia | Atlanta | 3 | Community","name_short":"atl-3","host":"atl-1.us.uncletopia.com","port":27035,"enabled":true,"region":"us-east","cc":"us","latitude":33.753746,"longitude":-84.38633,"reserved":0,"last_update":"0001-01-01T00:00:00Z","name_a2s":"Uncletopia | Atlanta | 3 | Community","protocol":17,"map":"pl_borneo","folder":"tf","game":"Team Fortress","app_id":440,"player_count":0,"max_players":24,"Bots":0,"server_type":"Dedicated","server_os":"Linux","password":true,"vac":true,"version":"7932396","steam_id":85568392924515187,"keywords":["nocrits","nodmgspread","payload","uncletopia"],"game_id":440,"stv_port":27036,"stv_name":"Uncletopia | Atlanta | 3 | Community | STV","players":null},{"server_id":401,"name":"Uncletopia | Atlanta | 4 | No Payload","name_short":"atl-4","host":"atl-1.us.uncletopia.com","port":27045,"enabled":true,"region":"us-east","cc":"us","latitude":33.753746,"longitude":-84.38633,"reserved":0,"last_update":"0001-01-01T00:00:00Z","name_a2s":"","protocol":0,"map":"","folder":"","game":"","app_id":0,"player_count":0,"max_players":0,"Bots":0,"server_type":"","server_os":"","password":false,"vac":false,"version":"","steam_id":0,"keywords":null,"game_id":0,"stv_port":0,"stv_name":"","players":null},{"server_id":2,"name":"Uncletopia | Chicago | 1 | All Maps","name_short":"chi-1","host":"chi-1.us.uncletopia.com","port":27015,"enabled":true,"region":"us-central","cc":"us","latitude":41.881832,"longitude":-87.62318,"reserved":0,"last_update":"0001-01-01T00:00:00Z","name_a2s":"Uncletopia | Chicago | 1 | All Maps","protocol":17,"map":"koth_harvest_final","folder":"tf","game":"Team Fortress","app_id":440,"player_count":23,"max_players":24,"Bots":0,"server_type":"Dedicated","server_os":"Linux","password":true,"vac":true,"version":"7932396","steam_id":85568392924469984,"keywords":["cp","nocrits","nodmgspread","uncletopia"],"game_id":440,"stv_port":27016,"stv_name":"Uncletopia | Chicago | 1 | All Maps | STV","players":[{"user_id":380,"name":"Sully","steam_id":76561198310784589,"connected_time":221000000000,"state":"active","ping":72},{"user_id":385,"name":"Dreszerg","steam_id":76561198838757422,"connected_time":187000000000,"state":"active","ping":81},{"user_id":382,"name":"The Potato Romancer","steam_id":76561198204197648,"connected_time":206000000000,"state":"active","ping":99},{"user_id":335,"name":"trobin120","steam_id":76561199122420273,"connected_time":4290000000000,"state":"active","ping":60},{"user_id":337,"name":"Kobicha","steam_id":76561198144970720,"connected_time":4123000000000,"state":"active","ping":71},{"user_id":383,"name":"Meat Mans Meat","steam_id":76561198062149455,"connected_time":200000000000,"state":"active","ping":62},{"user_id":329,"name":"Alecto","steam_id":76561198042476864,"connected_time":4382000000000,"state":"active","ping":45},{"user_id":315,"name":"Obelisk","steam_id":76561198049416866,"connected_time":5574000000000,"state":"active","ping":76},{"user_id":360,"name":"Jirachi","steam_id":76561198341537452,"connected_time":2067000000000,"state":"active","ping":76},{"user_id":336,"name":"co)))))ne","steam_id":76561198053967778,"connected_time":4218000000000,"state":"active","ping":55},{"user_id":384,"name":"Xyverle","steam_id":76561198799726415,"connected_time":193000000000,"state":"active","ping":62},{"user_id":376,"name":"troll","steam_id":76561198040890252,"connected_time":587000000000,"state":"active","ping":72},{"user_id":386,"name":"Pango","steam_id":76561198069811545,"connected_time":173000000000,"state":"active","ping":60},{"user_id":372,"name":"Evenaris","steam_id":76561198087544319,"connected_time":692000000000,"state":"active","ping":90},{"user_id":387,"name":"Incredulous Dylan","steam_id":76561197979969143,"connected_time":147000000000,"state":"active","ping":75},{"user_id":227,"name":"ᓀ‸ᓂ","steam_id":76561198046055673,"connected_time":12430000000000,"state":"active","ping":74},{"user_id":388,"name":"Sahbi","steam_id":76561199196292242,"connected_time":125000000000,"state":"active","ping":71},{"user_id":378,"name":"Jerry Bondle","steam_id":76561198337512213,"connected_time":402000000000,"state":"active","ping":71},{"user_id":389,"name":"The_atom_bomb","steam_id":76561198139944683,"connected_time":120000000000,"state":"active","ping":59},{"user_id":370,"name":"Coffeemelon","steam_id":76561198285891257,"connected_time":709000000000,"state":"active","ping":108},{"user_id":364,"name":"jailbreak","steam_id":76561198802085218,"connected_time":821000000000,"state":"active","ping":74},{"user_id":367,"name":"Space","steam_id":76561198350489754,"connected_time":720000000000,"state":"active","ping":45},{"user_id":371,"name":"Craig Isonychia","steam_id":76561198272013678,"connected_time":709000000000,"state":"active","ping":73}]},{"server_id":106,"name":"Uncletopia | Chicago | 2 | All Maps","name_short":"chi-2","host":"chi-1.us.uncletopia.com","port":27025,"enabled":true,"region":"us-central","cc":"us","latitude":41.881832,"longitude":-87.62318,"reserved":0,"last_update":"0001-01-01T00:00:00Z","name_a2s":"Uncletopia | Chicago | 2 | All Maps","protocol":17,"map":"pl_badwater","folder":"tf","game":"Team Fortress","app_id":440,"player_count":24,"max_players":24,"Bots":0,"server_type":"Dedicated","server_os":"Linux","password":true,"vac":true,"version":"7932396","steam_id":85568392924469985,"keywords":["nocrits","nodmgspread","payload","uncletopia"],"game_id":440,"stv_port":27026,"stv_name":"Uncletopia | Chicago | 2 | All Maps | STV","players":[{"user_id":200,"name":"FUNNY JOKE(pls laugh)","steam_id":76561199070877046,"connected_time":1105000000000,"state":"active","ping":100},{"user_id":138,"name":"Elias","steam_id":76561198106431732,"connected_time":7390000000000,"state":"active","ping":45},{"user_id":157,"name":"Kartyac","steam_id":76561197991069005,"connected_time":5314000000000,"state":"active","ping":77},{"user_id":206,"name":"ash","steam_id":76561198127890645,"connected_time":835000000000,"state":"active","ping":75},{"user_id":215,"name":"aflyingmouse","steam_id":76561198058134934,"connected_time":59000000000,"state":"active","ping":114},{"user_id":211,"name":"Spygie","steam_id":76561198218573049,"connected_time":271000000000,"state":"active","ping":85},{"user_id":205,"name":"wormburnerturner","steam_id":76561198143607463,"connected_time":921000000000,"state":"active","ping":90},{"user_id":184,"name":"novu","steam_id":76561198886997024,"connected_time":2930000000000,"state":"active","ping":85},{"user_id":190,"name":"ThatGamingKiwi","steam_id":76561199170522237,"connected_time":2014000000000,"state":"active","ping":80},{"user_id":178,"name":"Pixler544","steam_id":76561198240575132,"connected_time":3381000000000,"state":"active","ping":70},{"user_id":185,"name":"Banks","steam_id":76561198276505537,"connected_time":2412000000000,"state":"active","ping":63},{"user_id":212,"name":"loser","steam_id":76561198259380127,"connected_time":219000000000,"state":"active","ping":48},{"user_id":193,"name":"Goose of Wisdom","steam_id":76561198233465044,"connected_time":1840000000000,"state":"active","ping":69},{"user_id":196,"name":"dnaak","steam_id":76561197960489193,"connected_time":1137000000000,"state":"active","ping":47},{"user_id":188,"name":"Scientist005","steam_id":76561198117825609,"connected_time":2115000000000,"state":"active","ping":65},{"user_id":214,"name":"xiPoison","steam_id":76561198064961659,"connected_time":74000000000,"state":"active","ping":65},{"user_id":159,"name":"GamingGeneral","steam_id":76561198872339275,"connected_time":5252000000000,"state":"active","ping":61},{"user_id":173,"name":"Sir, this is a Wendy's","steam_id":76561198983656317,"connected_time":3661000000000,"state":"active","ping":84},{"user_id":168,"name":"A Rhino with Coronavirus","steam_id":76561197999451366,"connected_time":4493000000000,"state":"active","ping":84},{"user_id":213,"name":"coffee","steam_id":76561198239286750,"connected_time":123000000000,"state":"active","ping":69},{"user_id":207,"name":"Shipmunk","steam_id":76561198063062670,"connected_time":831000000000,"state":"active","ping":66},{"user_id":197,"name":"twisted fucking cycle path","steam_id":76561198840210218,"connected_time":1136000000000,"state":"active","ping":101},{"user_id":192,"name":"D","steam_id":76561198292908619,"connected_time":1968000000000,"state":"active","ping":67},{"user_id":187,"name":"Bali","steam_id":76561198038693845,"connected_time":2203000000000,"state":"active","ping":77}]},{"server_id":402,"name":"Uncletopia | Chicago | 3 | All Maps","name_short":"chi-3","host":"chi-1.us.uncletopia.com","port":27035,"enabled":true,"region":"us-central","cc":"us","latitude":41.881832,"longitude":-87.62318,"reserved":0,"last_update":"0001-01-01T00:00:00Z","name_a2s":"Uncletopia | Chicago | 3 | All Maps","protocol":17,"map":"pl_frontier_final","folder":"tf","game":"Team Fortress","app_id":440,"player_count":24,"max_players":24,"Bots":0,"server_type":"Dedicated","server_os":"Linux","password":true,"vac":true,"version":"7932396","steam_id":85568392924515191,"keywords":["nocrits","nodmgspread","payload","uncletopia"],"game_id":440,"stv_port":27036,"stv_name":"Uncletopia | Chicago | 3 | All Maps | STV","players":[{"user_id":79,"name":"suns","steam_id":76561198079583278,"connected_time":6633000000000,"state":"active","ping":46},{"user_id":177,"name":"sardine","steam_id":76561198162797626,"connected_time":1426000000000,"state":"active","ping":85},{"user_id":172,"name":"Tideflat","steam_id":76561198179850851,"connected_time":1638000000000,"state":"active","ping":104},{"user_id":191,"name":":3 beelthazus","steam_id":76561198127783432,"connected_time":217000000000,"state":"active","ping":74},{"user_id":179,"name":"Gustavo","steam_id":76561198190288063,"connected_time":1259000000000,"state":"active","ping":93},{"user_id":164,"name":"The REAL Drake","steam_id":76561199070125903,"connected_time":1974000000000,"state":"active","ping":64},{"user_id":178,"name":"sevanial","steam_id":76561198071532126,"connected_time":1324000000000,"state":"active","ping":60},{"user_id":193,"name":"Rukks","steam_id":76561197993918954,"connected_time":32000000000,"state":"active","ping":92},{"user_id":182,"name":"drwwby","steam_id":76561198067741339,"connected_time":1199000000000,"state":"active","ping":53},{"user_id":180,"name":"battle clown","steam_id":76561198045788371,"connected_time":1254000000000,"state":"active","ping":64},{"user_id":155,"name":"Maybe","steam_id":76561198268304564,"connected_time":2301000000000,"state":"active","ping":73},{"user_id":176,"name":"Thy Stupid Rat","steam_id":76561198272075712,"connected_time":1509000000000,"state":"active","ping":81},{"user_id":160,"name":"StompOnYourFace!!!!","steam_id":76561198065581117,"connected_time":2104000000000,"state":"active","ping":71},{"user_id":187,"name":"Stranger in a Strange Land","steam_id":76561198049843671,"connected_time":838000000000,"state":"active","ping":60},{"user_id":183,"name":"!mute","steam_id":76561198219209367,"connected_time":1193000000000,"state":"active","ping":69},{"user_id":190,"name":"Mehman big/balls","steam_id":76561199020244051,"connected_time":685000000000,"state":"active","ping":89},{"user_id":149,"name":"[㏈] Britsilov","steam_id":76561199170203468,"connected_time":2437000000000,"state":"active","ping":73},{"user_id":163,"name":"God","steam_id":76561198131089513,"connected_time":2005000000000,"state":"active","ping":45},{"user_id":192,"name":"Peppino","steam_id":76561198189176634,"connected_time":118000000000,"state":"active","ping":94},{"user_id":174,"name":"Tick","steam_id":76561198184161214,"connected_time":1574000000000,"state":"active","ping":42},{"user_id":105,"name":"meat glasses","steam_id":76561198046742645,"connected_time":5317000000000,"state":"active","ping":72},{"user_id":106,"name":"glue sniffer","steam_id":76561198044689778,"connected_time":4998000000000,"state":"active","ping":60},{"user_id":189,"name":"PTR","steam_id":76561198237253772,"connected_time":728000000000,"state":"active","ping":88},{"user_id":162,"name":"Flying Emu","steam_id":76561198121632924,"connected_time":2050000000000,"state":"active","ping":74}]},{"server_id":403,"name":"Uncletopia | Chicago | 4 | All Maps","name_short":"chi-4","host":"chi-1.us.uncletopia.com","port":27045,"enabled":true,"region":"us-central","cc":"us","latitude":41.881832,"longitude":-87.62318,"reserved":0,"last_update":"0001-01-01T00:00:00Z","name_a2s":"Uncletopia | Chicago | 4 | All Maps","protocol":17,"map":"pl_borneo","folder":"tf","game":"Team Fortress","app_id":440,"player_count":0,"max_players":24,"Bots":0,"server_type":"Dedicated","server_os":"Linux","password":true,"vac":true,"version":"7932396","steam_id":85568392924515193,"keywords":["nocrits","nodmgspread","payload","uncletopia"],"game_id":440,"stv_port":27046,"stv_name":"Uncletopia | Chicago | 4 | All Maps | STV","players":null},{"server_id":36,"name":"Uncletopia | Chicago | 5 | All Maps","name_short":"chi-5","host":"chi-2.us.uncletopia.com","port":27015,"enabled":true,"region":"us-central","cc":"us","latitude":41.881832,"longitude":-87.62318,"reserved":0,"last_update":"0001-01-01T00:00:00Z","name_a2s":"Uncletopia | Chicago | 5 | All Maps","protocol":17,"map":"cp_steel","folder":"tf","game":"Team Fortress","app_id":440,"player_count":24,"max_players":24,"Bots":0,"server_type":"Dedicated","server_os":"Linux","password":true,"vac":true,"version":"7932396","steam_id":85568392924866362,"keywords":["cp","nocrits","nodmgspread","uncletopia"],"game_id":440,"stv_port":27016,"stv_name":"Uncletopia | Chicago | 5 | All Maps | STV","players":[{"user_id":67,"name":"Chezaus","steam_id":76561198317397837,"connected_time":3446000000000,"state":"active","ping":76},{"user_id":85,"name":"HarryjusttHarry","steam_id":76561198982810452,"connected_time":2592000000000,"state":"active","ping":81},{"user_id":58,"name":"i can't aim","steam_id":76561198204995668,"connected_time":3963000000000,"state":"active","ping":83},{"user_id":104,"name":"Jade Greenleaf","steam_id":76561198304845413,"connected_time":825000000000,"state":"active","ping":87},{"user_id":99,"name":"Shush","steam_id":76561198123902813,"connected_time":1416000000000,"state":"active","ping":91},{"user_id":83,"name":"c64guy","steam_id":76561198023022744,"connected_time":2624000000000,"state":"active","ping":60},{"user_id":69,"name":"coolplums","steam_id":76561198072154720,"connected_time":3339000000000,"state":"active","ping":51},{"user_id":97,"name":"Motreir","steam_id":76561198151717946,"connected_time":1522000000000,"state":"active","ping":76},{"user_id":111,"name":"katryna","steam_id":76561198023440304,"connected_time":240000000000,"state":"active","ping":60},{"user_id":100,"name":"hobbiebobbie","steam_id":76561199168320895,"connected_time":1415000000000,"state":"active","ping":84},{"user_id":102,"name":"Hertz","steam_id":76561198310927351,"connected_time":869000000000,"state":"active","ping":147},{"user_id":88,"name":"chimpz","steam_id":76561198023233063,"connected_time":2517000000000,"state":"active","ping":61},{"user_id":55,"name":"A_Malebolgia","steam_id":76561198097722818,"connected_time":4507000000000,"state":"active","ping":97},{"user_id":86,"name":"the devil is inside of me hnngg","steam_id":76561198074951061,"connected_time":2575000000000,"state":"active","ping":83},{"user_id":49,"name":"Cheesi","steam_id":76561199417190840,"connected_time":4980000000000,"state":"active","ping":74},{"user_id":71,"name":"Null","steam_id":76561198062791227,"connected_time":3301000000000,"state":"active","ping":69},{"user_id":50,"name":"Daehypeels","steam_id":76561198268981599,"connected_time":4815000000000,"state":"active","ping":66},{"user_id":87,"name":"Pablito","steam_id":76561198401803793,"connected_time":2565000000000,"state":"active","ping":74},{"user_id":101,"name":"Zero","steam_id":76561198001369276,"connected_time":880000000000,"state":"active","ping":72},{"user_id":103,"name":"Fstev ✘","steam_id":76561198358766202,"connected_time":860000000000,"state":"active","ping":149},{"user_id":105,"name":"Dalvarious","steam_id":76561198052771928,"connected_time":819000000000,"state":"active","ping":71},{"user_id":106,"name":"BoomFiendت","steam_id":76561199223831021,"connected_time":810000000000,"state":"active","ping":106},{"user_id":108,"name":"Transbian mommy GF","steam_id":76561198153233822,"connected_time":793000000000,"state":"active","ping":70},{"user_id":110,"name":"yomo","steam_id":76561198063175935,"connected_time":290000000000,"state":"active","ping":75}]},{"server_id":37,"name":"Uncletopia | Chicago | 6 | All Maps","name_short":"chi-6","host":"chi-2.us.uncletopia.com","port":27025,"enabled":true,"region":"us-central","cc":"us","latitude":41.881832,"longitude":-87.62318,"reserved":0,"last_update":"0001-01-01T00:00:00Z","name_a2s":"Uncletopia | Chicago | 6 | All Maps","protocol":17,"map":"cp_mountainlab","folder":"tf","game":"Team Fortress","app_id":440,"player_count":24,"max_players":24,"Bots":0,"server_type":"Dedicated","server_os":"Linux","password":true,"vac":true,"version":"7932396","steam_id":85568392924866363,"keywords":["cp","nocrits","nodmgspread","uncletopia"],"game_id":440,"stv_port":27026,"stv_name":"Uncletopia | Chicago | 6 | All Maps | STV","players":[{"user_id":4,"name":"x10 sens","steam_id":76561199047187302,"connected_time":3008000000000,"state":"active","ping":49},{"user_id":5,"name":"Crack Lord","steam_id":76561199203314054,"connected_time":2982000000000,"state":"active","ping":37},{"user_id":16,"name":"cannibalheaven","steam_id":76561198116280262,"connected_time":1314000000000,"state":"active","ping":42},{"user_id":14,"name":"onetickledpickle","steam_id":76561199445983352,"connected_time":1461000000000,"state":"active","ping":89},{"user_id":47,"name":"Boomerish","steam_id":76561198083946878,"connected_time":104000000000,"state":"active","ping":78},{"user_id":10,"name":"god gamer","steam_id":76561198168149434,"connected_time":1907000000000,"state":"active","ping":122},{"user_id":17,"name":"La Moosh","steam_id":76561198917918982,"connected_time":1300000000000,"state":"active","ping":148},{"user_id":13,"name":"Ⓑ⓪⓪ⓣⓨⓒⓐⓚⓔⓢ","steam_id":76561198088776421,"connected_time":1477000000000,"state":"active","ping":78},{"user_id":44,"name":"Elamit2003","steam_id":76561199200654203,"connected_time":274000000000,"state":"active","ping":152},{"user_id":19,"name":"INFINITE","steam_id":76561197971285557,"connected_time":1247000000000,"state":"active","ping":67},{"user_id":39,"name":"we're so back","steam_id":76561198058485742,"connected_time":602000000000,"state":"active","ping":88},{"user_id":30,"name":"Lucerne★Flower","steam_id":76561198264105406,"connected_time":1068000000000,"state":"active","ping":158},{"user_id":22,"name":"The World's Softest Sandwich","steam_id":76561198015577707,"connected_time":1181000000000,"state":"active","ping":73},{"user_id":45,"name":"ikee_1","steam_id":76561198989215115,"connected_time":274000000000,"state":"active","ping":86},{"user_id":24,"name":"Mostlydeer","steam_id":76561199307901884,"connected_time":1164000000000,"state":"active","ping":80},{"user_id":36,"name":"Horse","steam_id":76561198004583631,"connected_time":917000000000,"state":"active","ping":84},{"user_id":26,"name":"Lefty Schol Rides Again","steam_id":76561199405378993,"connected_time":1148000000000,"state":"active","ping":69},{"user_id":42,"name":"bdlance","steam_id":76561198218846360,"connected_time":497000000000,"state":"active","ping":60},{"user_id":28,"name":"Fresh Lychee","steam_id":76561198045399559,"connected_time":1120000000000,"state":"active","ping":59},{"user_id":43,"name":"mikey","steam_id":76561198095803763,"connected_time":449000000000,"state":"active","ping":75},{"user_id":32,"name":"Monsieur l'INGENIEUR","steam_id":76561198090504334,"connected_time":1054000000000,"state":"active","ping":78},{"user_id":33,"name":"IanFishooks","steam_id":76561199403427527,"connected_time":977000000000,"state":"active","ping":86},{"user_id":46,"name":"=?","steam_id":76561198353011012,"connected_time":270000000000,"state":"active","ping":60},{"user_id":41,"name":"(2)kitkatkarl","steam_id":76561198360134800,"connected_time":530000000000,"state":"active","ping":77}]},{"server_id":38,"name":"Uncletopia | Chicago | 7 | Stopwatch Beta","name_short":"chi-7","host":"chi-2.us.uncletopia.com","port":27035,"enabled":true,"region":"us-central","cc":"us","latitude":41.881832,"longitude":-87.62318,"reserved":0,"last_update":"0001-01-01T00:00:00Z","name_a2s":"Uncletopia | Chicago | 7 | Stopwatch Beta","protocol":17,"map":"pl_borneo","folder":"tf","game":"Team Fortress","app_id":440,"player_count":0,"max_players":24,"Bots":0,"server_type":"Dedicated","server_os":"Linux","password":true,"vac":true,"version":"7932396","steam_id":85568392924866364,"keywords":["nocrits","nodmgspread","payload","uncletopia"],"game_id":440,"stv_port":27036,"stv_name":"Uncletopia | Chicago | 7 | Stopwatch Beta | STV","players":null},{"server_id":39,"name":"Uncletopia | Chicago | 8 | Community","name_short":"chi-8","host":"chi-2.us.uncletopia.com","port":27045,"enabled":true,"region":"us-central","cc":"us","latitude":41.881832,"longitude":-87.62318,"reserved":0,"last_update":"0001-01-01T00:00:00Z","name_a2s":"Uncletopia | Chicago | 8 | Community","protocol":17,"map":"koth_viaduct","folder":"tf","game":"Team Fortress","app_id":440,"player_count":3,"max_players":24,"Bots":0,"server_type":"Dedicated","server_os":"Linux","password":true,"vac":true,"version":"7932396","steam_id":85568392924866365,"keywords":["cp","nocrits","nodmgspread","uncletopia"],"game_id":440,"stv_port":27046,"stv_name":"Uncletopia | Chicago | 8 | Community | STV","players":[{"user_id":11,"name":"Dragoon","steam_id":76561198211973253,"connected_time":584000000000,"state":"active","ping":73},{"user_id":12,"name":"legopirate10","steam_id":76561198178827241,"connected_time":566000000000,"state":"active","ping":43},{"user_id":13,"name":"Azathoth","steam_id":76561198255896505,"connected_time":335000000000,"state":"active","ping":81}]},{"server_id":8,"name":"Uncletopia | Dallas | 1 | All Maps","name_short":"dal-1","host":"dal-1.us.uncletopia.com","port":27015,"enabled":true,"region":"us-central","cc":"us","latitude":32.779167,"longitude":-96.80889,"reserved":0,"last_update":"0001-01-01T00:00:00Z","name_a2s":"Uncletopia | Dallas | 1 | All Maps","protocol":17,"map":"cp_mossrock","folder":"tf","game":"Team Fortress","app_id":440,"player_count":22,"max_players":24,"Bots":0,"server_type":"Dedicated","server_os":"Linux","password":true,"vac":true,"version":"7932396","steam_id":85568392924469986,"keywords":["cp","nocrits","nodmgspread","uncletopia"],"game_id":440,"stv_port":27016,"stv_name":"Uncletopia | Dallas | 1 | All Maps | STV","players":[{"user_id":172,"name":"green bean","steam_id":76561198113099204,"connected_time":2826000000000,"state":"active","ping":67},{"user_id":217,"name":"donkeyballs2007","steam_id":76561199466298683,"connected_time":1489000000000,"state":"active","ping":75},{"user_id":152,"name":"Rin \"Hindwing\" Redtail","steam_id":76561199074865638,"connected_time":3883000000000,"state":"active","ping":53},{"user_id":230,"name":"Phosu","steam_id":76561198180162801,"connected_time":1203000000000,"state":"active","ping":65},{"user_id":259,"name":"Jayne Cobb","steam_id":76561198080585050,"connected_time":694000000000,"state":"active","ping":86},{"user_id":287,"name":"Eggboy","steam_id":76561198041865979,"connected_time":6000000000,"state":"spawning","ping":54},{"user_id":206,"name":"Eomy","steam_id":76561198297783627,"connected_time":1785000000000,"state":"active","ping":78},{"user_id":248,"name":"Coda","steam_id":76561197961025985,"connected_time":939000000000,"state":"active","ping":45},{"user_id":262,"name":"nori_420","steam_id":76561199117134203,"connected_time":639000000000,"state":"active","ping":85},{"user_id":146,"name":"Oopsie Daisy ❋","steam_id":76561198042144492,"connected_time":4279000000000,"state":"active","ping":73},{"user_id":286,"name":"Chuyo3000","steam_id":76561198067168008,"connected_time":55000000000,"state":"spawning","ping":49},{"user_id":283,"name":"primordialheath","steam_id":76561199386942638,"connected_time":165000000000,"state":"active","ping":84},{"user_id":161,"name":"Kuyumiester","steam_id":76561198126835302,"connected_time":3478000000000,"state":"active","ping":60},{"user_id":203,"name":"Chunk Stuffer","steam_id":76561198856508573,"connected_time":1861000000000,"state":"active","ping":43},{"user_id":177,"name":"SСАТТЕR","steam_id":76561198405168492,"connected_time":2698000000000,"state":"active","ping":109},{"user_id":273,"name":"Grumby","steam_id":76561198149175262,"connected_time":363000000000,"state":"active","ping":60},{"user_id":252,"name":"Sky","steam_id":76561198097549374,"connected_time":870000000000,"state":"active","ping":106},{"user_id":221,"name":"sailor","steam_id":76561198091015050,"connected_time":1390000000000,"state":"active","ping":70},{"user_id":204,"name":"Wiggee","steam_id":76561197972792989,"connected_time":1827000000000,"state":"active","ping":44},{"user_id":237,"name":"sjpete61","steam_id":76561199103543529,"connected_time":1110000000000,"state":"active","ping":99},{"user_id":132,"name":"Quick-Fix","steam_id":76561198295501978,"connected_time":5295000000000,"state":"active","ping":59},{"user_id":191,"name":"vore closet","steam_id":76561198105359319,"connected_time":2195000000000,"state":"active","ping":74}]},{"server_id":108,"name":"Uncletopia | Dallas | 2 | All Maps","name_short":"dal-2","host":"dal-1.us.uncletopia.com","port":27025,"enabled":true,"region":"us-central","cc":"us","latitude":32.779167,"longitude":-96.80889,"reserved":0,"last_update":"0001-01-01T00:00:00Z","name_a2s":"Uncletopia | Dallas | 2 | All Maps","protocol":17,"map":"pl_badwater","folder":"tf","game":"Team Fortress","app_id":440,"player_count":24,"max_players":24,"Bots":0,"server_type":"Dedicated","server_os":"Linux","password":true,"vac":true,"version":"7932396","steam_id":85568392924469988,"keywords":["nocrits","nodmgspread","payload","uncletopia"],"game_id":440,"stv_port":27026,"stv_name":"Uncletopia | Dallas | 2 | All Maps | STV","players":[{"user_id":49,"name":"snivyxiang","steam_id":76561198155524042,"connected_time":4282000000000,"state":"active","ping":67},{"user_id":81,"name":"Your Local NPR Station","steam_id":76561198143830279,"connected_time":2061000000000,"state":"active","ping":57},{"user_id":88,"name":"Zetta","steam_id":76561198045710113,"connected_time":1518000000000,"state":"active","ping":78},{"user_id":96,"name":"2JZ_","steam_id":76561198064027289,"connected_time":755000000000,"state":"active","ping":73},{"user_id":103,"name":"npc energy","steam_id":76561198035342207,"connected_time":705000000000,"state":"active","ping":60},{"user_id":108,"name":"Tuvok Shakur","steam_id":76561198018875334,"connected_time":149000000000,"state":"active","ping":79},{"user_id":61,"name":"Doctor Emerald(real)","steam_id":76561199123003872,"connected_time":2890000000000,"state":"active","ping":85},{"user_id":97,"name":"Jacob Hornberger 2016","steam_id":76561198204549723,"connected_time":754000000000,"state":"active","ping":122},{"user_id":93,"name":"|WS| Don't_Taze_Me_Bro","steam_id":76561198043289495,"connected_time":1046000000000,"state":"active","ping":75},{"user_id":73,"name":"Maranata","steam_id":76561198830158092,"connected_time":2411000000000,"state":"active","ping":83},{"user_id":91,"name":"antoniov00gaming","steam_id":76561198364632073,"connected_time":1106000000000,"state":"active","ping":88},{"user_id":29,"name":"Rob","steam_id":76561199187786660,"connected_time":5109000000000,"state":"active","ping":54},{"user_id":89,"name":"TwoBit","steam_id":76561198062437559,"connected_time":1400000000000,"state":"active","ping":100},{"user_id":83,"name":"beans","steam_id":76561199082781884,"connected_time":2023000000000,"state":"active","ping":70},{"user_id":95,"name":"Kelpy G","steam_id":76561198105330587,"connected_time":764000000000,"state":"active","ping":56},{"user_id":106,"name":"Vestuvian","steam_id":76561199007823355,"connected_time":355000000000,"state":"active","ping":54},{"user_id":101,"name":"ZUckma","steam_id":76561199230937981,"connected_time":711000000000,"state":"active","ping":70},{"user_id":84,"name":"Abe","steam_id":76561198028438723,"connected_time":2022000000000,"state":"active","ping":87},{"user_id":107,"name":"Insizhen","steam_id":76561198051352605,"connected_time":205000000000,"state":"active","ping":58},{"user_id":65,"name":"DualiTea","steam_id":76561198081733870,"connected_time":2874000000000,"state":"active","ping":61},{"user_id":74,"name":"laxthefreak","steam_id":76561199020449059,"connected_time":2378000000000,"state":"active","ping":62},{"user_id":75,"name":"Daz","steam_id":76561198041431938,"connected_time":2372000000000,"state":"active","ping":102},{"user_id":60,"name":"Holly she/her","steam_id":76561198982631429,"connected_time":3264000000000,"state":"active","ping":63},{"user_id":105,"name":"Epifiny","steam_id":76561198027958086,"connected_time":688000000000,"state":"active","ping":100}]},{"server_id":5,"name":"Uncletopia | Frankfurt | 1 | All Maps","name_short":"frk-1","host":"frk-1.de.uncletopia.com","port":27015,"enabled":true,"region":"eu","cc":"de","latitude":50.110924,"longitude":8.682127,"reserved":0,"last_update":"0001-01-01T00:00:00Z","name_a2s":"Uncletopia | Frankfurt | 1 | All Maps","protocol":17,"map":"koth_highpass","folder":"tf","game":"Team Fortress","app_id":440,"player_count":0,"max_players":24,"Bots":0,"server_type":"Dedicated","server_os":"Linux","password":true,"vac":true,"version":"7932396","steam_id":85568392924469989,"keywords":["cp","nocrits","nodmgspread","uncletopia"],"game_id":440,"stv_port":27016,"stv_name":"Uncletopia | Frankfurt | 1 | All Maps | STV","players":null},{"server_id":110,"name":"Uncletopia | Frankfurt | 2 | All Maps","name_short":"frk-2","host":"frk-1.de.uncletopia.com","port":27025,"enabled":true,"region":"eu","cc":"de","latitude":50.110924,"longitude":8.682127,"reserved":0,"last_update":"0001-01-01T00:00:00Z","name_a2s":"Uncletopia | Frankfurt | 2 | All Maps","protocol":17,"map":"pl_badwater","folder":"tf","game":"Team Fortress","app_id":440,"player_count":0,"max_players":24,"Bots":0,"server_type":"Dedicated","server_os":"Linux","password":true,"vac":true,"version":"7932396","steam_id":85568392924469990,"keywords":["nocrits","nodmgspread","payload","uncletopia"],"game_id":440,"stv_port":27026,"stv_name":"Uncletopia | Frankfurt | 2 | All Maps | STV","players":null},{"server_id":308,"name":"Uncletopia | Frankfurt | 3 | All Maps","name_short":"frk-3","host":"frk-1.de.uncletopia.com","port":27035,"enabled":true,"region":"eu","cc":"de","latitude":50.110924,"longitude":8.682127,"reserved":0,"last_update":"0001-01-01T00:00:00Z","name_a2s":"Uncletopia | Frankfurt | 3 | All Maps","protocol":17,"map":"cp_dustbowl","folder":"tf","game":"Team Fortress","app_id":440,"player_count":24,"max_players":24,"Bots":0,"server_type":"Dedicated","server_os":"Linux","password":true,"vac":true,"version":"7932396","steam_id":85568392924504274,"keywords":["cp","nocrits","nodmgspread","uncletopia"],"game_id":440,"stv_port":27036,"stv_name":"Uncletopia | Frankfurt | 3 | All Maps | STV","players":[{"user_id":577,"name":"Na'vi Misato (by popular demand","steam_id":76561198130860698,"connected_time":1052000000000,"state":"active","ping":58},{"user_id":562,"name":"Tin","steam_id":76561198022201818,"connected_time":2131000000000,"state":"active","ping":45},{"user_id":581,"name":"SpacePig","steam_id":76561198044662873,"connected_time":908000000000,"state":"active","ping":88},{"user_id":467,"name":"Paste","steam_id":76561198139275322,"connected_time":6170000000000,"state":"active","ping":82},{"user_id":548,"name":"Aximus","steam_id":76561198024575710,"connected_time":2847000000000,"state":"active","ping":67},{"user_id":594,"name":"player","steam_id":76561198142890210,"connected_time":143000000000,"state":"active","ping":92},{"user_id":582,"name":"Salih","steam_id":76561198287934839,"connected_time":897000000000,"state":"active","ping":55},{"user_id":552,"name":"flr","steam_id":76561198249327786,"connected_time":2772000000000,"state":"active","ping":65},{"user_id":551,"name":"Decimend","steam_id":76561199241883255,"connected_time":2791000000000,"state":"active","ping":139},{"user_id":580,"name":"Dr. Cox","steam_id":76561198246629218,"connected_time":936000000000,"state":"active","ping":113},{"user_id":592,"name":"glorbus","steam_id":76561198969544894,"connected_time":394000000000,"state":"active","ping":60},{"user_id":583,"name":"Gyt","steam_id":76561198014431968,"connected_time":892000000000,"state":"active","ping":80},{"user_id":545,"name":"Steve_b4lls","steam_id":76561199212273303,"connected_time":2979000000000,"state":"active","ping":88},{"user_id":559,"name":"totalynotsomeonesalt","steam_id":76561199489310640,"connected_time":2365000000000,"state":"active","ping":130},{"user_id":589,"name":"Dolcelatte","steam_id":76561198038501770,"connected_time":719000000000,"state":"active","ping":46},{"user_id":590,"name":"Incomus","steam_id":76561198058342600,"connected_time":488000000000,"state":"active","ping":79},{"user_id":584,"name":"Femboy Melooni","steam_id":76561199035732179,"connected_time":889000000000,"state":"active","ping":89},{"user_id":567,"name":"cotroD","steam_id":76561198130063938,"connected_time":1575000000000,"state":"active","ping":92},{"user_id":573,"name":"Plain Toast","steam_id":76561198451580251,"connected_time":1362000000000,"state":"active","ping":167},{"user_id":557,"name":"beef estrogenoff","steam_id":76561198106455841,"connected_time":2667000000000,"state":"active","ping":81},{"user_id":585,"name":"KingHasamala","steam_id":76561198298147876,"connected_time":876000000000,"state":"active","ping":59},{"user_id":593,"name":"Shrimp","steam_id":76561198245939970,"connected_time":226000000000,"state":"active","ping":83},{"user_id":591,"name":"hÖh","steam_id":76561198418503654,"connected_time":472000000000,"state":"active","ping":105},{"user_id":547,"name":"mohamadparadox","steam_id":76561198346156085,"connected_time":2912000000000,"state":"active","ping":166}]},{"server_id":309,"name":"Uncletopia | Frankfurt | 4 | All Maps","name_short":"frk-4","host":"frk-1.de.uncletopia.com","port":27045,"enabled":true,"region":"eu","cc":"de","latitude":50.110924,"longitude":8.682127,"reserved":0,"last_update":"0001-01-01T00:00:00Z","name_a2s":"Uncletopia | Frankfurt | 4 | All Maps","protocol":17,"map":"cp_snakewater_final1","folder":"tf","game":"Team Fortress","app_id":440,"player_count":21,"max_players":24,"Bots":0,"server_type":"Dedicated","server_os":"Linux","password":true,"vac":true,"version":"7932396","steam_id":85568392924504275,"keywords":["cp","nocrits","nodmgspread","uncletopia"],"game_id":440,"stv_port":27046,"stv_name":"Uncletopia | Frankfurt | 4 | All Maps | STV","players":[{"user_id":97,"name":"Milosz52","steam_id":76561199060940204,"connected_time":17000000000,"state":"active","ping":166},{"user_id":94,"name":"Lampinen","steam_id":76561198004936228,"connected_time":72000000000,"state":"active","ping":76},{"user_id":98,"name":"Hrrr","steam_id":76561198106920678,"connected_time":12000000000,"state":"active","ping":42},{"user_id":96,"name":"b9njmn","steam_id":76561198068481592,"connected_time":46000000000,"state":"active","ping":118},{"user_id":78,"name":"MrBanana","steam_id":76561198116021623,"connected_time":1426000000000,"state":"active","ping":46},{"user_id":33,"name":"Nickel","steam_id":76561199037745941,"connected_time":3612000000000,"state":"active","ping":125},{"user_id":93,"name":"Local Capybara","steam_id":76561198388321887,"connected_time":170000000000,"state":"active","ping":51},{"user_id":35,"name":"dash.","steam_id":76561198084796149,"connected_time":3404000000000,"state":"spawning","ping":47},{"user_id":92,"name":"kaT","steam_id":76561198879664338,"connected_time":343000000000,"state":"spawning","ping":58},{"user_id":83,"name":"One-Face","steam_id":76561197999384826,"connected_time":1222000000000,"state":"active","ping":55},{"user_id":85,"name":"the Spycrab","steam_id":76561198043480678,"connected_time":1195000000000,"state":"active","ping":49},{"user_id":40,"name":"png.png","steam_id":76561198444446521,"connected_time":2773000000000,"state":"active","ping":432},{"user_id":80,"name":"realness","steam_id":76561199129226935,"connected_time":1348000000000,"state":"active","ping":89},{"user_id":91,"name":"wouris","steam_id":76561198876188003,"connected_time":348000000000,"state":"active","ping":49},{"user_id":88,"name":"Nithle","steam_id":76561198025372740,"connected_time":1136000000000,"state":"active","ping":47},{"user_id":99,"name":"mark","steam_id":76561198309246388,"connected_time":4000000000,"state":"spawning","ping":208},{"user_id":63,"name":"Zazou","steam_id":76561198028076362,"connected_time":1973000000000,"state":"active","ping":58},{"user_id":90,"name":"I.C. Wiener","steam_id":76561197999912254,"connected_time":964000000000,"state":"spawning","ping":86},{"user_id":89,"name":"P3rsErkki","steam_id":76561198063093495,"connected_time":1128000000000,"state":"spawning","ping":50},{"user_id":70,"name":"Rolloden","steam_id":76561198069414404,"connected_time":1680000000000,"state":"active","ping":54},{"user_id":76,"name":" Sir-Ignyr ","steam_id":76561198043828572,"connected_time":1524000000000,"state":"active","ping":51}]},{"server_id":310,"name":"Uncletopia | Frankfurt | 5 | All Maps","name_short":"frk-5","host":"frk-1.de.uncletopia.com","port":27055,"enabled":true,"region":"eu","cc":"de","latitude":50.110924,"longitude":8.682127,"reserved":0,"last_update":"0001-01-01T00:00:00Z","name_a2s":"Uncletopia | Frankfurt | 5 | All Maps","protocol":17,"map":"pl_barnblitz","folder":"tf","game":"Team Fortress","app_id":440,"player_count":18,"max_players":24,"Bots":0,"server_type":"Dedicated","server_os":"Linux","password":true,"vac":true,"version":"7932396","steam_id":85568392924504277,"keywords":["nocrits","nodmgspread","payload","uncletopia"],"game_id":440,"stv_port":27056,"stv_name":"Uncletopia | Frankfurt | 5 | All Maps | STV","players":[{"user_id":490,"name":"RIFT","steam_id":76561198991622379,"connected_time":30000000000,"state":"active","ping":57},{"user_id":331,"name":"mixxxa_french","steam_id":76561198085098243,"connected_time":10933000000000,"state":"active","ping":104},{"user_id":484,"name":"Popop","steam_id":76561198004793795,"connected_time":135000000000,"state":"active","ping":46},{"user_id":481,"name":"Astrobolt","steam_id":76561198295392075,"connected_time":485000000000,"state":"active","ping":81},{"user_id":439,"name":"LiptonIceTea","steam_id":76561198042418582,"connected_time":3826000000000,"state":"active","ping":84},{"user_id":468,"name":"John Wick","steam_id":76561198078854257,"connected_time":1258000000000,"state":"active","ping":88},{"user_id":475,"name":"Happy Cat","steam_id":76561198405359788,"connected_time":1066000000000,"state":"active","ping":93},{"user_id":426,"name":"Skuld","steam_id":76561198064734905,"connected_time":4440000000000,"state":"active","ping":94},{"user_id":462,"name":"Smilin' Wanderer","steam_id":76561198067698907,"connected_time":1682000000000,"state":"active","ping":71},{"user_id":476,"name":"DKepl","steam_id":76561198382646655,"connected_time":905000000000,"state":"active","ping":114},{"user_id":455,"name":"margaret thatcher's girl power","steam_id":76561199401283123,"connected_time":2807000000000,"state":"active","ping":66},{"user_id":435,"name":"highest noon","steam_id":76561199103959197,"connected_time":4023000000000,"state":"active","ping":90},{"user_id":437,"name":"Playing with new mouse (im bad)","steam_id":76561198139404261,"connected_time":3997000000000,"state":"active","ping":56},{"user_id":473,"name":"Tort","steam_id":76561198329646769,"connected_time":1150000000000,"state":"active","ping":70},{"user_id":465,"name":"FLASH","steam_id":76561197996649686,"connected_time":1430000000000,"state":"active","ping":65},{"user_id":480,"name":"Snaky","steam_id":76561199000954430,"connected_time":651000000000,"state":"active","ping":93},{"user_id":483,"name":"guiseppe","steam_id":76561198046129681,"connected_time":199000000000,"state":"active","ping":90},{"user_id":478,"name":"eepy man","steam_id":76561199001657140,"connected_time":835000000000,"state":"active","ping":77}]},{"server_id":311,"name":"Uncletopia | Frankfurt | 6 | All Maps","name_short":"frk-6","host":"frk-1.de.uncletopia.com","port":27065,"enabled":true,"region":"eu","cc":"de","latitude":50.110924,"longitude":8.682127,"reserved":0,"last_update":"0001-01-01T00:00:00Z","name_a2s":"Uncletopia | Frankfurt | 6 | All Maps","protocol":17,"map":"cp_fastlane","folder":"tf","game":"Team Fortress","app_id":440,"player_count":24,"max_players":24,"Bots":0,"server_type":"Dedicated","server_os":"Linux","password":true,"vac":true,"version":"7932396","steam_id":85568392924504278,"keywords":["cp","nocrits","nodmgspread","uncletopia"],"game_id":440,"stv_port":27066,"stv_name":"Uncletopia | Frankfurt | 6 | All Maps | STV","players":[{"user_id":117,"name":"Pvt. Prinny","steam_id":76561198030278562,"connected_time":2120000000000,"state":"active","ping":57},{"user_id":151,"name":"PanPatrik","steam_id":76561198293331527,"connected_time":203000000000,"state":"active","ping":48},{"user_id":147,"name":"night.s","steam_id":76561198326287823,"connected_time":594000000000,"state":"active","ping":73},{"user_id":134,"name":"Pot8oes","steam_id":76561198318109377,"connected_time":1359000000000,"state":"active","ping":81},{"user_id":135,"name":"chess club manager","steam_id":76561198011047413,"connected_time":1284000000000,"state":"active","ping":69},{"user_id":152,"name":"Poggito","steam_id":76561198838001276,"connected_time":184000000000,"state":"active","ping":51},{"user_id":137,"name":"Sensei","steam_id":76561198383582429,"connected_time":1092000000000,"state":"active","ping":86},{"user_id":148,"name":"Comely Crocosmia ლ( ◡ (ლ","steam_id":76561197973515380,"connected_time":589000000000,"state":"active","ping":58},{"user_id":144,"name":"submackeen","steam_id":76561198799855913,"connected_time":799000000000,"state":"active","ping":172},{"user_id":141,"name":"Not A Fake Uncletopia Server","steam_id":76561198152871288,"connected_time":1033000000000,"state":"active","ping":61},{"user_id":118,"name":"Renolox","steam_id":76561198036590182,"connected_time":2000000000000,"state":"active","ping":71},{"user_id":125,"name":"wyro","steam_id":76561199176835169,"connected_time":1665000000000,"state":"active","ping":65},{"user_id":127,"name":"DOMAIN","steam_id":76561199095640319,"connected_time":1636000000000,"state":"active","ping":75},{"user_id":126,"name":"Kamanie","steam_id":76561198135448255,"connected_time":1649000000000,"state":"active","ping":48},{"user_id":142,"name":"ksg","steam_id":76561198042894236,"connected_time":1021000000000,"state":"active","ping":74},{"user_id":106,"name":"DaiDaiMu :3","steam_id":76561198052794823,"connected_time":2782000000000,"state":"active","ping":48},{"user_id":143,"name":"znunney","steam_id":76561199438501613,"connected_time":1016000000000,"state":"active","ping":76},{"user_id":138,"name":"Lempii","steam_id":76561198433507634,"connected_time":1072000000000,"state":"active","ping":87},{"user_id":92,"name":"twscsvl","steam_id":76561198045304929,"connected_time":3609000000000,"state":"active","ping":90},{"user_id":121,"name":"nyanezt","steam_id":76561198253734265,"connected_time":1844000000000,"state":"active","ping":100},{"user_id":153,"name":"monark KING OF THE NORTH","steam_id":76561198848440070,"connected_time":155000000000,"state":"active","ping":68},{"user_id":140,"name":"Scr0b ʕᵔᴥᵔʔ","steam_id":76561198100855323,"connected_time":1043000000000,"state":"active","ping":71},{"user_id":136,"name":"InfinitEgg","steam_id":76561198846656721,"connected_time":1181000000000,"state":"active","ping":98},{"user_id":132,"name":"Chromega","steam_id":76561199075307750,"connected_time":1517000000000,"state":"active","ping":66}]},{"server_id":23,"name":"Uncletopia | Frankfurt | 7 | Stopwatch Beta","name_short":"frk-7","host":"frk-1.de.uncletopia.com","port":27075,"enabled":true,"region":"eu","cc":"de","latitude":50.110924,"longitude":8.682127,"reserved":0,"last_update":"0001-01-01T00:00:00Z","name_a2s":"Uncletopia | Frankfurt | 7 | Stopwatch Beta","protocol":17,"map":"pl_snowycoast","folder":"tf","game":"Team Fortress","app_id":440,"player_count":0,"max_players":24,"Bots":0,"server_type":"Dedicated","server_os":"Linux","password":true,"vac":true,"version":"7932396","steam_id":85568392924742827,"keywords":["nocrits","nodmgspread","payload","uncletopia"],"game_id":440,"stv_port":27076,"stv_name":"Uncletopia | Frankfurt | 7 | Stopwatch Beta | STV","players":null},{"server_id":24,"name":"Uncletopia | Frankfurt | 8 | Community","name_short":"frk-8","host":"frk-1.de.uncletopia.com","port":27085,"enabled":true,"region":"eu","cc":"de","latitude":50.110924,"longitude":8.682127,"reserved":0,"last_update":"0001-01-01T00:00:00Z","name_a2s":"Uncletopia | Frankfurt | 8 | Community","protocol":17,"map":"workshop/koth_ashville_final.ugc2130459942","folder":"tf","game":"Team Fortress","app_id":440,"player_count":21,"max_players":24,"Bots":0,"server_type":"Dedicated","server_os":"Linux","password":true,"vac":true,"version":"7932396","steam_id":85568392924742828,"keywords":["cp","nocrits","nodmgspread","uncletopia"],"game_id":440,"stv_port":27086,"stv_name":"Uncletopia | Frankfurt | 8 | Community | STV","players":[{"user_id":255,"name":"Michael","steam_id":76561198003146906,"connected_time":349000000000,"state":"active","ping":60},{"user_id":250,"name":"FefeMotor126","steam_id":76561198156644284,"connected_time":477000000000,"state":"active","ping":66},{"user_id":245,"name":"rice","steam_id":76561198119326733,"connected_time":612000000000,"state":"active","ping":160},{"user_id":133,"name":"Misfortune of Life","steam_id":76561198188762693,"connected_time":7890000000000,"state":"active","ping":74},{"user_id":256,"name":"WALTER WHITE","steam_id":76561199147666336,"connected_time":333000000000,"state":"active","ping":61},{"user_id":246,"name":"Crabby Patty","steam_id":76561198071150936,"connected_time":588000000000,"state":"active","ping":145},{"user_id":248,"name":"BarbÀtrou","steam_id":76561199439141531,"connected_time":523000000000,"state":"active","ping":55},{"user_id":229,"name":"KUMI","steam_id":76561198089207719,"connected_time":1918000000000,"state":"active","ping":82},{"user_id":211,"name":"vadim_kotler","steam_id":76561199016634369,"connected_time":3128000000000,"state":"active","ping":111},{"user_id":249,"name":"Evil Activities","steam_id":76561198093170043,"connected_time":481000000000,"state":"active","ping":61},{"user_id":251,"name":"Neuron","steam_id":76561198440820280,"connected_time":462000000000,"state":"active","ping":70},{"user_id":254,"name":"zek","steam_id":76561198862763731,"connected_time":358000000000,"state":"active","ping":54},{"user_id":258,"name":"Purple toaster yt","steam_id":76561199071229316,"connected_time":268000000000,"state":"active","ping":70},{"user_id":237,"name":"akakez","steam_id":76561198095432821,"connected_time":1076000000000,"state":"active","ping":121},{"user_id":231,"name":"snoop","steam_id":76561198015669667,"connected_time":1814000000000,"state":"active","ping":84},{"user_id":259,"name":"that turkish mf#savetf2","steam_id":76561199352819594,"connected_time":250000000000,"state":"active","ping":92},{"user_id":261,"name":"Artificial.Ignorance","steam_id":76561198453090180,"connected_time":82000000000,"state":"active","ping":160},{"user_id":263,"name":"hinkln","steam_id":76561199475596186,"connected_time":9000000000,"state":"active","ping":224},{"user_id":236,"name":"niki_1004_","steam_id":76561199145584450,"connected_time":1266000000000,"state":"active","ping":83},{"user_id":174,"name":"turbines","steam_id":76561198111134021,"connected_time":5908000000000,"state":"active","ping":80},{"user_id":92,"name":"ldshwt","steam_id":76561198090364357,"connected_time":9745000000000,"state":"active","ping":59}]},{"server_id":202,"name":"Uncletopia | Hong Kong | 1 | All Maps","name_short":"hgk-1","host":"hgk-1.hk.uncletopia.com","port":27015,"enabled":true,"region":"asia","cc":"hk","latitude":22.302711,"longitude":114.177216,"reserved":0,"last_update":"0001-01-01T00:00:00Z","name_a2s":"Uncletopia | Hong Kong | 1 | All Maps","protocol":17,"map":"koth_viaduct","folder":"tf","game":"Team Fortress","app_id":440,"player_count":0,"max_players":24,"Bots":0,"server_type":"Dedicated","server_os":"Linux","password":true,"vac":true,"version":"7932396","steam_id":85568392924494504,"keywords":["cp","nocrits","nodmgspread","uncletopia"],"game_id":440,"stv_port":27016,"stv_name":"Uncletopia | Hong Kong | 1 | All Maps | STV","players":null},{"server_id":1,"name":"Uncletopia | Los Angeles | 1 | All Maps","name_short":"lax-1","host":"lax-1.us.uncletopia.com","port":27015,"enabled":true,"region":"us-west","cc":"us","latitude":33.94279,"longitude":-118.41004,"reserved":0,"last_update":"0001-01-01T00:00:00Z","name_a2s":"Uncletopia | Los Angeles | 1 | All Maps","protocol":17,"map":"pl_snowycoast","folder":"tf","game":"Team Fortress","app_id":440,"player_count":25,"max_players":24,"Bots":0,"server_type":"Dedicated","server_os":"Linux","password":true,"vac":true,"version":"7932396","steam_id":85568392924469991,"keywords":["nocrits","nodmgspread","payload","uncletopia"],"game_id":440,"stv_port":27016,"stv_name":"Uncletopia | Los Angeles | 1 | All Maps | STV","players":[{"user_id":204,"name":"d4ngerd4n","steam_id":76561198043758735,"connected_time":1339000000000,"state":"active","ping":59},{"user_id":208,"name":"basket","steam_id":76561199486768009,"connected_time":572000000000,"state":"active","ping":56},{"user_id":199,"name":"BarrowBaron","steam_id":76561198013633236,"connected_time":1809000000000,"state":"active","ping":105},{"user_id":217,"name":"Mormon Discoball","steam_id":76561198028006216,"connected_time":99000000000,"state":"active","ping":101},{"user_id":201,"name":"CerealKiller","steam_id":76561198995741281,"connected_time":1693000000000,"state":"active","ping":118},{"user_id":207,"name":"luis","steam_id":76561198081341347,"connected_time":758000000000,"state":"active","ping":63},{"user_id":183,"name":"Sprit ♥","steam_id":76561198268780781,"connected_time":3030000000000,"state":"active","ping":90},{"user_id":211,"name":"Olibeea","steam_id":76561198079445380,"connected_time":472000000000,"state":"active","ping":71},{"user_id":209,"name":"thai tea","steam_id":76561198308290211,"connected_time":547000000000,"state":"active","ping":63},{"user_id":212,"name":"CashGordon","steam_id":76561197975594096,"connected_time":450000000000,"state":"active","ping":71},{"user_id":190,"name":"Goldensliv","steam_id":76561198161673891,"connected_time":2923000000000,"state":"active","ping":32},{"user_id":174,"name":"TORN RETINAS","steam_id":76561198033822457,"connected_time":3317000000000,"state":"active","ping":68},{"user_id":193,"name":"CrazyKermitRubes","steam_id":76561198009065204,"connected_time":2284000000000,"state":"active","ping":122},{"user_id":203,"name":"canakblasteran","steam_id":76561199472518822,"connected_time":1458000000000,"state":"active","ping":66},{"user_id":219,"name":"Saddam","steam_id":76561197985725267,"connected_time":13000000000,"state":"spawning","ping":73},{"user_id":202,"name":"Keamy","steam_id":76561199471434875,"connected_time":1487000000000,"state":"active","ping":69},{"user_id":73,"name":"Nolan","steam_id":76561198169648081,"connected_time":9939000000000,"state":"active","ping":100},{"user_id":198,"name":"Dimple #TF2Center","steam_id":76561198980324190,"connected_time":1861000000000,"state":"active","ping":81},{"user_id":215,"name":"flwrgrl","steam_id":76561198815644949,"connected_time":308000000000,"state":"active","ping":89},{"user_id":218,"name":"no vc no c","steam_id":76561197989503095,"connected_time":86000000000,"state":"active","ping":166},{"user_id":188,"name":"potsssssss","steam_id":76561198873359041,"connected_time":2972000000000,"state":"active","ping":106},{"user_id":197,"name":"Xeno","steam_id":76561198089138085,"connected_time":1924000000000,"state":"active","ping":51},{"user_id":205,"name":"Bobert The Great","steam_id":76561198021285638,"connected_time":1293000000000,"state":"active","ping":56},{"user_id":213,"name":"Funbearable ʕ •ᴥ•ʔ","steam_id":76561197968272094,"connected_time":359000000000,"state":"active","ping":67},{"user_id":220,"name":"Spud","steam_id":76561198878000618,"connected_time":13000000000,"state":"spawning","ping":45}]},{"server_id":112,"name":"Uncletopia | Los Angeles | 2 | All Maps","name_short":"lax-2","host":"lax-1.us.uncletopia.com","port":27025,"enabled":true,"region":"us-west","cc":"us","latitude":33.94279,"longitude":-118.41004,"reserved":0,"last_update":"0001-01-01T00:00:00Z","name_a2s":"Uncletopia | Los Angeles | 2 | All Maps","protocol":17,"map":"pl_borneo","folder":"tf","game":"Team Fortress","app_id":440,"player_count":0,"max_players":24,"Bots":0,"server_type":"Dedicated","server_os":"Linux","password":true,"vac":true,"version":"7932396","steam_id":85568392924469992,"keywords":["nocrits","nodmgspread","payload","uncletopia"],"game_id":440,"stv_port":27026,"stv_name":"Uncletopia | Los Angeles | 2 | All Maps | STV","players":null},{"server_id":324,"name":"Uncletopia | Los Angeles | 3 | All Maps","name_short":"lax-3","host":"lax-1.us.uncletopia.com","port":27035,"enabled":true,"region":"us-west","cc":"us","latitude":33.94279,"longitude":-118.41004,"reserved":0,"last_update":"0001-01-01T00:00:00Z","name_a2s":"Uncletopia | Los Angeles | 3 | All Maps","protocol":17,"map":"pl_borneo","folder":"tf","game":"Team Fortress","app_id":440,"player_count":1,"max_players":24,"Bots":0,"server_type":"Dedicated","server_os":"Linux","password":true,"vac":true,"version":"7932396","steam_id":85568392924510198,"keywords":["nocrits","nodmgspread","payload","uncletopia"],"game_id":440,"stv_port":27036,"stv_name":"Uncletopia | Los Angeles | 3 | All Maps | STV","players":[{"user_id":5,"name":"ilikecheese","steam_id":76561199488966166,"connected_time":18000000000,"state":"active","ping":44}]},{"server_id":25,"name":"Uncletopia | Los Angeles | 4 | Stopwatch Beta","name_short":"lax-4","host":"lax-1.us.uncletopia.com","port":27045,"enabled":true,"region":"us-west","cc":"us","latitude":33.94279,"longitude":-118.41004,"reserved":0,"last_update":"0001-01-01T00:00:00Z","name_a2s":"Uncletopia | Los Angeles | 4 | Stopwatch Beta","protocol":17,"map":"cp_altitude","folder":"tf","game":"Team Fortress","app_id":440,"player_count":0,"max_players":24,"Bots":0,"server_type":"Dedicated","server_os":"Linux","password":true,"vac":true,"version":"7932396","steam_id":85568392924510199,"keywords":["cp","nocrits","nodmgspread","uncletopia"],"game_id":440,"stv_port":27046,"stv_name":"Uncletopia | Los Angeles | 4 | Stopwatch Beta | STV","players":null},{"server_id":11,"name":"Uncletopia | London | 1 | All Maps","name_short":"lon-1","host":"lon-1.uk.uncletopia.com","port":27015,"enabled":true,"region":"eu","cc":"gb","latitude":51.509865,"longitude":-0.118092,"reserved":0,"last_update":"0001-01-01T00:00:00Z","name_a2s":"Uncletopia | London | 1 | All Maps","protocol":17,"map":"pl_barnblitz","folder":"tf","game":"Team Fortress","app_id":440,"player_count":24,"max_players":24,"Bots":0,"server_type":"Dedicated","server_os":"Linux","password":true,"vac":true,"version":"7932396","steam_id":85568392924367362,"keywords":["nocrits","nodmgspread","payload","uncletopia"],"game_id":440,"stv_port":27016,"stv_name":"Uncletopia | London | 1 | All Maps | STV","players":[{"user_id":431,"name":"mohemmedmokhter2005","steam_id":76561199197650506,"connected_time":560000000000,"state":"active","ping":147},{"user_id":439,"name":"hennerz","steam_id":76561199062586342,"connected_time":142000000000,"state":"active","ping":65},{"user_id":422,"name":"I jazzed myself","steam_id":76561198203016603,"connected_time":1130000000000,"state":"active","ping":57},{"user_id":381,"name":"did you know that gg stands for","steam_id":76561198180361759,"connected_time":3917000000000,"state":"active","ping":43},{"user_id":376,"name":"MoonDroid","steam_id":76561198023027016,"connected_time":4057000000000,"state":"active","ping":44},{"user_id":427,"name":"sponge","steam_id":76561198388679411,"connected_time":582000000000,"state":"active","ping":67},{"user_id":406,"name":"Hexagon","steam_id":76561198151205758,"connected_time":2176000000000,"state":"active","ping":55},{"user_id":419,"name":"MrNox ._.","steam_id":76561199085473500,"connected_time":1265000000000,"state":"active","ping":113},{"user_id":437,"name":"hisham","steam_id":76561198414437290,"connected_time":309000000000,"state":"active","ping":127},{"user_id":403,"name":"spxcy","steam_id":76561198080296853,"connected_time":2375000000000,"state":"active","ping":78},{"user_id":411,"name":"Raulca25","steam_id":76561199068256964,"connected_time":1876000000000,"state":"active","ping":75},{"user_id":384,"name":"hipster_doofus","steam_id":76561197970902697,"connected_time":3704000000000,"state":"active","ping":60},{"user_id":410,"name":"no.","steam_id":76561198988350454,"connected_time":1920000000000,"state":"active","ping":61},{"user_id":421,"name":"Coca162","steam_id":76561198230656540,"connected_time":1135000000000,"state":"active","ping":40},{"user_id":428,"name":"Moon","steam_id":76561198047535132,"connected_time":581000000000,"state":"active","ping":73},{"user_id":429,"name":"TAFI03","steam_id":76561198213082089,"connected_time":572000000000,"state":"active","ping":64},{"user_id":420,"name":"Ṛikạ","steam_id":76561199085478311,"connected_time":1159000000000,"state":"active","ping":81},{"user_id":425,"name":"Kumquat","steam_id":76561198200490386,"connected_time":605000000000,"state":"active","ping":67},{"user_id":434,"name":"Conagher","steam_id":76561198217607996,"connected_time":541000000000,"state":"active","ping":103},{"user_id":436,"name":"xd","steam_id":76561198218613716,"connected_time":523000000000,"state":"active","ping":92},{"user_id":438,"name":"JamesPepega","steam_id":76561198019156154,"connected_time":278000000000,"state":"active","ping":76},{"user_id":435,"name":"Twin11211","steam_id":76561198452231225,"connected_time":534000000000,"state":"active","ping":118},{"user_id":423,"name":"Wolframen","steam_id":76561198074103958,"connected_time":990000000000,"state":"active","ping":67},{"user_id":426,"name":"nappo","steam_id":76561198060105180,"connected_time":603000000000,"state":"active","ping":62}]},{"server_id":114,"name":"Uncletopia | London | 2 | All Maps","name_short":"lon-2","host":"lon-1.uk.uncletopia.com","port":27025,"enabled":true,"region":"eu","cc":"gb","latitude":51.509865,"longitude":-0.118092,"reserved":0,"last_update":"0001-01-01T00:00:00Z","name_a2s":"Uncletopia | London | 2 | All Maps","protocol":17,"map":"cp_mountainlab","folder":"tf","game":"Team Fortress","app_id":440,"player_count":24,"max_players":24,"Bots":0,"server_type":"Dedicated","server_os":"Linux","password":true,"vac":true,"version":"7932396","steam_id":85568392924470941,"keywords":["cp","nocrits","nodmgspread","uncletopia"],"game_id":440,"stv_port":27026,"stv_name":"Uncletopia | London | 2 | All Maps | STV","players":[{"user_id":426,"name":"Sebiromanes (Spookmáster)","steam_id":76561198112800408,"connected_time":60000000000,"state":"active","ping":120},{"user_id":407,"name":"Nils","steam_id":76561198254882979,"connected_time":760000000000,"state":"active","ping":60},{"user_id":391,"name":"seigfried","steam_id":76561198047260133,"connected_time":2102000000000,"state":"active","ping":79},{"user_id":414,"name":"LAGERBEER69","steam_id":76561198078624375,"connected_time":643000000000,"state":"active","ping":58},{"user_id":379,"name":"W","steam_id":76561198273623211,"connected_time":2451000000000,"state":"active","ping":87},{"user_id":408,"name":"Friendly Neighbourhood Femboy","steam_id":76561198058531305,"connected_time":753000000000,"state":"active","ping":55},{"user_id":392,"name":"DoctorTopLeL","steam_id":76561198088533595,"connected_time":2098000000000,"state":"active","ping":107},{"user_id":409,"name":"A Table","steam_id":76561198130963095,"connected_time":733000000000,"state":"active","ping":61},{"user_id":424,"name":"Vitamin Weee","steam_id":76561199183937747,"connected_time":437000000000,"state":"active","ping":85},{"user_id":425,"name":"Freedoomrocks","steam_id":76561198392511189,"connected_time":123000000000,"state":"active","ping":80},{"user_id":398,"name":"Burgoo_King","steam_id":76561198133572225,"connected_time":1485000000000,"state":"active","ping":75},{"user_id":419,"name":"john fortress","steam_id":76561198013237629,"connected_time":600000000000,"state":"active","ping":96},{"user_id":412,"name":"Grenade The green goblin.","steam_id":76561197979603871,"connected_time":691000000000,"state":"active","ping":66},{"user_id":404,"name":"Le Barbu","steam_id":76561198982141827,"connected_time":1084000000000,"state":"active","ping":135},{"user_id":369,"name":"SlowMode","steam_id":76561198039631442,"connected_time":2686000000000,"state":"active","ping":87},{"user_id":402,"name":"NikIdamous","steam_id":76561198147872963,"connected_time":1290000000000,"state":"active","ping":109},{"user_id":423,"name":"Mimpy","steam_id":76561198040422830,"connected_time":476000000000,"state":"active","ping":45},{"user_id":400,"name":"ev1lboyo","steam_id":76561199199499453,"connected_time":1471000000000,"state":"active","ping":80},{"user_id":416,"name":"dna$ty","steam_id":76561199060575719,"connected_time":610000000000,"state":"active","ping":166},{"user_id":382,"name":"LivEssense","steam_id":76561198052476979,"connected_time":2424000000000,"state":"active","ping":89},{"user_id":364,"name":"Ash","steam_id":76561198148738525,"connected_time":3601000000000,"state":"active","ping":112},{"user_id":365,"name":"Circular","steam_id":76561198001536710,"connected_time":3581000000000,"state":"active","ping":53},{"user_id":370,"name":"no","steam_id":76561199232582956,"connected_time":2683000000000,"state":"active","ping":104},{"user_id":417,"name":"cuddles \u003c3","steam_id":76561198805181599,"connected_time":609000000000,"state":"active","ping":54}]},{"server_id":320,"name":"Uncletopia | London | 3 | All Maps","name_short":"lon-3","host":"lon-1.uk.uncletopia.com","port":27035,"enabled":true,"region":"eu","cc":"gb","latitude":51.509865,"longitude":-0.118092,"reserved":0,"last_update":"0001-01-01T00:00:00Z","name_a2s":"Uncletopia | London | 3 | All Maps","protocol":17,"map":"koth_nucleus","folder":"tf","game":"Team Fortress","app_id":440,"player_count":23,"max_players":24,"Bots":0,"server_type":"Dedicated","server_os":"Linux","password":true,"vac":true,"version":"7932396","steam_id":85568392924510192,"keywords":["cp","nocrits","nodmgspread","uncletopia"],"game_id":440,"stv_port":27036,"stv_name":"Uncletopia | London | 3 | All Maps | STV","players":[{"user_id":302,"name":"Saken","steam_id":76561198049075295,"connected_time":2093000000000,"state":"active","ping":59},{"user_id":343,"name":"Kokos","steam_id":76561198085501501,"connected_time":114000000000,"state":"active","ping":88},{"user_id":316,"name":"cropping","steam_id":76561198026586456,"connected_time":1640000000000,"state":"active","ping":65},{"user_id":334,"name":"Boalition","steam_id":76561198044315302,"connected_time":470000000000,"state":"active","ping":109},{"user_id":296,"name":"Five Finger Discount","steam_id":76561197994556857,"connected_time":2920000000000,"state":"active","ping":68},{"user_id":318,"name":"Seratonin deficient gamer","steam_id":76561198051685232,"connected_time":1548000000000,"state":"active","ping":45},{"user_id":293,"name":"LazyBane","steam_id":76561198032359132,"connected_time":3051000000000,"state":"active","ping":44},{"user_id":331,"name":"Microwave_Man","steam_id":76561198981460724,"connected_time":557000000000,"state":"active","ping":50},{"user_id":332,"name":"[HΞ$H]","steam_id":76561198083652376,"connected_time":546000000000,"state":"active","ping":87},{"user_id":335,"name":"Carrot Arc","steam_id":76561198164957006,"connected_time":431000000000,"state":"active","ping":84},{"user_id":339,"name":"Valkyrie","steam_id":76561198998403448,"connected_time":343000000000,"state":"active","ping":90},{"user_id":288,"name":"G/3","steam_id":76561198234844188,"connected_time":3176000000000,"state":"active","ping":52},{"user_id":292,"name":"NO end to POOTIS","steam_id":76561198144879361,"connected_time":3134000000000,"state":"active","ping":120},{"user_id":338,"name":"Pantroglodytestherapy","steam_id":76561198236015392,"connected_time":415000000000,"state":"active","ping":120},{"user_id":328,"name":"Gubbly Bubbins","steam_id":76561198101451654,"connected_time":748000000000,"state":"active","ping":49},{"user_id":342,"name":"ᓚᘏᗢ pépino","steam_id":76561198111807532,"connected_time":250000000000,"state":"active","ping":60},{"user_id":330,"name":"why rum gone","steam_id":76561198158484784,"connected_time":689000000000,"state":"active","ping":75},{"user_id":315,"name":"lark","steam_id":76561198091724522,"connected_time":1676000000000,"state":"active","ping":52},{"user_id":340,"name":"Chicken hunter","steam_id":76561198359966356,"connected_time":321000000000,"state":"active","ping":111},{"user_id":327,"name":"Mike","steam_id":76561198228455736,"connected_time":773000000000,"state":"active","ping":51},{"user_id":297,"name":"okutanse","steam_id":76561198360957536,"connected_time":2454000000000,"state":"active","ping":110},{"user_id":341,"name":"BoltBase","steam_id":76561198057052195,"connected_time":313000000000,"state":"active","ping":75},{"user_id":320,"name":"Intruder","steam_id":76561198156128173,"connected_time":1514000000000,"state":"active","ping":73}]},{"server_id":321,"name":"Uncletopia | London | 4 | All Maps","name_short":"lon-4","host":"lon-1.uk.uncletopia.com","port":27045,"enabled":true,"region":"eu","cc":"gb","latitude":51.509865,"longitude":-0.118092,"reserved":0,"last_update":"0001-01-01T00:00:00Z","name_a2s":"Uncletopia | London | 4 | All Maps","protocol":17,"map":"pl_upward","folder":"tf","game":"Team Fortress","app_id":440,"player_count":24,"max_players":24,"Bots":0,"server_type":"Dedicated","server_os":"Linux","password":true,"vac":true,"version":"7932396","steam_id":85568392924510193,"keywords":["nocrits","nodmgspread","payload","uncletopia"],"game_id":440,"stv_port":27046,"stv_name":"Uncletopia | London | 4 | All Maps | STV","players":[{"user_id":338,"name":"garry","steam_id":76561198019078145,"connected_time":727000000000,"state":"active","ping":90},{"user_id":275,"name":"RealManiHACK","steam_id":76561198408081068,"connected_time":4242000000000,"state":"active","ping":63},{"user_id":323,"name":"pokemonsuper9","steam_id":76561198120530545,"connected_time":1517000000000,"state":"active","ping":68},{"user_id":324,"name":"AnalBypass1989","steam_id":76561198052356557,"connected_time":1515000000000,"state":"active","ping":70},{"user_id":316,"name":"Basinox","steam_id":76561198019628384,"connected_time":1883000000000,"state":"active","ping":63},{"user_id":336,"name":"Cabbch","steam_id":76561198045955679,"connected_time":879000000000,"state":"active","ping":55},{"user_id":344,"name":"Vladimir Lenin","steam_id":76561199438120787,"connected_time":454000000000,"state":"active","ping":55},{"user_id":326,"name":"Ixsus\u003c3","steam_id":76561198094756869,"connected_time":1496000000000,"state":"active","ping":62},{"user_id":346,"name":"DIErector of death","steam_id":76561199217741639,"connected_time":374000000000,"state":"active","ping":114},{"user_id":350,"name":"CallOfDuty_Cool345","steam_id":76561198305805743,"connected_time":166000000000,"state":"active","ping":59},{"user_id":345,"name":"Some Guy","steam_id":76561198137335527,"connected_time":409000000000,"state":"active","ping":53},{"user_id":276,"name":"quickfast","steam_id":76561199438900919,"connected_time":4231000000000,"state":"active","ping":40},{"user_id":289,"name":"BatemanPatrick","steam_id":76561198393691611,"connected_time":3669000000000,"state":"active","ping":56},{"user_id":347,"name":"Kabachok Aeronavt","steam_id":76561198123659806,"connected_time":362000000000,"state":"active","ping":99},{"user_id":328,"name":"SVNSS","steam_id":76561198802056171,"connected_time":1427000000000,"state":"active","ping":67},{"user_id":332,"name":"powej","steam_id":76561198056381418,"connected_time":1314000000000,"state":"active","ping":44},{"user_id":334,"name":"Yuval","steam_id":76561198241802390,"connected_time":1242000000000,"state":"active","ping":117},{"user_id":349,"name":"Hyp3r #Savetf2","steam_id":76561198965043686,"connected_time":342000000000,"state":"active","ping":107},{"user_id":335,"name":"Salesman Doren","steam_id":76561198076098142,"connected_time":1006000000000,"state":"active","ping":41},{"user_id":343,"name":"WrytXander","steam_id":76561198067856323,"connected_time":481000000000,"state":"active","ping":104},{"user_id":333,"name":"Fenty","steam_id":76561198044991858,"connected_time":1296000000000,"state":"active","ping":76},{"user_id":351,"name":"Pwnzer","steam_id":76561198057735725,"connected_time":120000000000,"state":"active","ping":130},{"user_id":331,"name":"Bonkie","steam_id":76561198205701441,"connected_time":1393000000000,"state":"active","ping":53},{"user_id":315,"name":"Pls.do.it!","steam_id":76561198211638119,"connected_time":1959000000000,"state":"active","ping":71}]},{"server_id":21,"name":"Uncletopia | London | 5 | All Maps","name_short":"lon-5","host":"lon-1.uk.uncletopia.com","port":27055,"enabled":true,"region":"eu","cc":"gb","latitude":51.509865,"longitude":-0.118092,"reserved":0,"last_update":"0001-01-01T00:00:00Z","name_a2s":"Uncletopia | London | 5 | All Maps","protocol":17,"map":"koth_lakeside_final","folder":"tf","game":"Team Fortress","app_id":440,"player_count":20,"max_players":24,"Bots":0,"server_type":"Dedicated","server_os":"Linux","password":true,"vac":true,"version":"7932396","steam_id":85568392924742829,"keywords":["cp","nocrits","nodmgspread","uncletopia"],"game_id":440,"stv_port":27056,"stv_name":"Uncletopia | London | 5 | All Maps | STV","players":[{"user_id":570,"name":"Jughead","steam_id":76561198000355410,"connected_time":2517000000000,"state":"active","ping":45},{"user_id":584,"name":"I have a kiss pink","steam_id":76561198193357946,"connected_time":1775000000000,"state":"active","ping":102},{"user_id":602,"name":"C.H.E.R.E.P.","steam_id":76561198026938595,"connected_time":476000000000,"state":"active","ping":75},{"user_id":606,"name":"brtaba","steam_id":76561198796334790,"connected_time":360000000000,"state":"active","ping":85},{"user_id":607,"name":"yuno appreciator","steam_id":76561198083286511,"connected_time":296000000000,"state":"active","ping":107},{"user_id":539,"name":"Marukuso","steam_id":76561198154229845,"connected_time":4290000000000,"state":"active","ping":60},{"user_id":609,"name":"Dusk","steam_id":76561198057574581,"connected_time":286000000000,"state":"active","ping":47},{"user_id":608,"name":"Mero","steam_id":76561198063354550,"connected_time":286000000000,"state":"active","ping":56},{"user_id":610,"name":"bean","steam_id":76561198161013815,"connected_time":266000000000,"state":"active","ping":51},{"user_id":527,"name":"Trapezoid","steam_id":76561198059369295,"connected_time":4660000000000,"state":"active","ping":63},{"user_id":546,"name":"El_Kommadante","steam_id":76561198079551685,"connected_time":3485000000000,"state":"active","ping":58},{"user_id":614,"name":"Xmaster_dogeX","steam_id":76561199046296149,"connected_time":72000000000,"state":"active","ping":212},{"user_id":616,"name":"Loadsofbuttons","steam_id":76561198356158713,"connected_time":52000000000,"state":"spawning","ping":106},{"user_id":612,"name":"Salad's Warband","steam_id":76561198214089583,"connected_time":222000000000,"state":"active","ping":70},{"user_id":578,"name":"saukko","steam_id":76561198111506109,"connected_time":2123000000000,"state":"active","ping":83},{"user_id":597,"name":"Naeso","steam_id":76561198068602498,"connected_time":986000000000,"state":"active","ping":45},{"user_id":554,"name":"QR code 78","steam_id":76561198073749509,"connected_time":3065000000000,"state":"active","ping":74},{"user_id":617,"name":"OrangeSpice","steam_id":76561198074389061,"connected_time":23000000000,"state":"active","ping":98},{"user_id":588,"name":"Olive","steam_id":76561198113134941,"connected_time":1641000000000,"state":"active","ping":70},{"user_id":535,"name":"Sham!","steam_id":76561198050434275,"connected_time":4418000000000,"state":"active","ping":60}]},{"server_id":22,"name":"Uncletopia | London | 6 | All Maps","name_short":"lon-6","host":"lon-1.uk.uncletopia.com","port":27065,"enabled":true,"region":"eu","cc":"gb","latitude":51.509865,"longitude":-0.118092,"reserved":0,"last_update":"0001-01-01T00:00:00Z","name_a2s":"Uncletopia | London | 6 | All Maps","protocol":17,"map":"cp_dustbowl","folder":"tf","game":"Team Fortress","app_id":440,"player_count":24,"max_players":24,"Bots":0,"server_type":"Dedicated","server_os":"Linux","password":true,"vac":true,"version":"7932396","steam_id":85568392924742830,"keywords":["cp","nocrits","nodmgspread","uncletopia"],"game_id":440,"stv_port":27066,"stv_name":"Uncletopia | London | 6 | All Maps | STV","players":[{"user_id":267,"name":"thia","steam_id":76561198186366599,"connected_time":158000000000,"state":"active","ping":90},{"user_id":206,"name":"Doughy","steam_id":76561198044084210,"connected_time":5077000000000,"state":"active","ping":82},{"user_id":263,"name":"DrExplosive","steam_id":76561198063678579,"connected_time":290000000000,"state":"active","ping":39},{"user_id":245,"name":"bl0ke","steam_id":76561198012526576,"connected_time":2027000000000,"state":"active","ping":50},{"user_id":105,"name":"APenjuin","steam_id":76561198169007976,"connected_time":10019000000000,"state":"active","ping":71},{"user_id":241,"name":"Eggcracker","steam_id":76561199274850641,"connected_time":2270000000000,"state":"active","ping":90},{"user_id":261,"name":"ROB","steam_id":76561198982164150,"connected_time":512000000000,"state":"active","ping":87},{"user_id":244,"name":"ViolentTomate3","steam_id":76561198049312442,"connected_time":2051000000000,"state":"active","ping":56},{"user_id":265,"name":"xpitipitx","steam_id":76561198343333412,"connected_time":211000000000,"state":"active","ping":95},{"user_id":256,"name":"please do not the cat","steam_id":76561198089003514,"connected_time":1566000000000,"state":"active","ping":57},{"user_id":262,"name":"Burpman","steam_id":76561198022897937,"connected_time":397000000000,"state":"active","ping":45},{"user_id":185,"name":"Even Rüüd","steam_id":76561197981144291,"connected_time":6137000000000,"state":"active","ping":69},{"user_id":248,"name":"hot guy","steam_id":76561198083063005,"connected_time":1948000000000,"state":"active","ping":35},{"user_id":259,"name":"Kylute","steam_id":76561198447504417,"connected_time":1361000000000,"state":"active","ping":41},{"user_id":266,"name":"Nyst","steam_id":76561198400998400,"connected_time":205000000000,"state":"active","ping":80},{"user_id":264,"name":"The Mask...","steam_id":76561198052402891,"connected_time":266000000000,"state":"active","ping":54},{"user_id":260,"name":"the indomitable human spirit","steam_id":76561198718760200,"connected_time":1128000000000,"state":"active","ping":54},{"user_id":268,"name":"hud_saytext_time 0","steam_id":76561198010327228,"connected_time":152000000000,"state":"active","ping":74},{"user_id":222,"name":"maslowski02","steam_id":76561199410835527,"connected_time":3603000000000,"state":"active","ping":75},{"user_id":252,"name":"cuzimlatin2704","steam_id":76561199094752899,"connected_time":1750000000000,"state":"active","ping":136},{"user_id":269,"name":"Cotton Eye Joe","steam_id":76561198080594207,"connected_time":151000000000,"state":"active","ping":55},{"user_id":258,"name":"Idiot.","steam_id":76561198991571626,"connected_time":1490000000000,"state":"active","ping":54},{"user_id":254,"name":"Sacco","steam_id":76561199048451187,"connected_time":1708000000000,"state":"active","ping":73},{"user_id":238,"name":"blurst of times","steam_id":76561197972325640,"connected_time":2893000000000,"state":"active","ping":49}]},{"server_id":40,"name":"Uncletopia | London | 7 | No Payload","name_short":"lon-7","host":"lon-1.uk.uncletopia.com","port":27075,"enabled":true,"region":"eu","cc":"gb","latitude":51.509865,"longitude":-0.118092,"reserved":0,"last_update":"0001-01-01T00:00:00Z","name_a2s":"Uncletopia | London | 7 | No Payload","protocol":17,"map":"plr_pipeline","folder":"tf","game":"Team Fortress","app_id":440,"player_count":0,"max_players":24,"Bots":0,"server_type":"Dedicated","server_os":"Linux","password":true,"vac":true,"version":"7932396","steam_id":85568392924964314,"keywords":["nocrits","nodmgspread","payload","uncletopia"],"game_id":440,"stv_port":27076,"stv_name":"Uncletopia | London | 7 | No Payload | STV","players":null},{"server_id":41,"name":"Uncletopia | London | 8 | Community","name_short":"lon-8","host":"lon-1.uk.uncletopia.com","port":27085,"enabled":true,"region":"eu","cc":"gb","latitude":51.509865,"longitude":-0.118092,"reserved":0,"last_update":"0001-01-01T00:00:00Z","name_a2s":"Uncletopia | London | 8 | Community","protocol":17,"map":"workshop/cp_propaganda_b18.ugc1603743849","folder":"tf","game":"Team Fortress","app_id":440,"player_count":0,"max_players":24,"Bots":0,"server_type":"Dedicated","server_os":"Linux","password":true,"vac":true,"version":"7932396","steam_id":85568392924964315,"keywords":["cp","nocrits","nodmgspread","uncletopia"],"game_id":440,"stv_port":27086,"stv_name":"Uncletopia | London | 8 | Community | STV","players":null},{"server_id":300,"name":"Uncletopia | Montréal | 1 | All Maps","name_short":"mtl-1","host":"mtl-1.ca.uncletopia.com","port":27015,"enabled":true,"region":"us-east","cc":"ca","latitude":45.50889,"longitude":-73.56167,"reserved":0,"last_update":"0001-01-01T00:00:00Z","name_a2s":"Uncletopia | Montréal | 1 | All Maps","protocol":17,"map":"cp_altitude","folder":"tf","game":"Team Fortress","app_id":440,"player_count":0,"max_players":24,"Bots":0,"server_type":"Dedicated","server_os":"Linux","password":true,"vac":true,"version":"7932396","steam_id":85568392924500087,"keywords":["cp","nocrits","nodmgspread","uncletopia"],"game_id":440,"stv_port":27016,"stv_name":"Uncletopia | Montréal | 1 | All Maps | STV","players":null},{"server_id":301,"name":"Uncletopia | Montréal | 2 | All Maps","name_short":"mtl-2","host":"mtl-1.ca.uncletopia.com","port":27025,"enabled":true,"region":"us-east","cc":"ca","latitude":45.50889,"longitude":-73.56167,"reserved":0,"last_update":"0001-01-01T00:00:00Z","name_a2s":"Uncletopia | Montréal | 2 | All Maps","protocol":17,"map":"cp_mountainlab","folder":"tf","game":"Team Fortress","app_id":440,"player_count":0,"max_players":24,"Bots":0,"server_type":"Dedicated","server_os":"Linux","password":true,"vac":true,"version":"7932396","steam_id":85568392924500088,"keywords":["cp","nocrits","nodmgspread","uncletopia"],"game_id":440,"stv_port":27026,"stv_name":"Uncletopia | Montréal | 2 | All Maps | STV","players":null},{"server_id":302,"name":"Uncletopia | Montréal | 3 | All Maps","name_short":"mtl-3","host":"mtl-1.ca.uncletopia.com","port":27035,"enabled":true,"region":"us-east","cc":"ca","latitude":45.50889,"longitude":-73.56167,"reserved":0,"last_update":"0001-01-01T00:00:00Z","name_a2s":"Uncletopia | Montréal | 3 | All Maps","protocol":17,"map":"cp_process_final","folder":"tf","game":"Team Fortress","app_id":440,"player_count":0,"max_players":24,"Bots":0,"server_type":"Dedicated","server_os":"Linux","password":true,"vac":true,"version":"7932396","steam_id":85568392924500089,"keywords":["cp","nocrits","nodmgspread","uncletopia"],"game_id":440,"stv_port":27036,"stv_name":"Uncletopia | Montréal | 3 | All Maps | STV","players":null},{"server_id":303,"name":"Uncletopia | Montréal | 4 | No Payload","name_short":"mtl-4","host":"mtl-1.ca.uncletopia.com","port":27045,"enabled":true,"region":"us-east","cc":"ca","latitude":45.50889,"longitude":-73.56167,"reserved":0,"last_update":"0001-01-01T00:00:00Z","name_a2s":"Uncletopia | Montréal | 4 | No Payload","protocol":17,"map":"cp_snakewater_final1","folder":"tf","game":"Team Fortress","app_id":440,"player_count":0,"max_players":24,"Bots":0,"server_type":"Dedicated","server_os":"Linux","password":true,"vac":true,"version":"7932396","steam_id":85568392924500090,"keywords":["cp","nocrits","nodmgspread","uncletopia"],"game_id":440,"stv_port":27046,"stv_name":"Uncletopia | Montréal | 4 | No Payload | STV","players":null},{"server_id":13,"name":"Uncletopia | New York City | 1 | All Maps","name_short":"nyc-1","host":"nyc-1.us.uncletopia.com","port":27015,"enabled":true,"region":"us-east","cc":"us","latitude":40.73061,"longitude":-73.93524,"reserved":0,"last_update":"0001-01-01T00:00:00Z","name_a2s":"Uncletopia | New York City | 1 | All Maps","protocol":17,"map":"pl_barnblitz","folder":"tf","game":"Team Fortress","app_id":440,"player_count":23,"max_players":24,"Bots":0,"server_type":"Dedicated","server_os":"Linux","password":true,"vac":true,"version":"7932396","steam_id":85568392924469993,"keywords":["nocrits","nodmgspread","payload","uncletopia"],"game_id":440,"stv_port":27016,"stv_name":"Uncletopia | New York City | 1 | All Maps | STV","players":[{"user_id":178,"name":"orange porridge","steam_id":76561198044102244,"connected_time":3476000000000,"state":"active","ping":50},{"user_id":177,"name":"Scrappy","steam_id":76561198093789113,"connected_time":3691000000000,"state":"active","ping":46},{"user_id":203,"name":"deafened","steam_id":76561198454526448,"connected_time":89000000000,"state":"active","ping":88},{"user_id":202,"name":"LordCDAWG","steam_id":76561198026581404,"connected_time":126000000000,"state":"active","ping":54},{"user_id":201,"name":"crayonnipple","steam_id":76561198070253331,"connected_time":1119000000000,"state":"active","ping":79},{"user_id":204,"name":"TheBeanDude","steam_id":76561198887308622,"connected_time":87000000000,"state":"active","ping":189},{"user_id":163,"name":"Eraserhead Baby","steam_id":76561198010968514,"connected_time":5042000000000,"state":"active","ping":105},{"user_id":205,"name":"bven","steam_id":76561198150671914,"connected_time":77000000000,"state":"active","ping":71},{"user_id":192,"name":"Muad'Dib","steam_id":76561198031071019,"connected_time":1798000000000,"state":"active","ping":54},{"user_id":206,"name":"Jail Cell Romance","steam_id":76561198971285292,"connected_time":68000000000,"state":"active","ping":75},{"user_id":188,"name":"TinySuperion","steam_id":76561198917460128,"connected_time":2632000000000,"state":"active","ping":55},{"user_id":207,"name":"AnnieM","steam_id":76561199435467297,"connected_time":59000000000,"state":"active","ping":86},{"user_id":189,"name":"♥Bunny♥Slut♥","steam_id":76561198206376851,"connected_time":2390000000000,"state":"active","ping":70},{"user_id":182,"name":"Mania13","steam_id":76561198334886955,"connected_time":3300000000000,"state":"active","ping":102},{"user_id":209,"name":"neo :)","steam_id":76561199092954930,"connected_time":43000000000,"state":"spawning","ping":69},{"user_id":148,"name":"TJGSASQUATCH","steam_id":76561198077806921,"connected_time":5759000000000,"state":"active","ping":67},{"user_id":183,"name":"Yeonwoo","steam_id":76561199082985721,"connected_time":3287000000000,"state":"active","ping":45},{"user_id":199,"name":"homo","steam_id":76561198404564240,"connected_time":1317000000000,"state":"active","ping":48},{"user_id":210,"name":"toastman","steam_id":76561198207073088,"connected_time":8000000000,"state":"active","ping":60},{"user_id":187,"name":"Stop Being Mad,Be Happy","steam_id":76561198201276909,"connected_time":3158000000000,"state":"active","ping":66},{"user_id":176,"name":"Zixzs","steam_id":76561198055504126,"connected_time":3713000000000,"state":"active","ping":81},{"user_id":161,"name":"Grease Monkey","steam_id":76561199073112578,"connected_time":5201000000000,"state":"active","ping":79},{"user_id":197,"name":"pvt parts","steam_id":76561199199615102,"connected_time":1486000000000,"state":"active","ping":84}]},{"server_id":14,"name":"Uncletopia | New York City | 2 | All Maps","name_short":"nyc-2","host":"nyc-1.us.uncletopia.com","port":27025,"enabled":true,"region":"us-east","cc":"us","latitude":40.73061,"longitude":-73.93524,"reserved":0,"last_update":"0001-01-01T00:00:00Z","name_a2s":"Uncletopia | New York City | 2 | All Maps","protocol":17,"map":"pl_borneo","folder":"tf","game":"Team Fortress","app_id":440,"player_count":24,"max_players":24,"Bots":0,"server_type":"Dedicated","server_os":"Linux","password":true,"vac":true,"version":"7932396","steam_id":85568392924469994,"keywords":["nocrits","nodmgspread","payload","uncletopia"],"game_id":440,"stv_port":27026,"stv_name":"Uncletopia | New York City | 2 | All Maps | STV","players":[{"user_id":26,"name":"TrashCanGaming","steam_id":76561199150746424,"connected_time":591000000000,"state":"active","ping":76},{"user_id":27,"name":"az_noob","steam_id":76561199382983284,"connected_time":588000000000,"state":"active","ping":72},{"user_id":18,"name":"Blooby","steam_id":76561199013299586,"connected_time":906000000000,"state":"active","ping":58},{"user_id":19,"name":"Mecha","steam_id":76561198014927379,"connected_time":896000000000,"state":"active","ping":71},{"user_id":21,"name":"Cynicalrage #TF2center","steam_id":76561198085805532,"connected_time":767000000000,"state":"active","ping":60},{"user_id":28,"name":"Shame","steam_id":76561198100490994,"connected_time":568000000000,"state":"active","ping":68},{"user_id":23,"name":"day 1 no tren","steam_id":76561199246237446,"connected_time":694000000000,"state":"active","ping":75},{"user_id":49,"name":"moonage72","steam_id":76561199187008629,"connected_time":5000000000,"state":"spawning","ping":75},{"user_id":29,"name":"Guess I'm just popo","steam_id":76561197966419253,"connected_time":556000000000,"state":"active","ping":69},{"user_id":30,"name":"Neo The Fan Boy","steam_id":76561198848477407,"connected_time":508000000000,"state":"active","ping":82},{"user_id":31,"name":"johnnytoiletseat39","steam_id":76561199473132988,"connected_time":453000000000,"state":"active","ping":116},{"user_id":42,"name":"BhoBoy","steam_id":76561198988004642,"connected_time":168000000000,"state":"active","ping":98},{"user_id":33,"name":"I Like Cheese","steam_id":76561198006265659,"connected_time":427000000000,"state":"active","ping":76},{"user_id":34,"name":"aunt may kills Batman","steam_id":76561198300250162,"connected_time":384000000000,"state":"active","ping":46},{"user_id":35,"name":"CUBENSiS","steam_id":76561199138699358,"connected_time":347000000000,"state":"active","ping":66},{"user_id":36,"name":"PISSF****T","steam_id":76561199062570438,"connected_time":338000000000,"state":"active","ping":59},{"user_id":37,"name":"Pluto","steam_id":76561198338593690,"connected_time":281000000000,"state":"active","ping":79},{"user_id":38,"name":"Jean Deere","steam_id":76561198105101309,"connected_time":248000000000,"state":"active","ping":57},{"user_id":43,"name":"Indigolake","steam_id":76561198202215807,"connected_time":166000000000,"state":"active","ping":69},{"user_id":44,"name":"just a gamer","steam_id":76561199208833695,"connected_time":156000000000,"state":"active","ping":82},{"user_id":45,"name":"sirsmit1","steam_id":76561199129778001,"connected_time":140000000000,"state":"active","ping":65},{"user_id":46,"name":"M","steam_id":76561198286792807,"connected_time":135000000000,"state":"active","ping":83},{"user_id":47,"name":"acid","steam_id":76561198055855408,"connected_time":133000000000,"state":"active","ping":59},{"user_id":48,"name":"im in pain","steam_id":76561198868600487,"connected_time":103000000000,"state":"active","ping":126}]},{"server_id":15,"name":"Uncletopia | New York City | 3 | Stopwatch Beta","name_short":"nyc-3","host":"nyc-1.us.uncletopia.com","port":27035,"enabled":true,"region":"us-east","cc":"us","latitude":40.73061,"longitude":-73.93524,"reserved":0,"last_update":"0001-01-01T00:00:00Z","name_a2s":"Uncletopia | New York City | 3 | Stopwatch Beta","protocol":17,"map":"workshop/pl_barnblitz_pro7.ugc582280235","folder":"tf","game":"Team Fortress","app_id":440,"player_count":0,"max_players":24,"Bots":0,"server_type":"Dedicated","server_os":"Linux","password":true,"vac":true,"version":"7932396","steam_id":85568392924742820,"keywords":["nocrits","nodmgspread","payload","uncletopia"],"game_id":440,"stv_port":27036,"stv_name":"Uncletopia | New York City | 3 | Stopwatch Beta | STV","players":null},{"server_id":16,"name":"Uncletopia | New York City | 4 | Community","name_short":"nyc-4","host":"nyc-1.us.uncletopia.com","port":27045,"enabled":true,"region":"us-east","cc":"us","latitude":40.73061,"longitude":-73.93524,"reserved":0,"last_update":"0001-01-01T00:00:00Z","name_a2s":"Uncletopia | New York City | 4 | Community","protocol":17,"map":"pl_barnblitz","folder":"tf","game":"Team Fortress","app_id":440,"player_count":0,"max_players":24,"Bots":0,"server_type":"Dedicated","server_os":"Linux","password":true,"vac":true,"version":"7932396","steam_id":85568392924742821,"keywords":["nocrits","nodmgspread","payload","uncletopia"],"game_id":440,"stv_port":27046,"stv_name":"Uncletopia | New York City | 4 | Community | STV","players":null},{"server_id":142,"name":"Uncletopia | São Paulo | 1 | All Maps","name_short":"sao-1","host":"sao-1.br.uncletopia.com","port":27015,"enabled":true,"region":"sa","cc":"br","latitude":-23.533773,"longitude":-46.62529,"reserved":0,"last_update":"0001-01-01T00:00:00Z","name_a2s":"Uncletopia | São Paulo | 1 | All Maps","protocol":17,"map":"koth_highpass","folder":"tf","game":"Team Fortress","app_id":440,"player_count":0,"max_players":24,"Bots":0,"server_type":"Dedicated","server_os":"Linux","password":true,"vac":true,"version":"7932396","steam_id":85568392924469996,"keywords":["cp","nocrits","nodmgspread","uncletopia"],"game_id":440,"stv_port":27016,"stv_name":"Uncletopia | São Paulo | 1 | All Maps | STV","players":null},{"server_id":143,"name":"Uncletopia | São Paulo | 2 | All Maps","name_short":"sao-2","host":"sao-2.br.uncletopia.com","port":27015,"enabled":true,"region":"sa","cc":"br","latitude":-23.533773,"longitude":-46.62529,"reserved":0,"last_update":"0001-01-01T00:00:00Z","name_a2s":"Uncletopia | São Paulo | 2 | All Maps","protocol":17,"map":"pl_badwater","folder":"tf","game":"Team Fortress","app_id":440,"player_count":0,"max_players":24,"Bots":0,"server_type":"Dedicated","server_os":"Linux","password":true,"vac":true,"version":"7932396","steam_id":85568392924485349,"keywords":["nocrits","nodmgspread","payload","uncletopia"],"game_id":440,"stv_port":27016,"stv_name":"Uncletopia | São Paulo | 2 | All Maps | STV","players":null},{"server_id":7,"name":"Uncletopia | Seattle | 1 | All Maps","name_short":"sea-1","host":"sea-1.us.uncletopia.com","port":27015,"enabled":true,"region":"us-west","cc":"us","latitude":47.608013,"longitude":-122.33517,"reserved":0,"last_update":"0001-01-01T00:00:00Z","name_a2s":"Uncletopia | Seattle | 1 | All Maps","protocol":17,"map":"pl_swiftwater_final1","folder":"tf","game":"Team Fortress","app_id":440,"player_count":25,"max_players":24,"Bots":0,"server_type":"Dedicated","server_os":"Linux","password":true,"vac":true,"version":"7932396","steam_id":85568392924469997,"keywords":["nocrits","nodmgspread","payload","uncletopia"],"game_id":440,"stv_port":27016,"stv_name":"Uncletopia | Seattle | 1 | All Maps | STV","players":[{"user_id":217,"name":"float","steam_id":76561198363371528,"connected_time":889000000000,"state":"active","ping":54},{"user_id":146,"name":"hoOmIN","steam_id":76561198334947079,"connected_time":1967000000000,"state":"active","ping":73},{"user_id":261,"name":"whittecar","steam_id":76561198169715643,"connected_time":15000000000,"state":"spawning","ping":77},{"user_id":218,"name":"Cup O' Tea","steam_id":76561199181963791,"connected_time":888000000000,"state":"active","ping":81},{"user_id":101,"name":"Dr. Zoidburg","steam_id":76561198174593497,"connected_time":3284000000000,"state":"active","ping":74},{"user_id":215,"name":"dougrocks421","steam_id":76561198165063918,"connected_time":900000000000,"state":"active","ping":37},{"user_id":79,"name":"john","steam_id":76561199277725603,"connected_time":3881000000000,"state":"active","ping":57},{"user_id":37,"name":"Raizen","steam_id":76561199092445367,"connected_time":5802000000000,"state":"active","ping":96},{"user_id":81,"name":"some nerd","steam_id":76561198297272878,"connected_time":3853000000000,"state":"active","ping":70},{"user_id":147,"name":"Pneumo.","steam_id":76561197987911883,"connected_time":1956000000000,"state":"active","ping":67},{"user_id":252,"name":"Dirt Road","steam_id":76561198210372012,"connected_time":234000000000,"state":"active","ping":132},{"user_id":156,"name":"FiddyFoMike","steam_id":76561198057072581,"connected_time":1856000000000,"state":"active","ping":71},{"user_id":124,"name":"Themasterman75","steam_id":76561199385573293,"connected_time":2787000000000,"state":"active","ping":72},{"user_id":187,"name":"Stapler","steam_id":76561198099295077,"connected_time":1389000000000,"state":"active","ping":68},{"user_id":216,"name":"CollDragon","steam_id":76561198067534450,"connected_time":898000000000,"state":"active","ping":120},{"user_id":248,"name":"MagicMinecraft","steam_id":76561199230154152,"connected_time":274000000000,"state":"active","ping":91},{"user_id":221,"name":"StillNotGinger","steam_id":76561198063419189,"connected_time":817000000000,"state":"active","ping":110},{"user_id":100,"name":"Petrivus","steam_id":76561198202152453,"connected_time":3355000000000,"state":"active","ping":54},{"user_id":231,"name":"sock_vendor","steam_id":76561198059103865,"connected_time":644000000000,"state":"active","ping":123},{"user_id":68,"name":"Jumkin","steam_id":76561198136887468,"connected_time":4525000000000,"state":"active","ping":242},{"user_id":262,"name":"Bendidy","steam_id":76561198041964300,"connected_time":14000000000,"state":"spawning","ping":61},{"user_id":230,"name":"Ex-PFC Wintergreen","steam_id":76561198203851303,"connected_time":668000000000,"state":"active","ping":76},{"user_id":129,"name":"Saint Pablo","steam_id":76561198083300159,"connected_time":2405000000000,"state":"active","ping":70},{"user_id":106,"name":"grape","steam_id":76561197993980328,"connected_time":3205000000000,"state":"active","ping":70},{"user_id":118,"name":"aofi the flat tgirl","steam_id":76561199172110503,"connected_time":2992000000000,"state":"active","ping":101}]},{"server_id":119,"name":"Uncletopia | Seattle | 2 | All Maps","name_short":"sea-2","host":"sea-1.us.uncletopia.com","port":27025,"enabled":true,"region":"us-west","cc":"us","latitude":47.608013,"longitude":-122.33517,"reserved":0,"last_update":"0001-01-01T00:00:00Z","name_a2s":"Uncletopia | Seattle | 2 | All Maps","protocol":17,"map":"cp_dustbowl","folder":"tf","game":"Team Fortress","app_id":440,"player_count":1,"max_players":24,"Bots":0,"server_type":"Dedicated","server_os":"Linux","password":true,"vac":true,"version":"7932396","steam_id":85568392924469998,"keywords":["cp","nocrits","nodmgspread","uncletopia"],"game_id":440,"stv_port":27026,"stv_name":"Uncletopia | Seattle | 2 | All Maps | STV","players":[{"user_id":9,"name":"ilun","steam_id":76561198042913843,"connected_time":193000000000,"state":"active","ping":45}]},{"server_id":406,"name":"Uncletopia | Seattle | 3 | Stopwatch Beta","name_short":"sea-3","host":"sea-1.us.uncletopia.com","port":27035,"enabled":true,"region":"us-west","cc":"us","latitude":47.608013,"longitude":-122.33517,"reserved":0,"last_update":"0001-01-01T00:00:00Z","name_a2s":"Uncletopia | Seattle | 3 | Stopwatch Beta","protocol":17,"map":"cp_mountainlab","folder":"tf","game":"Team Fortress","app_id":440,"player_count":0,"max_players":24,"Bots":0,"server_type":"Dedicated","server_os":"Linux","password":true,"vac":true,"version":"7932396","steam_id":85568392924515217,"keywords":["cp","nocrits","nodmgspread","uncletopia"],"game_id":440,"stv_port":27036,"stv_name":"Uncletopia | Seattle | 3 | Stopwatch Beta | STV","players":null},{"server_id":17,"name":"Uncletopia | San Francisco | 1 | All Maps","name_short":"sfo-1","host":"sfo-1.us.uncletopia.com","port":27015,"enabled":true,"region":"us-west","cc":"us","latitude":37.77397,"longitude":-122.4313,"reserved":0,"last_update":"0001-01-01T00:00:00Z","name_a2s":"Uncletopia | San Francisco | 1 | All Maps","protocol":17,"map":"pl_frontier_final","folder":"tf","game":"Team Fortress","app_id":440,"player_count":0,"max_players":24,"Bots":0,"server_type":"Dedicated","server_os":"Linux","password":true,"vac":true,"version":"7932396","steam_id":85568392924469999,"keywords":["nocrits","nodmgspread","payload","uncletopia"],"game_id":440,"stv_port":27016,"stv_name":"Uncletopia | San Francisco | 1 | All Maps | STV","players":null},{"server_id":18,"name":"Uncletopia | San Francisco | 2 | All Maps","name_short":"sfo-2","host":"sfo-1.us.uncletopia.com","port":27025,"enabled":true,"region":"us-west","cc":"us","latitude":37.77397,"longitude":-122.4313,"reserved":0,"last_update":"0001-01-01T00:00:00Z","name_a2s":"Uncletopia | San Francisco | 2 | All Maps","protocol":17,"map":"cp_snakewater_final1","folder":"tf","game":"Team Fortress","app_id":440,"player_count":0,"max_players":24,"Bots":0,"server_type":"Dedicated","server_os":"Linux","password":true,"vac":true,"version":"7932396","steam_id":85568392924470000,"keywords":["cp","nocrits","nodmgspread","uncletopia"],"game_id":440,"stv_port":27026,"stv_name":"Uncletopia | San Francisco | 2 | All Maps | STV","players":null},{"server_id":19,"name":"Uncletopia | San Francisco | 3 | Stopwatch Beta","name_short":"sfo-3","host":"sfo-1.us.uncletopia.com","port":27035,"enabled":true,"region":"us-west","cc":"us","latitude":37.77397,"longitude":-122.4313,"reserved":0,"last_update":"0001-01-01T00:00:00Z","name_a2s":"Uncletopia | San Francisco | 3 | Stopwatch Beta","protocol":17,"map":"koth_lakeside_final","folder":"tf","game":"Team Fortress","app_id":440,"player_count":0,"max_players":24,"Bots":0,"server_type":"Dedicated","server_os":"Linux","password":true,"vac":true,"version":"7932396","steam_id":85568392924742824,"keywords":["cp","nocrits","nodmgspread","uncletopia"],"game_id":440,"stv_port":27036,"stv_name":"Uncletopia | San Francisco | 3 | Stopwatch Beta | STV","players":null},{"server_id":20,"name":"Uncletopia | San Francisco | 4 | Community","name_short":"sfo-4","host":"sfo-1.us.uncletopia.com","port":27045,"enabled":true,"region":"us-west","cc":"us","latitude":37.77397,"longitude":-122.4313,"reserved":0,"last_update":"0001-01-01T00:00:00Z","name_a2s":"Uncletopia | San Francisco | 4 | Community","protocol":17,"map":"pl_borneo","folder":"tf","game":"Team Fortress","app_id":440,"player_count":0,"max_players":24,"Bots":0,"server_type":"Dedicated","server_os":"Linux","password":true,"vac":true,"version":"7932396","steam_id":85568392924742826,"keywords":["nocrits","nodmgspread","payload","uncletopia"],"game_id":440,"stv_port":27046,"stv_name":"Uncletopia | San Francisco | 4 | Community | STV","players":null},{"server_id":141,"name":"Uncletopia | Sydney | 1 | All Maps","name_short":"syd-1","host":"syd-1.au.uncletopia.com","port":27015,"enabled":true,"region":"au","cc":"au","latitude":-33.865143,"longitude":151.2099,"reserved":0,"last_update":"0001-01-01T00:00:00Z","name_a2s":"Uncletopia | Sydney | 1 | All Maps","protocol":17,"map":"pl_upward","folder":"tf","game":"Team Fortress","app_id":440,"player_count":0,"max_players":24,"Bots":0,"server_type":"Dedicated","server_os":"Linux","password":true,"vac":true,"version":"7932396","steam_id":85568392924470001,"keywords":["nocrits","nodmgspread","payload","uncletopia"],"game_id":440,"stv_port":27016,"stv_name":"Uncletopia | Sydney | 1 | All Maps | STV","players":null},{"server_id":123,"name":"Uncletopia | Sydney | 2 | All Maps","name_short":"syd-2","host":"syd-1.au.uncletopia.com","port":27025,"enabled":true,"region":"au","cc":"au","latitude":-33.865143,"longitude":151.2099,"reserved":0,"last_update":"0001-01-01T00:00:00Z","name_a2s":"Uncletopia | Sydney | 2 | All Maps","protocol":17,"map":"koth_highpass","folder":"tf","game":"Team Fortress","app_id":440,"player_count":0,"max_players":24,"Bots":0,"server_type":"Dedicated","server_os":"Linux","password":true,"vac":true,"version":"7932396","steam_id":85568392924470002,"keywords":["cp","nocrits","nodmgspread","uncletopia"],"game_id":440,"stv_port":27026,"stv_name":"Uncletopia | Sydney | 2 | All Maps | STV","players":null},{"server_id":395,"name":"Uncletopia | Sydney | 3 | All Maps","name_short":"syd-3","host":"syd-1.au.uncletopia.com","port":27035,"enabled":true,"region":"au","cc":"au","latitude":-33.865143,"longitude":151.2099,"reserved":0,"last_update":"0001-01-01T00:00:00Z","name_a2s":"Uncletopia | Sydney | 3 | All Maps","protocol":17,"map":"koth_highpass","folder":"tf","game":"Team Fortress","app_id":440,"player_count":0,"max_players":24,"Bots":0,"server_type":"Dedicated","server_os":"Linux","password":true,"vac":true,"version":"7932396","steam_id":85568392925194467,"keywords":["cp","nocrits","nodmgspread","uncletopia"],"game_id":440,"stv_port":27036,"stv_name":"Uncletopia | Sydney | 3 | All Maps | STV","players":null},{"server_id":396,"name":"Uncletopia | Sydney | 4 | All Maps","name_short":"syd-4","host":"syd-1.au.uncletopia.com","port":27045,"enabled":true,"region":"au","cc":"au","latitude":-33.865143,"longitude":151.2099,"reserved":0,"last_update":"0001-01-01T00:00:00Z","name_a2s":"Uncletopia | Sydney | 4 | All Maps","protocol":17,"map":"cp_mountainlab","folder":"tf","game":"Team Fortress","app_id":440,"player_count":0,"max_players":24,"Bots":0,"server_type":"Dedicated","server_os":"Linux","password":true,"vac":true,"version":"7932396","steam_id":85568392925397958,"keywords":["cp","nocrits","nodmgspread","uncletopia"],"game_id":440,"stv_port":27046,"stv_name":"Uncletopia | Sydney | 4 | All Maps | STV","players":null},{"server_id":58,"name":"Uncletopia | Sydney | 5 | Stopwatch Beta","name_short":"syd-5","host":"syd-1.au.uncletopia.com","port":27055,"enabled":true,"region":"au","cc":"au","latitude":-33.865143,"longitude":151.2099,"reserved":0,"last_update":"0001-01-01T00:00:00Z","name_a2s":"Uncletopia | Sydney | 5 | Stopwatch Beta","protocol":17,"map":"workshop/koth_ashville_final.ugc2130459942","folder":"tf","game":"Team Fortress","app_id":440,"player_count":0,"max_players":24,"Bots":0,"server_type":"Dedicated","server_os":"Linux","password":true,"vac":true,"version":"7932396","steam_id":85568392925397959,"keywords":["cp","nocrits","nodmgspread","uncletopia"],"game_id":440,"stv_port":27056,"stv_name":"Uncletopia | Sydney | 5 | Stopwatch Beta | STV","players":null},{"server_id":59,"name":"Uncletopia | Sydney | 6 | Community","name_short":"syd-6","host":"syd-1.au.uncletopia.com","port":27065,"enabled":true,"region":"au","cc":"au","latitude":-33.865143,"longitude":151.2099,"reserved":0,"last_update":"0001-01-01T00:00:00Z","name_a2s":"Uncletopia | Sydney | 6 | Community","protocol":17,"map":"workshop/koth_product_final.ugc454272353","folder":"tf","game":"Team Fortress","app_id":440,"player_count":0,"max_players":24,"Bots":0,"server_type":"Dedicated","server_os":"Linux","password":true,"vac":true,"version":"7932396","steam_id":85568392925397960,"keywords":["cp","nocrits","nodmgspread","uncletopia"],"game_id":440,"stv_port":27066,"stv_name":"Uncletopia | Sydney | 6 | Community | STV","players":null},{"server_id":49,"name":"Uncletopia | Warsaw | 1 | All Maps","name_short":"waw-1","host":"waw-1.pl.uncletopia.com","port":27015,"enabled":true,"region":"eu","cc":"pl","latitude":52.2297,"longitude":21.017532,"reserved":0,"last_update":"0001-01-01T00:00:00Z","name_a2s":"","protocol":0,"map":"","folder":"","game":"","app_id":0,"player_count":0,"max_players":0,"Bots":0,"server_type":"","server_os":"","password":false,"vac":false,"version":"","steam_id":0,"keywords":null,"game_id":0,"stv_port":0,"stv_name":"","players":null},{"server_id":50,"name":"Uncletopia | Warsaw | 2 | All Maps","name_short":"waw-2","host":"waw-1.pl.uncletopia.com","port":27025,"enabled":true,"region":"eu","cc":"pl","latitude":52.2297,"longitude":21.017532,"reserved":0,"last_update":"0001-01-01T00:00:00Z","name_a2s":"Uncletopia | Warsaw | 2 | All Maps","protocol":17,"map":"koth_lakeside_final","folder":"tf","game":"Team Fortress","app_id":440,"player_count":0,"max_players":24,"Bots":0,"server_type":"Dedicated","server_os":"Linux","password":true,"vac":true,"version":"7932396","steam_id":85568392925397851,"keywords":["cp","nocrits","nodmgspread","uncletopia"],"game_id":440,"stv_port":27026,"stv_name":"Uncletopia | Warsaw | 2 | All Maps | STV","players":null},{"server_id":51,"name":"Uncletopia | Warsaw | 3 | All Maps","name_short":"waw-3","host":"waw-1.pl.uncletopia.com","port":27035,"enabled":true,"region":"eu","cc":"pl","latitude":52.2297,"longitude":21.017532,"reserved":0,"last_update":"0001-01-01T00:00:00Z","name_a2s":"Uncletopia | Warsaw | 3 | All Maps","protocol":17,"map":"koth_lakeside_final","folder":"tf","game":"Team Fortress","app_id":440,"player_count":0,"max_players":24,"Bots":0,"server_type":"Dedicated","server_os":"Linux","password":true,"vac":true,"version":"7932396","steam_id":85568392925397852,"keywords":["cp","nocrits","nodmgspread","uncletopia"],"game_id":440,"stv_port":27036,"stv_name":"Uncletopia | Warsaw | 3 | All Maps | STV","players":null},{"server_id":52,"name":"Uncletopia | Warsaw | 4 | All Maps","name_short":"waw-4","host":"waw-1.pl.uncletopia.com","port":27045,"enabled":true,"region":"eu","cc":"pl","latitude":52.2297,"longitude":21.017532,"reserved":0,"last_update":"0001-01-01T00:00:00Z","name_a2s":"Uncletopia | Warsaw | 4 | All Maps","protocol":17,"map":"pl_badwater","folder":"tf","game":"Team Fortress","app_id":440,"player_count":13,"max_players":24,"Bots":0,"server_type":"Dedicated","server_os":"Linux","password":true,"vac":true,"version":"7932396","steam_id":85568392925397853,"keywords":["nocrits","nodmgspread","payload","uncletopia"],"game_id":440,"stv_port":27046,"stv_name":"Uncletopia | Warsaw | 4 | All Maps | STV","players":[{"user_id":144,"name":"󠁳⁧⁧ Kruthal","steam_id":76561198245726582,"connected_time":644000000000,"state":"active","ping":47},{"user_id":79,"name":"stefanbejenari","steam_id":76561199466718294,"connected_time":6638000000000,"state":"active","ping":85},{"user_id":110,"name":"nemelex","steam_id":76561198958005865,"connected_time":3702000000000,"state":"active","ping":75},{"user_id":127,"name":"CapyFortress","steam_id":76561199159569959,"connected_time":2158000000000,"state":"active","ping":65},{"user_id":150,"name":"Kal_ter","steam_id":76561198067256797,"connected_time":94000000000,"state":"active","ping":105},{"user_id":109,"name":"copium addict | blw.tf","steam_id":76561199401665282,"connected_time":3941000000000,"state":"active","ping":199},{"user_id":134,"name":"trans women arent women","steam_id":76561199487930495,"connected_time":1408000000000,"state":"active","ping":101},{"user_id":151,"name":"WOW i'm dead","steam_id":76561199082267619,"connected_time":2000000000,"state":"spawning","ping":78},{"user_id":131,"name":"imihimori","steam_id":76561198289642645,"connected_time":1665000000000,"state":"active","ping":141},{"user_id":135,"name":"Imperator komedii","steam_id":76561198963841479,"connected_time":1342000000000,"state":"active","ping":62},{"user_id":137,"name":"TazerMonkey55","steam_id":76561198151547551,"connected_time":1002000000000,"state":"active","ping":82},{"user_id":149,"name":"TopTierTater","steam_id":76561198886636267,"connected_time":261000000000,"state":"active","ping":183},{"user_id":142,"name":"IVAN","steam_id":76561199013333685,"connected_time":731000000000,"state":"active","ping":64}]},{"server_id":53,"name":"Uncletopia | Warsaw | 5 | Stopwatch Beta","name_short":"waw-5","host":"waw-1.pl.uncletopia.com","port":27055,"enabled":true,"region":"eu","cc":"pl","latitude":52.2297,"longitude":21.017532,"reserved":0,"last_update":"0001-01-01T00:00:00Z","name_a2s":"Uncletopia | Warsaw | 5 | Stopwatch Beta","protocol":17,"map":"koth_highpass","folder":"tf","game":"Team Fortress","app_id":440,"player_count":0,"max_players":24,"Bots":0,"server_type":"Dedicated","server_os":"Linux","password":true,"vac":true,"version":"7932396","steam_id":85568392925397854,"keywords":["cp","nocrits","nodmgspread","uncletopia"],"game_id":440,"stv_port":27056,"stv_name":"Uncletopia | Warsaw | 5 | Stopwatch Beta | STV","players":null},{"server_id":54,"name":"Uncletopia | Warsaw | 6 | Community","name_short":"waw-6","host":"waw-1.pl.uncletopia.com","port":27065,"enabled":true,"region":"eu","cc":"pl","latitude":52.2297,"longitude":21.017532,"reserved":0,"last_update":"0001-01-01T00:00:00Z","name_a2s":"Uncletopia | Warsaw | 6 | Community","protocol":17,"map":"workshop/pl_shoreleave_rc2.ugc1238849347","folder":"tf","game":"Team Fortress","app_id":440,"player_count":0,"max_players":24,"Bots":0,"server_type":"Dedicated","server_os":"Linux","password":true,"vac":true,"version":"7932396","steam_id":85568392925397856,"keywords":["nocrits","nodmgspread","payload","uncletopia"],"game_id":440,"stv_port":27066,"stv_name":"Uncletopia | Warsaw | 6 | Community | STV","players":null}]}