{"status":true,"message":"","result":[{"server_id":9,"name":"Uncletopia | Atlanta | 1 | All Maps","name_short":"atl-1","host":"atl-1.us.uncletopia.com","port":27015,"enabled":true,"region":"us-east","cc":"us","latitude":33.753746,"longitude":-84.38633,"reserved":0,"last_update":"0001-01-01T00:00:00Z","name_a2s":"Uncletopia | Atlanta | 1 | All Maps","protocol":17,"map":"pl_barnblitz","folder":"tf","game":"Team Fortress","app_id":440,"player_count":24,"max_players":24,"Bots":0,"server_type":"Dedicated","server_os":"Linux","password":true,"vac":true,"version":"7757534","steam_id":85568392924469982,"keywords":["nocrits","nodmgspread","payload","uncletopia"],"game_id":440,"stv_port":27016,"stv_name":"Uncletopia | Atlanta | 1 | All Maps | STV","players":[{"user_id":909,"name":"Houdini","steam_id":76561197961199346,"connected_time":1312000000000,"state":"active","ping":105},{"user_id":893,"name":"bjiru","steam_id":76561198058428668,"connected_time":2503000000000,"state":"active","ping":135},{"user_id":914,"name":"TomaHawk","steam_id":76561198155240059,"connected_time":1243000000000,"state":"active","ping":119},{"user_id":900,"name":"Chuck Finley","steam_id":76561198027411284,"connected_time":1909000000000,"state":"active","ping":81},{"user_id":925,"name":"Jingles Lobster","steam_id":76561198048566493,"connected_time":377000000000,"state":"active","ping":72},{"user_id":910,"name":"Treb","steam_id":76561197972961422,"connected_time":1296000000000,"state":"active","ping":59},{"user_id":915,"name":"twin","steam_id":76561198055626638,"connected_time":1059000000000,"state":"active","ping":102},{"user_id":912,"name":"noob","steam_id":76561199384271579,"connected_time":1277000000000,"state":"active","ping":120},{"user_id":880,"name":"[❤]RainbowGryphon","steam_id":76561198097007697,"connected_time":3430000000000,"state":"active","ping":88},{"user_id":913,"name":"Hanny Burrito","steam_id":76561198078309667,"connected_time":1274000000000,"state":"active","ping":120},{"user_id":858,"name":"Funkin' Sky","steam_id":76561198183912859,"connected_time":4688000000000,"state":"active","ping":38},{"user_id":881,"name":"cAssBlaster","steam_id":76561198138488101,"connected_time":3416000000000,"state":"active","ping":75},{"user_id":916,"name":"Tyrone","steam_id":76561198189429665,"connected_time":1000000000000,"state":"active","ping":58},{"user_id":917,"name":"Funky Buttlovin","steam_id":76561198002807702,"connected_time":959000000000,"state":"active","ping":78},{"user_id":926,"name":"Nacen","steam_id":76561198402705671,"connected_time":324000000000,"state":"active","ping":75},{"user_id":924,"name":"Quietsharp","steam_id":76561198277968438,"connected_time":515000000000,"state":"active","ping":105},{"user_id":903,"name":"Tomoko2001","steam_id":76561198047117990,"connected_time":1762000000000,"state":"active","ping":83},{"user_id":889,"name":"Peaceful Chaos","steam_id":76561198087989602,"connected_time":3050000000000,"state":"active","ping":75},{"user_id":837,"name":"abomination","steam_id":76561198167974713,"connected_time":6352000000000,"state":"active","ping":57},{"user_id":850,"name":"Ⓑ⓪⓪ⓣⓨⓒⓐⓚⓔⓢ","steam_id":76561198088776421,"connected_time":5177000000000,"state":"active","ping":84},{"user_id":928,"name":"Drusalem","steam_id":76561199078547218,"connected_time":201000000000,"state":"active","ping":88},{"user_id":919,"name":"TheFallenFox","steam_id":76561199074190919,"connected_time":873000000000,"state":"active","ping":158},{"user_id":920,"name":"Whirblewind","steam_id":76561197964722449,"connected_time":869000000000,"state":"active","ping":88},{"user_id":929,"name":"Marv_L","steam_id":76561198035709541,"connected_time":52000000000,"state":"active","ping":115}]},{"server_id":400,"name":"Uncletopia | Atlanta | 3 | Community","name_short":"atl-3","host":"atl-1.us.uncletopia.com","port":27035,"enabled":true,"region":"us-east","cc":"us","latitude":33.753746,"longitude":-84.38633,"reserved":0,"last_update":"0001-01-01T00:00:00Z","name_a2s":"Uncletopia | Atlanta | 3 | Community","protocol":17,"map":"workshop/cp_mannbase_rc2a.ugc1900737467","folder":"tf","game":"Team Fortress","app_id":440,"player_count":0,"max_players":32,"Bots":0,"server_type":"Dedicated","server_os":"Linux","password":true,"vac":true,"version":"7757534","steam_id":85568392924515187,"keywords":["cp","increased_maxplayers","nocrits","nodmgspread","uncletopia"],"game_id":440,"stv_port":27036,"stv_name":"Uncletopia | Atlanta | 3 | Community | STV","players":null},{"server_id":401,"name":"Uncletopia | Atlanta | 4 | No Payload","name_short":"atl-4","host":"atl-1.us.uncletopia.com","port":27045,"enabled":true,"region":"us-east","cc":"us","latitude":33.753746,"longitude":-84.38633,"reserved":0,"last_update":"0001-01-01T00:00:00Z","name_a2s":"","protocol":0,"map":"","folder":"","game":"","app_id":0,"player_count":0,"max_players":0,"Bots":0,"server_type":"","server_os":"","password":false,"vac":false,"version":"","steam_id":0,"keywords":null,"game_id":0,"stv_port":0,"stv_name":"","players":null},{"server_id":2,"name":"Uncletopia | Chicago | 1 | All Maps","name_short":"chi-1","host":"chi-1.us.uncletopia.com","port":27015,"enabled":true,"region":"us-central","cc":"us","latitude":41.881832,"longitude":-87.62318,"reserved":0,"last_update":"0001-01-01T00:00:00Z","name_a2s":"Uncletopia | Chicago | 1 | All Maps","protocol":17,"map":"koth_highpass","folder":"tf","game":"Team Fortress","app_id":440,"player_count":0,"max_players":24,"Bots":0,"server_type":"Dedicated","server_os":"Linux","password":true,"vac":true,"version":"7757534","steam_id":85568392924469984,"keywords":["cp","nocrits","nodmgspread","uncletopia"],"game_id":440,"stv_port":27016,"stv_name":"Uncletopia | Chicago | 1 | All Maps | STV","players":null},{"server_id":106,"name":"Uncletopia | Chicago | 2 | All Maps","name_short":"chi-2","host":"chi-1.us.uncletopia.com","port":27025,"enabled":true,"region":"us-central","cc":"us","latitude":41.881832,"longitude":-87.62318,"reserved":0,"last_update":"0001-01-01T00:00:00Z","name_a2s":"Uncletopia | Chicago | 2 | All Maps","protocol":17,"map":"koth_lakeside_final","folder":"tf","game":"Team Fortress","app_id":440,"player_count":0,"max_players":24,"Bots":0,"server_type":"Dedicated","server_os":"Linux","password":true,"vac":true,"version":"7757534","steam_id":85568392924469985,"keywords":["cp","nocrits","nodmgspread","uncletopia"],"game_id":440,"stv_port":27026,"stv_name":"Uncletopia | Chicago | 2 | All Maps | STV","players":null},{"server_id":402,"name":"Uncletopia | Chicago | 3 | All Maps","name_short":"chi-3","host":"chi-1.us.uncletopia.com","port":27035,"enabled":true,"region":"us-central","cc":"us","latitude":41.881832,"longitude":-87.62318,"reserved":0,"last_update":"0001-01-01T00:00:00Z","name_a2s":"Uncletopia | Chicago | 3 | All Maps","protocol":17,"map":"pl_badwater","folder":"tf","game":"Team Fortress","app_id":440,"player_count":0,"max_players":24,"Bots":0,"server_type":"Dedicated","server_os":"Linux","password":true,"vac":true,"version":"7757534","steam_id":85568392924515191,"keywords":["nocrits","nodmgspread","payload","uncletopia"],"game_id":440,"stv_port":27036,"stv_name":"Uncletopia | Chicago | 3 | All Maps | STV","players":null},{"server_id":403,"name":"Uncletopia | Chicago | 4 | All Maps","name_short":"chi-4","host":"chi-1.us.uncletopia.com","port":27045,"enabled":true,"region":"us-central","cc":"us","latitude":41.881832,"longitude":-87.62318,"reserved":0,"last_update":"0001-01-01T00:00:00Z","name_a2s":"Uncletopia | Chicago | 4 | All Maps","protocol":17,"map":"cp_altitude","folder":"tf","game":"Team Fortress","app_id":440,"player_count":0,"max_players":24,"Bots":0,"server_type":"Dedicated","server_os":"Linux","password":true,"vac":true,"version":"7757534","steam_id":85568392924515193,"keywords":["cp","nocrits","nodmgspread","uncletopia"],"game_id":440,"stv_port":27046,"stv_name":"Uncletopia | Chicago | 4 | All Maps | STV","players":null},{"server_id":36,"name":"Uncletopia | Chicago | 5 | All Maps","name_short":"chi-5","host":"chi-2.us.uncletopia.com","port":27015,"enabled":true,"region":"us-central","cc":"us","latitude":41.881832,"longitude":-87.62318,"reserved":0,"last_update":"0001-01-01T00:00:00Z","name_a2s":"Uncletopia | Chicago | 5 | All Maps","protocol":17,"map":"cp_process_final","folder":"tf","game":"Team Fortress","app_id":440,"player_count":0,"max_players":24,"Bots":0,"server_type":"Dedicated","server_os":"Linux","password":true,"vac":true,"version":"7757534","steam_id":85568392924866362,"keywords":["cp","nocrits","nodmgspread","uncletopia"],"game_id":440,"stv_port":27016,"stv_name":"Uncletopia | Chicago | 5 | All Maps | STV","players":null},{"server_id":37,"name":"Uncletopia | Chicago | 6 | All Maps","name_short":"chi-6","host":"chi-2.us.uncletopia.com","port":27025,"enabled":true,"region":"us-central","cc":"us","latitude":41.881832,"longitude":-87.62318,"reserved":0,"last_update":"0001-01-01T00:00:00Z","name_a2s":"Uncletopia | Chicago | 6 | All Maps","protocol":17,"map":"koth_lakeside_final","folder":"tf","game":"Team Fortress","app_id":440,"player_count":0,"max_players":24,"Bots":0,"server_type":"Dedicated","server_os":"Linux","password":true,"vac":true,"version":"7757534","steam_id":85568392924866363,"keywords":["cp","nocrits","nodmgspread","uncletopia"],"game_id":440,"stv_port":27026,"stv_name":"Uncletopia | Chicago | 6 | All Maps | STV","players":null},{"server_id":38,"name":"Uncletopia | Chicago | 7 | Stopwatch Beta","name_short":"chi-7","host":"chi-2.us.uncletopia.com","port":27035,"enabled":true,"region":"us-central","cc":"us","latitude":41.881832,"longitude":-87.62318,"reserved":0,"last_update":"0001-01-01T00:00:00Z","name_a2s":"Uncletopia | Chicago | 7 | Stopwatch Beta","protocol":17,"map":"workshop/koth_ramjam_rc1.ugc459778887","folder":"tf","game":"Team Fortress","app_id":440,"player_count":0,"max_players":24,"Bots":0,"server_type":"Dedicated","server_os":"Linux","password":true,"vac":true,"version":"7757534","steam_id":85568392924866364,"keywords":["cp","nocrits","nodmgspread","uncletopia"],"game_id":440,"stv_port":27036,"stv_name":"Uncletopia | Chicago | 7 | Stopwatch Beta | STV","players":null},{"server_id":39,"name":"Uncletopia | Chicago | 8 | Community","name_short":"chi-8","host":"chi-2.us.uncletopia.com","port":27045,"enabled":true,"region":"us-central","cc":"us","latitude":41.881832,"longitude":-87.62318,"reserved":0,"last_update":"0001-01-01T00:00:00Z","name_a2s":"Uncletopia | Chicago | 8 | Community","protocol":17,"map":"workshop/rd_asteroid_redux_b1.ugc2154902912","folder":"tf","game":"Team Fortress","app_id":440,"player_count":0,"max_players":24,"Bots":0,"server_type":"Dedicated","server_os":"Linux","password":true,"vac":true,"version":"7757534","steam_id":85568392924866365,"keywords":["beta","nocrits","nodmgspread","rd","uncletopia"],"game_id":440,"stv_port":27046,"stv_name":"Uncletopia | Chicago | 8 | Community | STV","players":null},{"server_id":8,"name":"Uncletopia | Dallas | 1 | All Maps","name_short":"dal-1","host":"dal-1.us.uncletopia.com","port":27015,"enabled":true,"region":"us-central","cc":"us","latitude":32.779167,"longitude":-96.80889,"reserved":0,"last_update":"0001-01-01T00:00:00Z","name_a2s":"Uncletopia | Dallas | 1 | All Maps","protocol":17,"map":"koth_lakeside_final","folder":"tf","game":"Team Fortress","app_id":440,"player_count":0,"max_players":24,"Bots":0,"server_type":"Dedicated","server_os":"Linux","password":true,"vac":true,"version":"7757534","steam_id":85568392924469986,"keywords":["cp","nocrits","nodmgspread","uncletopia"],"game_id":440,"stv_port":27016,"stv_name":"Uncletopia | Dallas | 1 | All Maps | STV","players":null},{"server_id":108,"name":"Uncletopia | Dallas | 2 | All Maps","name_short":"dal-2","host":"dal-1.us.uncletopia.com","port":27025,"enabled":true,"region":"us-central","cc":"us","latitude":32.779167,"longitude":-96.80889,"reserved":0,"last_update":"0001-01-01T00:00:00Z","name_a2s":"Uncletopia | Dallas | 2 | All Maps","protocol":17,"map":"cp_dustbowl","folder":"tf","game":"Team Fortress","app_id":440,"player_count":24,"max_players":24,"Bots":0,"server_type":"Dedicated","server_os":"Linux","password":true,"vac":true,"version":"7757534","steam_id":85568392924469988,"keywords":["cp","nocrits","nodmgspread","uncletopia"],"game_id":440,"stv_port":27026,"stv_name":"Uncletopia | Dallas | 2 | All Maps | STV","players":[{"user_id":793,"name":"JellyRoll Jerry","steam_id":76561198037149474,"connected_time":1250000000000,"state":"active","ping":92},{"user_id":711,"name":"basilberry","steam_id":76561198145275937,"connected_time":6659000000000,"state":"active","ping":63},{"user_id":805,"name":"loser","steam_id":76561198132182386,"connected_time":558000000000,"state":"active","ping":97},{"user_id":786,"name":"PuncakeSweg","steam_id":76561198320053563,"connected_time":2525000000000,"state":"active","ping":75},{"user_id":797,"name":"shorson","steam_id":76561198048006726,"connected_time":1093000000000,"state":"active","ping":66},{"user_id":686,"name":"gerg","steam_id":76561197997127387,"connected_time":9428000000000,"state":"active","ping":86},{"user_id":806,"name":"Judith The Adversary","steam_id":76561198932113568,"connected_time":497000000000,"state":"active","ping":93},{"user_id":798,"name":"ant","steam_id":76561198133738975,"connected_time":1067000000000,"state":"active","ping":52},{"user_id":807,"name":"Judge Dad (Proud)","steam_id":76561198071473697,"connected_time":493000000000,"state":"active","ping":94},{"user_id":688,"name":"Pink Lady Lemonade","steam_id":76561198164782653,"connected_time":9400000000000,"state":"active","ping":90},{"user_id":792,"name":"♥dumb bimbo♥","steam_id":76561198054925421,"connected_time":1718000000000,"state":"active","ping":76},{"user_id":800,"name":"Starkiller","steam_id":76561198101643120,"connected_time":899000000000,"state":"active","ping":121},{"user_id":810,"name":"Reisen","steam_id":76561199174579733,"connected_time":104000000000,"state":"active","ping":96},{"user_id":801,"name":"Sirburrus","steam_id":76561198035147613,"connected_time":829000000000,"state":"active","ping":79},{"user_id":690,"name":"social distance warrior","steam_id":76561198128992994,"connected_time":9393000000000,"state":"active","ping":89},{"user_id":802,"name":"Cactus™ ♥","steam_id":76561198036441270,"connected_time":828000000000,"state":"active","ping":107},{"user_id":791,"name":"My controller broke","steam_id":76561198157280577,"connected_time":1979000000000,"state":"active","ping":61},{"user_id":739,"name":"OddSlaush","steam_id":76561198043898488,"connected_time":5332000000000,"state":"active","ping":64},{"user_id":762,"name":"cyro","steam_id":76561198146241989,"connected_time":3871000000000,"state":"active","ping":86},{"user_id":769,"name":"Kooba","steam_id":76561197988588963,"connected_time":3723000000000,"state":"active","ping":33},{"user_id":770,"name":"Ignatius","steam_id":76561198317980567,"connected_time":3720000000000,"state":"active","ping":70},{"user_id":777,"name":"sofiepop","steam_id":76561198013039087,"connected_time":3366000000000,"state":"active","ping":73},{"user_id":803,"name":"LootbugMugger","steam_id":76561198045607233,"connected_time":731000000000,"state":"active","ping":101},{"user_id":804,"name":"IMPACT!","steam_id":76561198131458027,"connected_time":719000000000,"state":"active","ping":84}]},{"server_id":5,"name":"Uncletopia | Frankfurt | 1 | All Maps","name_short":"frk-1","host":"frk-1.de.uncletopia.com","port":27015,"enabled":true,"region":"eu","cc":"de","latitude":50.110924,"longitude":8.682127,"reserved":0,"last_update":"0001-01-01T00:00:00Z","name_a2s":"Uncletopia | Frankfurt | 1 | All Maps","protocol":17,"map":"pl_goldrush","folder":"tf","game":"Team Fortress","app_id":440,"player_count":24,"max_players":24,"Bots":0,"server_type":"Dedicated","server_os":"Linux","password":true,"vac":true,"version":"7757534","steam_id":85568392924469989,"keywords":["nocrits","nodmgspread","payload","uncletopia"],"game_id":440,"stv_port":27016,"stv_name":"Uncletopia | Frankfurt | 1 | All Maps | STV","players":[{"user_id":47,"name":"Maximus","steam_id":76561198032472655,"connected_time":221000000000,"state":"active","ping":52},{"user_id":48,"name":"Montrose","steam_id":76561198338911736,"connected_time":220000000000,"state":"active","ping":178},{"user_id":21,"name":"scout TF2","steam_id":76561198072037878,"connected_time":1267000000000,"state":"active","ping":67},{"user_id":50,"name":"lofimonkeyjazz","steam_id":76561198117059662,"connected_time":187000000000,"state":"active","ping":84},{"user_id":35,"name":"buzz","steam_id":76561198877031315,"connected_time":810000000000,"state":"active","ping":116},{"user_id":51,"name":"0xDEADBEEF","steam_id":76561199075416111,"connected_time":178000000000,"state":"active","ping":60},{"user_id":16,"name":"Umbro","steam_id":76561198087930438,"connected_time":1531000000000,"state":"active","ping":62},{"user_id":17,"name":"Gwishin","steam_id":76561198257158275,"connected_time":1482000000000,"state":"active","ping":138},{"user_id":18,"name":"Graf von Scyth","steam_id":76561198198497733,"connected_time":1466000000000,"state":"active","ping":71},{"user_id":52,"name":"Dasmonson","steam_id":76561199029771850,"connected_time":177000000000,"state":"active","ping":115},{"user_id":23,"name":"卄乇几ㄒ卂丨 爪卂几 \ufffd\ufffd","steam_id":76561198059281585,"connected_time":1199000000000,"state":"active","ping":84},{"user_id":29,"name":"ali.","steam_id":76561198148359093,"connected_time":980000000000,"state":"active","ping":44},{"user_id":53,"name":"hotdog enjoyer","steam_id":76561199065132696,"connected_time":165000000000,"state":"active","ping":63},{"user_id":27,"name":"BinaryTrees","steam_id":76561198046819746,"connected_time":1022000000000,"state":"active","ping":46},{"user_id":28,"name":"EkmeK","steam_id":76561198077212595,"connected_time":991000000000,"state":"active","ping":84},{"user_id":54,"name":"justgvbe","steam_id":76561199193230375,"connected_time":149000000000,"state":"active","ping":46},{"user_id":58,"name":"birb","steam_id":76561198268611952,"connected_time":24000000000,"state":"spawning","ping":66},{"user_id":55,"name":"trustable","steam_id":76561198894574244,"connected_time":143000000000,"state":"active","ping":182},{"user_id":46,"name":"Lengard","steam_id":76561198094189180,"connected_time":504000000000,"state":"active","ping":92},{"user_id":59,"name":"jaakkima","steam_id":76561198229205512,"connected_time":0,"state":"connecting","ping":0},{"user_id":57,"name":"hey kid, wanna see my Octagon?","steam_id":76561198066287297,"connected_time":68000000000,"state":"active","ping":47},{"user_id":41,"name":"The Wheel (Live on KEXP)","steam_id":76561199064350902,"connected_time":608000000000,"state":"active","ping":108},{"user_id":43,"name":"Axter","steam_id":76561198118747192,"connected_time":587000000000,"state":"active","ping":71},{"user_id":45,"name":"Nerfan20 #SaveTF2","steam_id":76561198227391788,"connected_time":525000000000,"state":"active","ping":78}]},{"server_id":110,"name":"Uncletopia | Frankfurt | 2 | All Maps","name_short":"frk-2","host":"frk-1.de.uncletopia.com","port":27025,"enabled":true,"region":"eu","cc":"de","latitude":50.110924,"longitude":8.682127,"reserved":0,"last_update":"0001-01-01T00:00:00Z","name_a2s":"Uncletopia | Frankfurt | 2 | All Maps","protocol":17,"map":"pl_snowycoast","folder":"tf","game":"Team Fortress","app_id":440,"player_count":0,"max_players":24,"Bots":0,"server_type":"Dedicated","server_os":"Linux","password":true,"vac":true,"version":"7757534","steam_id":85568392924469990,"keywords":["nocrits","nodmgspread","payload","uncletopia"],"game_id":440,"stv_port":27026,"stv_name":"Uncletopia | Frankfurt | 2 | All Maps | STV","players":null},{"server_id":308,"name":"Uncletopia | Frankfurt | 3 | All Maps","name_short":"frk-3","host":"frk-1.de.uncletopia.com","port":27035,"enabled":true,"region":"eu","cc":"de","latitude":50.110924,"longitude":8.682127,"reserved":0,"last_update":"0001-01-01T00:00:00Z","name_a2s":"Uncletopia | Frankfurt | 3 | All Maps","protocol":17,"map":"cp_altitude","folder":"tf","game":"Team Fortress","app_id":440,"player_count":0,"max_players":24,"Bots":0,"server_type":"Dedicated","server_os":"Linux","password":true,"vac":true,"version":"7757534","steam_id":85568392924504274,"keywords":["cp","nocrits","nodmgspread","uncletopia"],"game_id":440,"stv_port":27036,"stv_name":"Uncletopia | Frankfurt | 3 | All Maps | STV","players":null},{"server_id":309,"name":"Uncletopia | Frankfurt | 4 | All Maps","name_short":"frk-4","host":"frk-1.de.uncletopia.com","port":27045,"enabled":true,"region":"eu","cc":"de","latitude":50.110924,"longitude":8.682127,"reserved":0,"last_update":"0001-01-01T00:00:00Z","name_a2s":"Uncletopia | Frankfurt | 4 | All Maps","protocol":17,"map":"cp_altitude","folder":"tf","game":"Team Fortress","app_id":440,"player_count":0,"max_players":24,"Bots":0,"server_type":"Dedicated","server_os":"Linux","password":true,"vac":true,"version":"7757534","steam_id":85568392924504275,"keywords":["cp","nocrits","nodmgspread","uncletopia"],"game_id":440,"stv_port":27046,"stv_name":"Uncletopia | Frankfurt | 4 | All Maps | STV","players":null},{"server_id":310,"name":"Uncletopia | Frankfurt | 5 | All Maps","name_short":"frk-5","host":"frk-1.de.uncletopia.com","port":27055,"enabled":true,"region":"eu","cc":"de","latitude":50.110924,"longitude":8.682127,"reserved":0,"last_update":"0001-01-01T00:00:00Z","name_a2s":"Uncletopia | Frankfurt | 5 | All Maps","protocol":17,"map":"cp_process_final","folder":"tf","game":"Team Fortress","app_id":440,"player_count":0,"max_players":24,"Bots":0,"server_type":"Dedicated","server_os":"Linux","password":true,"vac":true,"version":"7757534","steam_id":85568392924504277,"keywords":["cp","nocrits","nodmgspread","uncletopia"],"game_id":440,"stv_port":27056,"stv_name":"Uncletopia | Frankfurt | 5 | All Maps | STV","players":null},{"server_id":311,"name":"Uncletopia | Frankfurt | 6 | All Maps","name_short":"frk-6","host":"frk-1.de.uncletopia.com","port":27065,"enabled":true,"region":"eu","cc":"de","latitude":50.110924,"longitude":8.682127,"reserved":0,"last_update":"0001-01-01T00:00:00Z","name_a2s":"Uncletopia | Frankfurt | 6 | All Maps","protocol":17,"map":"cp_dustbowl","folder":"tf","game":"Team Fortress","app_id":440,"player_count":24,"max_players":24,"Bots":0,"server_type":"Dedicated","server_os":"Linux","password":true,"vac":true,"version":"7757534","steam_id":85568392924504278,"keywords":["cp","nocrits","nodmgspread","uncletopia"],"game_id":440,"stv_port":27066,"stv_name":"Uncletopia | Frankfurt | 6 | All Maps | STV","players":[{"user_id":115,"name":"Ennard777","steam_id":76561198965409493,"connected_time":1413000000000,"state":"active","ping":99},{"user_id":52,"name":"Roro Cyr","steam_id":76561198091380517,"connected_time":5724000000000,"state":"active","ping":70},{"user_id":85,"name":"Ian","steam_id":76561198159334435,"connected_time":3515000000000,"state":"active","ping":183},{"user_id":80,"name":"nh","steam_id":76561198999074457,"connected_time":4036000000000,"state":"active","ping":70},{"user_id":97,"name":"i wont","steam_id":76561198160888610,"connected_time":2631000000000,"state":"active","ping":90},{"user_id":128,"name":"Peanut","steam_id":76561197995312454,"connected_time":250000000000,"state":"active","ping":69},{"user_id":124,"name":"Boyarishnik","steam_id":76561198986324207,"connected_time":496000000000,"state":"active","ping":89},{"user_id":77,"name":"on1on (pickled)","steam_id":76561197995304137,"connected_time":4331000000000,"state":"active","ping":61},{"user_id":35,"name":"zabloing","steam_id":76561198339480413,"connected_time":6680000000000,"state":"active","ping":76},{"user_id":79,"name":"Cosmetic brain","steam_id":76561198055936410,"connected_time":4063000000000,"state":"active","ping":83},{"user_id":104,"name":"JohnTraveltime","steam_id":76561199244281754,"connected_time":2429000000000,"state":"active","ping":82},{"user_id":49,"name":"Stepoface","steam_id":76561198091569863,"connected_time":5876000000000,"state":"active","ping":58},{"user_id":125,"name":"Sweetcheesus","steam_id":76561198022299033,"connected_time":462000000000,"state":"active","ping":60},{"user_id":126,"name":"Tweehoek","steam_id":76561197993796913,"connected_time":426000000000,"state":"active","ping":71},{"user_id":118,"name":"Rezolt","steam_id":76561198069074807,"connected_time":1203000000000,"state":"active","ping":119},{"user_id":119,"name":"iIMOFIi","steam_id":76561199000483925,"connected_time":968000000000,"state":"active","ping":166},{"user_id":127,"name":"sposed2beworkin","steam_id":76561198103908668,"connected_time":396000000000,"state":"active","ping":73},{"user_id":37,"name":"Enigmus","steam_id":76561197994063627,"connected_time":6494000000000,"state":"active","ping":85},{"user_id":102,"name":"Hood","steam_id":76561199229682408,"connected_time":2537000000000,"state":"active","ping":57},{"user_id":103,"name":"Dolcelatte","steam_id":76561198038501770,"connected_time":2524000000000,"state":"active","ping":59},{"user_id":112,"name":"JeanCorben","steam_id":76561197965133561,"connected_time":1901000000000,"state":"active","ping":48},{"user_id":109,"name":"Вадим Какашкин","steam_id":76561198383509320,"connected_time":2313000000000,"state":"active","ping":72},{"user_id":89,"name":"Clamor_","steam_id":76561198104368295,"connected_time":3223000000000,"state":"active","ping":75},{"user_id":117,"name":"Desj","steam_id":76561198114212636,"connected_time":1379000000000,"state":"active","ping":60}]},{"server_id":23,"name":"Uncletopia | Frankfurt | 7 | Stopwatch Beta","name_short":"frk-7","host":"frk-1.de.uncletopia.com","port":27075,"enabled":true,"region":"eu","cc":"de","latitude":50.110924,"longitude":8.682127,"reserved":0,"last_update":"0001-01-01T00:00:00Z","name_a2s":"Uncletopia | Frankfurt | 7 | Stopwatch Beta","protocol":17,"map":"pl_frontier_final","folder":"tf","game":"Team Fortress","app_id":440,"player_count":0,"max_players":24,"Bots":0,"server_type":"Dedicated","server_os":"Linux","password":true,"vac":true,"version":"7757534","steam_id":85568392924742827,"keywords":["nocrits","nodmgspread","payload","uncletopia"],"game_id":440,"stv_port":27076,"stv_name":"Uncletopia | Frankfurt | 7 | Stopwatch Beta | STV","players":null},{"server_id":24,"name":"Uncletopia | Frankfurt | 8 | Community","name_short":"frk-8","host":"frk-1.de.uncletopia.com","port":27085,"enabled":true,"region":"eu","cc":"de","latitude":50.110924,"longitude":8.682127,"reserved":0,"last_update":"0001-01-01T00:00:00Z","name_a2s":"Uncletopia | Frankfurt | 8 | Community","protocol":17,"map":"workshop/pl_cactuscanyon_redux_rc4b.ugc2579644293","folder":"tf","game":"Team Fortress","app_id":440,"player_count":0,"max_players":24,"Bots":0,"server_type":"Dedicated","server_os":"Linux","password":true,"vac":true,"version":"7757534","steam_id":85568392924742828,"keywords":["nocrits","nodmgspread","payload","uncletopia"],"game_id":440,"stv_port":27086,"stv_name":"Uncletopia | Frankfurt | 8 | Community | STV","players":null},{"server_id":202,"name":"Uncletopia | Hong Kong | 1 | All Maps","name_short":"hgk-1","host":"hgk-1.hk.uncletopia.com","port":27015,"enabled":true,"region":"asia","cc":"hk","latitude":22.302711,"longitude":114.177216,"reserved":0,"last_update":"0001-01-01T00:00:00Z","name_a2s":"Uncletopia | Hong Kong | 1 | All Maps","protocol":17,"map":"pl_upward","folder":"tf","game":"Team Fortress","app_id":440,"player_count":12,"max_players":24,"Bots":0,"server_type":"Dedicated","server_os":"Linux","password":true,"vac":true,"version":"7757534","steam_id":85568392924494504,"keywords":["nocrits","nodmgspread","payload","uncletopia"],"game_id":440,"stv_port":27016,"stv_name":"Uncletopia | Hong Kong | 1 | All Maps | STV","players":[{"user_id":149,"name":"Atmun","steam_id":76561198173170199,"connected_time":1510000000000,"state":"active","ping":52},{"user_id":150,"name":"MR.Horse","steam_id":76561198448384578,"connected_time":1473000000000,"state":"active","ping":119},{"user_id":151,"name":"juan233","steam_id":76561198867566247,"connected_time":1282000000000,"state":"active","ping":91},{"user_id":152,"name":"MR. BUTTER","steam_id":76561198329902657,"connected_time":863000000000,"state":"active","ping":99},{"user_id":153,"name":"ducksaremean","steam_id":76561199093126935,"connected_time":500000000000,"state":"active","ping":86},{"user_id":154,"name":"Rephex","steam_id":76561198308185574,"connected_time":472000000000,"state":"active","ping":113},{"user_id":155,"name":"gun","steam_id":76561199468805514,"connected_time":308000000000,"state":"active","ping":142},{"user_id":156,"name":"yoda BOOL","steam_id":76561199099477033,"connected_time":263000000000,"state":"active","ping":85},{"user_id":157,"name":"Nice","steam_id":76561199180653046,"connected_time":88000000000,"state":"active","ping":127},{"user_id":158,"name":"blank","steam_id":76561199202109121,"connected_time":55000000000,"state":"active","ping":71},{"user_id":160,"name":"fishman!F2P#save tf2","steam_id":76561199225977302,"connected_time":11000000000,"state":"spawning","ping":131},{"user_id":161,"name":"Puddin","steam_id":76561198140052918,"connected_time":8000000000,"state":"active","ping":102}]},{"server_id":1,"name":"Uncletopia | Los Angeles | 1 | All Maps","name_short":"lax-1","host":"lax-1.us.uncletopia.com","port":27015,"enabled":true,"region":"us-west","cc":"us","latitude":33.94279,"longitude":-118.41004,"reserved":0,"last_update":"0001-01-01T00:00:00Z","name_a2s":"Uncletopia | Los Angeles | 1 | All Maps","protocol":17,"map":"koth_cascade","folder":"tf","game":"Team Fortress","app_id":440,"player_count":5,"max_players":24,"Bots":0,"server_type":"Dedicated","server_os":"Linux","password":true,"vac":true,"version":"7757534","steam_id":85568392924469991,"keywords":["cp","nocrits","nodmgspread","uncletopia"],"game_id":440,"stv_port":27016,"stv_name":"Uncletopia | Los Angeles | 1 | All Maps | STV","players":[{"user_id":725,"name":"Stovi3t","steam_id":76561198833276190,"connected_time":2086000000000,"state":"active","ping":35},{"user_id":732,"name":"maniacalparagraph","steam_id":76561198094123992,"connected_time":619000000000,"state":"active","ping":159},{"user_id":705,"name":"Hindmost","steam_id":76561199081837220,"connected_time":3543000000000,"state":"active","ping":94},{"user_id":727,"name":"Soldier","steam_id":76561198018359280,"connected_time":2050000000000,"state":"active","ping":40},{"user_id":682,"name":"Army Ant12","steam_id":76561198121029250,"connected_time":5695000000000,"state":"active","ping":54}]},{"server_id":112,"name":"Uncletopia | Los Angeles | 2 | All Maps","name_short":"lax-2","host":"lax-1.us.uncletopia.com","port":27025,"enabled":true,"region":"us-west","cc":"us","latitude":33.94279,"longitude":-118.41004,"reserved":0,"last_update":"0001-01-01T00:00:00Z","name_a2s":"Uncletopia | Los Angeles | 2 | All Maps","protocol":17,"map":"pl_badwater","folder":"tf","game":"Team Fortress","app_id":440,"player_count":0,"max_players":24,"Bots":0,"server_type":"Dedicated","server_os":"Linux","password":true,"vac":true,"version":"7757534","steam_id":85568392924469992,"keywords":["nocrits","nodmgspread","payload","uncletopia"],"game_id":440,"stv_port":27026,"stv_name":"Uncletopia | Los Angeles | 2 | All Maps | STV","players":null},{"server_id":324,"name":"Uncletopia | Los Angeles | 3 | All Maps","name_short":"lax-3","host":"lax-1.us.uncletopia.com","port":27035,"enabled":true,"region":"us-west","cc":"us","latitude":33.94279,"longitude":-118.41004,"reserved":0,"last_update":"0001-01-01T00:00:00Z","name_a2s":"Uncletopia | Los Angeles | 3 | All Maps","protocol":17,"map":"cp_process_final","folder":"tf","game":"Team Fortress","app_id":440,"player_count":0,"max_players":24,"Bots":0,"server_type":"Dedicated","server_os":"Linux","password":true,"vac":true,"version":"7757534","steam_id":85568392924510198,"keywords":["cp","nocrits","nodmgspread","uncletopia"],"game_id":440,"stv_port":27036,"stv_name":"Uncletopia | Los Angeles | 3 | All Maps | STV","players":null},{"server_id":25,"name":"Uncletopia | Los Angeles | 4 | Stopwatch Beta","name_short":"lax-4","host":"lax-1.us.uncletopia.com","port":27045,"enabled":true,"region":"us-west","cc":"us","latitude":33.94279,"longitude":-118.41004,"reserved":0,"last_update":"0001-01-01T00:00:00Z","name_a2s":"Uncletopia | Los Angeles | 4 | Stopwatch Beta","protocol":17,"map":"pl_frontier_final","folder":"tf","game":"Team Fortress","app_id":440,"player_count":0,"max_players":24,"Bots":0,"server_type":"Dedicated","server_os":"Linux","password":true,"vac":true,"version":"7757534","steam_id":85568392924510199,"keywords":["nocrits","nodmgspread","payload","uncletopia"],"game_id":440,"stv_port":27046,"stv_name":"Uncletopia | Los Angeles | 4 | Stopwatch Beta | STV","players":null},{"server_id":11,"name":"Uncletopia | London | 1 | All Maps","name_short":"lon-1","host":"lon-1.uk.uncletopia.com","port":27015,"enabled":true,"region":"eu","cc":"gb","latitude":51.509865,"longitude":-0.118092,"reserved":0,"last_update":"0001-01-01T00:00:00Z","name_a2s":"Uncletopia | London | 1 | All Maps","protocol":17,"map":"koth_viaduct","folder":"tf","game":"Team Fortress","app_id":440,"player_count":0,"max_players":24,"Bots":0,"server_type":"Dedicated","server_os":"Linux","password":true,"vac":true,"version":"7757534","steam_id":85568392924367362,"keywords":["cp","nocrits","nodmgspread","uncletopia"],"game_id":440,"stv_port":27016,"stv_name":"Uncletopia | London | 1 | All Maps | STV","players":null},{"server_id":114,"name":"Uncletopia | London | 2 | All Maps","name_short":"lon-2","host":"lon-1.uk.uncletopia.com","port":27025,"enabled":true,"region":"eu","cc":"gb","latitude":51.509865,"longitude":-0.118092,"reserved":0,"last_update":"0001-01-01T00:00:00Z","name_a2s":"Uncletopia | London | 2 | All Maps","protocol":17,"map":"cp_dustbowl","folder":"tf","game":"Team Fortress","app_id":440,"player_count":0,"max_players":24,"Bots":0,"server_type":"Dedicated","server_os":"Linux","password":true,"vac":true,"version":"7757534","steam_id":85568392924470941,"keywords":["cp","nocrits","nodmgspread","uncletopia"],"game_id":440,"stv_port":27026,"stv_name":"Uncletopia | London | 2 | All Maps | STV","players":null},{"server_id":320,"name":"Uncletopia | London | 3 | All Maps","name_short":"lon-3","host":"lon-1.uk.uncletopia.com","port":27035,"enabled":true,"region":"eu","cc":"gb","latitude":51.509865,"longitude":-0.118092,"reserved":0,"last_update":"0001-01-01T00:00:00Z","name_a2s":"Uncletopia | London | 3 | All Maps","protocol":17,"map":"cp_altitude","folder":"tf","game":"Team Fortress","app_id":440,"player_count":0,"max_players":24,"Bots":0,"server_type":"Dedicated","server_os":"Linux","password":true,"vac":true,"version":"7757534","steam_id":85568392924510192,"keywords":["cp","nocrits","nodmgspread","uncletopia"],"game_id":440,"stv_port":27036,"stv_name":"Uncletopia | London | 3 | All Maps | STV","players":null},{"server_id":321,"name":"Uncletopia | London | 4 | All Maps","name_short":"lon-4","host":"lon-1.uk.uncletopia.com","port":27045,"enabled":true,"region":"eu","cc":"gb","latitude":51.509865,"longitude":-0.118092,"reserved":0,"last_update":"0001-01-01T00:00:00Z","name_a2s":"Uncletopia | London | 4 | All Maps","protocol":17,"map":"koth_viaduct","folder":"tf","game":"Team Fortress","app_id":440,"player_count":0,"max_players":24,"Bots":0,"server_type":"Dedicated","server_os":"Linux","password":true,"vac":true,"version":"7757534","steam_id":85568392924510193,"keywords":["cp","nocrits","nodmgspread","uncletopia"],"game_id":440,"stv_port":27046,"stv_name":"Uncletopia | London | 4 | All Maps | STV","players":null},{"server_id":21,"name":"Uncletopia | London | 5 | All Maps","name_short":"lon-5","host":"lon-1.uk.uncletopia.com","port":27055,"enabled":true,"region":"eu","cc":"gb","latitude":51.509865,"longitude":-0.118092,"reserved":0,"last_update":"0001-01-01T00:00:00Z","name_a2s":"Uncletopia | London | 5 | All Maps","protocol":17,"map":"pl_snowycoast","folder":"tf","game":"Team Fortress","app_id":440,"player_count":0,"max_players":24,"Bots":0,"server_type":"Dedicated","server_os":"Linux","password":true,"vac":true,"version":"7757534","steam_id":85568392924742829,"keywords":["nocrits","nodmgspread","payload","uncletopia"],"game_id":440,"stv_port":27056,"stv_name":"Uncletopia | London | 5 | All Maps | STV","players":null},{"server_id":22,"name":"Uncletopia | London | 6 | All Maps","name_short":"lon-6","host":"lon-1.uk.uncletopia.com","port":27065,"enabled":true,"region":"eu","cc":"gb","latitude":51.509865,"longitude":-0.118092,"reserved":0,"last_update":"0001-01-01T00:00:00Z","name_a2s":"Uncletopia | London | 6 | All Maps","protocol":17,"map":"koth_cascade","folder":"tf","game":"Team Fortress","app_id":440,"player_count":0,"max_players":24,"Bots":0,"server_type":"Dedicated","server_os":"Linux","password":true,"vac":true,"version":"7757534","steam_id":85568392924742830,"keywords":["cp","nocrits","nodmgspread","uncletopia"],"game_id":440,"stv_port":27066,"stv_name":"Uncletopia | London | 6 | All Maps | STV","players":null},{"server_id":40,"name":"Uncletopia | London | 7 | No Payload","name_short":"lon-7","host":"lon-1.uk.uncletopia.com","port":27075,"enabled":true,"region":"eu","cc":"gb","latitude":51.509865,"longitude":-0.118092,"reserved":0,"last_update":"0001-01-01T00:00:00Z","name_a2s":"Uncletopia | London | 7 | No Payload","protocol":17,"map":"cp_mountainlab","folder":"tf","game":"Team Fortress","app_id":440,"player_count":0,"max_players":24,"Bots":0,"server_type":"Dedicated","server_os":"Linux","password":true,"vac":true,"version":"7757534","steam_id":85568392924964314,"keywords":["cp","nocrits","nodmgspread","uncletopia"],"game_id":440,"stv_port":27076,"stv_name":"Uncletopia | London | 7 | No Payload | STV","players":null},{"server_id":41,"name":"Uncletopia | London | 8 | Community","name_short":"lon-8","host":"lon-1.uk.uncletopia.com","port":27085,"enabled":true,"region":"eu","cc":"gb","latitude":51.509865,"longitude":-0.118092,"reserved":0,"last_update":"0001-01-01T00:00:00Z","name_a2s":"Uncletopia | London | 8 | Community","protocol":17,"map":"workshop/cp_bruhstbowl_b5.ugc2878604990","folder":"tf","game":"Team Fortress","app_id":440,"player_count":0,"max_players":24,"Bots":0,"server_type":"Dedicated","server_os":"Linux","password":true,"vac":true,"version":"7757534","steam_id":85568392924964315,"keywords":["cp","nocrits","nodmgspread","uncletopia"],"game_id":440,"stv_port":27086,"stv_name":"Uncletopia | London | 8 | Community | STV","players":null},{"server_id":300,"name":"Uncletopia | Montréal | 1 | All Maps","name_short":"mtl-1","host":"mtl-1.ca.uncletopia.com","port":27015,"enabled":true,"region":"us-east","cc":"ca","latitude":45.50889,"longitude":-73.56167,"reserved":0,"last_update":"0001-01-01T00:00:00Z","name_a2s":"Uncletopia | Montréal | 1 | All Maps","protocol":17,"map":"pl_swiftwater_final1","folder":"tf","game":"Team Fortress","app_id":440,"player_count":0,"max_players":24,"Bots":0,"server_type":"Dedicated","server_os":"Linux","password":true,"vac":true,"version":"7757534","steam_id":85568392924500087,"keywords":["nocrits","nodmgspread","payload","uncletopia"],"game_id":440,"stv_port":27016,"stv_name":"Uncletopia | Montréal | 1 | All Maps | STV","players":null},{"server_id":301,"name":"Uncletopia | Montréal | 2 | All Maps","name_short":"mtl-2","host":"mtl-1.ca.uncletopia.com","port":27025,"enabled":true,"region":"us-east","cc":"ca","latitude":45.50889,"longitude":-73.56167,"reserved":0,"last_update":"0001-01-01T00:00:00Z","name_a2s":"Uncletopia | Montréal | 2 | All Maps","protocol":17,"map":"koth_viaduct","folder":"tf","game":"Team Fortress","app_id":440,"player_count":0,"max_players":24,"Bots":0,"server_type":"Dedicated","server_os":"Linux","password":true,"vac":true,"version":"7757534","steam_id":85568392924500088,"keywords":["cp","nocrits","nodmgspread","uncletopia"],"game_id":440,"stv_port":27026,"stv_name":"Uncletopia | Montréal | 2 | All Maps | STV","players":null},{"server_id":302,"name":"Uncletopia | Montréal | 3 | All Maps","name_short":"mtl-3","host":"mtl-1.ca.uncletopia.com","port":27035,"enabled":true,"region":"us-east","cc":"ca","latitude":45.50889,"longitude":-73.56167,"reserved":0,"last_update":"0001-01-01T00:00:00Z","name_a2s":"Uncletopia | Montréal | 3 | All Maps","protocol":17,"map":"koth_viaduct","folder":"tf","game":"Team Fortress","app_id":440,"player_count":0,"max_players":24,"Bots":0,"server_type":"Dedicated","server_os":"Linux","password":true,"vac":true,"version":"7757534","steam_id":85568392924500089,"keywords":["cp","nocrits","nodmgspread","uncletopia"],"game_id":440,"stv_port":27036,"stv_name":"Uncletopia | Montréal | 3 | All Maps | STV","players":null},{"server_id":303,"name":"Uncletopia | Montréal | 4 | No Payload","name_short":"mtl-4","host":"mtl-1.ca.uncletopia.com","port":27045,"enabled":true,"region":"us-east","cc":"ca","latitude":45.50889,"longitude":-73.56167,"reserved":0,"last_update":"0001-01-01T00:00:00Z","name_a2s":"Uncletopia | Montréal | 4 | No Payload","protocol":17,"map":"cp_coldfront","folder":"tf","game":"Team Fortress","app_id":440,"player_count":0,"max_players":24,"Bots":0,"server_type":"Dedicated","server_os":"Linux","password":true,"vac":true,"version":"7757534","steam_id":85568392924500090,"keywords":["cp","nocrits","nodmgspread","uncletopia"],"game_id":440,"stv_port":27046,"stv_name":"Uncletopia | Montréal | 4 | No Payload | STV","players":null},{"server_id":13,"name":"Uncletopia | New York City | 1 | All Maps","name_short":"nyc-1","host":"nyc-1.us.uncletopia.com","port":27015,"enabled":true,"region":"us-east","cc":"us","latitude":40.73061,"longitude":-73.93524,"reserved":0,"last_update":"0001-01-01T00:00:00Z","name_a2s":"Uncletopia | New York City | 1 | All Maps","protocol":17,"map":"pl_frontier_final","folder":"tf","game":"Team Fortress","app_id":440,"player_count":0,"max_players":24,"Bots":0,"server_type":"Dedicated","server_os":"Linux","password":true,"vac":true,"version":"7757534","steam_id":85568392924469993,"keywords":["nocrits","nodmgspread","payload","uncletopia"],"game_id":440,"stv_port":27016,"stv_name":"Uncletopia | New York City | 1 | All Maps | STV","players":null},{"server_id":14,"name":"Uncletopia | New York City | 2 | All Maps","name_short":"nyc-2","host":"nyc-1.us.uncletopia.com","port":27025,"enabled":true,"region":"us-east","cc":"us","latitude":40.73061,"longitude":-73.93524,"reserved":0,"last_update":"0001-01-01T00:00:00Z","name_a2s":"Uncletopia | New York City | 2 | All Maps","protocol":17,"map":"koth_cascade","folder":"tf","game":"Team Fortress","app_id":440,"player_count":1,"max_players":24,"Bots":0,"server_type":"Dedicated","server_os":"Linux","password":true,"vac":true,"version":"7757534","steam_id":85568392924469994,"keywords":["cp","nocrits","nodmgspread","uncletopia"],"game_id":440,"stv_port":27026,"stv_name":"Uncletopia | New York City | 2 | All Maps | STV","players":[{"user_id":840,"name":"Sweetie","steam_id":76561198806688369,"connected_time":259000000000,"state":"active","ping":53}]},{"server_id":15,"name":"Uncletopia | New York City | 3 | Stopwatch Beta","name_short":"nyc-3","host":"nyc-1.us.uncletopia.com","port":27035,"enabled":true,"region":"us-east","cc":"us","latitude":40.73061,"longitude":-73.93524,"reserved":0,"last_update":"0001-01-01T00:00:00Z","name_a2s":"Uncletopia | New York City | 3 | Stopwatch Beta","protocol":17,"map":"workshop/koth_ramjam_rc1.ugc459778887","folder":"tf","game":"Team Fortress","app_id":440,"player_count":0,"max_players":24,"Bots":0,"server_type":"Dedicated","server_os":"Linux","password":true,"vac":true,"version":"7757534","steam_id":85568392924742820,"keywords":["cp","nocrits","nodmgspread","uncletopia"],"game_id":440,"stv_port":27036,"stv_name":"Uncletopia | New York City | 3 | Stopwatch Beta | STV","players":null},{"server_id":16,"name":"Uncletopia | New York City | 4 | Community","name_short":"nyc-4","host":"nyc-1.us.uncletopia.com","port":27045,"enabled":true,"region":"us-east","cc":"us","latitude":40.73061,"longitude":-73.93524,"reserved":0,"last_update":"0001-01-01T00:00:00Z","name_a2s":"Uncletopia | New York City | 4 | Community","protocol":17,"map":"workshop/rd_asteroid_redux_b1.ugc2154902912","folder":"tf","game":"Team Fortress","app_id":440,"player_count":0,"max_players":24,"Bots":0,"server_type":"Dedicated","server_os":"Linux","password":true,"vac":true,"version":"7757534","steam_id":85568392924742821,"keywords":["beta","nocrits","nodmgspread","rd","uncletopia"],"game_id":440,"stv_port":27046,"stv_name":"Uncletopia | New York City | 4 | Community | STV","players":null},{"server_id":142,"name":"Uncletopia | São Paulo | 1 | All Maps","name_short":"sao-1","host":"sao-1.br.uncletopia.com","port":27015,"enabled":true,"region":"sa","cc":"br","latitude":-23.533773,"longitude":-46.62529,"reserved":0,"last_update":"0001-01-01T00:00:00Z","name_a2s":"Uncletopia | São Paulo | 1 | All Maps","protocol":17,"map":"pl_badwater","folder":"tf","game":"Team Fortress","app_id":440,"player_count":0,"max_players":24,"Bots":0,"server_type":"Dedicated","server_os":"Linux","password":true,"vac":true,"version":"7757534","steam_id":85568392924469996,"keywords":["nocrits","nodmgspread","payload","uncletopia"],"game_id":440,"stv_port":27016,"stv_name":"Uncletopia | São Paulo | 1 | All Maps | STV","players":null},{"server_id":143,"name":"Uncletopia | São Paulo | 2 | All Maps","name_short":"sao-2","host":"sao-2.br.uncletopia.com","port":27015,"enabled":true,"region":"sa","cc":"br","latitude":-23.533773,"longitude":-46.62529,"reserved":0,"last_update":"0001-01-01T00:00:00Z","name_a2s":"Uncletopia | São Paulo | 2 | All Maps","protocol":17,"map":"pl_borneo","folder":"tf","game":"Team Fortress","app_id":440,"player_count":0,"max_players":24,"Bots":0,"server_type":"Dedicated","server_os":"Linux","password":true,"vac":true,"version":"7757534","steam_id":85568392924485349,"keywords":["nocrits","nodmgspread","payload","uncletopia"],"game_id":440,"stv_port":27016,"stv_name":"Uncletopia | São Paulo | 2 | All Maps | STV","players":null},{"server_id":7,"name":"Uncletopia | Seattle | 1 | All Maps","name_short":"sea-1","host":"sea-1.us.uncletopia.com","port":27015,"enabled":true,"region":"us-west","cc":"us","latitude":47.608013,"longitude":-122.33517,"reserved":0,"last_update":"0001-01-01T00:00:00Z","name_a2s":"Uncletopia | Seattle | 1 | All Maps","protocol":17,"map":"pl_frontier_final","folder":"tf","game":"Team Fortress","app_id":440,"player_count":23,"max_players":24,"Bots":0,"server_type":"Dedicated","server_os":"Linux","password":true,"vac":true,"version":"7757534","steam_id":85568392924469997,"keywords":["nocrits","nodmgspread","payload","uncletopia"],"game_id":440,"stv_port":27016,"stv_name":"Uncletopia | Seattle | 1 | All Maps | STV","players":[{"user_id":680,"name":"Shamaury","steam_id":76561198073773862,"connected_time":1584000000000,"state":"active","ping":112},{"user_id":630,"name":"Whore","steam_id":76561197978362230,"connected_time":4592000000000,"state":"active","ping":45},{"user_id":653,"name":"Inflight","steam_id":76561198920049475,"connected_time":3700000000000,"state":"active","ping":112},{"user_id":696,"name":"PeaTea","steam_id":76561198056647365,"connected_time":180000000000,"state":"active","ping":108},{"user_id":686,"name":"Screwwie","steam_id":76561198006892781,"connected_time":1376000000000,"state":"active","ping":45},{"user_id":668,"name":"Fig Newtonian Physics","steam_id":76561198043828477,"connected_time":2402000000000,"state":"active","ping":56},{"user_id":663,"name":"HavelMan","steam_id":76561198112360934,"connected_time":3071000000000,"state":"active","ping":60},{"user_id":674,"name":"Rick","steam_id":76561198082608196,"connected_time":2185000000000,"state":"active","ping":59},{"user_id":693,"name":"Endstar","steam_id":76561198326392714,"connected_time":288000000000,"state":"active","ping":56},{"user_id":656,"name":"Reilly","steam_id":76561198218911131,"connected_time":3479000000000,"state":"active","ping":83},{"user_id":597,"name":"Archimedes!","steam_id":76561199446023933,"connected_time":8271000000000,"state":"active","ping":76},{"user_id":658,"name":"Cam(era)","steam_id":76561198285054047,"connected_time":3336000000000,"state":"active","ping":72},{"user_id":691,"name":"Zlavus","steam_id":76561198217652861,"connected_time":296000000000,"state":"active","ping":67},{"user_id":646,"name":"banan team fortes","steam_id":76561199073621650,"connected_time":3888000000000,"state":"active","ping":80},{"user_id":626,"name":"NES","steam_id":76561198828655975,"connected_time":5218000000000,"state":"active","ping":53},{"user_id":697,"name":"nescoceo","steam_id":76561198040801160,"connected_time":169000000000,"state":"active","ping":76},{"user_id":671,"name":"MINI CRIT!999","steam_id":76561198027649268,"connected_time":2237000000000,"state":"active","ping":90},{"user_id":688,"name":"Satan-2","steam_id":76561199231742764,"connected_time":1313000000000,"state":"active","ping":122},{"user_id":610,"name":"Level 99 Mudcrab","steam_id":76561198077452771,"connected_time":7437000000000,"state":"active","ping":60},{"user_id":694,"name":"Grill Skills","steam_id":76561198053575147,"connected_time":287000000000,"state":"active","ping":67},{"user_id":699,"name":"goldhed","steam_id":76561198051751133,"connected_time":116000000000,"state":"active","ping":64},{"user_id":689,"name":"Don Cheadle Lover","steam_id":76561198803762229,"connected_time":1267000000000,"state":"active","ping":139},{"user_id":698,"name":"Atomic Waffles","steam_id":76561197970935570,"connected_time":164000000000,"state":"active","ping":115}]},{"server_id":119,"name":"Uncletopia | Seattle | 2 | All Maps","name_short":"sea-2","host":"sea-1.us.uncletopia.com","port":27025,"enabled":true,"region":"us-west","cc":"us","latitude":47.608013,"longitude":-122.33517,"reserved":0,"last_update":"0001-01-01T00:00:00Z","name_a2s":"Uncletopia | Seattle | 2 | All Maps","protocol":17,"map":"pl_swiftwater_final1","folder":"tf","game":"Team Fortress","app_id":440,"player_count":13,"max_players":24,"Bots":0,"server_type":"Dedicated","server_os":"Linux","password":true,"vac":true,"version":"7757534","steam_id":85568392924469998,"keywords":["nocrits","nodmgspread","payload","uncletopia"],"game_id":440,"stv_port":27026,"stv_name":"Uncletopia | Seattle | 2 | All Maps | STV","players":[{"user_id":767,"name":"Puppeteer","steam_id":76561198159928108,"connected_time":675000000000,"state":"active","ping":54},{"user_id":752,"name":"Ediot","steam_id":76561199349494096,"connected_time":2658000000000,"state":"active","ping":132},{"user_id":761,"name":"A Good Name (she/her)","steam_id":76561198858190691,"connected_time":1850000000000,"state":"active","ping":93},{"user_id":766,"name":"ChuChu","steam_id":76561199443647976,"connected_time":873000000000,"state":"active","ping":94},{"user_id":773,"name":"watchfull","steam_id":76561198433266742,"connected_time":200000000000,"state":"active","ping":54},{"user_id":757,"name":"Blue 2001 Subaru Forester","steam_id":76561198161200131,"connected_time":2088000000000,"state":"active","ping":81},{"user_id":769,"name":"kapow","steam_id":76561198864356024,"connected_time":487000000000,"state":"active","ping":75},{"user_id":759,"name":"Shiina","steam_id":76561198119032676,"connected_time":2044000000000,"state":"active","ping":103},{"user_id":760,"name":"Red 1994 Toyota Camry","steam_id":76561198189974469,"connected_time":2005000000000,"state":"active","ping":76},{"user_id":770,"name":"hypercarnivore","steam_id":76561198383246825,"connected_time":446000000000,"state":"active","ping":116},{"user_id":771,"name":"ROFLMAOLOLXD!","steam_id":76561199472748548,"connected_time":432000000000,"state":"active","ping":71},{"user_id":772,"name":"Paul Blart","steam_id":76561198068110623,"connected_time":389000000000,"state":"active","ping":45},{"user_id":774,"name":"Zippy","steam_id":76561198279229422,"connected_time":17000000000,"state":"spawning","ping":92}]},{"server_id":406,"name":"Uncletopia | Seattle | 3 | Stopwatch Beta","name_short":"sea-3","host":"sea-1.us.uncletopia.com","port":27035,"enabled":true,"region":"us-west","cc":"us","latitude":47.608013,"longitude":-122.33517,"reserved":0,"last_update":"0001-01-01T00:00:00Z","name_a2s":"Uncletopia | Seattle | 3 | Stopwatch Beta","protocol":17,"map":"workshop/koth_product_final.ugc454272353","folder":"tf","game":"Team Fortress","app_id":440,"player_count":0,"max_players":24,"Bots":0,"server_type":"Dedicated","server_os":"Linux","password":true,"vac":true,"version":"7757534","steam_id":85568392924515217,"keywords":["cp","nocrits","nodmgspread","uncletopia"],"game_id":440,"stv_port":27036,"stv_name":"Uncletopia | Seattle | 3 | Stopwatch Beta | STV","players":null},{"server_id":17,"name":"Uncletopia | San Francisco | 1 | All Maps","name_short":"sfo-1","host":"sfo-1.us.uncletopia.com","port":27015,"enabled":true,"region":"us-west","cc":"us","latitude":37.77397,"longitude":-122.4313,"reserved":0,"last_update":"0001-01-01T00:00:00Z","name_a2s":"Uncletopia | San Francisco | 1 | All Maps","protocol":17,"map":"koth_king","folder":"tf","game":"Team Fortress","app_id":440,"player_count":22,"max_players":24,"Bots":0,"server_type":"Dedicated","server_os":"Linux","password":true,"vac":true,"version":"7757534","steam_id":85568392924469999,"keywords":["cp","nocrits","nodmgspread","uncletopia"],"game_id":440,"stv_port":27016,"stv_name":"Uncletopia | San Francisco | 1 | All Maps | STV","players":[{"user_id":677,"name":"L L I W","steam_id":76561198044656070,"connected_time":906000000000,"state":"active","ping":70},{"user_id":678,"name":"yungSoul","steam_id":76561198121831068,"connected_time":892000000000,"state":"active","ping":60},{"user_id":666,"name":"SilentninjaTheUndefenestratable","steam_id":76561198387601885,"connected_time":1908000000000,"state":"active","ping":60},{"user_id":597,"name":"臭いチキン","steam_id":76561198106938500,"connected_time":5603000000000,"state":"active","ping":47},{"user_id":675,"name":"silver","steam_id":76561199020503397,"connected_time":1027000000000,"state":"active","ping":41},{"user_id":627,"name":"Otto","steam_id":76561198139834597,"connected_time":3847000000000,"state":"active","ping":86},{"user_id":679,"name":"Trips","steam_id":76561198054581597,"connected_time":813000000000,"state":"active","ping":46},{"user_id":689,"name":"[NoMic]SUPERJARATEMONKEYDEATHCA","steam_id":76561197971492734,"connected_time":254000000000,"state":"active","ping":112},{"user_id":676,"name":"› Panik the Cat","steam_id":76561198050301260,"connected_time":1022000000000,"state":"active","ping":46},{"user_id":663,"name":"waaaaaa","steam_id":76561199223514262,"connected_time":2368000000000,"state":"active","ping":120},{"user_id":669,"name":"Mozz","steam_id":76561198132892873,"connected_time":1851000000000,"state":"active","ping":69},{"user_id":652,"name":"CouncilCheese","steam_id":76561198131765661,"connected_time":2932000000000,"state":"active","ping":127},{"user_id":685,"name":"wii shop music","steam_id":76561198046847315,"connected_time":486000000000,"state":"active","ping":61},{"user_id":647,"name":"Drippy Goku","steam_id":76561198053031355,"connected_time":3040000000000,"state":"active","ping":127},{"user_id":610,"name":"O bez","steam_id":76561198841579939,"connected_time":4713000000000,"state":"active","ping":67},{"user_id":645,"name":"mu","steam_id":76561197997530228,"connected_time":3111000000000,"state":"active","ping":75},{"user_id":682,"name":"Shadow wizard money gang","steam_id":76561198116106967,"connected_time":663000000000,"state":"active","ping":90},{"user_id":686,"name":"MagicalBoyChan","steam_id":76561198024776873,"connected_time":473000000000,"state":"active","ping":96},{"user_id":662,"name":"Chris Babaganoosh","steam_id":76561197968961838,"connected_time":2445000000000,"state":"active","ping":140},{"user_id":672,"name":"EyePoke42","steam_id":76561197967237998,"connected_time":1560000000000,"state":"active","ping":98},{"user_id":684,"name":"D3TRΩR3AP3R","steam_id":76561198189423917,"connected_time":600000000000,"state":"active","ping":73},{"user_id":690,"name":"schorschili.bauer","steam_id":76561198060422037,"connected_time":59000000000,"state":"active","ping":268}]},{"server_id":18,"name":"Uncletopia | San Francisco | 2 | All Maps","name_short":"sfo-2","host":"sfo-1.us.uncletopia.com","port":27025,"enabled":true,"region":"us-west","cc":"us","latitude":37.77397,"longitude":-122.4313,"reserved":0,"last_update":"0001-01-01T00:00:00Z","name_a2s":"Uncletopia | San Francisco | 2 | All Maps","protocol":17,"map":"koth_cascade","folder":"tf","game":"Team Fortress","app_id":440,"player_count":0,"max_players":24,"Bots":0,"server_type":"Dedicated","server_os":"Linux","password":true,"vac":true,"version":"7757534","steam_id":85568392924470000,"keywords":["cp","nocrits","nodmgspread","uncletopia"],"game_id":440,"stv_port":27026,"stv_name":"Uncletopia | San Francisco | 2 | All Maps | STV","players":null},{"server_id":19,"name":"Uncletopia | San Francisco | 3 | Stopwatch Beta","name_short":"sfo-3","host":"sfo-1.us.uncletopia.com","port":27035,"enabled":true,"region":"us-west","cc":"us","latitude":37.77397,"longitude":-122.4313,"reserved":0,"last_update":"0001-01-01T00:00:00Z","name_a2s":"Uncletopia | San Francisco | 3 | Stopwatch Beta","protocol":17,"map":"pl_borneo","folder":"tf","game":"Team Fortress","app_id":440,"player_count":0,"max_players":24,"Bots":0,"server_type":"Dedicated","server_os":"Linux","password":true,"vac":true,"version":"7757534","steam_id":85568392924742824,"keywords":["nocrits","nodmgspread","payload","uncletopia"],"game_id":440,"stv_port":27036,"stv_name":"Uncletopia | San Francisco | 3 | Stopwatch Beta | STV","players":null},{"server_id":20,"name":"Uncletopia | San Francisco | 4 | Community","name_short":"sfo-4","host":"sfo-1.us.uncletopia.com","port":27045,"enabled":true,"region":"us-west","cc":"us","latitude":37.77397,"longitude":-122.4313,"reserved":0,"last_update":"0001-01-01T00:00:00Z","name_a2s":"Uncletopia | San Francisco | 4 | Community","protocol":17,"map":"koth_highpass","folder":"tf","game":"Team Fortress","app_id":440,"player_count":0,"max_players":24,"Bots":0,"server_type":"Dedicated","server_os":"Linux","password":true,"vac":true,"version":"7757534","steam_id":85568392924742826,"keywords":["cp","nocrits","nodmgspread","uncletopia"],"game_id":440,"stv_port":27046,"stv_name":"Uncletopia | San Francisco | 4 | Community | STV","players":null},{"server_id":141,"name":"Uncletopia | Sydney | 1 | All Maps","name_short":"syd-1","host":"syd-1.au.uncletopia.com","port":27015,"enabled":true,"region":"au","cc":"au","latitude":-33.865143,"longitude":151.2099,"reserved":0,"last_update":"0001-01-01T00:00:00Z","name_a2s":"Uncletopia | Sydney | 1 | All Maps","protocol":17,"map":"pl_badwater","folder":"tf","game":"Team Fortress","app_id":440,"player_count":24,"max_players":24,"Bots":0,"server_type":"Dedicated","server_os":"Linux","password":true,"vac":true,"version":"7757534","steam_id":85568392924470001,"keywords":["nocrits","nodmgspread","payload","uncletopia"],"game_id":440,"stv_port":27016,"stv_name":"Uncletopia | Sydney | 1 | All Maps | STV","players":[{"user_id":489,"name":"0","steam_id":76561198325503336,"connected_time":1245000000000,"state":"active","ping":48},{"user_id":492,"name":"chicken pie","steam_id":76561198072287767,"connected_time":882000000000,"state":"active","ping":59},{"user_id":490,"name":"octavia","steam_id":76561199029851609,"connected_time":1033000000000,"state":"active","ping":52},{"user_id":497,"name":"Joy in A Box","steam_id":76561198156820753,"connected_time":219000000000,"state":"active","ping":163},{"user_id":491,"name":"888","steam_id":76561197965566926,"connected_time":1031000000000,"state":"active","ping":44},{"user_id":483,"name":"The Impractical Engineer","steam_id":76561198114782628,"connected_time":1531000000000,"state":"active","ping":67},{"user_id":417,"name":"whiteshaq","steam_id":76561198131988811,"connected_time":6198000000000,"state":"active","ping":79},{"user_id":495,"name":"Tasman","steam_id":76561198041224384,"connected_time":553000000000,"state":"active","ping":40},{"user_id":377,"name":"heavy eating on cart","steam_id":76561198811532659,"connected_time":9015000000000,"state":"active","ping":177},{"user_id":416,"name":"Glockenspe (She/Her)","steam_id":76561199184115241,"connected_time":6209000000000,"state":"active","ping":54},{"user_id":418,"name":"Gasoline","steam_id":76561198879023728,"connected_time":6157000000000,"state":"active","ping":76},{"user_id":486,"name":"Rags","steam_id":76561198179481430,"connected_time":1440000000000,"state":"active","ping":89},{"user_id":445,"name":"DragRiper","steam_id":76561198050917553,"connected_time":4971000000000,"state":"active","ping":59},{"user_id":499,"name":"bluehat","steam_id":76561198355125370,"connected_time":145000000000,"state":"active","ping":53},{"user_id":448,"name":"Maestro[FmJ]","steam_id":76561197996842734,"connected_time":4391000000000,"state":"active","ping":68},{"user_id":470,"name":"Greenie Weenie","steam_id":76561198147970145,"connected_time":2570000000000,"state":"active","ping":33},{"user_id":452,"name":"Pat","steam_id":76561198244663182,"connected_time":4191000000000,"state":"active","ping":59},{"user_id":498,"name":"eekynetwo(F2P Piss Sniper)","steam_id":76561198990017441,"connected_time":209000000000,"state":"active","ping":144},{"user_id":487,"name":"Moist","steam_id":76561198110566656,"connected_time":1375000000000,"state":"active","ping":57},{"user_id":472,"name":"Voltus5","steam_id":76561198081265589,"connected_time":2468000000000,"state":"active","ping":69},{"user_id":474,"name":"Hippity_Hoppity","steam_id":76561198861050395,"connected_time":2397000000000,"state":"active","ping":72},{"user_id":430,"name":"primal","steam_id":76561198257852006,"connected_time":5901000000000,"state":"active","ping":57},{"user_id":459,"name":"WinterPizza850","steam_id":76561199043352840,"connected_time":2966000000000,"state":"active","ping":101},{"user_id":481,"name":"AzureFox","steam_id":76561198108179408,"connected_time":1838000000000,"state":"active","ping":87}]},{"server_id":123,"name":"Uncletopia | Sydney | 2 | All Maps","name_short":"syd-2","host":"syd-1.au.uncletopia.com","port":27025,"enabled":true,"region":"au","cc":"au","latitude":-33.865143,"longitude":151.2099,"reserved":0,"last_update":"0001-01-01T00:00:00Z","name_a2s":"Uncletopia | Sydney | 2 | All Maps","protocol":17,"map":"pl_frontier_final","folder":"tf","game":"Team Fortress","app_id":440,"player_count":24,"max_players":24,"Bots":0,"server_type":"Dedicated","server_os":"Linux","password":true,"vac":true,"version":"7757534","steam_id":85568392924470002,"keywords":["nocrits","nodmgspread","payload","uncletopia"],"game_id":440,"stv_port":27026,"stv_name":"Uncletopia | Sydney | 2 | All Maps | STV","players":[{"user_id":329,"name":"alan (caffeine addict)","steam_id":76561198825091679,"connected_time":1930000000000,"state":"active","ping":60},{"user_id":261,"name":"atheon but (real)","steam_id":76561198054096076,"connected_time":6550000000000,"state":"active","ping":52},{"user_id":295,"name":"a loaf of bread","steam_id":76561198206424961,"connected_time":4184000000000,"state":"active","ping":61},{"user_id":345,"name":"nonna","steam_id":76561197999763269,"connected_time":1102000000000,"state":"active","ping":57},{"user_id":355,"name":"Cal","steam_id":76561198069132107,"connected_time":295000000000,"state":"active","ping":85},{"user_id":348,"name":"Cv76","steam_id":76561198817942619,"connected_time":1057000000000,"state":"active","ping":44},{"user_id":288,"name":"Muffin™","steam_id":76561198819353439,"connected_time":4865000000000,"state":"active","ping":53},{"user_id":297,"name":"The Nefarious Nuisance","steam_id":76561198951178401,"connected_time":4015000000000,"state":"active","ping":75},{"user_id":315,"name":"JayTheLlamaKing","steam_id":76561198836354249,"connected_time":3116000000000,"state":"active","ping":67},{"user_id":346,"name":"ᴉɯɯᴉp","steam_id":76561198038225943,"connected_time":1089000000000,"state":"active","ping":60},{"user_id":332,"name":"Empr","steam_id":76561198024387396,"connected_time":1856000000000,"state":"active","ping":65},{"user_id":321,"name":"fingerlickn_good","steam_id":76561197987615069,"connected_time":2637000000000,"state":"active","ping":48},{"user_id":323,"name":"scout tf2","steam_id":76561198251386932,"connected_time":1989000000000,"state":"active","ping":72},{"user_id":354,"name":"Jimbo Limbo The Scout Main","steam_id":76561199174449723,"connected_time":429000000000,"state":"active","ping":154},{"user_id":342,"name":"Borgooskulleater","steam_id":76561198347646513,"connected_time":1575000000000,"state":"active","ping":59},{"user_id":352,"name":"korn","steam_id":76561198022563294,"connected_time":746000000000,"state":"active","ping":107},{"user_id":336,"name":"Nenguu","steam_id":76561198243952386,"connected_time":1722000000000,"state":"active","ping":60},{"user_id":341,"name":"scout (traumatised)","steam_id":76561198126490152,"connected_time":1630000000000,"state":"active","ping":39},{"user_id":353,"name":"blicky","steam_id":76561198029829077,"connected_time":457000000000,"state":"active","ping":90},{"user_id":314,"name":"timboe","steam_id":76561198003442007,"connected_time":3187000000000,"state":"active","ping":58},{"user_id":343,"name":"yung ape","steam_id":76561198126960363,"connected_time":1553000000000,"state":"active","ping":115},{"user_id":356,"name":"Kronos","steam_id":76561199041152585,"connected_time":236000000000,"state":"active","ping":56},{"user_id":294,"name":"Blaze Deval","steam_id":76561198045536914,"connected_time":4359000000000,"state":"active","ping":95},{"user_id":260,"name":"A KNIFE!","steam_id":76561198160390701,"connected_time":6732000000000,"state":"active","ping":57}]},{"server_id":395,"name":"Uncletopia | Sydney | 3 | All Maps","name_short":"syd-3","host":"syd-1.au.uncletopia.com","port":27035,"enabled":true,"region":"au","cc":"au","latitude":-33.865143,"longitude":151.2099,"reserved":0,"last_update":"0001-01-01T00:00:00Z","name_a2s":"Uncletopia | Sydney | 3 | All Maps","protocol":17,"map":"koth_lakeside_final","folder":"tf","game":"Team Fortress","app_id":440,"player_count":18,"max_players":24,"Bots":0,"server_type":"Dedicated","server_os":"Linux","password":true,"vac":true,"version":"7757534","steam_id":85568392925194467,"keywords":["cp","nocrits","nodmgspread","uncletopia"],"game_id":440,"stv_port":27036,"stv_name":"Uncletopia | Sydney | 3 | All Maps | STV","players":[{"user_id":19,"name":"not mario","steam_id":76561198396375950,"connected_time":788000000000,"state":"active","ping":88},{"user_id":20,"name":"MACKY","steam_id":76561199081949338,"connected_time":777000000000,"state":"active","ping":89},{"user_id":21,"name":"Kaiak","steam_id":76561198906312014,"connected_time":773000000000,"state":"active","ping":104},{"user_id":22,"name":"Phoenix068","steam_id":76561198392551491,"connected_time":756000000000,"state":"active","ping":100},{"user_id":43,"name":"ND22","steam_id":76561198966077096,"connected_time":33000000000,"state":"active","ping":167},{"user_id":26,"name":"froge99","steam_id":76561199228347853,"connected_time":693000000000,"state":"active","ping":103},{"user_id":27,"name":"Branko","steam_id":76561199262196710,"connected_time":692000000000,"state":"active","ping":44},{"user_id":28,"name":"wooper","steam_id":76561199376365049,"connected_time":660000000000,"state":"active","ping":145},{"user_id":46,"name":"Smae ⎊ ⎊","steam_id":76561198161497327,"connected_time":10000000000,"state":"active","ping":64},{"user_id":37,"name":"Dad","steam_id":76561198190255859,"connected_time":350000000000,"state":"active","ping":62},{"user_id":38,"name":"Pigmop","steam_id":76561199096494193,"connected_time":346000000000,"state":"active","ping":77},{"user_id":44,"name":"Mr.Deathclaw","steam_id":76561198025419320,"connected_time":31000000000,"state":"spawning","ping":41},{"user_id":33,"name":"Finios","steam_id":76561198209013071,"connected_time":596000000000,"state":"active","ping":58},{"user_id":35,"name":"Crumpet","steam_id":76561199096381193,"connected_time":473000000000,"state":"active","ping":68},{"user_id":40,"name":"TotalUmbrella","steam_id":76561198296334011,"connected_time":309000000000,"state":"active","ping":134},{"user_id":41,"name":"DIY Miracle","steam_id":76561198046228152,"connected_time":196000000000,"state":"active","ping":55},{"user_id":42,"name":"Lincoln2603","steam_id":76561198170236666,"connected_time":106000000000,"state":"active","ping":33},{"user_id":45,"name":"Mai","steam_id":76561197999096050,"connected_time":30000000000,"state":"active","ping":50}]},{"server_id":396,"name":"Uncletopia | Sydney | 4 | All Maps","name_short":"syd-4","host":"syd-1.au.uncletopia.com","port":27045,"enabled":true,"region":"au","cc":"au","latitude":-33.865143,"longitude":151.2099,"reserved":0,"last_update":"0001-01-01T00:00:00Z","name_a2s":"Uncletopia | Sydney | 4 | All Maps","protocol":17,"map":"koth_lakeside_final","folder":"tf","game":"Team Fortress","app_id":440,"player_count":2,"max_players":24,"Bots":0,"server_type":"Dedicated","server_os":"Linux","password":true,"vac":true,"version":"7757534","steam_id":85568392925397958,"keywords":["cp","nocrits","nodmgspread","uncletopia"],"game_id":440,"stv_port":27046,"stv_name":"Uncletopia | Sydney | 4 | All Maps | STV","players":[{"user_id":7,"name":"Nate_Dead","steam_id":76561199467946394,"connected_time":62000000000,"state":"active","ping":151},{"user_id":8,"name":"bangerlop","steam_id":76561199349993627,"connected_time":61000000000,"state":"active","ping":148}]},{"server_id":58,"name":"Uncletopia | Sydney | 5 | Stopwatch Beta","name_short":"syd-5","host":"syd-1.au.uncletopia.com","port":27055,"enabled":true,"region":"au","cc":"au","latitude":-33.865143,"longitude":151.2099,"reserved":0,"last_update":"0001-01-01T00:00:00Z","name_a2s":"Uncletopia | Sydney | 5 | Stopwatch Beta","protocol":17,"map":"koth_highpass","folder":"tf","game":"Team Fortress","app_id":440,"player_count":0,"max_players":24,"Bots":0,"server_type":"Dedicated","server_os":"Linux","password":true,"vac":true,"version":"7757534","steam_id":85568392925397959,"keywords":["cp","nocrits","nodmgspread","uncletopia"],"game_id":440,"stv_port":27056,"stv_name":"Uncletopia | Sydney | 5 | Stopwatch Beta | STV","players":null},{"server_id":59,"name":"Uncletopia | Sydney | 6 | Community","name_short":"syd-6","host":"syd-1.au.uncletopia.com","port":27065,"enabled":true,"region":"au","cc":"au","latitude":-33.865143,"longitude":151.2099,"reserved":0,"last_update":"0001-01-01T00:00:00Z","name_a2s":"Uncletopia | Sydney | 6 | Community","protocol":17,"map":"workshop/koth_bagel_rc5.ugc2514036946","folder":"tf","game":"Team Fortress","app_id":440,"player_count":0,"max_players":24,"Bots":0,"server_type":"Dedicated","server_os":"Linux","password":true,"vac":true,"version":"7757534","steam_id":85568392925397960,"keywords":["cp","nocrits","nodmgspread","uncletopia"],"game_id":440,"stv_port":27066,"stv_name":"Uncletopia | Sydney | 6 | Community | STV","players":null},{"server_id":49,"name":"Uncletopia | Warsaw | 1 | All Maps","name_short":"waw-1","host":"waw-1.pl.uncletopia.com","port":27015,"enabled":true,"region":"eu","cc":"pl","latitude":52.2297,"longitude":21.017532,"reserved":0,"last_update":"0001-01-01T00:00:00Z","name_a2s":"","protocol":0,"map":"","folder":"","game":"","app_id":0,"player_count":0,"max_players":0,"Bots":0,"server_type":"","server_os":"","password":false,"vac":false,"version":"","steam_id":0,"keywords":null,"game_id":0,"stv_port":0,"stv_name":"","players":null},{"server_id":50,"name":"Uncletopia | Warsaw | 2 | All Maps","name_short":"waw-2","host":"waw-1.pl.uncletopia.com","port":27025,"enabled":true,"region":"eu","cc":"pl","latitude":52.2297,"longitude":21.017532,"reserved":0,"last_update":"0001-01-01T00:00:00Z","name_a2s":"Uncletopia | Warsaw | 2 | All Maps","protocol":17,"map":"cp_dustbowl","folder":"tf","game":"Team Fortress","app_id":440,"player_count":0,"max_players":24,"Bots":0,"server_type":"Dedicated","server_os":"Linux","password":true,"vac":true,"version":"7757534","steam_id":85568392925397851,"keywords":["cp","nocrits","nodmgspread","uncletopia"],"game_id":440,"stv_port":27026,"stv_name":"Uncletopia | Warsaw | 2 | All Maps | STV","players":null},{"server_id":51,"name":"Uncletopia | Warsaw | 3 | All Maps","name_short":"waw-3","host":"waw-1.pl.uncletopia.com","port":27035,"enabled":true,"region":"eu","cc":"pl","latitude":52.2297,"longitude":21.017532,"reserved":0,"last_update":"0001-01-01T00:00:00Z","name_a2s":"Uncletopia | Warsaw | 3 | All Maps","protocol":17,"map":"pl_barnblitz","folder":"tf","game":"Team Fortress","app_id":440,"player_count":0,"max_players":24,"Bots":0,"server_type":"Dedicated","server_os":"Linux","password":true,"vac":true,"version":"7757534","steam_id":85568392925397852,"keywords":["nocrits","nodmgspread","payload","uncletopia"],"game_id":440,"stv_port":27036,"stv_name":"Uncletopia | Warsaw | 3 | All Maps | STV","players":null},{"server_id":52,"name":"Uncletopia | Warsaw | 4 | All Maps","name_short":"waw-4","host":"waw-1.pl.uncletopia.com","port":27045,"enabled":true,"region":"eu","cc":"pl","latitude":52.2297,"longitude":21.017532,"reserved":0,"last_update":"0001-01-01T00:00:00Z","name_a2s":"Uncletopia | Warsaw | 4 | All Maps","protocol":17,"map":"pl_snowycoast","folder":"tf","game":"Team Fortress","app_id":440,"player_count":0,"max_players":24,"Bots":0,"server_type":"Dedicated","server_os":"Linux","password":true,"vac":true,"version":"7757534","steam_id":85568392925397853,"keywords":["nocrits","nodmgspread","payload","uncletopia"],"game_id":440,"stv_port":27046,"stv_name":"Uncletopia | Warsaw | 4 | All Maps | STV","players":null},{"server_id":53,"name":"Uncletopia | Warsaw | 5 | Stopwatch Beta","name_short":"waw-5","host":"waw-1.pl.uncletopia.com","port":27055,"enabled":true,"region":"eu","cc":"pl","latitude":52.2297,"longitude":21.017532,"reserved":0,"last_update":"0001-01-01T00:00:00Z","name_a2s":"Uncletopia | Warsaw | 5 | Stopwatch Beta","protocol":17,"map":"pl_barnblitz","folder":"tf","game":"Team Fortress","app_id":440,"player_count":0,"max_players":24,"Bots":0,"server_type":"Dedicated","server_os":"Linux","password":true,"vac":true,"version":"7757534","steam_id":85568392925397854,"keywords":["nocrits","nodmgspread","payload","uncletopia"],"game_id":440,"stv_port":27056,"stv_name":"Uncletopia | Warsaw | 5 | Stopwatch Beta | STV","players":null},{"server_id":54,"name":"Uncletopia | Warsaw | 6 | Community","name_short":"waw-6","host":"waw-1.pl.uncletopia.com","port":27065,"enabled":true,"region":"eu","cc":"pl","latitude":52.2297,"longitude":21.017532,"reserved":0,"last_update":"0001-01-01T00:00:00Z","name_a2s":"Uncletopia | Warsaw | 6 | Community","protocol":17,"map":"pl_swiftwater_final1","folder":"tf","game":"Team Fortress","app_id":440,"player_count":0,"max_players":24,"Bots":0,"server_type":"Dedicated","server_os":"Linux","password":true,"vac":true,"version":"7757534","steam_id":85568392925397856,"keywords":["nocrits","nodmgspread","payload","uncletopia"],"game_id":440,"stv_port":27066,"stv_name":"Uncletopia | Warsaw | 6 | Community | STV","players":null}]}