{"status":true,"message":"","result":[{"server_id":9,"name":"Uncletopia | Atlanta | 1 | All Maps","name_short":"atl-1","host":"atl-1.us.uncletopia.com","port":27015,"enabled":true,"region":"us-east","cc":"us","latitude":33.753746,"longitude":-84.38633,"reserved":0,"last_update":"0001-01-01T00:00:00Z","name_a2s":"Uncletopia | Atlanta | 1 | All Maps","protocol":17,"map":"pl_frontier_final","folder":"tf","game":"Team Fortress","app_id":440,"player_count":24,"max_players":24,"Bots":0,"server_type":"Dedicated","server_os":"Linux","password":true,"vac":true,"version":"7757534","steam_id":85568392924469982,"keywords":["nocrits","nodmgspread","payload","uncletopia"],"game_id":440,"stv_port":27016,"stv_name":"Uncletopia | Atlanta | 1 | All Maps | STV","players":[{"user_id":786,"name":"tim-","steam_id":76561199119101315,"connected_time":2486000000000,"state":"active","ping":64},{"user_id":796,"name":"Nox(She/They)","steam_id":76561198141950842,"connected_time":1705000000000,"state":"active","ping":44},{"user_id":799,"name":"bad bitch high on life","steam_id":76561199113715081,"connected_time":1596000000000,"state":"active","ping":51},{"user_id":772,"name":"ARegularJohnDoe","steam_id":76561198015020139,"connected_time":3617000000000,"state":"active","ping":62},{"user_id":787,"name":"Female Gamer","steam_id":76561199366482682,"connected_time":2480000000000,"state":"active","ping":147},{"user_id":788,"name":"Mobius","steam_id":76561199121973450,"connected_time":2456000000000,"state":"active","ping":62},{"user_id":803,"name":"Pascal","steam_id":76561198902657591,"connected_time":1555000000000,"state":"active","ping":49},{"user_id":802,"name":"Dezorbo","steam_id":76561197971883897,"connected_time":1579000000000,"state":"active","ping":71},{"user_id":784,"name":"TheRealMud","steam_id":76561198138312993,"connected_time":2642000000000,"state":"active","ping":86},{"user_id":801,"name":"Lord Dragon","steam_id":76561198310300373,"connected_time":1583000000000,"state":"active","ping":82},{"user_id":783,"name":"im lonely so i read romcoms","steam_id":76561199013337543,"connected_time":2731000000000,"state":"active","ping":51},{"user_id":804,"name":"kbsfnk","steam_id":76561198036884600,"connected_time":1553000000000,"state":"active","ping":70},{"user_id":805,"name":"CupOJo","steam_id":76561198067153390,"connected_time":1534000000000,"state":"active","ping":76},{"user_id":763,"name":"fish","steam_id":76561198054070811,"connected_time":4649000000000,"state":"active","ping":113},{"user_id":797,"name":"Moonglass Kaiju","steam_id":76561198043431819,"connected_time":1704000000000,"state":"active","ping":70},{"user_id":811,"name":"Calkus","steam_id":76561198261297949,"connected_time":898000000000,"state":"active","ping":77},{"user_id":807,"name":"Gary","steam_id":76561198133309753,"connected_time":1483000000000,"state":"active","ping":67},{"user_id":711,"name":"C papi","steam_id":76561198027779564,"connected_time":8883000000000,"state":"active","ping":53},{"user_id":770,"name":"cass","steam_id":76561198074502046,"connected_time":3862000000000,"state":"active","ping":56},{"user_id":812,"name":"BiggSlorp","steam_id":76561199130776156,"connected_time":876000000000,"state":"active","ping":66},{"user_id":749,"name":"Mage","steam_id":76561198285026879,"connected_time":5325000000000,"state":"active","ping":82},{"user_id":809,"name":"Austria-Hungary","steam_id":76561198808125985,"connected_time":1445000000000,"state":"active","ping":183},{"user_id":815,"name":"Yoloisnotded","steam_id":76561198995043589,"connected_time":188000000000,"state":"active","ping":152},{"user_id":540,"name":"Bag","steam_id":76561198012395490,"connected_time":21900000000000,"state":"active","ping":60}]},{"server_id":104,"name":"Uncletopia | Atlanta | 2 | All Maps","name_short":"atl-2","host":"atl-1.us.uncletopia.com","port":27025,"enabled":true,"region":"us-east","cc":"us","latitude":33.753746,"longitude":-84.38633,"reserved":0,"last_update":"0001-01-01T00:00:00Z","name_a2s":"Uncletopia | Atlanta | 2 | All Maps","protocol":17,"map":"koth_lakeside_final","folder":"tf","game":"Team Fortress","app_id":440,"player_count":22,"max_players":24,"Bots":0,"server_type":"Dedicated","server_os":"Linux","password":true,"vac":true,"version":"7757534","steam_id":85568392924469983,"keywords":["cp","nocrits","nodmgspread","uncletopia"],"game_id":440,"stv_port":27026,"stv_name":"Uncletopia | Atlanta | 2 | All Maps | STV","players":[{"user_id":735,"name":"aika","steam_id":76561198046787147,"connected_time":4378000000000,"state":"active","ping":111},{"user_id":777,"name":"128 GB RAM SENTRY","steam_id":76561198059500571,"connected_time":1402000000000,"state":"active","ping":57},{"user_id":736,"name":"Cherry Bomb!","steam_id":76561198017947020,"connected_time":4373000000000,"state":"active","ping":45},{"user_id":799,"name":"Bow_","steam_id":76561198109608134,"connected_time":9000000000,"state":"active","ping":96},{"user_id":785,"name":"ItsBrieDude","steam_id":76561198051971306,"connected_time":1258000000000,"state":"active","ping":42},{"user_id":779,"name":"Ket","steam_id":76561198241951244,"connected_time":1378000000000,"state":"active","ping":74},{"user_id":798,"name":"Delemis","steam_id":76561198148259846,"connected_time":454000000000,"state":"active","ping":99},{"user_id":792,"name":"OGGrouch","steam_id":76561198096736560,"connected_time":865000000000,"state":"active","ping":59},{"user_id":756,"name":"aversa","steam_id":76561198840460101,"connected_time":3547000000000,"state":"active","ping":82},{"user_id":786,"name":"Kasodani Kyouko","steam_id":76561198023178589,"connected_time":1204000000000,"state":"active","ping":98},{"user_id":725,"name":"sex (real)","steam_id":76561198396414319,"connected_time":5146000000000,"state":"active","ping":106},{"user_id":761,"name":"CEO of non-economic inflation","steam_id":76561198258126130,"connected_time":3395000000000,"state":"active","ping":63},{"user_id":780,"name":"Feel the bern","steam_id":76561198078824519,"connected_time":1376000000000,"state":"active","ping":128},{"user_id":776,"name":"Opossum","steam_id":76561199187337967,"connected_time":2029000000000,"state":"active","ping":83},{"user_id":741,"name":"Omi Alliance Gaming","steam_id":76561198058133813,"connected_time":4350000000000,"state":"active","ping":94},{"user_id":782,"name":"Crispus Attucks","steam_id":76561198084201779,"connected_time":1363000000000,"state":"active","ping":63},{"user_id":721,"name":"JiggyJ","steam_id":76561197966874809,"connected_time":5681000000000,"state":"active","ping":45},{"user_id":765,"name":"Scoundrel","steam_id":76561198056672372,"connected_time":3260000000000,"state":"active","ping":75},{"user_id":767,"name":"saber","steam_id":76561197980089457,"connected_time":2735000000000,"state":"active","ping":76},{"user_id":797,"name":"schizophrenic Stack stan","steam_id":76561198214370515,"connected_time":466000000000,"state":"active","ping":72},{"user_id":783,"name":"Gerard","steam_id":76561198053456194,"connected_time":1360000000000,"state":"active","ping":53},{"user_id":794,"name":"@swift","steam_id":76561198118238251,"connected_time":611000000000,"state":"active","ping":60}]},{"server_id":400,"name":"Uncletopia | Atlanta | 3 | Community","name_short":"atl-3","host":"atl-1.us.uncletopia.com","port":27035,"enabled":true,"region":"us-east","cc":"us","latitude":33.753746,"longitude":-84.38633,"reserved":0,"last_update":"0001-01-01T00:00:00Z","name_a2s":"Uncletopia | Atlanta | 3 | Community","protocol":17,"map":"workshop/cp_kalinka_rc6a.ugc1272700588","folder":"tf","game":"Team Fortress","app_id":440,"player_count":0,"max_players":24,"Bots":0,"server_type":"Dedicated","server_os":"Linux","password":true,"vac":true,"version":"7757534","steam_id":85568392924515187,"keywords":["cp","nocrits","nodmgspread","uncletopia"],"game_id":440,"stv_port":27036,"stv_name":"Uncletopia | Atlanta | 3 | Community | STV","players":null},{"server_id":401,"name":"Uncletopia | Atlanta | 4 | No Payload","name_short":"atl-4","host":"atl-1.us.uncletopia.com","port":27045,"enabled":true,"region":"us-east","cc":"us","latitude":33.753746,"longitude":-84.38633,"reserved":0,"last_update":"0001-01-01T00:00:00Z","name_a2s":"","protocol":0,"map":"","folder":"","game":"","app_id":0,"player_count":0,"max_players":0,"Bots":0,"server_type":"","server_os":"","password":false,"vac":false,"version":"","steam_id":0,"keywords":null,"game_id":0,"stv_port":0,"stv_name":"","players":null},{"server_id":2,"name":"Uncletopia | Chicago | 1 | All Maps","name_short":"chi-1","host":"chi-1.us.uncletopia.com","port":27015,"enabled":true,"region":"us-central","cc":"us","latitude":41.881832,"longitude":-87.62318,"reserved":0,"last_update":"0001-01-01T00:00:00Z","name_a2s":"Uncletopia | Chicago | 1 | All Maps","protocol":17,"map":"pl_swiftwater_final1","folder":"tf","game":"Team Fortress","app_id":440,"player_count":24,"max_players":24,"Bots":0,"server_type":"Dedicated","server_os":"Linux","password":true,"vac":true,"version":"7757534","steam_id":85568392924469984,"keywords":["nocrits","nodmgspread","payload","uncletopia"],"game_id":440,"stv_port":27016,"stv_name":"Uncletopia | Chicago | 1 | All Maps | STV","players":[{"user_id":647,"name":"Pig","steam_id":76561198066564910,"connected_time":8218000000000,"state":"active","ping":97},{"user_id":730,"name":"identity","steam_id":76561198140584050,"connected_time":823000000000,"state":"active","ping":63},{"user_id":734,"name":"soupy","steam_id":76561197974283797,"connected_time":447000000000,"state":"active","ping":45},{"user_id":723,"name":"Skrnn","steam_id":76561198327407398,"connected_time":1279000000000,"state":"active","ping":65},{"user_id":710,"name":"waga baga boo boo","steam_id":76561198057903129,"connected_time":2452000000000,"state":"active","ping":46},{"user_id":711,"name":"Koffy","steam_id":76561198184386039,"connected_time":2443000000000,"state":"active","ping":104},{"user_id":725,"name":"SirKnight5067","steam_id":76561198377306047,"connected_time":1195000000000,"state":"active","ping":96},{"user_id":659,"name":"MankTKO","steam_id":76561198189421005,"connected_time":7059000000000,"state":"active","ping":89},{"user_id":688,"name":"Chin","steam_id":76561198247426906,"connected_time":4571000000000,"state":"active","ping":75},{"user_id":706,"name":"boof","steam_id":76561198053901968,"connected_time":3034000000000,"state":"active","ping":84},{"user_id":726,"name":"rivera","steam_id":76561198051058706,"connected_time":1180000000000,"state":"active","ping":60},{"user_id":727,"name":"Glue Gulper","steam_id":76561198158014525,"connected_time":1170000000000,"state":"active","ping":98},{"user_id":735,"name":"puzza","steam_id":76561198035535731,"connected_time":325000000000,"state":"active","ping":56},{"user_id":722,"name":"Pipirohnni pitzza","steam_id":76561198414300607,"connected_time":1308000000000,"state":"active","ping":106},{"user_id":705,"name":"Bugc97","steam_id":76561198007662645,"connected_time":3357000000000,"state":"active","ping":84},{"user_id":715,"name":"Smittywerbenjager-manjenson","steam_id":76561198067060742,"connected_time":2167000000000,"state":"active","ping":60},{"user_id":628,"name":"Ziath","steam_id":76561198094009164,"connected_time":10091000000000,"state":"active","ping":64},{"user_id":732,"name":"Your Local Queer Librarian","steam_id":76561198013077080,"connected_time":490000000000,"state":"active","ping":61},{"user_id":728,"name":"coaster14","steam_id":76561198043862237,"connected_time":1155000000000,"state":"active","ping":92},{"user_id":703,"name":"Sheriff Monkey","steam_id":76561198053556583,"connected_time":3734000000000,"state":"active","ping":85},{"user_id":720,"name":"Dbullet","steam_id":76561198127000982,"connected_time":1413000000000,"state":"active","ping":81},{"user_id":682,"name":"bingabooga","steam_id":76561198101057741,"connected_time":5262000000000,"state":"active","ping":75},{"user_id":694,"name":"Crazed Gunman","steam_id":76561198806972543,"connected_time":4492000000000,"state":"active","ping":86},{"user_id":733,"name":"Leti","steam_id":76561198082615393,"connected_time":490000000000,"state":"active","ping":49}]},{"server_id":106,"name":"Uncletopia | Chicago | 2 | All Maps","name_short":"chi-2","host":"chi-1.us.uncletopia.com","port":27025,"enabled":true,"region":"us-central","cc":"us","latitude":41.881832,"longitude":-87.62318,"reserved":0,"last_update":"0001-01-01T00:00:00Z","name_a2s":"Uncletopia | Chicago | 2 | All Maps","protocol":17,"map":"cp_sunshine","folder":"tf","game":"Team Fortress","app_id":440,"player_count":0,"max_players":24,"Bots":0,"server_type":"Dedicated","server_os":"Linux","password":true,"vac":true,"version":"7757534","steam_id":85568392924469985,"keywords":["cp","nocrits","nodmgspread","uncletopia"],"game_id":440,"stv_port":27026,"stv_name":"Uncletopia | Chicago | 2 | All Maps | STV","players":null},{"server_id":402,"name":"Uncletopia | Chicago | 3 | All Maps","name_short":"chi-3","host":"chi-1.us.uncletopia.com","port":27035,"enabled":true,"region":"us-central","cc":"us","latitude":41.881832,"longitude":-87.62318,"reserved":0,"last_update":"0001-01-01T00:00:00Z","name_a2s":"Uncletopia | Chicago | 3 | All Maps","protocol":17,"map":"cp_gravelpit","folder":"tf","game":"Team Fortress","app_id":440,"player_count":7,"max_players":24,"Bots":0,"server_type":"Dedicated","server_os":"Linux","password":true,"vac":true,"version":"7757534","steam_id":85568392924515191,"keywords":["cp","nocrits","nodmgspread","uncletopia"],"game_id":440,"stv_port":27036,"stv_name":"Uncletopia | Chicago | 3 | All Maps | STV","players":[{"user_id":665,"name":"The Gremlin","steam_id":76561198419066993,"connected_time":82000000000,"state":"active","ping":116},{"user_id":657,"name":"NotHughesy","steam_id":76561198113064655,"connected_time":567000000000,"state":"active","ping":46},{"user_id":649,"name":"Missing Minus","steam_id":76561198120822928,"connected_time":1268000000000,"state":"active","ping":59},{"user_id":662,"name":"watchfull","steam_id":76561198433266742,"connected_time":480000000000,"state":"active","ping":114},{"user_id":592,"name":"Mitsubishi Materials","steam_id":76561198151871198,"connected_time":5286000000000,"state":"active","ping":54},{"user_id":650,"name":"Harold of the Rocks","steam_id":76561198055891429,"connected_time":1001000000000,"state":"active","ping":64},{"user_id":576,"name":"Hindmost","steam_id":76561199081837220,"connected_time":6379000000000,"state":"active","ping":83}]},{"server_id":403,"name":"Uncletopia | Chicago | 4 | All Maps","name_short":"chi-4","host":"chi-1.us.uncletopia.com","port":27045,"enabled":true,"region":"us-central","cc":"us","latitude":41.881832,"longitude":-87.62318,"reserved":0,"last_update":"0001-01-01T00:00:00Z","name_a2s":"Uncletopia | Chicago | 4 | All Maps","protocol":17,"map":"pl_swiftwater_final1","folder":"tf","game":"Team Fortress","app_id":440,"player_count":24,"max_players":24,"Bots":0,"server_type":"Dedicated","server_os":"Linux","password":true,"vac":true,"version":"7757534","steam_id":85568392924515193,"keywords":["nocrits","nodmgspread","payload","uncletopia"],"game_id":440,"stv_port":27046,"stv_name":"Uncletopia | Chicago | 4 | All Maps | STV","players":[{"user_id":701,"name":"lucy","steam_id":76561198135559825,"connected_time":781000000000,"state":"active","ping":61},{"user_id":575,"name":"looloopaa","steam_id":76561198048179242,"connected_time":12378000000000,"state":"active","ping":57},{"user_id":618,"name":"WatchWill","steam_id":76561198157237945,"connected_time":9079000000000,"state":"active","ping":67},{"user_id":703,"name":"mohamy_19","steam_id":76561198075833698,"connected_time":749000000000,"state":"active","ping":71},{"user_id":692,"name":"Lore","steam_id":76561198098407538,"connected_time":1479000000000,"state":"active","ping":85},{"user_id":678,"name":"Big Dick Swinging","steam_id":76561198053819929,"connected_time":2746000000000,"state":"active","ping":89},{"user_id":681,"name":"stupid ape","steam_id":76561198350027075,"connected_time":2588000000000,"state":"active","ping":55},{"user_id":713,"name":"wouldnt you like to know","steam_id":76561199465988748,"connected_time":216000000000,"state":"active","ping":111},{"user_id":711,"name":"factory new lenovo laptop","steam_id":76561198798667624,"connected_time":613000000000,"state":"active","ping":90},{"user_id":706,"name":"Mossed Ball","steam_id":76561199031256509,"connected_time":733000000000,"state":"active","ping":85},{"user_id":712,"name":"Gh0w0st","steam_id":76561199471261226,"connected_time":586000000000,"state":"active","ping":82},{"user_id":683,"name":"put fentanyl back in pepsi","steam_id":76561198238592900,"connected_time":2395000000000,"state":"active","ping":94},{"user_id":679,"name":"cataconik","steam_id":76561198145530829,"connected_time":2721000000000,"state":"active","ping":100},{"user_id":700,"name":"happy camper","steam_id":76561198209813328,"connected_time":932000000000,"state":"active","ping":49},{"user_id":684,"name":"Unregistered Hypercam 2","steam_id":76561198046895822,"connected_time":2365000000000,"state":"active","ping":76},{"user_id":690,"name":"milo","steam_id":76561199061380038,"connected_time":1917000000000,"state":"active","ping":75},{"user_id":708,"name":"pure sun","steam_id":76561198089225457,"connected_time":724000000000,"state":"active","ping":106},{"user_id":685,"name":"synthfunk","steam_id":76561199054162469,"connected_time":2338000000000,"state":"active","ping":82},{"user_id":689,"name":"xFactr","steam_id":76561198129007422,"connected_time":1965000000000,"state":"active","ping":59},{"user_id":709,"name":"Antwan","steam_id":76561198246200638,"connected_time":723000000000,"state":"active","ping":75},{"user_id":714,"name":"Clockwick","steam_id":76561198047292719,"connected_time":154000000000,"state":"active","ping":69},{"user_id":691,"name":"Probably A Cat","steam_id":76561198312890275,"connected_time":1531000000000,"state":"active","ping":51},{"user_id":710,"name":"Smiley ¤13¤        [Lucky]","steam_id":76561197993380615,"connected_time":714000000000,"state":"active","ping":86},{"user_id":715,"name":"speakers #4jammies","steam_id":76561198138221795,"connected_time":152000000000,"state":"active","ping":75}]},{"server_id":36,"name":"Uncletopia | Chicago | 5 | All Maps","name_short":"chi-5","host":"chi-2.us.uncletopia.com","port":27015,"enabled":true,"region":"us-central","cc":"us","latitude":41.881832,"longitude":-87.62318,"reserved":0,"last_update":"0001-01-01T00:00:00Z","name_a2s":"Uncletopia | Chicago | 5 | All Maps","protocol":17,"map":"pl_upward","folder":"tf","game":"Team Fortress","app_id":440,"player_count":24,"max_players":24,"Bots":0,"server_type":"Dedicated","server_os":"Linux","password":true,"vac":true,"version":"7757534","steam_id":85568392924866362,"keywords":["nocrits","nodmgspread","payload","uncletopia"],"game_id":440,"stv_port":27016,"stv_name":"Uncletopia | Chicago | 5 | All Maps | STV","players":[{"user_id":643,"name":"Iron","steam_id":76561198247918478,"connected_time":3148000000000,"state":"active","ping":62},{"user_id":634,"name":"DiscoTraveler","steam_id":76561199240168088,"connected_time":3475000000000,"state":"active","ping":64},{"user_id":679,"name":"derz","steam_id":76561198010742216,"connected_time":84000000000,"state":"active","ping":101},{"user_id":666,"name":"Soul","steam_id":76561198020012173,"connected_time":630000000000,"state":"active","ping":70},{"user_id":636,"name":"Clump","steam_id":76561198049690860,"connected_time":3464000000000,"state":"active","ping":113},{"user_id":651,"name":"BrushBristle","steam_id":76561198101484818,"connected_time":2508000000000,"state":"active","ping":59},{"user_id":667,"name":"Karma's Camera","steam_id":76561198059385185,"connected_time":609000000000,"state":"active","ping":60},{"user_id":668,"name":"SUMMONFISH","steam_id":76561198427908545,"connected_time":577000000000,"state":"active","ping":89},{"user_id":674,"name":"Lenny","steam_id":76561198183943137,"connected_time":248000000000,"state":"active","ping":74},{"user_id":638,"name":"Dirt Mammal","steam_id":76561198040781653,"connected_time":3427000000000,"state":"active","ping":115},{"user_id":661,"name":"worlds biggest train fan","steam_id":76561198008332777,"connected_time":1508000000000,"state":"active","ping":73},{"user_id":675,"name":"Srattinee","steam_id":76561198199840395,"connected_time":245000000000,"state":"active","ping":85},{"user_id":670,"name":"Goofball","steam_id":76561198061211537,"connected_time":570000000000,"state":"active","ping":60},{"user_id":652,"name":"The Announcer's Feet","steam_id":76561199443456893,"connected_time":2469000000000,"state":"active","ping":74},{"user_id":656,"name":"T̵̲̒H̶̪̐E̴͉͂̊M̶̾͆\ufffd","steam_id":76561198091875604,"connected_time":1998000000000,"state":"active","ping":84},{"user_id":671,"name":"ryqset","steam_id":76561198349299874,"connected_time":529000000000,"state":"active","ping":91},{"user_id":676,"name":"Czar","steam_id":76561198165585182,"connected_time":220000000000,"state":"active","ping":92},{"user_id":659,"name":"kiseek","steam_id":76561198075474088,"connected_time":1752000000000,"state":"active","ping":83},{"user_id":607,"name":"Shystie","steam_id":76561198025371440,"connected_time":5732000000000,"state":"active","ping":71},{"user_id":677,"name":"Shaw Han","steam_id":76561198204259015,"connected_time":210000000000,"state":"active","ping":98},{"user_id":678,"name":"Klitz Penischmidt (fukuinhalf)","steam_id":76561198050582941,"connected_time":107000000000,"state":"active","ping":61},{"user_id":680,"name":"Shark-Kaboom","steam_id":76561198267771123,"connected_time":66000000000,"state":"spawning","ping":79},{"user_id":681,"name":"Infinitytacos","steam_id":76561198884260211,"connected_time":18000000000,"state":"spawning","ping":103},{"user_id":660,"name":"Ringo x Seiran","steam_id":76561198357437908,"connected_time":1585000000000,"state":"active","ping":62}]},{"server_id":37,"name":"Uncletopia | Chicago | 6 | All Maps","name_short":"chi-6","host":"chi-2.us.uncletopia.com","port":27025,"enabled":true,"region":"us-central","cc":"us","latitude":41.881832,"longitude":-87.62318,"reserved":0,"last_update":"0001-01-01T00:00:00Z","name_a2s":"Uncletopia | Chicago | 6 | All Maps","protocol":17,"map":"koth_viaduct","folder":"tf","game":"Team Fortress","app_id":440,"player_count":24,"max_players":24,"Bots":0,"server_type":"Dedicated","server_os":"Linux","password":true,"vac":true,"version":"7757534","steam_id":85568392924866363,"keywords":["cp","nocrits","nodmgspread","uncletopia"],"game_id":440,"stv_port":27026,"stv_name":"Uncletopia | Chicago | 6 | All Maps | STV","players":[{"user_id":568,"name":"warm_milk","steam_id":76561198080738653,"connected_time":1398000000000,"state":"active","ping":30},{"user_id":574,"name":"BlixyDragon","steam_id":76561198295422834,"connected_time":522000000000,"state":"active","ping":113},{"user_id":551,"name":"i fell in luv w dah bandz","steam_id":76561198042600523,"connected_time":2271000000000,"state":"active","ping":54},{"user_id":573,"name":"Person","steam_id":76561198093244204,"connected_time":533000000000,"state":"active","ping":91},{"user_id":575,"name":"godsfavoritehound","steam_id":76561198072115115,"connected_time":500000000000,"state":"active","ping":85},{"user_id":576,"name":"Gay Cake","steam_id":76561198004388831,"connected_time":498000000000,"state":"active","ping":94},{"user_id":534,"name":"Holiday Fartcruise","steam_id":76561198043851584,"connected_time":3857000000000,"state":"active","ping":111},{"user_id":577,"name":"Bzamo","steam_id":76561198039883392,"connected_time":436000000000,"state":"active","ping":60},{"user_id":566,"name":"Shapeshiftertrue","steam_id":76561198440835095,"connected_time":1491000000000,"state":"active","ping":84},{"user_id":542,"name":"dirty30","steam_id":76561198021226566,"connected_time":3775000000000,"state":"active","ping":107},{"user_id":438,"name":"Zigadox","steam_id":76561198079813479,"connected_time":10626000000000,"state":"active","ping":86},{"user_id":562,"name":"Homura Simp","steam_id":76561198246080762,"connected_time":1632000000000,"state":"active","ping":51},{"user_id":549,"name":"DerpFamous","steam_id":76561198046167888,"connected_time":2337000000000,"state":"active","ping":60},{"user_id":559,"name":"Raggedy","steam_id":76561198073271513,"connected_time":1886000000000,"state":"active","ping":151},{"user_id":569,"name":"๖ۣۜTavi","steam_id":76561198088228946,"connected_time":1390000000000,"state":"active","ping":107},{"user_id":536,"name":"Sveniven","steam_id":76561198118864411,"connected_time":3844000000000,"state":"active","ping":74},{"user_id":552,"name":"Blackbird","steam_id":76561198127818333,"connected_time":2201000000000,"state":"active","ping":60},{"user_id":553,"name":"MantisToboggan","steam_id":76561197969447887,"connected_time":2187000000000,"state":"active","ping":142},{"user_id":571,"name":"ivy","steam_id":76561198031474906,"connected_time":1099000000000,"state":"active","ping":63},{"user_id":555,"name":"PANDER","steam_id":76561198021732844,"connected_time":2130000000000,"state":"active","ping":69},{"user_id":565,"name":"Wizard Raccoon","steam_id":76561198072562591,"connected_time":1580000000000,"state":"active","ping":79},{"user_id":567,"name":"oat milf","steam_id":76561198805266653,"connected_time":1463000000000,"state":"active","ping":94},{"user_id":540,"name":"vareh","steam_id":76561197993190926,"connected_time":3799000000000,"state":"active","ping":107},{"user_id":578,"name":"vtuber gaming","steam_id":76561198000522179,"connected_time":157000000000,"state":"active","ping":70}]},{"server_id":38,"name":"Uncletopia | Chicago | 7 | Stopwatch Beta","name_short":"chi-7","host":"chi-2.us.uncletopia.com","port":27035,"enabled":true,"region":"us-central","cc":"us","latitude":41.881832,"longitude":-87.62318,"reserved":0,"last_update":"0001-01-01T00:00:00Z","name_a2s":"Uncletopia | Chicago | 7 | Stopwatch Beta","protocol":17,"map":"workshop/pl_vigil_rc9.ugc1266210012","folder":"tf","game":"Team Fortress","app_id":440,"player_count":0,"max_players":24,"Bots":0,"server_type":"Dedicated","server_os":"Linux","password":true,"vac":true,"version":"7757534","steam_id":85568392924866364,"keywords":["nocrits","nodmgspread","payload","uncletopia"],"game_id":440,"stv_port":27036,"stv_name":"Uncletopia | Chicago | 7 | Stopwatch Beta | STV","players":null},{"server_id":39,"name":"Uncletopia | Chicago | 8 | Community","name_short":"chi-8","host":"chi-2.us.uncletopia.com","port":27045,"enabled":true,"region":"us-central","cc":"us","latitude":41.881832,"longitude":-87.62318,"reserved":0,"last_update":"0001-01-01T00:00:00Z","name_a2s":"Uncletopia | Chicago | 8 | Community","protocol":17,"map":"workshop/koth_synthetic_rc6a.ugc1549817316","folder":"tf","game":"Team Fortress","app_id":440,"player_count":0,"max_players":24,"Bots":0,"server_type":"Dedicated","server_os":"Linux","password":true,"vac":true,"version":"7757534","steam_id":85568392924866365,"keywords":["cp","nocrits","nodmgspread","uncletopia"],"game_id":440,"stv_port":27046,"stv_name":"Uncletopia | Chicago | 8 | Community | STV","players":null},{"server_id":8,"name":"Uncletopia | Dallas | 1 | All Maps","name_short":"dal-1","host":"dal-1.us.uncletopia.com","port":27015,"enabled":true,"region":"us-central","cc":"us","latitude":32.779167,"longitude":-96.80889,"reserved":0,"last_update":"0001-01-01T00:00:00Z","name_a2s":"Uncletopia | Dallas | 1 | All Maps","protocol":17,"map":"pl_snowycoast","folder":"tf","game":"Team Fortress","app_id":440,"player_count":23,"max_players":24,"Bots":0,"server_type":"Dedicated","server_os":"Linux","password":true,"vac":true,"version":"7757534","steam_id":85568392924469986,"keywords":["nocrits","nodmgspread","payload","uncletopia"],"game_id":440,"stv_port":27016,"stv_name":"Uncletopia | Dallas | 1 | All Maps | STV","players":[{"user_id":826,"name":"patam :)","steam_id":76561199139871691,"connected_time":2406000000000,"state":"active","ping":86},{"user_id":827,"name":"rain","steam_id":76561198848929793,"connected_time":2269000000000,"state":"active","ping":46},{"user_id":835,"name":"silver","steam_id":76561198046252513,"connected_time":1106000000000,"state":"active","ping":66},{"user_id":834,"name":"plink","steam_id":76561198057829889,"connected_time":1136000000000,"state":"active","ping":76},{"user_id":846,"name":"SpeakerD","steam_id":76561198032618618,"connected_time":33000000000,"state":"active","ping":56},{"user_id":819,"name":"Hank5","steam_id":76561198799475323,"connected_time":2783000000000,"state":"active","ping":116},{"user_id":832,"name":"Shamrock Shake Oct.10.2020 @8pm","steam_id":76561198833313201,"connected_time":1888000000000,"state":"active","ping":87},{"user_id":829,"name":"HighJingo","steam_id":76561198846814390,"connected_time":2161000000000,"state":"active","ping":65},{"user_id":830,"name":"Average Caber Fan","steam_id":76561199451299044,"connected_time":2155000000000,"state":"active","ping":72},{"user_id":799,"name":"Dynamo","steam_id":76561198057875639,"connected_time":4352000000000,"state":"active","ping":67},{"user_id":844,"name":"Trade Banned","steam_id":76561198055024163,"connected_time":929000000000,"state":"active","ping":111},{"user_id":837,"name":"CScoot","steam_id":76561198042009220,"connected_time":1018000000000,"state":"active","ping":89},{"user_id":824,"name":"joelygoat","steam_id":76561198949565555,"connected_time":2572000000000,"state":"active","ping":129},{"user_id":838,"name":"Wallas","steam_id":76561198438043121,"connected_time":1014000000000,"state":"active","ping":96},{"user_id":839,"name":"dang it darn it crap","steam_id":76561198204593875,"connected_time":1004000000000,"state":"active","ping":60},{"user_id":484,"name":"brock","steam_id":76561199015537819,"connected_time":30360000000000,"state":"active","ping":58},{"user_id":840,"name":"SKW14","steam_id":76561198215425735,"connected_time":1003000000000,"state":"active","ping":77},{"user_id":841,"name":"teatimesukka","steam_id":76561198978749594,"connected_time":1000000000000,"state":"active","ping":41},{"user_id":842,"name":"Gingersan \u003c3","steam_id":76561198331085269,"connected_time":966000000000,"state":"active","ping":67},{"user_id":843,"name":"bolainassr0","steam_id":76561199079078845,"connected_time":944000000000,"state":"active","ping":134},{"user_id":816,"name":"Kyle H. McCloud","steam_id":76561198025050432,"connected_time":3497000000000,"state":"active","ping":87},{"user_id":775,"name":"Edder","steam_id":76561198011088393,"connected_time":6664000000000,"state":"active","ping":93},{"user_id":815,"name":"Tree52","steam_id":76561198046763622,"connected_time":3610000000000,"state":"active","ping":76}]},{"server_id":108,"name":"Uncletopia | Dallas | 2 | All Maps","name_short":"dal-2","host":"dal-1.us.uncletopia.com","port":27025,"enabled":true,"region":"us-central","cc":"us","latitude":32.779167,"longitude":-96.80889,"reserved":0,"last_update":"0001-01-01T00:00:00Z","name_a2s":"Uncletopia | Dallas | 2 | All Maps","protocol":17,"map":"cp_dustbowl","folder":"tf","game":"Team Fortress","app_id":440,"player_count":24,"max_players":24,"Bots":0,"server_type":"Dedicated","server_os":"Linux","password":true,"vac":true,"version":"7757534","steam_id":85568392924469988,"keywords":["cp","nocrits","nodmgspread","uncletopia"],"game_id":440,"stv_port":27026,"stv_name":"Uncletopia | Dallas | 2 | All Maps | STV","players":[{"user_id":588,"name":"Ellis","steam_id":76561198993634489,"connected_time":3005000000000,"state":"active","ping":79},{"user_id":616,"name":"CheeseCake488","steam_id":76561199407617942,"connected_time":1217000000000,"state":"active","ping":144},{"user_id":602,"name":"VixianUwU","steam_id":76561198948815060,"connected_time":1823000000000,"state":"active","ping":74},{"user_id":607,"name":"gt","steam_id":76561198033033884,"connected_time":1673000000000,"state":"active","ping":91},{"user_id":609,"name":"Mossy","steam_id":76561198156401277,"connected_time":1558000000000,"state":"active","ping":80},{"user_id":624,"name":"MINI CRIT!999","steam_id":76561198027649268,"connected_time":467000000000,"state":"active","ping":75},{"user_id":589,"name":"ButterPoptart","steam_id":76561198132999590,"connected_time":3000000000000,"state":"active","ping":93},{"user_id":536,"name":"bo scrungulus","steam_id":76561198038036122,"connected_time":7167000000000,"state":"active","ping":60},{"user_id":622,"name":"TF3 Medic gaming","steam_id":76561199053687718,"connected_time":815000000000,"state":"active","ping":113},{"user_id":590,"name":"Dr.Nooo!!!!!!!!","steam_id":76561198064738479,"connected_time":2981000000000,"state":"active","ping":85},{"user_id":591,"name":"Bunny of Epicness","steam_id":76561198003897012,"connected_time":2969000000000,"state":"active","ping":52},{"user_id":564,"name":"Lspan","steam_id":76561199002806208,"connected_time":5714000000000,"state":"active","ping":129},{"user_id":605,"name":"bangy","steam_id":76561198043889301,"connected_time":1732000000000,"state":"active","ping":53},{"user_id":606,"name":"SIGMA [BS]","steam_id":76561197962604879,"connected_time":1721000000000,"state":"active","ping":100},{"user_id":584,"name":"charm","steam_id":76561198126751384,"connected_time":3570000000000,"state":"active","ping":71},{"user_id":619,"name":"ArnoldGamingﾠٴ","steam_id":76561198040140247,"connected_time":1100000000000,"state":"active","ping":101},{"user_id":610,"name":"DeckofDragons","steam_id":76561198057398213,"connected_time":1554000000000,"state":"active","ping":70},{"user_id":611,"name":"RaixaR","steam_id":76561198025289430,"connected_time":1538000000000,"state":"active","ping":55},{"user_id":623,"name":"Tots","steam_id":76561198027485007,"connected_time":805000000000,"state":"active","ping":61},{"user_id":600,"name":"NeverAcedIt (Pinnacle -\u003e Pit)","steam_id":76561198406671743,"connected_time":2280000000000,"state":"active","ping":91},{"user_id":621,"name":"Qwonk","steam_id":76561198041975003,"connected_time":832000000000,"state":"active","ping":75},{"user_id":595,"name":"Mythical Lag","steam_id":76561198347031281,"connected_time":2852000000000,"state":"active","ping":45},{"user_id":620,"name":"Noisgamer02","steam_id":76561198129665722,"connected_time":1015000000000,"state":"active","ping":64},{"user_id":613,"name":"TI-83 Plus","steam_id":76561198316134443,"connected_time":1434000000000,"state":"active","ping":85}]},{"server_id":5,"name":"Uncletopia | Frankfurt | 1 | All Maps","name_short":"frk-1","host":"frk-1.de.uncletopia.com","port":27015,"enabled":true,"region":"eu","cc":"de","latitude":50.110924,"longitude":8.682127,"reserved":0,"last_update":"0001-01-01T00:00:00Z","name_a2s":"Uncletopia | Frankfurt | 1 | All Maps","protocol":17,"map":"pl_snowycoast","folder":"tf","game":"Team Fortress","app_id":440,"player_count":0,"max_players":24,"Bots":0,"server_type":"Dedicated","server_os":"Linux","password":true,"vac":true,"version":"7757534","steam_id":85568392924469989,"keywords":["nocrits","nodmgspread","payload","uncletopia"],"game_id":440,"stv_port":27016,"stv_name":"Uncletopia | Frankfurt | 1 | All Maps | STV","players":null},{"server_id":110,"name":"Uncletopia | Frankfurt | 2 | All Maps","name_short":"frk-2","host":"frk-1.de.uncletopia.com","port":27025,"enabled":true,"region":"eu","cc":"de","latitude":50.110924,"longitude":8.682127,"reserved":0,"last_update":"0001-01-01T00:00:00Z","name_a2s":"Uncletopia | Frankfurt | 2 | All Maps","protocol":17,"map":"cp_snakewater_final1","folder":"tf","game":"Team Fortress","app_id":440,"player_count":0,"max_players":24,"Bots":0,"server_type":"Dedicated","server_os":"Linux","password":true,"vac":true,"version":"7757534","steam_id":85568392924469990,"keywords":["cp","nocrits","nodmgspread","uncletopia"],"game_id":440,"stv_port":27026,"stv_name":"Uncletopia | Frankfurt | 2 | All Maps | STV","players":null},{"server_id":308,"name":"Uncletopia | Frankfurt | 3 | All Maps","name_short":"frk-3","host":"frk-1.de.uncletopia.com","port":27035,"enabled":true,"region":"eu","cc":"de","latitude":50.110924,"longitude":8.682127,"reserved":0,"last_update":"0001-01-01T00:00:00Z","name_a2s":"Uncletopia | Frankfurt | 3 | All Maps","protocol":17,"map":"pl_swiftwater_final1","folder":"tf","game":"Team Fortress","app_id":440,"player_count":0,"max_players":24,"Bots":0,"server_type":"Dedicated","server_os":"Linux","password":true,"vac":true,"version":"7757534","steam_id":85568392924504274,"keywords":["nocrits","nodmgspread","payload","uncletopia"],"game_id":440,"stv_port":27036,"stv_name":"Uncletopia | Frankfurt | 3 | All Maps | STV","players":null},{"server_id":309,"name":"Uncletopia | Frankfurt | 4 | All Maps","name_short":"frk-4","host":"frk-1.de.uncletopia.com","port":27045,"enabled":true,"region":"eu","cc":"de","latitude":50.110924,"longitude":8.682127,"reserved":0,"last_update":"0001-01-01T00:00:00Z","name_a2s":"Uncletopia | Frankfurt | 4 | All Maps","protocol":17,"map":"koth_viaduct","folder":"tf","game":"Team Fortress","app_id":440,"player_count":0,"max_players":24,"Bots":0,"server_type":"Dedicated","server_os":"Linux","password":true,"vac":true,"version":"7757534","steam_id":85568392924504275,"keywords":["cp","nocrits","nodmgspread","uncletopia"],"game_id":440,"stv_port":27046,"stv_name":"Uncletopia | Frankfurt | 4 | All Maps | STV","players":null},{"server_id":310,"name":"Uncletopia | Frankfurt | 5 | All Maps","name_short":"frk-5","host":"frk-1.de.uncletopia.com","port":27055,"enabled":true,"region":"eu","cc":"de","latitude":50.110924,"longitude":8.682127,"reserved":0,"last_update":"0001-01-01T00:00:00Z","name_a2s":"Uncletopia | Frankfurt | 5 | All Maps","protocol":17,"map":"koth_lakeside_final","folder":"tf","game":"Team Fortress","app_id":440,"player_count":0,"max_players":24,"Bots":0,"server_type":"Dedicated","server_os":"Linux","password":true,"vac":true,"version":"7757534","steam_id":85568392924504277,"keywords":["cp","nocrits","nodmgspread","uncletopia"],"game_id":440,"stv_port":27056,"stv_name":"Uncletopia | Frankfurt | 5 | All Maps | STV","players":null},{"server_id":311,"name":"Uncletopia | Frankfurt | 6 | All Maps","name_short":"frk-6","host":"frk-1.de.uncletopia.com","port":27065,"enabled":true,"region":"eu","cc":"de","latitude":50.110924,"longitude":8.682127,"reserved":0,"last_update":"0001-01-01T00:00:00Z","name_a2s":"Uncletopia | Frankfurt | 6 | All Maps","protocol":17,"map":"pl_upward","folder":"tf","game":"Team Fortress","app_id":440,"player_count":0,"max_players":24,"Bots":0,"server_type":"Dedicated","server_os":"Linux","password":true,"vac":true,"version":"7757534","steam_id":85568392924504278,"keywords":["nocrits","nodmgspread","payload","uncletopia"],"game_id":440,"stv_port":27066,"stv_name":"Uncletopia | Frankfurt | 6 | All Maps | STV","players":null},{"server_id":23,"name":"Uncletopia | Frankfurt | 7 | Stopwatch Beta","name_short":"frk-7","host":"frk-1.de.uncletopia.com","port":27075,"enabled":true,"region":"eu","cc":"de","latitude":50.110924,"longitude":8.682127,"reserved":0,"last_update":"0001-01-01T00:00:00Z","name_a2s":"Uncletopia | Frankfurt | 7 | Stopwatch Beta","protocol":17,"map":"cp_sunshine","folder":"tf","game":"Team Fortress","app_id":440,"player_count":0,"max_players":24,"Bots":0,"server_type":"Dedicated","server_os":"Linux","password":true,"vac":true,"version":"7757534","steam_id":85568392924742827,"keywords":["cp","nocrits","nodmgspread","uncletopia"],"game_id":440,"stv_port":27076,"stv_name":"Uncletopia | Frankfurt | 7 | Stopwatch Beta | STV","players":null},{"server_id":24,"name":"Uncletopia | Frankfurt | 8 | Community","name_short":"frk-8","host":"frk-1.de.uncletopia.com","port":27085,"enabled":true,"region":"eu","cc":"de","latitude":50.110924,"longitude":8.682127,"reserved":0,"last_update":"0001-01-01T00:00:00Z","name_a2s":"Uncletopia | Frankfurt | 8 | Community","protocol":17,"map":"koth_lakeside_final","folder":"tf","game":"Team Fortress","app_id":440,"player_count":0,"max_players":24,"Bots":0,"server_type":"Dedicated","server_os":"Linux","password":true,"vac":true,"version":"7757534","steam_id":85568392924742828,"keywords":["cp","nocrits","nodmgspread","uncletopia"],"game_id":440,"stv_port":27086,"stv_name":"Uncletopia | Frankfurt | 8 | Community | STV","players":null},{"server_id":202,"name":"Uncletopia | Hong Kong | 1 | All Maps","name_short":"hgk-1","host":"hgk-1.hk.uncletopia.com","port":27015,"enabled":true,"region":"asia","cc":"hk","latitude":22.302711,"longitude":114.177216,"reserved":0,"last_update":"0001-01-01T00:00:00Z","name_a2s":"Uncletopia | Hong Kong | 1 | All Maps","protocol":17,"map":"koth_lakeside_final","folder":"tf","game":"Team Fortress","app_id":440,"player_count":6,"max_players":24,"Bots":0,"server_type":"Dedicated","server_os":"Linux","password":true,"vac":true,"version":"7757534","steam_id":85568392924494504,"keywords":["cp","nocrits","nodmgspread","uncletopia"],"game_id":440,"stv_port":27016,"stv_name":"Uncletopia | Hong Kong | 1 | All Maps | STV","players":[{"user_id":11,"name":"Vortex Medico","steam_id":76561198833527091,"connected_time":1218000000000,"state":"active","ping":87},{"user_id":8,"name":"JDSFE","steam_id":76561198975490851,"connected_time":1560000000000,"state":"active","ping":100},{"user_id":12,"name":"DellToNite","steam_id":76561199068666377,"connected_time":1205000000000,"state":"active","ping":101},{"user_id":13,"name":"Skyler White yo","steam_id":76561198895193247,"connected_time":1106000000000,"state":"active","ping":75},{"user_id":17,"name":"Onion Farmer","steam_id":76561198449452640,"connected_time":109000000000,"state":"active","ping":94},{"user_id":15,"name":"villy","steam_id":76561198169263597,"connected_time":876000000000,"state":"active","ping":34}]},{"server_id":1,"name":"Uncletopia | Los Angeles | 1 | All Maps","name_short":"lax-1","host":"lax-1.us.uncletopia.com","port":27015,"enabled":true,"region":"us-west","cc":"us","latitude":33.94279,"longitude":-118.41004,"reserved":0,"last_update":"0001-01-01T00:00:00Z","name_a2s":"Uncletopia | Los Angeles | 1 | All Maps","protocol":17,"map":"pl_borneo","folder":"tf","game":"Team Fortress","app_id":440,"player_count":24,"max_players":24,"Bots":0,"server_type":"Dedicated","server_os":"Linux","password":true,"vac":true,"version":"7757534","steam_id":85568392924469991,"keywords":["nocrits","nodmgspread","payload","uncletopia"],"game_id":440,"stv_port":27016,"stv_name":"Uncletopia | Los Angeles | 1 | All Maps | STV","players":[{"user_id":398,"name":"delight","steam_id":76561197980280272,"connected_time":733000000000,"state":"active","ping":74},{"user_id":402,"name":"Peter, what are you doing?","steam_id":76561198066452726,"connected_time":291000000000,"state":"active","ping":50},{"user_id":396,"name":"werolat","steam_id":76561197960544784,"connected_time":1299000000000,"state":"active","ping":47},{"user_id":374,"name":"Doctor™","steam_id":76561198134309750,"connected_time":5099000000000,"state":"active","ping":139},{"user_id":389,"name":"Ekuseebia","steam_id":76561198037504112,"connected_time":3231000000000,"state":"active","ping":76},{"user_id":407,"name":"cicada","steam_id":76561198069190432,"connected_time":99000000000,"state":"active","ping":112},{"user_id":400,"name":"Florist","steam_id":76561198009121060,"connected_time":588000000000,"state":"active","ping":79},{"user_id":383,"name":"Attrition","steam_id":76561197969881916,"connected_time":4152000000000,"state":"active","ping":75},{"user_id":392,"name":"Its Dr.Stoned","steam_id":76561198079622791,"connected_time":2051000000000,"state":"active","ping":104},{"user_id":388,"name":"dewey","steam_id":76561198132791511,"connected_time":3344000000000,"state":"active","ping":59},{"user_id":352,"name":"thunderous prophet","steam_id":76561198131166135,"connected_time":7339000000000,"state":"active","ping":60},{"user_id":362,"name":"free the comish","steam_id":76561198169755734,"connected_time":6786000000000,"state":"active","ping":57},{"user_id":403,"name":"mug","steam_id":76561198098905708,"connected_time":168000000000,"state":"active","ping":60},{"user_id":353,"name":"||:♩♩♩♪:|| Opplydead","steam_id":76561198028630334,"connected_time":7338000000000,"state":"active","ping":51},{"user_id":385,"name":"NFL.com","steam_id":76561198113405376,"connected_time":3860000000000,"state":"active","ping":45},{"user_id":368,"name":"brae","steam_id":76561198047126327,"connected_time":6015000000000,"state":"active","ping":83},{"user_id":355,"name":"NEBULA","steam_id":76561198086878595,"connected_time":7334000000000,"state":"active","ping":67},{"user_id":409,"name":"Did you know","steam_id":76561198090057040,"connected_time":7000000000,"state":"spawning","ping":34},{"user_id":408,"name":"The Dumptruck of Notre-Dame","steam_id":76561198004815026,"connected_time":72000000000,"state":"active","ping":55},{"user_id":363,"name":"Teh Pug","steam_id":76561198085810161,"connected_time":6728000000000,"state":"active","ping":45},{"user_id":399,"name":"resh","steam_id":76561198239598834,"connected_time":638000000000,"state":"active","ping":105},{"user_id":406,"name":"the hunchback of gay paris","steam_id":76561197987056308,"connected_time":144000000000,"state":"active","ping":52},{"user_id":387,"name":"smeasly","steam_id":76561198028718812,"connected_time":3396000000000,"state":"active","ping":67},{"user_id":365,"name":"jjorpts","steam_id":76561199041179985,"connected_time":6383000000000,"state":"active","ping":90}]},{"server_id":112,"name":"Uncletopia | Los Angeles | 2 | All Maps","name_short":"lax-2","host":"lax-1.us.uncletopia.com","port":27025,"enabled":true,"region":"us-west","cc":"us","latitude":33.94279,"longitude":-118.41004,"reserved":0,"last_update":"0001-01-01T00:00:00Z","name_a2s":"Uncletopia | Los Angeles | 2 | All Maps","protocol":17,"map":"pl_swiftwater_final1","folder":"tf","game":"Team Fortress","app_id":440,"player_count":24,"max_players":24,"Bots":0,"server_type":"Dedicated","server_os":"Linux","password":true,"vac":true,"version":"7757534","steam_id":85568392924469992,"keywords":["nocrits","nodmgspread","payload","uncletopia"],"game_id":440,"stv_port":27026,"stv_name":"Uncletopia | Los Angeles | 2 | All Maps | STV","players":[{"user_id":630,"name":"sans","steam_id":76561198859444420,"connected_time":883000000000,"state":"active","ping":71},{"user_id":623,"name":"2inch gang","steam_id":76561198162688146,"connected_time":1238000000000,"state":"active","ping":48},{"user_id":594,"name":"SCP-17XX","steam_id":76561198219209367,"connected_time":4402000000000,"state":"active","ping":50},{"user_id":596,"name":"Andy Samson 1 year ago","steam_id":76561199059261361,"connected_time":3484000000000,"state":"active","ping":46},{"user_id":624,"name":"A Shiny Meat Bicycle","steam_id":76561198358757709,"connected_time":1217000000000,"state":"active","ping":121},{"user_id":601,"name":"AussieAlex","steam_id":76561198001611833,"connected_time":3070000000000,"state":"active","ping":74},{"user_id":631,"name":"Jolton","steam_id":76561198855914093,"connected_time":873000000000,"state":"active","ping":66},{"user_id":613,"name":"kommando1911","steam_id":76561198121455141,"connected_time":2307000000000,"state":"active","ping":50},{"user_id":593,"name":"LovingKindne2z","steam_id":76561199064932372,"connected_time":4742000000000,"state":"active","ping":45},{"user_id":636,"name":"b4ss","steam_id":76561198116549222,"connected_time":112000000000,"state":"active","ping":63},{"user_id":625,"name":"The Greedy Grinner","steam_id":76561198124964175,"connected_time":1200000000000,"state":"active","ping":47},{"user_id":574,"name":"roach","steam_id":76561198354811369,"connected_time":5946000000000,"state":"active","ping":46},{"user_id":616,"name":"︻デ 一","steam_id":76561198149140645,"connected_time":1921000000000,"state":"active","ping":97},{"user_id":626,"name":"vioxynteris","steam_id":76561198161428666,"connected_time":1128000000000,"state":"active","ping":29},{"user_id":632,"name":"SPAMTON NFT","steam_id":76561198263004448,"connected_time":723000000000,"state":"active","ping":48},{"user_id":609,"name":"The Edumacator","steam_id":76561198347157125,"connected_time":3008000000000,"state":"active","ping":98},{"user_id":598,"name":"Erica","steam_id":76561198716139545,"connected_time":3297000000000,"state":"active","ping":89},{"user_id":611,"name":"Slim Charles","steam_id":76561197981687895,"connected_time":2633000000000,"state":"active","ping":52},{"user_id":628,"name":"Sleuth","steam_id":76561198418288939,"connected_time":1029000000000,"state":"active","ping":63},{"user_id":635,"name":"buzzito","steam_id":76561198082921691,"connected_time":323000000000,"state":"active","ping":92},{"user_id":584,"name":"WhenImMadYOU!","steam_id":76561198072432944,"connected_time":5659000000000,"state":"active","ping":120},{"user_id":617,"name":"PMT_Red","steam_id":76561198958863929,"connected_time":1912000000000,"state":"active","ping":57},{"user_id":633,"name":"NotAWeeb","steam_id":76561198165530739,"connected_time":607000000000,"state":"active","ping":53},{"user_id":588,"name":"FROYO b4nny","steam_id":76561197970669109,"connected_time":5226000000000,"state":"active","ping":45}]},{"server_id":324,"name":"Uncletopia | Los Angeles | 3 | All Maps","name_short":"lax-3","host":"lax-1.us.uncletopia.com","port":27035,"enabled":true,"region":"us-west","cc":"us","latitude":33.94279,"longitude":-118.41004,"reserved":0,"last_update":"0001-01-01T00:00:00Z","name_a2s":"Uncletopia | Los Angeles | 3 | All Maps","protocol":17,"map":"pl_barnblitz","folder":"tf","game":"Team Fortress","app_id":440,"player_count":16,"max_players":24,"Bots":0,"server_type":"Dedicated","server_os":"Linux","password":true,"vac":true,"version":"7757534","steam_id":85568392924510198,"keywords":["nocrits","nodmgspread","payload","uncletopia"],"game_id":440,"stv_port":27036,"stv_name":"Uncletopia | Los Angeles | 3 | All Maps | STV","players":[{"user_id":604,"name":"StarJesus","steam_id":76561198187728043,"connected_time":76000000000,"state":"active","ping":47},{"user_id":596,"name":"squid","steam_id":76561198070236972,"connected_time":541000000000,"state":"active","ping":58},{"user_id":544,"name":"Jolly","steam_id":76561198116357972,"connected_time":4240000000000,"state":"active","ping":46},{"user_id":605,"name":"St. Bimmius","steam_id":76561198013595716,"connected_time":58000000000,"state":"active","ping":95},{"user_id":567,"name":"Mr. Yoshida","steam_id":76561198263829831,"connected_time":2704000000000,"state":"active","ping":70},{"user_id":509,"name":"Frank (#ripJimmyCarter)","steam_id":76561198126681511,"connected_time":6210000000000,"state":"active","ping":61},{"user_id":521,"name":"SN0W","steam_id":76561198153665468,"connected_time":6055000000000,"state":"active","ping":83},{"user_id":601,"name":"Frank Accardi","steam_id":76561198017275707,"connected_time":186000000000,"state":"active","ping":60},{"user_id":584,"name":"Lord Ballsack of Cum Castle","steam_id":76561198285996788,"connected_time":1639000000000,"state":"active","ping":54},{"user_id":511,"name":"the stallion","steam_id":76561198212242403,"connected_time":6203000000000,"state":"active","ping":40},{"user_id":598,"name":"airbudenjoyer2012","steam_id":76561198150428763,"connected_time":501000000000,"state":"active","ping":54},{"user_id":563,"name":"for the king","steam_id":76561197973488858,"connected_time":3455000000000,"state":"active","ping":90},{"user_id":564,"name":"weed","steam_id":76561199128192017,"connected_time":3428000000000,"state":"active","ping":83},{"user_id":516,"name":"bengy","steam_id":76561198264288798,"connected_time":6160000000000,"state":"active","ping":54},{"user_id":581,"name":"Lumer","steam_id":76561198992487609,"connected_time":1799000000000,"state":"active","ping":57},{"user_id":589,"name":"mrthugpug1732","steam_id":76561198881200768,"connected_time":1415000000000,"state":"active","ping":67}]},{"server_id":25,"name":"Uncletopia | Los Angeles | 4 | Stopwatch Beta","name_short":"lax-4","host":"lax-1.us.uncletopia.com","port":27045,"enabled":true,"region":"us-west","cc":"us","latitude":33.94279,"longitude":-118.41004,"reserved":0,"last_update":"0001-01-01T00:00:00Z","name_a2s":"Uncletopia | Los Angeles | 4 | Stopwatch Beta","protocol":17,"map":"cp_snakewater_final1","folder":"tf","game":"Team Fortress","app_id":440,"player_count":0,"max_players":24,"Bots":0,"server_type":"Dedicated","server_os":"Linux","password":true,"vac":true,"version":"7757534","steam_id":85568392924510199,"keywords":["cp","nocrits","nodmgspread","uncletopia"],"game_id":440,"stv_port":27046,"stv_name":"Uncletopia | Los Angeles | 4 | Stopwatch Beta | STV","players":null},{"server_id":11,"name":"Uncletopia | London | 1 | All Maps","name_short":"lon-1","host":"lon-1.uk.uncletopia.com","port":27015,"enabled":true,"region":"eu","cc":"gb","latitude":51.509865,"longitude":-0.118092,"reserved":0,"last_update":"0001-01-01T00:00:00Z","name_a2s":"Uncletopia | London | 1 | All Maps","protocol":17,"map":"koth_highpass","folder":"tf","game":"Team Fortress","app_id":440,"player_count":0,"max_players":24,"Bots":0,"server_type":"Dedicated","server_os":"Linux","password":true,"vac":true,"version":"7757534","steam_id":85568392924367362,"keywords":["cp","nocrits","nodmgspread","uncletopia"],"game_id":440,"stv_port":27016,"stv_name":"Uncletopia | London | 1 | All Maps | STV","players":null},{"server_id":114,"name":"Uncletopia | London | 2 | All Maps","name_short":"lon-2","host":"lon-1.uk.uncletopia.com","port":27025,"enabled":true,"region":"eu","cc":"gb","latitude":51.509865,"longitude":-0.118092,"reserved":0,"last_update":"0001-01-01T00:00:00Z","name_a2s":"Uncletopia | London | 2 | All Maps","protocol":17,"map":"koth_viaduct","folder":"tf","game":"Team Fortress","app_id":440,"player_count":0,"max_players":24,"Bots":0,"server_type":"Dedicated","server_os":"Linux","password":true,"vac":true,"version":"7757534","steam_id":85568392924470941,"keywords":["cp","nocrits","nodmgspread","uncletopia"],"game_id":440,"stv_port":27026,"stv_name":"Uncletopia | London | 2 | All Maps | STV","players":null},{"server_id":320,"name":"Uncletopia | London | 3 | All Maps","name_short":"lon-3","host":"lon-1.uk.uncletopia.com","port":27035,"enabled":true,"region":"eu","cc":"gb","latitude":51.509865,"longitude":-0.118092,"reserved":0,"last_update":"0001-01-01T00:00:00Z","name_a2s":"Uncletopia | London | 3 | All Maps","protocol":17,"map":"ctf_2fort","folder":"tf","game":"Team Fortress","app_id":440,"player_count":15,"max_players":24,"Bots":0,"server_type":"Dedicated","server_os":"Linux","password":true,"vac":true,"version":"7757534","steam_id":85568392924510192,"keywords":["ctf","nocrits","nodmgspread","uncletopia"],"game_id":440,"stv_port":27036,"stv_name":"Uncletopia | London | 3 | All Maps | STV","players":[{"user_id":20,"name":"Duja","steam_id":76561198138466334,"connected_time":1484000000000,"state":"active","ping":106},{"user_id":28,"name":"Blaukraut","steam_id":76561198160202319,"connected_time":857000000000,"state":"active","ping":88},{"user_id":36,"name":"Zillus","steam_id":76561198025081689,"connected_time":52000000000,"state":"active","ping":74},{"user_id":9,"name":"Phlurmph","steam_id":76561198170017429,"connected_time":2542000000000,"state":"active","ping":147},{"user_id":14,"name":"Fus in Boots","steam_id":76561198053897722,"connected_time":2029000000000,"state":"active","ping":65},{"user_id":16,"name":"MtnDew","steam_id":76561199100059743,"connected_time":1796000000000,"state":"active","ping":101},{"user_id":29,"name":"ghosty122","steam_id":76561199419267863,"connected_time":637000000000,"state":"active","ping":171},{"user_id":18,"name":"cooler bones","steam_id":76561199480942903,"connected_time":1720000000000,"state":"active","ping":75},{"user_id":38,"name":"trans werewolf","steam_id":76561198107235989,"connected_time":25000000000,"state":"active","ping":70},{"user_id":21,"name":"ja","steam_id":76561199228540618,"connected_time":1467000000000,"state":"active","ping":90},{"user_id":22,"name":"Razorback from Team Fortress 2","steam_id":76561199214163032,"connected_time":1399000000000,"state":"active","ping":92},{"user_id":25,"name":"iIMOFIi","steam_id":76561199000483925,"connected_time":1099000000000,"state":"active","ping":187},{"user_id":33,"name":"DragonFruit","steam_id":76561198099526623,"connected_time":290000000000,"state":"active","ping":75},{"user_id":34,"name":"galgush","steam_id":76561199174792601,"connected_time":196000000000,"state":"active","ping":86},{"user_id":37,"name":"Creamy","steam_id":76561198063907478,"connected_time":46000000000,"state":"active","ping":56}]},{"server_id":321,"name":"Uncletopia | London | 4 | All Maps","name_short":"lon-4","host":"lon-1.uk.uncletopia.com","port":27045,"enabled":true,"region":"eu","cc":"gb","latitude":51.509865,"longitude":-0.118092,"reserved":0,"last_update":"0001-01-01T00:00:00Z","name_a2s":"Uncletopia | London | 4 | All Maps","protocol":17,"map":"cp_dustbowl","folder":"tf","game":"Team Fortress","app_id":440,"player_count":0,"max_players":24,"Bots":0,"server_type":"Dedicated","server_os":"Linux","password":true,"vac":true,"version":"7757534","steam_id":85568392924510193,"keywords":["cp","nocrits","nodmgspread","uncletopia"],"game_id":440,"stv_port":27046,"stv_name":"Uncletopia | London | 4 | All Maps | STV","players":null},{"server_id":21,"name":"Uncletopia | London | 5 | All Maps","name_short":"lon-5","host":"lon-1.uk.uncletopia.com","port":27055,"enabled":true,"region":"eu","cc":"gb","latitude":51.509865,"longitude":-0.118092,"reserved":0,"last_update":"0001-01-01T00:00:00Z","name_a2s":"Uncletopia | London | 5 | All Maps","protocol":17,"map":"cp_altitude","folder":"tf","game":"Team Fortress","app_id":440,"player_count":0,"max_players":24,"Bots":0,"server_type":"Dedicated","server_os":"Linux","password":true,"vac":true,"version":"7757534","steam_id":85568392924742829,"keywords":["cp","nocrits","nodmgspread","uncletopia"],"game_id":440,"stv_port":27056,"stv_name":"Uncletopia | London | 5 | All Maps | STV","players":null},{"server_id":22,"name":"Uncletopia | London | 6 | All Maps","name_short":"lon-6","host":"lon-1.uk.uncletopia.com","port":27065,"enabled":true,"region":"eu","cc":"gb","latitude":51.509865,"longitude":-0.118092,"reserved":0,"last_update":"0001-01-01T00:00:00Z","name_a2s":"Uncletopia | London | 6 | All Maps","protocol":17,"map":"cp_mountainlab","folder":"tf","game":"Team Fortress","app_id":440,"player_count":0,"max_players":24,"Bots":0,"server_type":"Dedicated","server_os":"Linux","password":true,"vac":true,"version":"7757534","steam_id":85568392924742830,"keywords":["cp","nocrits","nodmgspread","uncletopia"],"game_id":440,"stv_port":27066,"stv_name":"Uncletopia | London | 6 | All Maps | STV","players":null},{"server_id":40,"name":"Uncletopia | London | 7 | No Payload","name_short":"lon-7","host":"lon-1.uk.uncletopia.com","port":27075,"enabled":true,"region":"eu","cc":"gb","latitude":51.509865,"longitude":-0.118092,"reserved":0,"last_update":"0001-01-01T00:00:00Z","name_a2s":"Uncletopia | London | 7 | No Payload","protocol":17,"map":"pl_badwater","folder":"tf","game":"Team Fortress","app_id":440,"player_count":0,"max_players":24,"Bots":0,"server_type":"Dedicated","server_os":"Linux","password":true,"vac":true,"version":"7757534","steam_id":85568392924964314,"keywords":["nocrits","nodmgspread","payload","uncletopia"],"game_id":440,"stv_port":27076,"stv_name":"Uncletopia | London | 7 | No Payload | STV","players":null},{"server_id":41,"name":"Uncletopia | London | 8 | Community","name_short":"lon-8","host":"lon-1.uk.uncletopia.com","port":27085,"enabled":true,"region":"eu","cc":"gb","latitude":51.509865,"longitude":-0.118092,"reserved":0,"last_update":"0001-01-01T00:00:00Z","name_a2s":"Uncletopia | London | 8 | Community","protocol":17,"map":"pl_barnblitz","folder":"tf","game":"Team Fortress","app_id":440,"player_count":0,"max_players":24,"Bots":0,"server_type":"Dedicated","server_os":"Linux","password":true,"vac":true,"version":"7757534","steam_id":85568392924964315,"keywords":["nocrits","nodmgspread","payload","uncletopia"],"game_id":440,"stv_port":27086,"stv_name":"Uncletopia | London | 8 | Community | STV","players":null},{"server_id":300,"name":"Uncletopia | Montréal | 1 | All Maps","name_short":"mtl-1","host":"mtl-1.ca.uncletopia.com","port":27015,"enabled":true,"region":"us-east","cc":"ca","latitude":45.50889,"longitude":-73.56167,"reserved":0,"last_update":"0001-01-01T00:00:00Z","name_a2s":"Uncletopia | Montréal | 1 | All Maps","protocol":17,"map":"pl_snowycoast","folder":"tf","game":"Team Fortress","app_id":440,"player_count":0,"max_players":24,"Bots":0,"server_type":"Dedicated","server_os":"Linux","password":true,"vac":true,"version":"7757534","steam_id":85568392924500087,"keywords":["nocrits","nodmgspread","payload","uncletopia"],"game_id":440,"stv_port":27016,"stv_name":"Uncletopia | Montréal | 1 | All Maps | STV","players":null},{"server_id":301,"name":"Uncletopia | Montréal | 2 | All Maps","name_short":"mtl-2","host":"mtl-1.ca.uncletopia.com","port":27025,"enabled":true,"region":"us-east","cc":"ca","latitude":45.50889,"longitude":-73.56167,"reserved":0,"last_update":"0001-01-01T00:00:00Z","name_a2s":"Uncletopia | Montréal | 2 | All Maps","protocol":17,"map":"koth_cascade","folder":"tf","game":"Team Fortress","app_id":440,"player_count":0,"max_players":24,"Bots":0,"server_type":"Dedicated","server_os":"Linux","password":true,"vac":true,"version":"7757534","steam_id":85568392924500088,"keywords":["cp","nocrits","nodmgspread","uncletopia"],"game_id":440,"stv_port":27026,"stv_name":"Uncletopia | Montréal | 2 | All Maps | STV","players":null},{"server_id":302,"name":"Uncletopia | Montréal | 3 | All Maps","name_short":"mtl-3","host":"mtl-1.ca.uncletopia.com","port":27035,"enabled":true,"region":"us-east","cc":"ca","latitude":45.50889,"longitude":-73.56167,"reserved":0,"last_update":"0001-01-01T00:00:00Z","name_a2s":"Uncletopia | Montréal | 3 | All Maps","protocol":17,"map":"koth_cascade","folder":"tf","game":"Team Fortress","app_id":440,"player_count":0,"max_players":24,"Bots":0,"server_type":"Dedicated","server_os":"Linux","password":true,"vac":true,"version":"7757534","steam_id":85568392924500089,"keywords":["cp","nocrits","nodmgspread","uncletopia"],"game_id":440,"stv_port":27036,"stv_name":"Uncletopia | Montréal | 3 | All Maps | STV","players":null},{"server_id":303,"name":"Uncletopia | Montréal | 4 | No Payload","name_short":"mtl-4","host":"mtl-1.ca.uncletopia.com","port":27045,"enabled":true,"region":"us-east","cc":"ca","latitude":45.50889,"longitude":-73.56167,"reserved":0,"last_update":"0001-01-01T00:00:00Z","name_a2s":"Uncletopia | Montréal | 4 | No Payload","protocol":17,"map":"cp_mountainlab","folder":"tf","game":"Team Fortress","app_id":440,"player_count":0,"max_players":24,"Bots":0,"server_type":"Dedicated","server_os":"Linux","password":true,"vac":true,"version":"7757534","steam_id":85568392924500090,"keywords":["cp","nocrits","nodmgspread","uncletopia"],"game_id":440,"stv_port":27046,"stv_name":"Uncletopia | Montréal | 4 | No Payload | STV","players":null},{"server_id":13,"name":"Uncletopia | New York City | 1 | All Maps","name_short":"nyc-1","host":"nyc-1.us.uncletopia.com","port":27015,"enabled":true,"region":"us-east","cc":"us","latitude":40.73061,"longitude":-73.93524,"reserved":0,"last_update":"0001-01-01T00:00:00Z","name_a2s":"Uncletopia | New York City | 1 | All Maps","protocol":17,"map":"pl_borneo","folder":"tf","game":"Team Fortress","app_id":440,"player_count":0,"max_players":24,"Bots":0,"server_type":"Dedicated","server_os":"Linux","password":true,"vac":true,"version":"7757534","steam_id":85568392924469993,"keywords":["nocrits","nodmgspread","payload","uncletopia"],"game_id":440,"stv_port":27016,"stv_name":"Uncletopia | New York City | 1 | All Maps | STV","players":null},{"server_id":14,"name":"Uncletopia | New York City | 2 | All Maps","name_short":"nyc-2","host":"nyc-1.us.uncletopia.com","port":27025,"enabled":true,"region":"us-east","cc":"us","latitude":40.73061,"longitude":-73.93524,"reserved":0,"last_update":"0001-01-01T00:00:00Z","name_a2s":"Uncletopia | New York City | 2 | All Maps","protocol":17,"map":"cp_mountainlab","folder":"tf","game":"Team Fortress","app_id":440,"player_count":24,"max_players":24,"Bots":0,"server_type":"Dedicated","server_os":"Linux","password":true,"vac":true,"version":"7757534","steam_id":85568392924469994,"keywords":["cp","nocrits","nodmgspread","uncletopia"],"game_id":440,"stv_port":27026,"stv_name":"Uncletopia | New York City | 2 | All Maps | STV","players":[{"user_id":765,"name":"Dask","steam_id":76561198043385839,"connected_time":860000000000,"state":"active","ping":64},{"user_id":785,"name":"JOPtheMonk","steam_id":76561198070728533,"connected_time":30000000000,"state":"active","ping":106},{"user_id":764,"name":"The Ghost of Jay Leno","steam_id":76561198058938897,"connected_time":895000000000,"state":"active","ping":64},{"user_id":766,"name":"Emizip","steam_id":76561198162532286,"connected_time":847000000000,"state":"active","ping":89},{"user_id":767,"name":"estruli","steam_id":76561198295690725,"connected_time":829000000000,"state":"active","ping":66},{"user_id":756,"name":"Alcapwned","steam_id":76561198232958968,"connected_time":2115000000000,"state":"active","ping":54},{"user_id":779,"name":"nap","steam_id":76561198162714624,"connected_time":500000000000,"state":"active","ping":85},{"user_id":769,"name":"Sloj","steam_id":76561198090946567,"connected_time":804000000000,"state":"active","ping":158},{"user_id":770,"name":"dobe","steam_id":76561198911210828,"connected_time":766000000000,"state":"active","ping":117},{"user_id":771,"name":"Robby","steam_id":76561199152605617,"connected_time":740000000000,"state":"active","ping":72},{"user_id":772,"name":"Wisdom of Rage","steam_id":76561198110046630,"connected_time":679000000000,"state":"active","ping":75},{"user_id":683,"name":"Aurro (achievement hunting)","steam_id":76561198315692300,"connected_time":8778000000000,"state":"active","ping":47},{"user_id":774,"name":"Winterpage14","steam_id":76561198175713462,"connected_time":615000000000,"state":"active","ping":66},{"user_id":775,"name":"Clarence","steam_id":76561198849885309,"connected_time":607000000000,"state":"active","ping":115},{"user_id":776,"name":"Colonel Sanders","steam_id":76561198272032307,"connected_time":585000000000,"state":"active","ping":81},{"user_id":777,"name":"Sgt. Pepper","steam_id":76561198063674627,"connected_time":582000000000,"state":"active","ping":79},{"user_id":778,"name":"dragonhawk","steam_id":76561199481295178,"connected_time":523000000000,"state":"active","ping":72},{"user_id":780,"name":"sonic1394","steam_id":76561198054636788,"connected_time":499000000000,"state":"active","ping":70},{"user_id":781,"name":"Jamie Jangles","steam_id":76561198158272926,"connected_time":483000000000,"state":"active","ping":63},{"user_id":718,"name":"Ludcmorais","steam_id":76561198359217809,"connected_time":6002000000000,"state":"active","ping":177},{"user_id":782,"name":"Brendan","steam_id":76561197983851728,"connected_time":389000000000,"state":"active","ping":45},{"user_id":783,"name":"Jmciano24","steam_id":76561198050723212,"connected_time":387000000000,"state":"active","ping":47},{"user_id":784,"name":"Bong Closet","steam_id":76561198030809251,"connected_time":325000000000,"state":"active","ping":120},{"user_id":786,"name":"jupper","steam_id":76561198066022599,"connected_time":24000000000,"state":"active","ping":148}]},{"server_id":15,"name":"Uncletopia | New York City | 3 | Stopwatch Beta","name_short":"nyc-3","host":"nyc-1.us.uncletopia.com","port":27035,"enabled":true,"region":"us-east","cc":"us","latitude":40.73061,"longitude":-73.93524,"reserved":0,"last_update":"0001-01-01T00:00:00Z","name_a2s":"Uncletopia | New York City | 3 | Stopwatch Beta","protocol":17,"map":"cp_sunshine","folder":"tf","game":"Team Fortress","app_id":440,"player_count":0,"max_players":24,"Bots":0,"server_type":"Dedicated","server_os":"Linux","password":true,"vac":true,"version":"7757534","steam_id":85568392924742820,"keywords":["cp","nocrits","nodmgspread","uncletopia"],"game_id":440,"stv_port":27036,"stv_name":"Uncletopia | New York City | 3 | Stopwatch Beta | STV","players":null},{"server_id":16,"name":"Uncletopia | New York City | 4 | Community","name_short":"nyc-4","host":"nyc-1.us.uncletopia.com","port":27045,"enabled":true,"region":"us-east","cc":"us","latitude":40.73061,"longitude":-73.93524,"reserved":0,"last_update":"0001-01-01T00:00:00Z","name_a2s":"Uncletopia | New York City | 4 | Community","protocol":17,"map":"workshop/pl_cactuscanyon_redux_final2.ugc2579644293","folder":"tf","game":"Team Fortress","app_id":440,"player_count":0,"max_players":24,"Bots":0,"server_type":"Dedicated","server_os":"Linux","password":true,"vac":true,"version":"7757534","steam_id":85568392924742821,"keywords":["nocrits","nodmgspread","payload","uncletopia"],"game_id":440,"stv_port":27046,"stv_name":"Uncletopia | New York City | 4 | Community | STV","players":null},{"server_id":142,"name":"Uncletopia | São Paulo | 1 | All Maps","name_short":"sao-1","host":"sao-1.br.uncletopia.com","port":27015,"enabled":true,"region":"sa","cc":"br","latitude":-23.533773,"longitude":-46.62529,"reserved":0,"last_update":"0001-01-01T00:00:00Z","name_a2s":"Uncletopia | São Paulo | 1 | All Maps","protocol":17,"map":"pl_upward","folder":"tf","game":"Team Fortress","app_id":440,"player_count":0,"max_players":24,"Bots":0,"server_type":"Dedicated","server_os":"Linux","password":true,"vac":true,"version":"7757534","steam_id":85568392924469996,"keywords":["nocrits","nodmgspread","payload","uncletopia"],"game_id":440,"stv_port":27016,"stv_name":"Uncletopia | São Paulo | 1 | All Maps | STV","players":null},{"server_id":143,"name":"Uncletopia | São Paulo | 2 | All Maps","name_short":"sao-2","host":"sao-2.br.uncletopia.com","port":27015,"enabled":true,"region":"sa","cc":"br","latitude":-23.533773,"longitude":-46.62529,"reserved":0,"last_update":"0001-01-01T00:00:00Z","name_a2s":"Uncletopia | São Paulo | 2 | All Maps","protocol":17,"map":"pl_frontier_final","folder":"tf","game":"Team Fortress","app_id":440,"player_count":0,"max_players":24,"Bots":0,"server_type":"Dedicated","server_os":"Linux","password":true,"vac":true,"version":"7757534","steam_id":85568392924485349,"keywords":["nocrits","nodmgspread","payload","uncletopia"],"game_id":440,"stv_port":27016,"stv_name":"Uncletopia | São Paulo | 2 | All Maps | STV","players":null},{"server_id":7,"name":"Uncletopia | Seattle | 1 | All Maps","name_short":"sea-1","host":"sea-1.us.uncletopia.com","port":27015,"enabled":true,"region":"us-west","cc":"us","latitude":47.608013,"longitude":-122.33517,"reserved":0,"last_update":"0001-01-01T00:00:00Z","name_a2s":"Uncletopia | Seattle | 1 | All Maps","protocol":17,"map":"pl_borneo","folder":"tf","game":"Team Fortress","app_id":440,"player_count":24,"max_players":24,"Bots":0,"server_type":"Dedicated","server_os":"Linux","password":true,"vac":true,"version":"7757534","steam_id":85568392924469997,"keywords":["nocrits","nodmgspread","payload","uncletopia"],"game_id":440,"stv_port":27016,"stv_name":"Uncletopia | Seattle | 1 | All Maps | STV","players":[{"user_id":657,"name":"Nakasmacka","steam_id":76561198049787270,"connected_time":1246000000000,"state":"active","ping":32},{"user_id":555,"name":"General Fisticuffs","steam_id":76561198255721392,"connected_time":11682000000000,"state":"active","ping":114},{"user_id":672,"name":"forest (girldick)","steam_id":76561198157960257,"connected_time":195000000000,"state":"active","ping":45},{"user_id":620,"name":"mumbles","steam_id":76561197994528974,"connected_time":4398000000000,"state":"active","ping":81},{"user_id":658,"name":"OHGODBEES!","steam_id":76561198000653374,"connected_time":1205000000000,"state":"active","ping":85},{"user_id":647,"name":"makcmik2","steam_id":76561198242544518,"connected_time":1766000000000,"state":"active","ping":60},{"user_id":659,"name":"Trans Anime Rizz Gaming","steam_id":76561198257541502,"connected_time":1103000000000,"state":"active","ping":62},{"user_id":660,"name":"Lentil Soup","steam_id":76561198051834684,"connected_time":1031000000000,"state":"active","ping":61},{"user_id":670,"name":"NEЯO","steam_id":76561197965450216,"connected_time":397000000000,"state":"active","ping":55},{"user_id":607,"name":"V∆lume The 1rd","steam_id":76561198133260990,"connected_time":5736000000000,"state":"active","ping":60},{"user_id":666,"name":"Finkly","steam_id":76561198049828110,"connected_time":789000000000,"state":"active","ping":44},{"user_id":648,"name":"Not Slavoj Žižek","steam_id":76561198004619616,"connected_time":1737000000000,"state":"active","ping":83},{"user_id":649,"name":"Chronic Bad At Game Disease","steam_id":76561198179387139,"connected_time":1718000000000,"state":"active","ping":80},{"user_id":650,"name":"Hat in Time","steam_id":76561198045964573,"connected_time":1703000000000,"state":"active","ping":76},{"user_id":671,"name":"Alpdhuez [✚]","steam_id":76561198013808837,"connected_time":256000000000,"state":"active","ping":62},{"user_id":593,"name":"toes","steam_id":76561198221151676,"connected_time":7939000000000,"state":"active","ping":52},{"user_id":668,"name":"Rinka","steam_id":76561198973856312,"connected_time":607000000000,"state":"active","ping":80},{"user_id":586,"name":"Lord Hater","steam_id":76561199158148782,"connected_time":8316000000000,"state":"active","ping":54},{"user_id":655,"name":"mooney","steam_id":76561199110622484,"connected_time":1356000000000,"state":"active","ping":68},{"user_id":674,"name":"dodecadron","steam_id":76561198027397222,"connected_time":110000000000,"state":"active","ping":64},{"user_id":652,"name":"Neophyte","steam_id":76561198027183394,"connected_time":1680000000000,"state":"active","ping":94},{"user_id":667,"name":"cracky","steam_id":76561197971365444,"connected_time":629000000000,"state":"active","ping":52},{"user_id":669,"name":"help me","steam_id":76561198844273999,"connected_time":541000000000,"state":"active","ping":44},{"user_id":665,"name":"regular_consuelo","steam_id":76561198327831852,"connected_time":875000000000,"state":"active","ping":119}]},{"server_id":119,"name":"Uncletopia | Seattle | 2 | All Maps","name_short":"sea-2","host":"sea-1.us.uncletopia.com","port":27025,"enabled":true,"region":"us-west","cc":"us","latitude":47.608013,"longitude":-122.33517,"reserved":0,"last_update":"0001-01-01T00:00:00Z","name_a2s":"Uncletopia | Seattle | 2 | All Maps","protocol":17,"map":"pl_frontier_final","folder":"tf","game":"Team Fortress","app_id":440,"player_count":17,"max_players":24,"Bots":0,"server_type":"Dedicated","server_os":"Linux","password":true,"vac":true,"version":"7757534","steam_id":85568392924469998,"keywords":["nocrits","nodmgspread","payload","uncletopia"],"game_id":440,"stv_port":27026,"stv_name":"Uncletopia | Seattle | 2 | All Maps | STV","players":[{"user_id":577,"name":"kab789","steam_id":76561198069842202,"connected_time":341000000000,"state":"connecting","ping":111},{"user_id":535,"name":"mmmBoyo","steam_id":76561198821360261,"connected_time":4259000000000,"state":"connecting","ping":47},{"user_id":554,"name":"Ping","steam_id":76561199206514106,"connected_time":2616000000000,"state":"connecting","ping":125},{"user_id":519,"name":"Flyingcat9000","steam_id":76561198179561797,"connected_time":4936000000000,"state":"connecting","ping":68},{"user_id":553,"name":"XxSquidwardxX","steam_id":76561198294455367,"connected_time":2811000000000,"state":"connecting","ping":116},{"user_id":562,"name":"The Gnome","steam_id":76561199442139670,"connected_time":1665000000000,"state":"connecting","ping":167},{"user_id":572,"name":"ElectronX","steam_id":76561198116034988,"connected_time":828000000000,"state":"connecting","ping":216},{"user_id":565,"name":"Fallen","steam_id":76561198206490352,"connected_time":1580000000000,"state":"connecting","ping":79},{"user_id":557,"name":"♥haunti","steam_id":76561199235580556,"connected_time":2325000000000,"state":"connecting","ping":51},{"user_id":566,"name":"CreamFreaker","steam_id":76561198320293423,"connected_time":1562000000000,"state":"connecting","ping":60},{"user_id":552,"name":"I heart random crockpots","steam_id":76561198283213819,"connected_time":3142000000000,"state":"connecting","ping":123},{"user_id":576,"name":"PinguEnjoyer6","steam_id":76561199186723516,"connected_time":499000000000,"state":"connecting","ping":86},{"user_id":534,"name":"toenail_chewer_1982","steam_id":76561198078238722,"connected_time":4330000000000,"state":"connecting","ping":60},{"user_id":578,"name":"benji","steam_id":76561198084417967,"connected_time":216000000000,"state":"spawning","ping":81},{"user_id":551,"name":"MEDICINAL CRACK ENJOYER","steam_id":76561198113427343,"connected_time":3246000000000,"state":"connecting","ping":116},{"user_id":550,"name":"Lilith","steam_id":76561198120362654,"connected_time":3267000000000,"state":"connecting","ping":48}]},{"server_id":406,"name":"Uncletopia | Seattle | 3 | Stopwatch Beta","name_short":"sea-3","host":"sea-1.us.uncletopia.com","port":27035,"enabled":true,"region":"us-west","cc":"us","latitude":47.608013,"longitude":-122.33517,"reserved":0,"last_update":"0001-01-01T00:00:00Z","name_a2s":"Uncletopia | Seattle | 3 | Stopwatch Beta","protocol":17,"map":"workshop/pl_vigil_rc9.ugc1266210012","folder":"tf","game":"Team Fortress","app_id":440,"player_count":0,"max_players":24,"Bots":0,"server_type":"Dedicated","server_os":"Linux","password":true,"vac":true,"version":"7757534","steam_id":85568392924515217,"keywords":["nocrits","nodmgspread","payload","uncletopia"],"game_id":440,"stv_port":27036,"stv_name":"Uncletopia | Seattle | 3 | Stopwatch Beta | STV","players":null},{"server_id":17,"name":"Uncletopia | San Francisco | 1 | All Maps","name_short":"sfo-1","host":"sfo-1.us.uncletopia.com","port":27015,"enabled":true,"region":"us-west","cc":"us","latitude":37.77397,"longitude":-122.4313,"reserved":0,"last_update":"0001-01-01T00:00:00Z","name_a2s":"Uncletopia | San Francisco | 1 | All Maps","protocol":17,"map":"pl_badwater","folder":"tf","game":"Team Fortress","app_id":440,"player_count":24,"max_players":24,"Bots":0,"server_type":"Dedicated","server_os":"Linux","password":true,"vac":true,"version":"7757534","steam_id":85568392924469999,"keywords":["nocrits","nodmgspread","payload","uncletopia"],"game_id":440,"stv_port":27016,"stv_name":"Uncletopia | San Francisco | 1 | All Maps | STV","players":[{"user_id":444,"name":"EpsilonEagle","steam_id":76561197999126769,"connected_time":3344000000000,"state":"active","ping":154},{"user_id":452,"name":"Gonotic gnelf","steam_id":76561199135847219,"connected_time":3113000000000,"state":"active","ping":62},{"user_id":476,"name":"Da Wizard","steam_id":76561198842482031,"connected_time":785000000000,"state":"active","ping":67},{"user_id":483,"name":"ThatOneGirl","steam_id":76561198071731204,"connected_time":323000000000,"state":"active","ping":70},{"user_id":451,"name":"wizo","steam_id":76561198167702261,"connected_time":3116000000000,"state":"active","ping":60},{"user_id":480,"name":"it's peanut time","steam_id":76561198236028020,"connected_time":374000000000,"state":"active","ping":144},{"user_id":430,"name":"darktheif54","steam_id":76561198043650119,"connected_time":4212000000000,"state":"active","ping":53},{"user_id":489,"name":"BIG AWESOME","steam_id":76561198992237905,"connected_time":33000000000,"state":"active","ping":59},{"user_id":464,"name":"mela ♡","steam_id":76561198301598124,"connected_time":1762000000000,"state":"active","ping":82},{"user_id":482,"name":"Leper94","steam_id":76561198055477506,"connected_time":337000000000,"state":"active","ping":101},{"user_id":473,"name":"Tank","steam_id":76561198231513484,"connected_time":990000000000,"state":"active","ping":58},{"user_id":481,"name":"Ytown","steam_id":76561198165879751,"connected_time":351000000000,"state":"active","ping":88},{"user_id":475,"name":"LNRPdeadshot","steam_id":76561199160013540,"connected_time":860000000000,"state":"active","ping":137},{"user_id":484,"name":"cow fucker","steam_id":76561198260785238,"connected_time":231000000000,"state":"active","ping":84},{"user_id":477,"name":"Dr. Major Balls","steam_id":76561198417358638,"connected_time":782000000000,"state":"active","ping":55},{"user_id":485,"name":"Punished Jeff (Drain Messiah)","steam_id":76561198304252584,"connected_time":222000000000,"state":"active","ping":50},{"user_id":479,"name":"FriskyDemon","steam_id":76561198043684646,"connected_time":470000000000,"state":"active","ping":83},{"user_id":490,"name":"Gasoline the Vampire Queen","steam_id":76561198197352885,"connected_time":30000000000,"state":"active","ping":93},{"user_id":487,"name":"shoes","steam_id":76561198044104086,"connected_time":173000000000,"state":"active","ping":58},{"user_id":445,"name":"[S]Mr. X [No Monitor]","steam_id":76561197963746035,"connected_time":3343000000000,"state":"active","ping":84},{"user_id":471,"name":"FI LO","steam_id":76561198976530881,"connected_time":1236000000000,"state":"active","ping":45},{"user_id":474,"name":"Ian","steam_id":76561198159334435,"connected_time":906000000000,"state":"active","ping":165},{"user_id":418,"name":"Gm_Trash","steam_id":76561199445091548,"connected_time":4844000000000,"state":"active","ping":71},{"user_id":488,"name":"Riven","steam_id":76561198091701349,"connected_time":168000000000,"state":"active","ping":106}]},{"server_id":18,"name":"Uncletopia | San Francisco | 2 | All Maps","name_short":"sfo-2","host":"sfo-1.us.uncletopia.com","port":27025,"enabled":true,"region":"us-west","cc":"us","latitude":37.77397,"longitude":-122.4313,"reserved":0,"last_update":"0001-01-01T00:00:00Z","name_a2s":"Uncletopia | San Francisco | 2 | All Maps","protocol":17,"map":"pl_upward","folder":"tf","game":"Team Fortress","app_id":440,"player_count":24,"max_players":24,"Bots":0,"server_type":"Dedicated","server_os":"Linux","password":true,"vac":true,"version":"7757534","steam_id":85568392924470000,"keywords":["nocrits","nodmgspread","payload","uncletopia"],"game_id":440,"stv_port":27026,"stv_name":"Uncletopia | San Francisco | 2 | All Maps | STV","players":[{"user_id":355,"name":"honk","steam_id":76561198050398028,"connected_time":1000000000,"state":"spawning","ping":92},{"user_id":312,"name":"Zizen","steam_id":76561199011832069,"connected_time":2521000000000,"state":"active","ping":61},{"user_id":317,"name":"sophie","steam_id":76561198374224659,"connected_time":2389000000000,"state":"active","ping":69},{"user_id":334,"name":"great1photo","steam_id":76561198085481933,"connected_time":1278000000000,"state":"active","ping":129},{"user_id":331,"name":"The Regional Manager","steam_id":76561198825154890,"connected_time":1407000000000,"state":"active","ping":69},{"user_id":328,"name":"LizardGames","steam_id":76561199147525483,"connected_time":1659000000000,"state":"active","ping":55},{"user_id":335,"name":"autumnal.messenger","steam_id":76561199345816635,"connected_time":1271000000000,"state":"active","ping":77},{"user_id":323,"name":"Servants of Satan get the Brick","steam_id":76561198050196971,"connected_time":1871000000000,"state":"active","ping":117},{"user_id":324,"name":"Andyroo","steam_id":76561198295431058,"connected_time":1857000000000,"state":"active","ping":124},{"user_id":349,"name":"[Zero] Lag","steam_id":76561198983494186,"connected_time":510000000000,"state":"active","ping":116},{"user_id":255,"name":"Blucifer","steam_id":76561198138773981,"connected_time":6530000000000,"state":"active","ping":66},{"user_id":341,"name":"Maid 'n' China","steam_id":76561198423392976,"connected_time":1199000000000,"state":"active","ping":47},{"user_id":343,"name":"cofferhead","steam_id":76561199191108449,"connected_time":1055000000000,"state":"active","ping":68},{"user_id":353,"name":"\u003c bl4nk \u003e","steam_id":76561198009384143,"connected_time":332000000000,"state":"active","ping":133},{"user_id":344,"name":"Ediot","steam_id":76561199349494096,"connected_time":1035000000000,"state":"active","ping":133},{"user_id":338,"name":"x__1q","steam_id":76561198126358045,"connected_time":1255000000000,"state":"active","ping":120},{"user_id":350,"name":"Micro","steam_id":76561198267196099,"connected_time":478000000000,"state":"active","ping":73},{"user_id":294,"name":"Hawf","steam_id":76561197998364880,"connected_time":4480000000000,"state":"active","ping":137},{"user_id":319,"name":"AceSea","steam_id":76561198851176490,"connected_time":2277000000000,"state":"active","ping":39},{"user_id":304,"name":"Mike Bean Burritos","steam_id":76561198173430607,"connected_time":3739000000000,"state":"active","ping":61},{"user_id":340,"name":"Otterman Empire","steam_id":76561198047758442,"connected_time":1243000000000,"state":"active","ping":82},{"user_id":345,"name":"'89","steam_id":76561198020221880,"connected_time":1031000000000,"state":"active","ping":41},{"user_id":293,"name":"Fudgie Wudgie","steam_id":76561198032622237,"connected_time":4892000000000,"state":"active","ping":84},{"user_id":346,"name":"Master Breather","steam_id":76561198077030391,"connected_time":1019000000000,"state":"active","ping":51}]},{"server_id":19,"name":"Uncletopia | San Francisco | 3 | Stopwatch Beta","name_short":"sfo-3","host":"sfo-1.us.uncletopia.com","port":27035,"enabled":true,"region":"us-west","cc":"us","latitude":37.77397,"longitude":-122.4313,"reserved":0,"last_update":"0001-01-01T00:00:00Z","name_a2s":"Uncletopia | San Francisco | 3 | Stopwatch Beta","protocol":17,"map":"workshop/koth_clearcut_b15.ugc2107050255","folder":"tf","game":"Team Fortress","app_id":440,"player_count":0,"max_players":24,"Bots":0,"server_type":"Dedicated","server_os":"Linux","password":true,"vac":true,"version":"7757534","steam_id":85568392924742824,"keywords":["cp","nocrits","nodmgspread","uncletopia"],"game_id":440,"stv_port":27036,"stv_name":"Uncletopia | San Francisco | 3 | Stopwatch Beta | STV","players":null},{"server_id":20,"name":"Uncletopia | San Francisco | 4 | Community","name_short":"sfo-4","host":"sfo-1.us.uncletopia.com","port":27045,"enabled":true,"region":"us-west","cc":"us","latitude":37.77397,"longitude":-122.4313,"reserved":0,"last_update":"0001-01-01T00:00:00Z","name_a2s":"Uncletopia | San Francisco | 4 | Community","protocol":17,"map":"cp_altitude","folder":"tf","game":"Team Fortress","app_id":440,"player_count":0,"max_players":24,"Bots":0,"server_type":"Dedicated","server_os":"Linux","password":true,"vac":true,"version":"7757534","steam_id":85568392924742826,"keywords":["cp","nocrits","nodmgspread","uncletopia"],"game_id":440,"stv_port":27046,"stv_name":"Uncletopia | San Francisco | 4 | Community | STV","players":null},{"server_id":141,"name":"Uncletopia | Sydney | 1 | All Maps","name_short":"syd-1","host":"syd-1.au.uncletopia.com","port":27015,"enabled":true,"region":"au","cc":"au","latitude":-33.865143,"longitude":151.2099,"reserved":0,"last_update":"0001-01-01T00:00:00Z","name_a2s":"Uncletopia | Sydney | 1 | All Maps","protocol":17,"map":"cp_snakewater_final1","folder":"tf","game":"Team Fortress","app_id":440,"player_count":0,"max_players":24,"Bots":0,"server_type":"Dedicated","server_os":"Linux","password":true,"vac":true,"version":"7757534","steam_id":85568392924470001,"keywords":["cp","nocrits","nodmgspread","uncletopia"],"game_id":440,"stv_port":27016,"stv_name":"Uncletopia | Sydney | 1 | All Maps | STV","players":null},{"server_id":123,"name":"Uncletopia | Sydney | 2 | All Maps","name_short":"syd-2","host":"syd-1.au.uncletopia.com","port":27025,"enabled":true,"region":"au","cc":"au","latitude":-33.865143,"longitude":151.2099,"reserved":0,"last_update":"0001-01-01T00:00:00Z","name_a2s":"Uncletopia | Sydney | 2 | All Maps","protocol":17,"map":"cp_gravelpit","folder":"tf","game":"Team Fortress","app_id":440,"player_count":24,"max_players":24,"Bots":0,"server_type":"Dedicated","server_os":"Linux","password":true,"vac":true,"version":"7757534","steam_id":85568392924470002,"keywords":["cp","nocrits","nodmgspread","uncletopia"],"game_id":440,"stv_port":27026,"stv_name":"Uncletopia | Sydney | 2 | All Maps | STV","players":[{"user_id":17,"name":"Jodelkönig Franzl Lang","steam_id":76561198007667830,"connected_time":6237000000000,"state":"active","ping":45},{"user_id":91,"name":"timeworn (gamer)","steam_id":76561199386094919,"connected_time":324000000000,"state":"active","ping":45},{"user_id":58,"name":"skrungly lil guy","steam_id":76561198048064049,"connected_time":2954000000000,"state":"active","ping":74},{"user_id":79,"name":"sKism","steam_id":76561198071933995,"connected_time":1501000000000,"state":"active","ping":60},{"user_id":85,"name":"helton1 #RemoveCrossbow","steam_id":76561198841855657,"connected_time":1135000000000,"state":"active","ping":56},{"user_id":77,"name":"hive","steam_id":76561199099744527,"connected_time":1555000000000,"state":"active","ping":46},{"user_id":70,"name":"Krispy Kreme","steam_id":76561197997362731,"connected_time":2529000000000,"state":"active","ping":44},{"user_id":51,"name":"goob","steam_id":76561199480479443,"connected_time":3375000000000,"state":"active","ping":98},{"user_id":55,"name":"you have been deemed, Gilbert","steam_id":76561198301282416,"connected_time":3068000000000,"state":"active","ping":56},{"user_id":78,"name":"scrungo beepis","steam_id":76561198079351541,"connected_time":1543000000000,"state":"active","ping":45},{"user_id":80,"name":"Zort","steam_id":76561198056414289,"connected_time":1483000000000,"state":"active","ping":64},{"user_id":84,"name":"eekynetwo(F2P Piss Sniper)","steam_id":76561198990017441,"connected_time":1254000000000,"state":"active","ping":144},{"user_id":94,"name":"Chappers","steam_id":76561199036739798,"connected_time":112000000000,"state":"active","ping":75},{"user_id":95,"name":"Fresh Produce Gaming","steam_id":76561198358483352,"connected_time":18000000000,"state":"spawning","ping":58},{"user_id":74,"name":"Tomboslinger","steam_id":76561199216201591,"connected_time":1885000000000,"state":"active","ping":41},{"user_id":86,"name":"FrontlineNinja","steam_id":76561198046731954,"connected_time":1114000000000,"state":"active","ping":42},{"user_id":76,"name":"Livid","steam_id":76561198060024585,"connected_time":1752000000000,"state":"active","ping":34},{"user_id":62,"name":"bread","steam_id":76561199405764106,"connected_time":2921000000000,"state":"active","ping":42},{"user_id":57,"name":"Nugget","steam_id":76561198155517702,"connected_time":3029000000000,"state":"active","ping":87},{"user_id":63,"name":"the frail","steam_id":76561198025099660,"connected_time":2866000000000,"state":"active","ping":31},{"user_id":69,"name":"Up and Coming Crackhead","steam_id":76561199174449723,"connected_time":2578000000000,"state":"active","ping":150},{"user_id":92,"name":"Worst Sniper","steam_id":76561198025733081,"connected_time":198000000000,"state":"active","ping":79},{"user_id":89,"name":"electro599","steam_id":76561198058148858,"connected_time":705000000000,"state":"active","ping":59},{"user_id":71,"name":"CFMEU Terry","steam_id":76561198031293430,"connected_time":2024000000000,"state":"active","ping":88}]},{"server_id":395,"name":"Uncletopia | Sydney | 3 | All Maps","name_short":"syd-3","host":"syd-1.au.uncletopia.com","port":27035,"enabled":true,"region":"au","cc":"au","latitude":-33.865143,"longitude":151.2099,"reserved":0,"last_update":"0001-01-01T00:00:00Z","name_a2s":"Uncletopia | Sydney | 3 | All Maps","protocol":17,"map":"koth_cascade","folder":"tf","game":"Team Fortress","app_id":440,"player_count":0,"max_players":24,"Bots":0,"server_type":"Dedicated","server_os":"Linux","password":true,"vac":true,"version":"7757534","steam_id":85568392925194467,"keywords":["cp","nocrits","nodmgspread","uncletopia"],"game_id":440,"stv_port":27036,"stv_name":"Uncletopia | Sydney | 3 | All Maps | STV","players":null},{"server_id":396,"name":"Uncletopia | Sydney | 4 | All Maps","name_short":"syd-4","host":"syd-1.au.uncletopia.com","port":27045,"enabled":true,"region":"au","cc":"au","latitude":-33.865143,"longitude":151.2099,"reserved":0,"last_update":"0001-01-01T00:00:00Z","name_a2s":"Uncletopia | Sydney | 4 | All Maps","protocol":17,"map":"koth_highpass","folder":"tf","game":"Team Fortress","app_id":440,"player_count":0,"max_players":24,"Bots":0,"server_type":"Dedicated","server_os":"Linux","password":true,"vac":true,"version":"7757534","steam_id":85568392925397958,"keywords":["cp","nocrits","nodmgspread","uncletopia"],"game_id":440,"stv_port":27046,"stv_name":"Uncletopia | Sydney | 4 | All Maps | STV","players":null},{"server_id":58,"name":"Uncletopia | Sydney | 5 | Stopwatch Beta","name_short":"syd-5","host":"syd-1.au.uncletopia.com","port":27055,"enabled":true,"region":"au","cc":"au","latitude":-33.865143,"longitude":151.2099,"reserved":0,"last_update":"0001-01-01T00:00:00Z","name_a2s":"Uncletopia | Sydney | 5 | Stopwatch Beta","protocol":17,"map":"koth_cascade","folder":"tf","game":"Team Fortress","app_id":440,"player_count":0,"max_players":24,"Bots":0,"server_type":"Dedicated","server_os":"Linux","password":true,"vac":true,"version":"7757534","steam_id":85568392925397959,"keywords":["cp","nocrits","nodmgspread","uncletopia"],"game_id":440,"stv_port":27056,"stv_name":"Uncletopia | Sydney | 5 | Stopwatch Beta | STV","players":null},{"server_id":59,"name":"Uncletopia | Sydney | 6 | Community","name_short":"syd-6","host":"syd-1.au.uncletopia.com","port":27065,"enabled":true,"region":"au","cc":"au","latitude":-33.865143,"longitude":151.2099,"reserved":0,"last_update":"0001-01-01T00:00:00Z","name_a2s":"Uncletopia | Sydney | 6 | Community","protocol":17,"map":"workshop/pl_eruption_b9a.ugc2807898013","folder":"tf","game":"Team Fortress","app_id":440,"player_count":0,"max_players":24,"Bots":0,"server_type":"Dedicated","server_os":"Linux","password":true,"vac":true,"version":"7757534","steam_id":85568392925397960,"keywords":["nocrits","nodmgspread","payload","uncletopia"],"game_id":440,"stv_port":27066,"stv_name":"Uncletopia | Sydney | 6 | Community | STV","players":null},{"server_id":49,"name":"Uncletopia | Warsaw | 1 | All Maps","name_short":"waw-1","host":"waw-1.pl.uncletopia.com","port":27015,"enabled":true,"region":"eu","cc":"pl","latitude":52.2297,"longitude":21.017532,"reserved":0,"last_update":"0001-01-01T00:00:00Z","name_a2s":"","protocol":0,"map":"","folder":"","game":"","app_id":0,"player_count":0,"max_players":0,"Bots":0,"server_type":"","server_os":"","password":false,"vac":false,"version":"","steam_id":0,"keywords":null,"game_id":0,"stv_port":0,"stv_name":"","players":null},{"server_id":50,"name":"Uncletopia | Warsaw | 2 | All Maps","name_short":"waw-2","host":"waw-1.pl.uncletopia.com","port":27025,"enabled":true,"region":"eu","cc":"pl","latitude":52.2297,"longitude":21.017532,"reserved":0,"last_update":"0001-01-01T00:00:00Z","name_a2s":"Uncletopia | Warsaw | 2 | All Maps","protocol":17,"map":"koth_viaduct","folder":"tf","game":"Team Fortress","app_id":440,"player_count":0,"max_players":24,"Bots":0,"server_type":"Dedicated","server_os":"Linux","password":true,"vac":true,"version":"7757534","steam_id":85568392925397851,"keywords":["cp","nocrits","nodmgspread","uncletopia"],"game_id":440,"stv_port":27026,"stv_name":"Uncletopia | Warsaw | 2 | All Maps | STV","players":null},{"server_id":51,"name":"Uncletopia | Warsaw | 3 | All Maps","name_short":"waw-3","host":"waw-1.pl.uncletopia.com","port":27035,"enabled":true,"region":"eu","cc":"pl","latitude":52.2297,"longitude":21.017532,"reserved":0,"last_update":"0001-01-01T00:00:00Z","name_a2s":"Uncletopia | Warsaw | 3 | All Maps","protocol":17,"map":"pl_badwater","folder":"tf","game":"Team Fortress","app_id":440,"player_count":0,"max_players":24,"Bots":0,"server_type":"Dedicated","server_os":"Linux","password":true,"vac":true,"version":"7757534","steam_id":85568392925397852,"keywords":["nocrits","nodmgspread","payload","uncletopia"],"game_id":440,"stv_port":27036,"stv_name":"Uncletopia | Warsaw | 3 | All Maps | STV","players":null},{"server_id":52,"name":"Uncletopia | Warsaw | 4 | All Maps","name_short":"waw-4","host":"waw-1.pl.uncletopia.com","port":27045,"enabled":true,"region":"eu","cc":"pl","latitude":52.2297,"longitude":21.017532,"reserved":0,"last_update":"0001-01-01T00:00:00Z","name_a2s":"Uncletopia | Warsaw | 4 | All Maps","protocol":17,"map":"koth_lakeside_final","folder":"tf","game":"Team Fortress","app_id":440,"player_count":0,"max_players":24,"Bots":0,"server_type":"Dedicated","server_os":"Linux","password":true,"vac":true,"version":"7757534","steam_id":85568392925397853,"keywords":["cp","nocrits","nodmgspread","uncletopia"],"game_id":440,"stv_port":27046,"stv_name":"Uncletopia | Warsaw | 4 | All Maps | STV","players":null},{"server_id":53,"name":"Uncletopia | Warsaw | 5 | Stopwatch Beta","name_short":"waw-5","host":"waw-1.pl.uncletopia.com","port":27055,"enabled":true,"region":"eu","cc":"pl","latitude":52.2297,"longitude":21.017532,"reserved":0,"last_update":"0001-01-01T00:00:00Z","name_a2s":"Uncletopia | Warsaw | 5 | Stopwatch Beta","protocol":17,"map":"pl_borneo","folder":"tf","game":"Team Fortress","app_id":440,"player_count":0,"max_players":24,"Bots":0,"server_type":"Dedicated","server_os":"Linux","password":true,"vac":true,"version":"7757534","steam_id":85568392925397854,"keywords":["nocrits","nodmgspread","payload","uncletopia"],"game_id":440,"stv_port":27056,"stv_name":"Uncletopia | Warsaw | 5 | Stopwatch Beta | STV","players":null},{"server_id":54,"name":"Uncletopia | Warsaw | 6 | Community","name_short":"waw-6","host":"waw-1.pl.uncletopia.com","port":27065,"enabled":true,"region":"eu","cc":"pl","latitude":52.2297,"longitude":21.017532,"reserved":0,"last_update":"0001-01-01T00:00:00Z","name_a2s":"Uncletopia | Warsaw | 6 | Community","protocol":17,"map":"koth_lakeside_final","folder":"tf","game":"Team Fortress","app_id":440,"player_count":0,"max_players":24,"Bots":0,"server_type":"Dedicated","server_os":"Linux","password":true,"vac":true,"version":"7757534","steam_id":85568392925397856,"keywords":["cp","nocrits","nodmgspread","uncletopia"],"game_id":440,"stv_port":27066,"stv_name":"Uncletopia | Warsaw | 6 | Community | STV","players":null}]}