{"status":true,"message":"","result":[{"server_id":9,"name":"Uncletopia | Atlanta | 1 | All Maps","name_short":"atl-1","host":"atl-1.us.uncletopia.com","port":27015,"enabled":true,"region":"us-east","cc":"us","latitude":33.753746,"longitude":-84.38633,"reserved":0,"last_update":"0001-01-01T00:00:00Z","name_a2s":"Uncletopia | Atlanta | 1 | All Maps","protocol":17,"map":"pl_snowycoast","folder":"tf","game":"Team Fortress","app_id":440,"player_count":24,"max_players":24,"Bots":0,"server_type":"Dedicated","server_os":"Linux","password":true,"vac":true,"version":"7961495","steam_id":85568392924469982,"keywords":["nocrits","nodmgspread","payload","uncletopia"],"game_id":440,"stv_port":27016,"stv_name":"Uncletopia | Atlanta | 1 | All Maps | STV","players":null},{"server_id":104,"name":"Uncletopia | Atlanta | 2 | All Maps","name_short":"atl-2","host":"atl-1.us.uncletopia.com","port":27025,"enabled":true,"region":"us-east","cc":"us","latitude":33.753746,"longitude":-84.38633,"reserved":0,"last_update":"0001-01-01T00:00:00Z","name_a2s":"Uncletopia | Atlanta | 2 | All Maps","protocol":17,"map":"koth_viaduct","folder":"tf","game":"Team Fortress","app_id":440,"player_count":0,"max_players":24,"Bots":0,"server_type":"Dedicated","server_os":"Linux","password":true,"vac":true,"version":"7961495","steam_id":85568392924469983,"keywords":["cp","nocrits","nodmgspread","uncletopia"],"game_id":440,"stv_port":27026,"stv_name":"Uncletopia | Atlanta | 2 | All Maps | STV","players":null},{"server_id":400,"name":"Uncletopia | Atlanta | 3 | Stopwatch","name_short":"atl-3","host":"atl-1.us.uncletopia.com","port":27035,"enabled":true,"region":"us-east","cc":"us","latitude":33.753746,"longitude":-84.38633,"reserved":0,"last_update":"0001-01-01T00:00:00Z","name_a2s":"Uncletopia | Atlanta | 3 | Stopwatch","protocol":17,"map":"koth_clearcut_b15","folder":"tf","game":"Team Fortress","app_id":440,"player_count":0,"max_players":24,"Bots":0,"server_type":"Dedicated","server_os":"Linux","password":true,"vac":true,"version":"7961495","steam_id":85568392924515187,"keywords":["cp","nocrits","nodmgspread","uncletopia"],"game_id":440,"stv_port":27036,"stv_name":"Uncletopia | Atlanta | 3 | Stopwatch | STV","players":null},{"server_id":401,"name":"Uncletopia | Atlanta | 4 | Community","name_short":"atl-4","host":"atl-1.us.uncletopia.com","port":27045,"enabled":true,"region":"us-east","cc":"us","latitude":33.753746,"longitude":-84.38633,"reserved":0,"last_update":"0001-01-01T00:00:00Z","name_a2s":"Uncletopia | Atlanta | 4 | Community","protocol":17,"map":"koth_trenchfoot_b1a","folder":"tf","game":"Team Fortress","app_id":440,"player_count":0,"max_players":24,"Bots":0,"server_type":"Dedicated","server_os":"Linux","password":true,"vac":true,"version":"7961495","steam_id":85568392924515188,"keywords":["cp","nocrits","nodmgspread","uncletopia"],"game_id":440,"stv_port":27046,"stv_name":"Uncletopia | Atlanta | 4 | Community | STV","players":null},{"server_id":2,"name":"Uncletopia | Chicago | 1 | All Maps","name_short":"chi-1","host":"chi-1.us.uncletopia.com","port":27015,"enabled":true,"region":"us-central","cc":"us","latitude":41.881832,"longitude":-87.62318,"reserved":0,"last_update":"0001-01-01T00:00:00Z","name_a2s":"Uncletopia | Chicago | 1 | All Maps","protocol":17,"map":"pl_swiftwater_final1","folder":"tf","game":"Team Fortress","app_id":440,"player_count":23,"max_players":24,"Bots":0,"server_type":"Dedicated","server_os":"Linux","password":true,"vac":true,"version":"7961495","steam_id":85568392924469984,"keywords":["nocrits","nodmgspread","payload","uncletopia"],"game_id":440,"stv_port":27016,"stv_name":"Uncletopia | Chicago | 1 | All Maps | STV","players":[{"user_id":173,"name":"always forever","steam_id":76561198094512992,"connected_time":2689000000000,"state":"active","ping":47},{"user_id":218,"name":"amberenix","steam_id":76561198805110908,"connected_time":237000000000,"state":"active","ping":76},{"user_id":219,"name":"npc energy","steam_id":76561198035342207,"connected_time":232000000000,"state":"active","ping":45},{"user_id":220,"name":"enhanced with disney's FastPlay","steam_id":76561198164134387,"connected_time":210000000000,"state":"active","ping":118},{"user_id":195,"name":"THE MEWTWO","steam_id":76561199092618496,"connected_time":1784000000000,"state":"active","ping":84},{"user_id":171,"name":"Neo Kojiro","steam_id":76561198000967076,"connected_time":2717000000000,"state":"active","ping":79},{"user_id":214,"name":"chunk","steam_id":76561198134775401,"connected_time":248000000000,"state":"active","ping":55},{"user_id":215,"name":"anonpain","steam_id":76561198081317092,"connected_time":245000000000,"state":"active","ping":55},{"user_id":221,"name":"AkaDoggo","steam_id":76561198968291063,"connected_time":206000000000,"state":"active","ping":59},{"user_id":212,"name":"Jasper™","steam_id":76561198260018463,"connected_time":603000000000,"state":"active","ping":78},{"user_id":203,"name":"RocketRabbit","steam_id":76561198803062131,"connected_time":1296000000000,"state":"active","ping":76},{"user_id":180,"name":"bobkattbro","steam_id":76561199009438984,"connected_time":2472000000000,"state":"active","ping":99},{"user_id":213,"name":"Digitic","steam_id":76561198080295536,"connected_time":340000000000,"state":"active","ping":76},{"user_id":147,"name":"紅鬍子","steam_id":76561198072410042,"connected_time":3833000000000,"state":"active","ping":105},{"user_id":211,"name":"y0","steam_id":76561198143894333,"connected_time":614000000000,"state":"active","ping":49},{"user_id":207,"name":"samantha","steam_id":76561198049258493,"connected_time":1039000000000,"state":"active","ping":117},{"user_id":194,"name":"FunGi","steam_id":76561198881418662,"connected_time":1813000000000,"state":"active","ping":85},{"user_id":182,"name":"Huebirds of Happiness","steam_id":76561198281693747,"connected_time":2435000000000,"state":"active","ping":59},{"user_id":187,"name":"SandHanitizer","steam_id":76561198234676500,"connected_time":2234000000000,"state":"active","ping":71},{"user_id":217,"name":"pinky","steam_id":76561199109784776,"connected_time":244000000000,"state":"active","ping":54},{"user_id":222,"name":"King Crust of Crustmus","steam_id":76561198160930421,"connected_time":94000000000,"state":"active","ping":62},{"user_id":224,"name":"SCATTER","steam_id":76561198405168492,"connected_time":38000000000,"state":"active","ping":85},{"user_id":200,"name":"TheMoneyMaker","steam_id":76561198313007819,"connected_time":1390000000000,"state":"active","ping":83}]},{"server_id":106,"name":"Uncletopia | Chicago | 2 | All Maps","name_short":"chi-2","host":"chi-1.us.uncletopia.com","port":27025,"enabled":true,"region":"us-central","cc":"us","latitude":41.881832,"longitude":-87.62318,"reserved":0,"last_update":"0001-01-01T00:00:00Z","name_a2s":"Uncletopia | Chicago | 2 | All Maps","protocol":17,"map":"pl_barnblitz","folder":"tf","game":"Team Fortress","app_id":440,"player_count":24,"max_players":24,"Bots":0,"server_type":"Dedicated","server_os":"Linux","password":true,"vac":true,"version":"7961495","steam_id":85568392924469985,"keywords":["nocrits","nodmgspread","payload","uncletopia"],"game_id":440,"stv_port":27026,"stv_name":"Uncletopia | Chicago | 2 | All Maps | STV","players":[{"user_id":429,"name":"walito12","steam_id":76561198244902626,"connected_time":888000000000,"state":"active","ping":115},{"user_id":433,"name":"Extome","steam_id":76561198097801342,"connected_time":881000000000,"state":"active","ping":54},{"user_id":437,"name":"stungoperation","steam_id":76561199162409918,"connected_time":618000000000,"state":"active","ping":87},{"user_id":406,"name":"Crabohydrate","steam_id":76561198157019155,"connected_time":2659000000000,"state":"active","ping":120},{"user_id":381,"name":"The Nikocado Enjoyer","steam_id":76561198263154374,"connected_time":3677000000000,"state":"active","ping":64},{"user_id":396,"name":"ninja45","steam_id":76561198150619521,"connected_time":3175000000000,"state":"active","ping":76},{"user_id":441,"name":"Jennifer Aniston's Nipples","steam_id":76561198086107548,"connected_time":354000000000,"state":"active","ping":68},{"user_id":426,"name":"ViserOfOrder","steam_id":76561198137222506,"connected_time":1209000000000,"state":"active","ping":72},{"user_id":408,"name":"Artemis1545","steam_id":76561198865786390,"connected_time":2604000000000,"state":"active","ping":126},{"user_id":417,"name":"birbmanminty","steam_id":76561199159145275,"connected_time":1814000000000,"state":"active","ping":110},{"user_id":415,"name":"Charlotte","steam_id":76561198194975870,"connected_time":2080000000000,"state":"active","ping":79},{"user_id":410,"name":"Mr.Mancubis","steam_id":76561198381162161,"connected_time":2591000000000,"state":"active","ping":58},{"user_id":430,"name":"Jerk Tryhard (roleplay)","steam_id":76561199470538309,"connected_time":888000000000,"state":"active","ping":57},{"user_id":365,"name":"The Jar","steam_id":76561198146013385,"connected_time":4994000000000,"state":"active","ping":82},{"user_id":313,"name":"MR SKELTAL","steam_id":76561198031089598,"connected_time":8772000000000,"state":"active","ping":71},{"user_id":431,"name":"ultralisk52","steam_id":76561198051666604,"connected_time":887000000000,"state":"active","ping":63},{"user_id":418,"name":"Edmont Dantes","steam_id":76561198090271815,"connected_time":1813000000000,"state":"active","ping":126},{"user_id":423,"name":"Garfelf","steam_id":76561198419850129,"connected_time":1569000000000,"state":"active","ping":127},{"user_id":428,"name":"Sporp","steam_id":76561197987957133,"connected_time":1144000000000,"state":"active","ping":86},{"user_id":440,"name":"Brawns","steam_id":76561198045190199,"connected_time":508000000000,"state":"active","ping":76},{"user_id":420,"name":"tailorturtle","steam_id":76561198107481127,"connected_time":1804000000000,"state":"active","ping":76},{"user_id":427,"name":"turnip","steam_id":76561197999375941,"connected_time":1157000000000,"state":"active","ping":84},{"user_id":438,"name":"Monsterjessy","steam_id":76561198035630985,"connected_time":584000000000,"state":"active","ping":65},{"user_id":424,"name":"[_Dr.Scythe_]","steam_id":76561198845245858,"connected_time":1424000000000,"state":"active","ping":71}]},{"server_id":402,"name":"Uncletopia | Chicago | 3 | All Maps","name_short":"chi-3","host":"chi-1.us.uncletopia.com","port":27035,"enabled":true,"region":"us-central","cc":"us","latitude":41.881832,"longitude":-87.62318,"reserved":0,"last_update":"0001-01-01T00:00:00Z","name_a2s":"Uncletopia | Chicago | 3 | All Maps","protocol":17,"map":"pl_frontier_final","folder":"tf","game":"Team Fortress","app_id":440,"player_count":1,"max_players":24,"Bots":0,"server_type":"Dedicated","server_os":"Linux","password":true,"vac":true,"version":"7961495","steam_id":85568392924515191,"keywords":["nocrits","nodmgspread","payload","uncletopia"],"game_id":440,"stv_port":27036,"stv_name":"Uncletopia | Chicago | 3 | All Maps | STV","players":[{"user_id":15,"name":"simonkey","steam_id":76561199087174108,"connected_time":188000000000,"state":"active","ping":46}]},{"server_id":403,"name":"Uncletopia | Chicago | 4 | All Maps","name_short":"chi-4","host":"chi-1.us.uncletopia.com","port":27045,"enabled":true,"region":"us-central","cc":"us","latitude":41.881832,"longitude":-87.62318,"reserved":0,"last_update":"0001-01-01T00:00:00Z","name_a2s":"Uncletopia | Chicago | 4 | All Maps","protocol":17,"map":"koth_cascade","folder":"tf","game":"Team Fortress","app_id":440,"player_count":6,"max_players":24,"Bots":0,"server_type":"Dedicated","server_os":"Linux","password":true,"vac":true,"version":"7961495","steam_id":85568392924515193,"keywords":["cp","nocrits","nodmgspread","uncletopia"],"game_id":440,"stv_port":27046,"stv_name":"Uncletopia | Chicago | 4 | All Maps | STV","players":[{"user_id":13,"name":"I like pasta","steam_id":76561199140303246,"connected_time":409000000000,"state":"active","ping":98},{"user_id":14,"name":"mr man guy","steam_id":76561199124255383,"connected_time":399000000000,"state":"active","ping":60},{"user_id":17,"name":"ballon","steam_id":76561199223272601,"connected_time":296000000000,"state":"active","ping":95},{"user_id":21,"name":"Frank","steam_id":76561198428759980,"connected_time":26000000000,"state":"active","ping":85},{"user_id":19,"name":"andyiscolorless","steam_id":76561199239870921,"connected_time":152000000000,"state":"active","ping":140},{"user_id":20,"name":"nhbiker","steam_id":76561198081277675,"connected_time":135000000000,"state":"active","ping":45}]},{"server_id":36,"name":"Uncletopia | Chicago | 5 | All Maps","name_short":"chi-5","host":"chi-2.us.uncletopia.com","port":27015,"enabled":true,"region":"us-central","cc":"us","latitude":41.881832,"longitude":-87.62318,"reserved":0,"last_update":"0001-01-01T00:00:00Z","name_a2s":"Uncletopia | Chicago | 5 | All Maps","protocol":17,"map":"koth_viaduct","folder":"tf","game":"Team Fortress","app_id":440,"player_count":0,"max_players":24,"Bots":0,"server_type":"Dedicated","server_os":"Linux","password":true,"vac":true,"version":"7961495","steam_id":85568392924866362,"keywords":["cp","nocrits","nodmgspread","uncletopia"],"game_id":440,"stv_port":27016,"stv_name":"Uncletopia | Chicago | 5 | All Maps | STV","players":null},{"server_id":37,"name":"Uncletopia | Chicago | 6 | All Maps","name_short":"chi-6","host":"chi-2.us.uncletopia.com","port":27025,"enabled":true,"region":"us-central","cc":"us","latitude":41.881832,"longitude":-87.62318,"reserved":0,"last_update":"0001-01-01T00:00:00Z","name_a2s":"Uncletopia | Chicago | 6 | All Maps","protocol":17,"map":"pl_pier","folder":"tf","game":"Team Fortress","app_id":440,"player_count":22,"max_players":24,"Bots":0,"server_type":"Dedicated","server_os":"Linux","password":true,"vac":true,"version":"7961495","steam_id":85568392924866363,"keywords":["nocrits","nodmgspread","payload","uncletopia"],"game_id":440,"stv_port":27026,"stv_name":"Uncletopia | Chicago | 6 | All Maps | STV","players":[{"user_id":110,"name":"dax","steam_id":76561198045335319,"connected_time":429000000000,"state":"active","ping":85},{"user_id":90,"name":"kerfuffie","steam_id":76561198216490420,"connected_time":1233000000000,"state":"active","ping":59},{"user_id":88,"name":"riven","steam_id":76561198057158050,"connected_time":1609000000000,"state":"active","ping":45},{"user_id":97,"name":"Mr.Bones","steam_id":76561198205170595,"connected_time":836000000000,"state":"active","ping":90},{"user_id":104,"name":"Hamz","steam_id":76561199287459211,"connected_time":529000000000,"state":"active","ping":72},{"user_id":87,"name":"thefrenchfry","steam_id":76561198088945198,"connected_time":1724000000000,"state":"active","ping":69},{"user_id":102,"name":"DjBallBag","steam_id":76561198118551080,"connected_time":575000000000,"state":"active","ping":86},{"user_id":93,"name":"triple_range_merge","steam_id":76561198991225026,"connected_time":985000000000,"state":"active","ping":75},{"user_id":72,"name":"Feathers McGraw","steam_id":76561198208094321,"connected_time":2259000000000,"state":"active","ping":85},{"user_id":77,"name":"gIBBY","steam_id":76561198080099598,"connected_time":1943000000000,"state":"active","ping":59},{"user_id":98,"name":"roddy ricch - ballin","steam_id":76561198111290441,"connected_time":813000000000,"state":"active","ping":57},{"user_id":105,"name":"darcie O'queef","steam_id":76561198271941547,"connected_time":528000000000,"state":"active","ping":61},{"user_id":106,"name":"Dragus","steam_id":76561198032967285,"connected_time":506000000000,"state":"active","ping":53},{"user_id":107,"name":"crunchy obama","steam_id":76561198044485217,"connected_time":495000000000,"state":"active","ping":106},{"user_id":83,"name":"pyrotechnic","steam_id":76561198043558709,"connected_time":1864000000000,"state":"active","ping":105},{"user_id":108,"name":"fresco","steam_id":76561199101199477,"connected_time":491000000000,"state":"active","ping":63},{"user_id":111,"name":"JJames","steam_id":76561198055687973,"connected_time":361000000000,"state":"active","ping":61},{"user_id":113,"name":"trobin120","steam_id":76561199122420273,"connected_time":41000000000,"state":"active","ping":66},{"user_id":29,"name":"munch","steam_id":76561198820480684,"connected_time":4344000000000,"state":"active","ping":56},{"user_id":100,"name":"Retro","steam_id":76561198414744723,"connected_time":678000000000,"state":"active","ping":65},{"user_id":91,"name":"SkippZz","steam_id":76561198037944582,"connected_time":1113000000000,"state":"active","ping":78},{"user_id":85,"name":"mollusk_obliteration","steam_id":76561198085388962,"connected_time":1829000000000,"state":"active","ping":51}]},{"server_id":38,"name":"Uncletopia | Chicago | 7 | Stopwatch","name_short":"chi-7","host":"chi-2.us.uncletopia.com","port":27035,"enabled":true,"region":"us-central","cc":"us","latitude":41.881832,"longitude":-87.62318,"reserved":0,"last_update":"0001-01-01T00:00:00Z","name_a2s":"Uncletopia | Chicago | 7 | Stopwatch","protocol":17,"map":"pl_badwater","folder":"tf","game":"Team Fortress","app_id":440,"player_count":0,"max_players":24,"Bots":0,"server_type":"Dedicated","server_os":"Linux","password":true,"vac":true,"version":"7961495","steam_id":85568392924866364,"keywords":["nocrits","nodmgspread","payload","uncletopia"],"game_id":440,"stv_port":27036,"stv_name":"Uncletopia | Chicago | 7 | Stopwatch | STV","players":null},{"server_id":39,"name":"Uncletopia | Chicago | 8 | Community","name_short":"chi-8","host":"chi-2.us.uncletopia.com","port":27045,"enabled":true,"region":"us-central","cc":"us","latitude":41.881832,"longitude":-87.62318,"reserved":0,"last_update":"0001-01-01T00:00:00Z","name_a2s":"Uncletopia | Chicago | 8 | Community","protocol":17,"map":"pl_pier","folder":"tf","game":"Team Fortress","app_id":440,"player_count":0,"max_players":24,"Bots":0,"server_type":"Dedicated","server_os":"Linux","password":true,"vac":true,"version":"7961495","steam_id":85568392924866365,"keywords":["nocrits","nodmgspread","payload","uncletopia"],"game_id":440,"stv_port":27046,"stv_name":"Uncletopia | Chicago | 8 | Community | STV","players":null},{"server_id":8,"name":"Uncletopia | Dallas | 1 | All Maps","name_short":"dal-1","host":"dal-1.us.uncletopia.com","port":27015,"enabled":true,"region":"us-central","cc":"us","latitude":32.779167,"longitude":-96.80889,"reserved":0,"last_update":"0001-01-01T00:00:00Z","name_a2s":"Uncletopia | Dallas | 1 | All Maps","protocol":17,"map":"cp_altitude","folder":"tf","game":"Team Fortress","app_id":440,"player_count":24,"max_players":24,"Bots":0,"server_type":"Dedicated","server_os":"Linux","password":true,"vac":true,"version":"7961495","steam_id":85568392924469986,"keywords":["cp","nocrits","nodmgspread","uncletopia"],"game_id":440,"stv_port":27016,"stv_name":"Uncletopia | Dallas | 1 | All Maps | STV","players":[{"user_id":212,"name":"Imagine being trash at Medic","steam_id":76561197986530028,"connected_time":731000000000,"state":"active","ping":94},{"user_id":202,"name":"Other Players, My One Weakness","steam_id":76561197989247588,"connected_time":1488000000000,"state":"active","ping":69},{"user_id":209,"name":"skipper","steam_id":76561198395965181,"connected_time":743000000000,"state":"active","ping":84},{"user_id":173,"name":"ZaffreIndigo","steam_id":76561198046724290,"connected_time":5752000000000,"state":"active","ping":89},{"user_id":205,"name":"Decapitation Station","steam_id":76561198201796098,"connected_time":832000000000,"state":"active","ping":93},{"user_id":218,"name":"Meiji","steam_id":76561198971753591,"connected_time":196000000000,"state":"active","ping":88},{"user_id":201,"name":"Glaceon","steam_id":76561198177715869,"connected_time":1559000000000,"state":"active","ping":57},{"user_id":169,"name":"dailydiamond","steam_id":76561199123582502,"connected_time":5913000000000,"state":"active","ping":102},{"user_id":190,"name":"uncool","steam_id":76561198025885992,"connected_time":2459000000000,"state":"active","ping":76},{"user_id":219,"name":"az","steam_id":76561198090531755,"connected_time":127000000000,"state":"active","ping":45},{"user_id":198,"name":"MerlinTheWizard","steam_id":76561198171472393,"connected_time":1957000000000,"state":"active","ping":75},{"user_id":203,"name":"Dr. Kaine","steam_id":76561197982183984,"connected_time":1334000000000,"state":"active","ping":88},{"user_id":215,"name":"Kelp","steam_id":76561198372459268,"connected_time":267000000000,"state":"active","ping":45},{"user_id":181,"name":"Kirby.exe","steam_id":76561198242714582,"connected_time":3822000000000,"state":"active","ping":80},{"user_id":221,"name":"lego star wars on the psp","steam_id":76561198148014773,"connected_time":73000000000,"state":"active","ping":97},{"user_id":170,"name":"Kanye Asada","steam_id":76561198186678831,"connected_time":5885000000000,"state":"active","ping":89},{"user_id":189,"name":"The Guy","steam_id":76561198799183693,"connected_time":2475000000000,"state":"active","ping":94},{"user_id":194,"name":"pelt","steam_id":76561197993593754,"connected_time":2386000000000,"state":"active","ping":73},{"user_id":93,"name":"Gen-E","steam_id":76561199497800989,"connected_time":13102000000000,"state":"active","ping":90},{"user_id":186,"name":"deb","steam_id":76561198414336279,"connected_time":3146000000000,"state":"active","ping":70},{"user_id":204,"name":"Shalom","steam_id":76561198410005222,"connected_time":1309000000000,"state":"active","ping":53},{"user_id":206,"name":"ca","steam_id":76561198167075606,"connected_time":787000000000,"state":"active","ping":75},{"user_id":182,"name":"theartistnathan","steam_id":76561198833787452,"connected_time":3820000000000,"state":"active","ping":56},{"user_id":217,"name":"Inflation Jumpscare","steam_id":76561198137862444,"connected_time":225000000000,"state":"active","ping":50}]},{"server_id":108,"name":"Uncletopia | Dallas | 2 | All Maps","name_short":"dal-2","host":"dal-1.us.uncletopia.com","port":27025,"enabled":true,"region":"us-central","cc":"us","latitude":32.779167,"longitude":-96.80889,"reserved":0,"last_update":"0001-01-01T00:00:00Z","name_a2s":"Uncletopia | Dallas | 2 | All Maps","protocol":17,"map":"pl_barnblitz","folder":"tf","game":"Team Fortress","app_id":440,"player_count":24,"max_players":24,"Bots":0,"server_type":"Dedicated","server_os":"Linux","password":true,"vac":true,"version":"7961495","steam_id":85568392924469988,"keywords":["nocrits","nodmgspread","payload","uncletopia"],"game_id":440,"stv_port":27026,"stv_name":"Uncletopia | Dallas | 2 | All Maps | STV","players":[{"user_id":374,"name":"kermitcreeper(ZAZA)","steam_id":76561199222829972,"connected_time":6706000000000,"state":"active","ping":60},{"user_id":454,"name":"L to the OG","steam_id":76561199215811448,"connected_time":2312000000000,"state":"active","ping":160},{"user_id":470,"name":"Orange Triangle","steam_id":76561198320498182,"connected_time":69000000000,"state":"active","ping":78},{"user_id":324,"name":"BatMatt","steam_id":76561198045910433,"connected_time":10574000000000,"state":"active","ping":49},{"user_id":471,"name":"Doylin","steam_id":76561198113413927,"connected_time":61000000000,"state":"active","ping":113},{"user_id":463,"name":"Jango","steam_id":76561198084589742,"connected_time":1240000000000,"state":"active","ping":75},{"user_id":474,"name":"Oni","steam_id":76561198112066584,"connected_time":50000000000,"state":"active","ping":63},{"user_id":468,"name":"Gimli","steam_id":76561198153729934,"connected_time":76000000000,"state":"active","ping":60},{"user_id":447,"name":"ඞ","steam_id":76561199365672047,"connected_time":2974000000000,"state":"active","ping":103},{"user_id":457,"name":"DMM","steam_id":76561198065426171,"connected_time":1943000000000,"state":"active","ping":56},{"user_id":475,"name":"JDM","steam_id":76561199497603020,"connected_time":48000000000,"state":"active","ping":117},{"user_id":476,"name":"she make me :)","steam_id":76561198044443985,"connected_time":11000000000,"state":"active","ping":67},{"user_id":427,"name":"Malinok","steam_id":76561198025681131,"connected_time":4322000000000,"state":"active","ping":69},{"user_id":461,"name":"kitty:3","steam_id":76561198215559840,"connected_time":1604000000000,"state":"active","ping":73},{"user_id":443,"name":"Withered Bonnie (Real)","steam_id":76561198423310113,"connected_time":3114000000000,"state":"active","ping":52},{"user_id":458,"name":"Drained","steam_id":76561198081974528,"connected_time":1760000000000,"state":"active","ping":72},{"user_id":466,"name":"dumbest girl alive","steam_id":76561198062263639,"connected_time":83000000000,"state":"active","ping":52},{"user_id":449,"name":"schmuck","steam_id":76561198143789773,"connected_time":2664000000000,"state":"active","ping":56},{"user_id":437,"name":"SpazHero","steam_id":76561198021130008,"connected_time":3652000000000,"state":"active","ping":83},{"user_id":472,"name":"coolbust carti","steam_id":76561198065384345,"connected_time":61000000000,"state":"active","ping":92},{"user_id":438,"name":"Timelybog0038","steam_id":76561198805944040,"connected_time":3644000000000,"state":"active","ping":96},{"user_id":439,"name":"Foomfa","steam_id":76561198007033616,"connected_time":3634000000000,"state":"active","ping":74},{"user_id":464,"name":"Con Leche Zoidberg","steam_id":76561198027215706,"connected_time":878000000000,"state":"active","ping":70},{"user_id":469,"name":"Rowdyshark101","steam_id":76561199019123695,"connected_time":75000000000,"state":"active","ping":61}]},{"server_id":404,"name":"Uncletopia | Dallas | 3 | All Maps","name_short":"dal-3","host":"dal-1.us.uncletopia.com","port":27035,"enabled":true,"region":"us-central","cc":"us","latitude":32.779167,"longitude":-96.80889,"reserved":0,"last_update":"0001-01-01T00:00:00Z","name_a2s":"Uncletopia | Dallas | 3 | All Maps","protocol":17,"map":"cp_snakewater_final1","folder":"tf","game":"Team Fortress","app_id":440,"player_count":0,"max_players":24,"Bots":0,"server_type":"Dedicated","server_os":"Linux","password":true,"vac":true,"version":"7961495","steam_id":85568392924515219,"keywords":["cp","nocrits","nodmgspread","uncletopia"],"game_id":440,"stv_port":27036,"stv_name":"Uncletopia | Dallas | 3 | All Maps | STV","players":null},{"server_id":405,"name":"Uncletopia | Dallas | 4 | Community","name_short":"dal-4","host":"dal-1.us.uncletopia.com","port":27045,"enabled":true,"region":"us-central","cc":"us","latitude":32.779167,"longitude":-96.80889,"reserved":0,"last_update":"0001-01-01T00:00:00Z","name_a2s":"Uncletopia | Dallas | 4 | Community","protocol":17,"map":"pl_pier","folder":"tf","game":"Team Fortress","app_id":440,"player_count":0,"max_players":24,"Bots":0,"server_type":"Dedicated","server_os":"Linux","password":true,"vac":true,"version":"7961495","steam_id":85568392924515220,"keywords":["nocrits","nodmgspread","payload","uncletopia"],"game_id":440,"stv_port":27046,"stv_name":"Uncletopia | Dallas | 4 | Community | STV","players":null},{"server_id":5,"name":"Uncletopia | Frankfurt | 1 | All Maps","name_short":"frk-1","host":"frk-1.de.uncletopia.com","port":27015,"enabled":true,"region":"eu","cc":"de","latitude":50.110924,"longitude":8.682127,"reserved":0,"last_update":"0001-01-01T00:00:00Z","name_a2s":"Uncletopia | Frankfurt | 1 | All Maps","protocol":17,"map":"cp_yukon_final","folder":"tf","game":"Team Fortress","app_id":440,"player_count":24,"max_players":24,"Bots":0,"server_type":"Dedicated","server_os":"Linux","password":true,"vac":true,"version":"7961495","steam_id":85568392924469989,"keywords":["cp","nocrits","nodmgspread","uncletopia"],"game_id":440,"stv_port":27016,"stv_name":"Uncletopia | Frankfurt | 1 | All Maps | STV","players":[{"user_id":543,"name":"vortx","steam_id":76561198215087456,"connected_time":965000000000,"state":"active","ping":45},{"user_id":527,"name":"Poggito","steam_id":76561198838001276,"connected_time":1991000000000,"state":"active","ping":55},{"user_id":554,"name":"Topool45","steam_id":76561199161389847,"connected_time":503000000000,"state":"active","ping":79},{"user_id":560,"name":"gagalak","steam_id":76561198089979108,"connected_time":267000000000,"state":"active","ping":90},{"user_id":550,"name":"Ergosum","steam_id":76561199094592508,"connected_time":570000000000,"state":"active","ping":61},{"user_id":549,"name":"Luxotrics","steam_id":76561198053455161,"connected_time":719000000000,"state":"active","ping":80},{"user_id":551,"name":"DevFish","steam_id":76561199010456751,"connected_time":559000000000,"state":"active","ping":72},{"user_id":517,"name":"Alno05","steam_id":76561198366644733,"connected_time":2264000000000,"state":"active","ping":62},{"user_id":508,"name":"Toasty5050","steam_id":76561198073540881,"connected_time":2885000000000,"state":"active","ping":45},{"user_id":561,"name":"Necator","steam_id":76561198094006970,"connected_time":62000000000,"state":"active","ping":60},{"user_id":524,"name":"TimeSpirit","steam_id":76561198148741159,"connected_time":2042000000000,"state":"active","ping":40},{"user_id":519,"name":"midlpsyzl47","steam_id":76561199475972637,"connected_time":2205000000000,"state":"active","ping":74},{"user_id":489,"name":"Merca #savetf2","steam_id":76561198088782472,"connected_time":4413000000000,"state":"active","ping":53},{"user_id":506,"name":"Hyperion","steam_id":76561198043716162,"connected_time":3119000000000,"state":"active","ping":70},{"user_id":552,"name":"MamontFroddo","steam_id":76561198171832157,"connected_time":543000000000,"state":"active","ping":103},{"user_id":536,"name":"Dommy","steam_id":76561197990864747,"connected_time":1429000000000,"state":"active","ping":53},{"user_id":537,"name":"sleeping souls","steam_id":76561198205464653,"connected_time":1415000000000,"state":"active","ping":139},{"user_id":507,"name":"Rimx","steam_id":76561198053034840,"connected_time":3053000000000,"state":"active","ping":94},{"user_id":553,"name":"BasilNight The Snowman","steam_id":76561198092767374,"connected_time":542000000000,"state":"active","ping":74},{"user_id":555,"name":"caramelldancin'","steam_id":76561198193357946,"connected_time":481000000000,"state":"active","ping":101},{"user_id":525,"name":"NIKKING","steam_id":76561198296190240,"connected_time":2037000000000,"state":"active","ping":63},{"user_id":540,"name":"Dispenser","steam_id":76561198081051880,"connected_time":1096000000000,"state":"active","ping":41},{"user_id":556,"name":"4:3 gaming","steam_id":76561198152392309,"connected_time":472000000000,"state":"active","ping":47},{"user_id":559,"name":"Umme","steam_id":76561198053809566,"connected_time":341000000000,"state":"active","ping":75}]},{"server_id":110,"name":"Uncletopia | Frankfurt | 2 | All Maps","name_short":"frk-2","host":"frk-1.de.uncletopia.com","port":27025,"enabled":true,"region":"eu","cc":"de","latitude":50.110924,"longitude":8.682127,"reserved":0,"last_update":"0001-01-01T00:00:00Z","name_a2s":"Uncletopia | Frankfurt | 2 | All Maps","protocol":17,"map":"pl_barnblitz","folder":"tf","game":"Team Fortress","app_id":440,"player_count":5,"max_players":24,"Bots":0,"server_type":"Dedicated","server_os":"Linux","password":true,"vac":true,"version":"7961495","steam_id":85568392924469990,"keywords":["nocrits","nodmgspread","payload","uncletopia"],"game_id":440,"stv_port":27026,"stv_name":"Uncletopia | Frankfurt | 2 | All Maps | STV","players":[{"user_id":605,"name":"Freddy Fazbear","steam_id":76561198299179114,"connected_time":363000000000,"state":"active","ping":69},{"user_id":601,"name":"meriones","steam_id":76561198034234373,"connected_time":1595000000000,"state":"active","ping":59},{"user_id":586,"name":"Michal Jordan (real)","steam_id":76561199106262610,"connected_time":3011000000000,"state":"active","ping":56},{"user_id":593,"name":"antuio","steam_id":76561198259489016,"connected_time":1992000000000,"state":"active","ping":90},{"user_id":538,"name":"Arsonist","steam_id":76561199087953833,"connected_time":6477000000000,"state":"active","ping":101}]},{"server_id":308,"name":"Uncletopia | Frankfurt | 3 | All Maps","name_short":"frk-3","host":"frk-1.de.uncletopia.com","port":27035,"enabled":true,"region":"eu","cc":"de","latitude":50.110924,"longitude":8.682127,"reserved":0,"last_update":"0001-01-01T00:00:00Z","name_a2s":"Uncletopia | Frankfurt | 3 | All Maps","protocol":17,"map":"pl_goldrush","folder":"tf","game":"Team Fortress","app_id":440,"player_count":0,"max_players":24,"Bots":0,"server_type":"Dedicated","server_os":"Linux","password":true,"vac":true,"version":"7961495","steam_id":85568392924504274,"keywords":["nocrits","nodmgspread","payload","uncletopia"],"game_id":440,"stv_port":27036,"stv_name":"Uncletopia | Frankfurt | 3 | All Maps | STV","players":null},{"server_id":309,"name":"Uncletopia | Frankfurt | 4 | All Maps","name_short":"frk-4","host":"frk-1.de.uncletopia.com","port":27045,"enabled":true,"region":"eu","cc":"de","latitude":50.110924,"longitude":8.682127,"reserved":0,"last_update":"0001-01-01T00:00:00Z","name_a2s":"Uncletopia | Frankfurt | 4 | All Maps","protocol":17,"map":"pl_swiftwater_final1","folder":"tf","game":"Team Fortress","app_id":440,"player_count":24,"max_players":24,"Bots":0,"server_type":"Dedicated","server_os":"Linux","password":true,"vac":true,"version":"7961495","steam_id":85568392924504275,"keywords":["nocrits","nodmgspread","payload","uncletopia"],"game_id":440,"stv_port":27046,"stv_name":"Uncletopia | Frankfurt | 4 | All Maps | STV","players":[{"user_id":337,"name":"Dewotter","steam_id":76561198007653168,"connected_time":2844000000000,"state":"active","ping":71},{"user_id":374,"name":"Khrinde","steam_id":76561198036744526,"connected_time":101000000000,"state":"active","ping":98},{"user_id":360,"name":"shankz","steam_id":76561198128803260,"connected_time":1135000000000,"state":"active","ping":56},{"user_id":364,"name":"Verggy","steam_id":76561198068565268,"connected_time":1056000000000,"state":"active","ping":83},{"user_id":367,"name":"xavier","steam_id":76561198076494034,"connected_time":859000000000,"state":"active","ping":55},{"user_id":329,"name":"randompixel","steam_id":76561198003941207,"connected_time":3775000000000,"state":"active","ping":67},{"user_id":349,"name":"AIEmil","steam_id":76561198013205559,"connected_time":1766000000000,"state":"active","ping":65},{"user_id":371,"name":"H-say","steam_id":76561198177400362,"connected_time":422000000000,"state":"active","ping":83},{"user_id":368,"name":"sad monkey hands on his head","steam_id":76561198116530769,"connected_time":704000000000,"state":"active","ping":83},{"user_id":359,"name":"the least schizo John Pork cook","steam_id":76561198048530109,"connected_time":1144000000000,"state":"active","ping":64},{"user_id":372,"name":"Dr.Disrespect","steam_id":76561198043820228,"connected_time":213000000000,"state":"active","ping":46},{"user_id":333,"name":"sinistersnowmans","steam_id":76561198987278531,"connected_time":3163000000000,"state":"active","ping":68},{"user_id":330,"name":"Vershal Smershal","steam_id":76561198116223995,"connected_time":3482000000000,"state":"active","ping":59},{"user_id":357,"name":"Diablo","steam_id":76561198054024627,"connected_time":1152000000000,"state":"active","ping":46},{"user_id":355,"name":"Lanz","steam_id":76561198126356394,"connected_time":1230000000000,"state":"active","ping":50},{"user_id":319,"name":"bum","steam_id":76561198067678158,"connected_time":4928000000000,"state":"active","ping":59},{"user_id":304,"name":"Ricey","steam_id":76561198832961307,"connected_time":5872000000000,"state":"active","ping":59},{"user_id":373,"name":"Altraverdo","steam_id":76561198063933880,"connected_time":164000000000,"state":"active","ping":53},{"user_id":361,"name":"傻比利the menace傻比利","steam_id":76561198129828715,"connected_time":1132000000000,"state":"active","ping":61},{"user_id":370,"name":"flave","steam_id":76561198056372101,"connected_time":545000000000,"state":"active","ping":70},{"user_id":354,"name":"mohemmedmokhter2005","steam_id":76561199197650506,"connected_time":1472000000000,"state":"active","ping":109},{"user_id":366,"name":"RICO","steam_id":76561198055617714,"connected_time":908000000000,"state":"active","ping":67},{"user_id":321,"name":"Woman (Real)","steam_id":76561199151823932,"connected_time":4900000000000,"state":"active","ping":75},{"user_id":341,"name":"Bajas","steam_id":76561198179339326,"connected_time":2341000000000,"state":"active","ping":77}]},{"server_id":310,"name":"Uncletopia | Frankfurt | 5 | All Maps","name_short":"frk-5","host":"frk-1.de.uncletopia.com","port":27055,"enabled":true,"region":"eu","cc":"de","latitude":50.110924,"longitude":8.682127,"reserved":0,"last_update":"0001-01-01T00:00:00Z","name_a2s":"Uncletopia | Frankfurt | 5 | All Maps","protocol":17,"map":"pl_upward","folder":"tf","game":"Team Fortress","app_id":440,"player_count":24,"max_players":24,"Bots":0,"server_type":"Dedicated","server_os":"Linux","password":true,"vac":true,"version":"7961495","steam_id":85568392924504277,"keywords":["nocrits","nodmgspread","payload","uncletopia"],"game_id":440,"stv_port":27056,"stv_name":"Uncletopia | Frankfurt | 5 | All Maps | STV","players":[{"user_id":34,"name":"cuddle","steam_id":76561198805181599,"connected_time":6821000000000,"state":"active","ping":68},{"user_id":132,"name":"Mista Baymort","steam_id":76561198367178355,"connected_time":1668000000000,"state":"active","ping":83},{"user_id":113,"name":"That Guy","steam_id":76561199005056090,"connected_time":2352000000000,"state":"active","ping":63},{"user_id":145,"name":"Br?R","steam_id":76561198197108209,"connected_time":881000000000,"state":"active","ping":84},{"user_id":149,"name":"cat","steam_id":76561198832231975,"connected_time":236000000000,"state":"active","ping":83},{"user_id":155,"name":"DarkRage","steam_id":76561198042267927,"connected_time":78000000000,"state":"active","ping":77},{"user_id":115,"name":"highest noon","steam_id":76561199103959197,"connected_time":2342000000000,"state":"active","ping":86},{"user_id":147,"name":"skill","steam_id":76561198106012909,"connected_time":301000000000,"state":"active","ping":68},{"user_id":134,"name":"syzygium","steam_id":76561198044583116,"connected_time":1247000000000,"state":"active","ping":82},{"user_id":148,"name":"Lyell","steam_id":76561198350329389,"connected_time":286000000000,"state":"active","ping":83},{"user_id":133,"name":"Monkey","steam_id":76561199008411791,"connected_time":1375000000000,"state":"active","ping":60},{"user_id":146,"name":"Cimbasso","steam_id":76561198968050004,"connected_time":333000000000,"state":"active","ping":145},{"user_id":150,"name":"Goblineer","steam_id":76561198442888935,"connected_time":235000000000,"state":"active","ping":70},{"user_id":140,"name":"froge","steam_id":76561198304959766,"connected_time":1041000000000,"state":"active","ping":82},{"user_id":151,"name":"Fish 'n' Chips","steam_id":76561198033476886,"connected_time":229000000000,"state":"active","ping":54},{"user_id":152,"name":"LOBZIK","steam_id":76561198114830120,"connected_time":209000000000,"state":"active","ping":76},{"user_id":122,"name":"TylowStar","steam_id":76561198357107806,"connected_time":2222000000000,"state":"active","ping":64},{"user_id":129,"name":"Joo ♦","steam_id":76561197987609203,"connected_time":2024000000000,"state":"active","ping":73},{"user_id":103,"name":"Voks_","steam_id":76561198159687785,"connected_time":3038000000000,"state":"active","ping":84},{"user_id":153,"name":"Rony.","steam_id":76561198242110020,"connected_time":205000000000,"state":"active","ping":108},{"user_id":70,"name":"Kiraycon","steam_id":76561198157459465,"connected_time":4906000000000,"state":"active","ping":48},{"user_id":51,"name":"[P-roc] Cmm Bert","steam_id":76561198016658674,"connected_time":6054000000000,"state":"active","ping":71},{"user_id":125,"name":"Vintage","steam_id":76561197991017153,"connected_time":2169000000000,"state":"active","ping":59},{"user_id":142,"name":"swoosp","steam_id":76561198032820696,"connected_time":991000000000,"state":"active","ping":65}]},{"server_id":311,"name":"Uncletopia | Frankfurt | 6 | All Maps","name_short":"frk-6","host":"frk-1.de.uncletopia.com","port":27065,"enabled":true,"region":"eu","cc":"de","latitude":50.110924,"longitude":8.682127,"reserved":0,"last_update":"0001-01-01T00:00:00Z","name_a2s":"Uncletopia | Frankfurt | 6 | All Maps","protocol":17,"map":"ctf_2fort","folder":"tf","game":"Team Fortress","app_id":440,"player_count":22,"max_players":24,"Bots":0,"server_type":"Dedicated","server_os":"Linux","password":true,"vac":true,"version":"7961495","steam_id":85568392924504278,"keywords":["ctf","nocrits","nodmgspread","uncletopia"],"game_id":440,"stv_port":27066,"stv_name":"Uncletopia | Frankfurt | 6 | All Maps | STV","players":[{"user_id":328,"name":"jaime","steam_id":76561197980590671,"connected_time":2331000000000,"state":"active","ping":89},{"user_id":306,"name":"Jessica","steam_id":76561198342993279,"connected_time":3355000000000,"state":"active","ping":117},{"user_id":335,"name":"Cioly","steam_id":76561198257791981,"connected_time":1693000000000,"state":"active","ping":81},{"user_id":345,"name":"calum92","steam_id":76561197992188760,"connected_time":882000000000,"state":"active","ping":84},{"user_id":311,"name":"haunts","steam_id":76561198044766573,"connected_time":2975000000000,"state":"active","ping":62},{"user_id":356,"name":"tf2 snake","steam_id":76561198193971167,"connected_time":473000000000,"state":"active","ping":48},{"user_id":359,"name":"Matbanan","steam_id":76561198228537672,"connected_time":318000000000,"state":"active","ping":98},{"user_id":326,"name":"I Don't Know","steam_id":76561198841011430,"connected_time":2361000000000,"state":"active","ping":63},{"user_id":305,"name":"ethan","steam_id":76561198119495513,"connected_time":3698000000000,"state":"active","ping":61},{"user_id":214,"name":"Spetse","steam_id":76561197990649972,"connected_time":9385000000000,"state":"active","ping":90},{"user_id":294,"name":"Tomato","steam_id":76561199124472513,"connected_time":4325000000000,"state":"active","ping":117},{"user_id":360,"name":"Frat Ro Cazz Beta","steam_id":76561198823529926,"connected_time":150000000000,"state":"active","ping":63},{"user_id":347,"name":"Furno","steam_id":76561197999723047,"connected_time":876000000000,"state":"active","ping":63},{"user_id":192,"name":"chair 2.0","steam_id":76561199233470150,"connected_time":10837000000000,"state":"active","ping":50},{"user_id":353,"name":"jovi_","steam_id":76561198449280552,"connected_time":620000000000,"state":"active","ping":72},{"user_id":260,"name":"I I","steam_id":76561199101935057,"connected_time":5537000000000,"state":"active","ping":91},{"user_id":325,"name":"mr.resetti","steam_id":76561198974520642,"connected_time":2372000000000,"state":"active","ping":65},{"user_id":341,"name":"VORTEX(COMMS OPEN)","steam_id":76561199074746528,"connected_time":1089000000000,"state":"active","ping":72},{"user_id":350,"name":"hypnophobia","steam_id":76561198231470280,"connected_time":711000000000,"state":"active","ping":59},{"user_id":352,"name":"minimurx","steam_id":76561198858102095,"connected_time":659000000000,"state":"active","ping":54},{"user_id":355,"name":"Джекет","steam_id":76561198327897125,"connected_time":577000000000,"state":"active","ping":92},{"user_id":300,"name":"Bottle O' Scrumpy","steam_id":76561199244250562,"connected_time":4227000000000,"state":"active","ping":106}]},{"server_id":23,"name":"Uncletopia | Frankfurt | 7 | Stopwatch","name_short":"frk-7","host":"frk-1.de.uncletopia.com","port":27075,"enabled":true,"region":"eu","cc":"de","latitude":50.110924,"longitude":8.682127,"reserved":0,"last_update":"0001-01-01T00:00:00Z","name_a2s":"Uncletopia | Frankfurt | 7 | Stopwatch","protocol":17,"map":"workshop/pl_barnblitz_pro7.ugc582280235","folder":"tf","game":"Team Fortress","app_id":440,"player_count":0,"max_players":24,"Bots":0,"server_type":"Dedicated","server_os":"Linux","password":true,"vac":true,"version":"7961495","steam_id":85568392924742827,"keywords":["nocrits","nodmgspread","payload","uncletopia"],"game_id":440,"stv_port":27076,"stv_name":"Uncletopia | Frankfurt | 7 | Stopwatch | STV","players":null},{"server_id":24,"name":"Uncletopia | Frankfurt | 8 | Community","name_short":"frk-8","host":"frk-1.de.uncletopia.com","port":27085,"enabled":true,"region":"eu","cc":"de","latitude":50.110924,"longitude":8.682127,"reserved":0,"last_update":"0001-01-01T00:00:00Z","name_a2s":"Uncletopia | Frankfurt | 8 | Community","protocol":17,"map":"workshop/koth_ramjam_rc1.ugc459778887","folder":"tf","game":"Team Fortress","app_id":440,"player_count":2,"max_players":24,"Bots":0,"server_type":"Dedicated","server_os":"Linux","password":true,"vac":true,"version":"7961495","steam_id":85568392924742828,"keywords":["cp","nocrits","nodmgspread","uncletopia"],"game_id":440,"stv_port":27086,"stv_name":"Uncletopia | Frankfurt | 8 | Community | STV","players":[{"user_id":17,"name":"The_Dark_Night","steam_id":76561198884257698,"connected_time":685000000000,"state":"active","ping":83},{"user_id":18,"name":"Mr.Beans","steam_id":76561199062611417,"connected_time":668000000000,"state":"active","ping":81}]},{"server_id":202,"name":"Uncletopia | Hong Kong | 1 | All Maps","name_short":"hgk-1","host":"hgk-1.hk.uncletopia.com","port":27015,"enabled":true,"region":"asia","cc":"hk","latitude":22.302711,"longitude":114.177216,"reserved":0,"last_update":"0001-01-01T00:00:00Z","name_a2s":"Uncletopia | Hong Kong | 1 | All Maps","protocol":17,"map":"koth_highpass","folder":"tf","game":"Team Fortress","app_id":440,"player_count":0,"max_players":24,"Bots":0,"server_type":"Dedicated","server_os":"Linux","password":true,"vac":true,"version":"7961495","steam_id":85568392924494504,"keywords":["cp","nocrits","nodmgspread","uncletopia"],"game_id":440,"stv_port":27016,"stv_name":"Uncletopia | Hong Kong | 1 | All Maps | STV","players":null},{"server_id":1,"name":"Uncletopia | Los Angeles | 1 | All Maps","name_short":"lax-1","host":"lax-1.us.uncletopia.com","port":27015,"enabled":true,"region":"us-west","cc":"us","latitude":33.94279,"longitude":-118.41004,"reserved":0,"last_update":"0001-01-01T00:00:00Z","name_a2s":"Uncletopia | Los Angeles | 1 | All Maps","protocol":17,"map":"koth_cascade","folder":"tf","game":"Team Fortress","app_id":440,"player_count":0,"max_players":24,"Bots":0,"server_type":"Dedicated","server_os":"Linux","password":true,"vac":true,"version":"7961495","steam_id":85568392924469991,"keywords":["cp","nocrits","nodmgspread","uncletopia"],"game_id":440,"stv_port":27016,"stv_name":"Uncletopia | Los Angeles | 1 | All Maps | STV","players":null},{"server_id":112,"name":"Uncletopia | Los Angeles | 2 | All Maps","name_short":"lax-2","host":"lax-1.us.uncletopia.com","port":27025,"enabled":true,"region":"us-west","cc":"us","latitude":33.94279,"longitude":-118.41004,"reserved":0,"last_update":"0001-01-01T00:00:00Z","name_a2s":"Uncletopia | Los Angeles | 2 | All Maps","protocol":17,"map":"koth_lakeside_final","folder":"tf","game":"Team Fortress","app_id":440,"player_count":2,"max_players":24,"Bots":0,"server_type":"Dedicated","server_os":"Linux","password":true,"vac":true,"version":"7961495","steam_id":85568392924469992,"keywords":["cp","nocrits","nodmgspread","uncletopia"],"game_id":440,"stv_port":27026,"stv_name":"Uncletopia | Los Angeles | 2 | All Maps | STV","players":[{"user_id":9,"name":"Star","steam_id":76561199005219702,"connected_time":344000000000,"state":"active","ping":87},{"user_id":11,"name":"NinjaZebra123","steam_id":76561199057849611,"connected_time":293000000000,"state":"active","ping":60}]},{"server_id":324,"name":"Uncletopia | Los Angeles | 3 | All Maps","name_short":"lax-3","host":"lax-1.us.uncletopia.com","port":27035,"enabled":true,"region":"us-west","cc":"us","latitude":33.94279,"longitude":-118.41004,"reserved":0,"last_update":"0001-01-01T00:00:00Z","name_a2s":"Uncletopia | Los Angeles | 3 | All Maps","protocol":17,"map":"pl_barnblitz","folder":"tf","game":"Team Fortress","app_id":440,"player_count":0,"max_players":24,"Bots":0,"server_type":"Dedicated","server_os":"Linux","password":true,"vac":true,"version":"7961495","steam_id":85568392924510198,"keywords":["nocrits","nodmgspread","payload","uncletopia"],"game_id":440,"stv_port":27036,"stv_name":"Uncletopia | Los Angeles | 3 | All Maps | STV","players":null},{"server_id":25,"name":"Uncletopia | Los Angeles | 4 | Stopwatch","name_short":"lax-4","host":"lax-1.us.uncletopia.com","port":27045,"enabled":true,"region":"us-west","cc":"us","latitude":33.94279,"longitude":-118.41004,"reserved":0,"last_update":"0001-01-01T00:00:00Z","name_a2s":"Uncletopia | Los Angeles | 4 | Stopwatch","protocol":17,"map":"pl_barnblitz","folder":"tf","game":"Team Fortress","app_id":440,"player_count":0,"max_players":24,"Bots":0,"server_type":"Dedicated","server_os":"Linux","password":true,"vac":true,"version":"7961495","steam_id":85568392924510199,"keywords":["nocrits","nodmgspread","payload","uncletopia"],"game_id":440,"stv_port":27046,"stv_name":"Uncletopia | Los Angeles | 4 | Stopwatch | STV","players":null},{"server_id":11,"name":"Uncletopia | London | 1 | All Maps","name_short":"lon-1","host":"lon-1.uk.uncletopia.com","port":27015,"enabled":true,"region":"eu","cc":"gb","latitude":51.509865,"longitude":-0.118092,"reserved":0,"last_update":"0001-01-01T00:00:00Z","name_a2s":"Uncletopia | London | 1 | All Maps","protocol":17,"map":"pl_swiftwater_final1","folder":"tf","game":"Team Fortress","app_id":440,"player_count":23,"max_players":24,"Bots":0,"server_type":"Dedicated","server_os":"Linux","password":true,"vac":true,"version":"7961495","steam_id":85568392924367362,"keywords":["nocrits","nodmgspread","payload","uncletopia"],"game_id":440,"stv_port":27016,"stv_name":"Uncletopia | London | 1 | All Maps | STV","players":[{"user_id":556,"name":"kisutyty :3","steam_id":76561198723244199,"connected_time":7356000000000,"state":"active","ping":75},{"user_id":569,"name":"halow","steam_id":76561198061505163,"connected_time":6728000000000,"state":"active","ping":111},{"user_id":662,"name":"_Starlight_","steam_id":76561197993885738,"connected_time":51000000000,"state":"active","ping":83},{"user_id":652,"name":"Hogs Sidekick","steam_id":76561198136433205,"connected_time":863000000000,"state":"active","ping":37},{"user_id":603,"name":"shooer!","steam_id":76561198110531281,"connected_time":3939000000000,"state":"active","ping":67},{"user_id":639,"name":"Meath for Sam","steam_id":76561198158350010,"connected_time":1733000000000,"state":"active","ping":81},{"user_id":650,"name":"Snake-chan","steam_id":76561199044755854,"connected_time":1097000000000,"state":"active","ping":94},{"user_id":655,"name":"Aaron","steam_id":76561197990046953,"connected_time":136000000000,"state":"active","ping":45},{"user_id":656,"name":"Radigan-Flanders::","steam_id":76561198100439744,"connected_time":118000000000,"state":"active","ping":41},{"user_id":657,"name":"Bill Carr","steam_id":76561198110033943,"connected_time":102000000000,"state":"active","ping":37},{"user_id":658,"name":"Dreszerg","steam_id":76561198838757422,"connected_time":91000000000,"state":"active","ping":154},{"user_id":659,"name":"Jon","steam_id":76561199380849468,"connected_time":86000000000,"state":"active","ping":60},{"user_id":642,"name":"Miquel128","steam_id":76561198274955794,"connected_time":1622000000000,"state":"active","ping":84},{"user_id":554,"name":"breakfast burrito","steam_id":76561198148606969,"connected_time":7357000000000,"state":"active","ping":88},{"user_id":633,"name":"ROGUE-PLANET","steam_id":76561198116023052,"connected_time":1895000000000,"state":"active","ping":164},{"user_id":629,"name":"badrobot","steam_id":76561198322878356,"connected_time":2386000000000,"state":"active","ping":110},{"user_id":646,"name":"INDIEFRAME","steam_id":76561199086092220,"connected_time":1226000000000,"state":"active","ping":60},{"user_id":660,"name":"Vital","steam_id":76561198062052388,"connected_time":85000000000,"state":"active","ping":60},{"user_id":661,"name":"I AM DOT","steam_id":76561198354118090,"connected_time":67000000000,"state":"active","ping":79},{"user_id":644,"name":"MUWEQ","steam_id":76561198107615727,"connected_time":1520000000000,"state":"active","ping":80},{"user_id":651,"name":"BreadBubbles","steam_id":76561198174332826,"connected_time":935000000000,"state":"active","ping":59},{"user_id":654,"name":"The Bugs Under Your Skin","steam_id":76561198064795519,"connected_time":210000000000,"state":"active","ping":51},{"user_id":641,"name":"Janneke Maan","steam_id":76561198069290924,"connected_time":1648000000000,"state":"active","ping":65}]},{"server_id":114,"name":"Uncletopia | London | 2 | All Maps","name_short":"lon-2","host":"lon-1.uk.uncletopia.com","port":27025,"enabled":true,"region":"eu","cc":"gb","latitude":51.509865,"longitude":-0.118092,"reserved":0,"last_update":"0001-01-01T00:00:00Z","name_a2s":"Uncletopia | London | 2 | All Maps","protocol":17,"map":"cp_process_final","folder":"tf","game":"Team Fortress","app_id":440,"player_count":24,"max_players":24,"Bots":0,"server_type":"Dedicated","server_os":"Linux","password":true,"vac":true,"version":"7961495","steam_id":85568392924470941,"keywords":["cp","nocrits","nodmgspread","uncletopia"],"game_id":440,"stv_port":27026,"stv_name":"Uncletopia | London | 2 | All Maps | STV","players":[{"user_id":563,"name":"Aspartus","steam_id":76561198101385763,"connected_time":1942000000000,"state":"active","ping":39},{"user_id":537,"name":"Dunboi","steam_id":76561198120949216,"connected_time":2898000000000,"state":"active","ping":50},{"user_id":574,"name":"kalaa †","steam_id":76561198134652336,"connected_time":1019000000000,"state":"active","ping":72},{"user_id":588,"name":"UltimateAura","steam_id":76561198338361324,"connected_time":196000000000,"state":"active","ping":41},{"user_id":567,"name":"Titut11","steam_id":76561198392505656,"connected_time":1856000000000,"state":"active","ping":75},{"user_id":542,"name":"armadillo","steam_id":76561198324656652,"connected_time":2730000000000,"state":"active","ping":53},{"user_id":547,"name":"ANABOLIC HAMPSTER 2009","steam_id":76561198163081194,"connected_time":2465000000000,"state":"active","ping":46},{"user_id":569,"name":"Fatmagic Mukbang ASMR","steam_id":76561198063492110,"connected_time":1716000000000,"state":"active","ping":85},{"user_id":501,"name":"speancer","steam_id":76561198260705251,"connected_time":5111000000000,"state":"active","ping":88},{"user_id":564,"name":"Bobirulez","steam_id":76561198009125458,"connected_time":1929000000000,"state":"active","ping":77},{"user_id":565,"name":"Nithle","steam_id":76561198025372740,"connected_time":1921000000000,"state":"active","ping":43},{"user_id":562,"name":"Flyingmeadow","steam_id":76561198144687723,"connected_time":1988000000000,"state":"active","ping":131},{"user_id":576,"name":"CRITICAL_HIT!","steam_id":76561198349330393,"connected_time":979000000000,"state":"active","ping":84},{"user_id":582,"name":"Sirocco","steam_id":76561198068857858,"connected_time":797000000000,"state":"active","ping":110},{"user_id":568,"name":"ericgoodheart","steam_id":76561198871056612,"connected_time":1831000000000,"state":"active","ping":129},{"user_id":559,"name":"Gemini zyx","steam_id":76561198072803211,"connected_time":2302000000000,"state":"active","ping":65},{"user_id":587,"name":"ProperCroc","steam_id":76561198071187828,"connected_time":263000000000,"state":"active","ping":45},{"user_id":561,"name":"RoboCat","steam_id":76561198966575269,"connected_time":2009000000000,"state":"active","ping":74},{"user_id":583,"name":"KODE","steam_id":76561198053212394,"connected_time":723000000000,"state":"active","ping":78},{"user_id":585,"name":"xTheDarkLight","steam_id":76561198239128298,"connected_time":355000000000,"state":"active","ping":60},{"user_id":556,"name":"Flying Chemist","steam_id":76561198085039837,"connected_time":2392000000000,"state":"active","ping":73},{"user_id":584,"name":"Special Agent Big Smoke","steam_id":76561198154468827,"connected_time":637000000000,"state":"active","ping":73},{"user_id":558,"name":"Tactical Grace","steam_id":76561198072326317,"connected_time":2326000000000,"state":"active","ping":45},{"user_id":481,"name":"Ullr","steam_id":76561198140547483,"connected_time":6061000000000,"state":"active","ping":44}]},{"server_id":320,"name":"Uncletopia | London | 3 | All Maps","name_short":"lon-3","host":"lon-1.uk.uncletopia.com","port":27035,"enabled":true,"region":"eu","cc":"gb","latitude":51.509865,"longitude":-0.118092,"reserved":0,"last_update":"0001-01-01T00:00:00Z","name_a2s":"Uncletopia | London | 3 | All Maps","protocol":17,"map":"pl_barnblitz","folder":"tf","game":"Team Fortress","app_id":440,"player_count":23,"max_players":24,"Bots":0,"server_type":"Dedicated","server_os":"Linux","password":true,"vac":true,"version":"7961495","steam_id":85568392924510192,"keywords":["nocrits","nodmgspread","payload","uncletopia"],"game_id":440,"stv_port":27036,"stv_name":"Uncletopia | London | 3 | All Maps | STV","players":[{"user_id":473,"name":"heavy sings (real)","steam_id":76561199023804405,"connected_time":1031000000000,"state":"active","ping":74},{"user_id":387,"name":"Kernel Panic","steam_id":76561198215811047,"connected_time":7820000000000,"state":"active","ping":36},{"user_id":486,"name":"bluecheesemints","steam_id":76561199490357988,"connected_time":379000000000,"state":"active","ping":59},{"user_id":487,"name":"kevinus","steam_id":76561198059722457,"connected_time":336000000000,"state":"active","ping":61},{"user_id":474,"name":"harper","steam_id":76561198188642265,"connected_time":1018000000000,"state":"active","ping":70},{"user_id":434,"name":"TTVDustyOtto","steam_id":76561198340088896,"connected_time":2844000000000,"state":"active","ping":75},{"user_id":478,"name":"emkoç","steam_id":76561198846782346,"connected_time":848000000000,"state":"active","ping":116},{"user_id":488,"name":"Gryoss","steam_id":76561197999837111,"connected_time":322000000000,"state":"active","ping":106},{"user_id":436,"name":"Caine de vanatoare","steam_id":76561198325001220,"connected_time":2837000000000,"state":"active","ping":107},{"user_id":470,"name":"7evaa","steam_id":76561198046754534,"connected_time":1080000000000,"state":"active","ping":90},{"user_id":485,"name":"Bun","steam_id":76561197989239999,"connected_time":508000000000,"state":"active","ping":64},{"user_id":438,"name":"♥ Cirno ♥","steam_id":76561198834982738,"connected_time":2783000000000,"state":"active","ping":82},{"user_id":467,"name":"Snowmotion","steam_id":76561198075022454,"connected_time":1120000000000,"state":"active","ping":71},{"user_id":490,"name":"meta1","steam_id":76561198087824752,"connected_time":308000000000,"state":"active","ping":32},{"user_id":319,"name":":3","steam_id":76561198169471853,"connected_time":10283000000000,"state":"active","ping":42},{"user_id":406,"name":"Zoey Cakes","steam_id":76561198080247936,"connected_time":5675000000000,"state":"active","ping":166},{"user_id":491,"name":"Demodestroier","steam_id":76561198958081327,"connected_time":307000000000,"state":"active","ping":45},{"user_id":476,"name":"lillunya ♡","steam_id":76561198330418866,"connected_time":1012000000000,"state":"active","ping":73},{"user_id":450,"name":"Murasama69","steam_id":76561198057861174,"connected_time":2080000000000,"state":"active","ping":61},{"user_id":481,"name":"bK*TrigoN","steam_id":76561198091131043,"connected_time":754000000000,"state":"active","ping":96},{"user_id":446,"name":"femboy enjoyer","steam_id":76561199041737814,"connected_time":2269000000000,"state":"active","ping":39},{"user_id":461,"name":"Batmintimidating","steam_id":76561198103724879,"connected_time":1518000000000,"state":"active","ping":53},{"user_id":484,"name":"AWildTamim","steam_id":76561198048060652,"connected_time":567000000000,"state":"active","ping":42}]},{"server_id":321,"name":"Uncletopia | London | 4 | All Maps","name_short":"lon-4","host":"lon-1.uk.uncletopia.com","port":27045,"enabled":true,"region":"eu","cc":"gb","latitude":51.509865,"longitude":-0.118092,"reserved":0,"last_update":"0001-01-01T00:00:00Z","name_a2s":"Uncletopia | London | 4 | All Maps","protocol":17,"map":"cp_dustbowl","folder":"tf","game":"Team Fortress","app_id":440,"player_count":24,"max_players":24,"Bots":0,"server_type":"Dedicated","server_os":"Linux","password":true,"vac":true,"version":"7961495","steam_id":85568392924510193,"keywords":["cp","nocrits","nodmgspread","uncletopia"],"game_id":440,"stv_port":27046,"stv_name":"Uncletopia | London | 4 | All Maps | STV","players":[{"user_id":191,"name":"Dotkor Tommy","steam_id":76561199012441653,"connected_time":3762000000000,"state":"active","ping":89},{"user_id":241,"name":"piper","steam_id":76561198112687349,"connected_time":385000000000,"state":"active","ping":44},{"user_id":192,"name":"Arthur","steam_id":76561198066109166,"connected_time":3543000000000,"state":"active","ping":78},{"user_id":200,"name":"Rock..","steam_id":76561198004641963,"connected_time":3123000000000,"state":"active","ping":80},{"user_id":234,"name":"Tomfool","steam_id":76561197993256481,"connected_time":739000000000,"state":"active","ping":92},{"user_id":175,"name":"♥Also Freddy♥","steam_id":76561198200934934,"connected_time":4290000000000,"state":"active","ping":69},{"user_id":189,"name":"CMRDGI","steam_id":76561198141356233,"connected_time":3983000000000,"state":"active","ping":58},{"user_id":236,"name":"Landeyx","steam_id":76561198126640158,"connected_time":632000000000,"state":"active","ping":67},{"user_id":240,"name":"Ricord","steam_id":76561198104369167,"connected_time":429000000000,"state":"active","ping":45},{"user_id":218,"name":"Jeffrey Harpen","steam_id":76561199073314677,"connected_time":1675000000000,"state":"active","ping":77},{"user_id":221,"name":"dongujs","steam_id":76561198042774930,"connected_time":1558000000000,"state":"active","ping":67},{"user_id":244,"name":"Glitch","steam_id":76561198081895538,"connected_time":89000000000,"state":"active","ping":59},{"user_id":242,"name":"aperson","steam_id":76561198079577171,"connected_time":348000000000,"state":"active","ping":58},{"user_id":243,"name":"Fallen_Scholar","steam_id":76561198055468709,"connected_time":249000000000,"state":"active","ping":66},{"user_id":179,"name":"Pong Lenis","steam_id":76561198039251333,"connected_time":4258000000000,"state":"active","ping":104},{"user_id":222,"name":"Purpl3 Scout","steam_id":76561198083663337,"connected_time":1427000000000,"state":"active","ping":53},{"user_id":231,"name":"Level 1 Noob","steam_id":76561198088586340,"connected_time":847000000000,"state":"active","ping":58},{"user_id":181,"name":"coygus","steam_id":76561198071751994,"connected_time":4244000000000,"state":"active","ping":55},{"user_id":183,"name":"akakez","steam_id":76561198095432821,"connected_time":4227000000000,"state":"active","ping":120},{"user_id":203,"name":"xiiski","steam_id":76561198152387747,"connected_time":2974000000000,"state":"active","ping":102},{"user_id":154,"name":"SuntanPikachu","steam_id":76561198121242476,"connected_time":5774000000000,"state":"active","ping":71},{"user_id":206,"name":"steve","steam_id":76561198335143890,"connected_time":2703000000000,"state":"active","ping":52},{"user_id":209,"name":"40mg of Elvanse","steam_id":76561198303429751,"connected_time":2607000000000,"state":"active","ping":45},{"user_id":238,"name":"prospike","steam_id":76561199491903111,"connected_time":628000000000,"state":"active","ping":149}]},{"server_id":21,"name":"Uncletopia | London | 5 | All Maps","name_short":"lon-5","host":"lon-1.uk.uncletopia.com","port":27055,"enabled":true,"region":"eu","cc":"gb","latitude":51.509865,"longitude":-0.118092,"reserved":0,"last_update":"0001-01-01T00:00:00Z","name_a2s":"Uncletopia | London | 5 | All Maps","protocol":17,"map":"koth_viaduct","folder":"tf","game":"Team Fortress","app_id":440,"player_count":24,"max_players":24,"Bots":0,"server_type":"Dedicated","server_os":"Linux","password":true,"vac":true,"version":"7961495","steam_id":85568392924742829,"keywords":["cp","nocrits","nodmgspread","uncletopia"],"game_id":440,"stv_port":27056,"stv_name":"Uncletopia | London | 5 | All Maps | STV","players":[{"user_id":185,"name":"seatro4","steam_id":76561199001899201,"connected_time":93000000000,"state":"active","ping":165},{"user_id":164,"name":"XxBenShapiro420xX","steam_id":76561199229373972,"connected_time":840000000000,"state":"active","ping":57},{"user_id":176,"name":"SooS","steam_id":76561198064845264,"connected_time":421000000000,"state":"active","ping":63},{"user_id":168,"name":"EwyPig","steam_id":76561198104051370,"connected_time":589000000000,"state":"active","ping":55},{"user_id":186,"name":"kunykunyk","steam_id":76561198839391482,"connected_time":65000000000,"state":"active","ping":83},{"user_id":151,"name":"Mafew","steam_id":76561198119993886,"connected_time":1675000000000,"state":"active","ping":56},{"user_id":177,"name":"Cosmo","steam_id":76561198078378048,"connected_time":416000000000,"state":"active","ping":45},{"user_id":178,"name":"core","steam_id":76561198090152271,"connected_time":410000000000,"state":"active","ping":78},{"user_id":153,"name":"Larry Penus","steam_id":76561198207546233,"connected_time":1670000000000,"state":"active","ping":45},{"user_id":184,"name":"FoOzTV","steam_id":76561197998636728,"connected_time":121000000000,"state":"active","ping":69},{"user_id":187,"name":"Kummerspeck","steam_id":76561198151952677,"connected_time":39000000000,"state":"active","ping":51},{"user_id":169,"name":"SANGOMI","steam_id":76561199383217951,"connected_time":588000000000,"state":"active","ping":187},{"user_id":172,"name":"Fuvuk","steam_id":76561198044458593,"connected_time":519000000000,"state":"active","ping":90},{"user_id":174,"name":"INVALID","steam_id":76561198151605740,"connected_time":487000000000,"state":"active","ping":86},{"user_id":143,"name":"Caramel","steam_id":76561198021214844,"connected_time":2241000000000,"state":"active","ping":44},{"user_id":188,"name":"regularJim","steam_id":76561197960442152,"connected_time":36000000000,"state":"spawning","ping":117},{"user_id":171,"name":"energiske erik","steam_id":76561198044616068,"connected_time":576000000000,"state":"active","ping":83},{"user_id":189,"name":"eggdoo","steam_id":76561198999089059,"connected_time":35000000000,"state":"spawning","ping":64},{"user_id":190,"name":"The Enigmatic Dolphin","steam_id":76561197991390953,"connected_time":15000000000,"state":"spawning","ping":146},{"user_id":125,"name":"glorpis","steam_id":76561199225333422,"connected_time":3482000000000,"state":"active","ping":39},{"user_id":126,"name":"[O\u0026O]YaboiDucki","steam_id":76561198195976589,"connected_time":3474000000000,"state":"active","ping":83},{"user_id":179,"name":"Ocrim_R","steam_id":76561198050479516,"connected_time":312000000000,"state":"active","ping":57},{"user_id":181,"name":"Luigi","steam_id":76561198196910287,"connected_time":249000000000,"state":"active","ping":60},{"user_id":163,"name":"Jai","steam_id":76561198162407453,"connected_time":1155000000000,"state":"active","ping":40}]},{"server_id":22,"name":"Uncletopia | London | 6 | All Maps","name_short":"lon-6","host":"lon-1.uk.uncletopia.com","port":27065,"enabled":true,"region":"eu","cc":"gb","latitude":51.509865,"longitude":-0.118092,"reserved":0,"last_update":"0001-01-01T00:00:00Z","name_a2s":"Uncletopia | London | 6 | All Maps","protocol":17,"map":"pl_barnblitz","folder":"tf","game":"Team Fortress","app_id":440,"player_count":23,"max_players":24,"Bots":0,"server_type":"Dedicated","server_os":"Linux","password":true,"vac":true,"version":"7961495","steam_id":85568392924742830,"keywords":["nocrits","nodmgspread","payload","uncletopia"],"game_id":440,"stv_port":27066,"stv_name":"Uncletopia | London | 6 | All Maps | STV","players":[{"user_id":448,"name":"KO_Dragon","steam_id":76561198978592266,"connected_time":1040000000000,"state":"active","ping":162},{"user_id":428,"name":"I jazzed myself","steam_id":76561198203016603,"connected_time":2499000000000,"state":"active","ping":59},{"user_id":447,"name":"DOOT","steam_id":76561198188720263,"connected_time":1184000000000,"state":"active","ping":59},{"user_id":455,"name":"Albon","steam_id":76561198060378881,"connected_time":538000000000,"state":"active","ping":63},{"user_id":472,"name":"Niggi","steam_id":76561198039866494,"connected_time":83000000000,"state":"active","ping":67},{"user_id":471,"name":"piers morgan (black lesbian)","steam_id":76561199401283123,"connected_time":109000000000,"state":"active","ping":52},{"user_id":454,"name":"TF2 Dev Commentary","steam_id":76561198414175953,"connected_time":593000000000,"state":"active","ping":61},{"user_id":459,"name":"Lackryx","steam_id":76561198313256505,"connected_time":264000000000,"state":"active","ping":67},{"user_id":460,"name":"Egg Guzzler","steam_id":76561199109194893,"connected_time":262000000000,"state":"active","ping":167},{"user_id":473,"name":"$kelly","steam_id":76561198195270894,"connected_time":51000000000,"state":"active","ping":62},{"user_id":462,"name":"Oisklet","steam_id":76561198105734948,"connected_time":248000000000,"state":"active","ping":57},{"user_id":415,"name":"Nonok","steam_id":76561199480685498,"connected_time":3878000000000,"state":"active","ping":60},{"user_id":408,"name":"Eric Catman","steam_id":76561198802117294,"connected_time":4544000000000,"state":"active","ping":82},{"user_id":466,"name":"DudeMitFlute","steam_id":76561198011931027,"connected_time":195000000000,"state":"active","ping":84},{"user_id":444,"name":"Derek Pappalardo Gaming","steam_id":76561198215428069,"connected_time":1561000000000,"state":"active","ping":81},{"user_id":474,"name":"Wir suchen dich!","steam_id":76561198307613521,"connected_time":25000000000,"state":"active","ping":71},{"user_id":429,"name":"Lyncurion","steam_id":76561199260022725,"connected_time":2233000000000,"state":"active","ping":88},{"user_id":464,"name":"Mortified","steam_id":76561198010225496,"connected_time":219000000000,"state":"active","ping":69},{"user_id":449,"name":"sloppy transgirl toppy","steam_id":76561198057092208,"connected_time":1034000000000,"state":"active","ping":75},{"user_id":465,"name":"gremlin_18","steam_id":76561198148653336,"connected_time":210000000000,"state":"active","ping":50},{"user_id":469,"name":"Umbro","steam_id":76561198087930438,"connected_time":150000000000,"state":"active","ping":75},{"user_id":450,"name":"ThugTugger","steam_id":76561199009004723,"connected_time":926000000000,"state":"active","ping":34},{"user_id":470,"name":"Saint","steam_id":76561198003296382,"connected_time":149000000000,"state":"active","ping":75}]},{"server_id":40,"name":"Uncletopia | London | 7 | Stopwatch","name_short":"lon-7","host":"lon-1.uk.uncletopia.com","port":27075,"enabled":true,"region":"eu","cc":"gb","latitude":51.509865,"longitude":-0.118092,"reserved":0,"last_update":"0001-01-01T00:00:00Z","name_a2s":"Uncletopia | London | 7 | Stopwatch","protocol":17,"map":"cp_gullywash_final1","folder":"tf","game":"Team Fortress","app_id":440,"player_count":0,"max_players":24,"Bots":0,"server_type":"Dedicated","server_os":"Linux","password":true,"vac":true,"version":"7961495","steam_id":85568392924964314,"keywords":["cp","nocrits","nodmgspread","uncletopia"],"game_id":440,"stv_port":27076,"stv_name":"Uncletopia | London | 7 | Stopwatch | STV","players":null},{"server_id":41,"name":"Uncletopia | London | 8 | Community","name_short":"lon-8","host":"lon-1.uk.uncletopia.com","port":27085,"enabled":true,"region":"eu","cc":"gb","latitude":51.509865,"longitude":-0.118092,"reserved":0,"last_update":"0001-01-01T00:00:00Z","name_a2s":"Uncletopia | London | 8 | Community","protocol":17,"map":"workshop/koth_product_final.ugc454272353","folder":"tf","game":"Team Fortress","app_id":440,"player_count":4,"max_players":24,"Bots":0,"server_type":"Dedicated","server_os":"Linux","password":true,"vac":true,"version":"7961495","steam_id":85568392924964315,"keywords":["cp","nocrits","nodmgspread","uncletopia"],"game_id":440,"stv_port":27086,"stv_name":"Uncletopia | London | 8 | Community | STV","players":[{"user_id":32,"name":"painting4","steam_id":76561198067554256,"connected_time":4191000000000,"state":"active","ping":42},{"user_id":33,"name":"Henry Fonda","steam_id":76561199378865926,"connected_time":3756000000000,"state":"active","ping":109},{"user_id":43,"name":"Tammrock","steam_id":76561198029322294,"connected_time":1119000000000,"state":"active","ping":59},{"user_id":46,"name":"rowlet gaming","steam_id":76561199184599501,"connected_time":897000000000,"state":"active","ping":169}]},{"server_id":300,"name":"Uncletopia | Montréal | 1 | One Thousand Uncles","name_short":"mtl-1","host":"mtl-1.ca.uncletopia.com","port":27015,"enabled":true,"region":"us-east","cc":"ca","latitude":45.50889,"longitude":-73.56167,"reserved":0,"last_update":"0001-01-01T00:00:00Z","name_a2s":"","protocol":0,"map":"","folder":"","game":"","app_id":0,"player_count":12,"max_players":0,"Bots":0,"server_type":"","server_os":"","password":false,"vac":false,"version":"","steam_id":0,"keywords":null,"game_id":0,"stv_port":0,"stv_name":"","players":[{"user_id":165,"name":"Springtrap","steam_id":76561199380039204,"connected_time":1814000000000,"state":"active","ping":72},{"user_id":108,"name":"Dennis Reynolds","steam_id":76561197960371259,"connected_time":5715000000000,"state":"active","ping":81},{"user_id":170,"name":"Enzo","steam_id":76561197975076681,"connected_time":542000000000,"state":"active","ping":65},{"user_id":73,"name":"็Periculosum PhD in Funny","steam_id":76561198123370914,"connected_time":9967000000000,"state":"active","ping":74},{"user_id":174,"name":"GoatCatProductions","steam_id":76561199047077406,"connected_time":394000000000,"state":"active","ping":95},{"user_id":167,"name":"FreonAddict9x19","steam_id":76561198060010824,"connected_time":808000000000,"state":"active","ping":51},{"user_id":171,"name":"Thai","steam_id":76561198302397245,"connected_time":525000000000,"state":"active","ping":52},{"user_id":173,"name":"Ashley","steam_id":76561198056152479,"connected_time":437000000000,"state":"active","ping":121},{"user_id":146,"name":"Curse of the Blackened Eye","steam_id":76561198097175164,"connected_time":3220000000000,"state":"active","ping":46},{"user_id":118,"name":"nickname64","steam_id":76561199350406358,"connected_time":4000000000000,"state":"active","ping":105},{"user_id":154,"name":"Valet de coeur","steam_id":76561198417211274,"connected_time":2862000000000,"state":"active","ping":39},{"user_id":176,"name":"penishaha","steam_id":76561198262856703,"connected_time":85000000000,"state":"active","ping":67}]},{"server_id":301,"name":"Uncletopia | Montréal | 2 | One Thousand Uncles","name_short":"mtl-2","host":"mtl-1.ca.uncletopia.com","port":27025,"enabled":true,"region":"us-east","cc":"ca","latitude":45.50889,"longitude":-73.56167,"reserved":0,"last_update":"0001-01-01T00:00:00Z","name_a2s":"","protocol":0,"map":"","folder":"","game":"","app_id":0,"player_count":0,"max_players":0,"Bots":0,"server_type":"","server_os":"","password":false,"vac":false,"version":"","steam_id":0,"keywords":null,"game_id":0,"stv_port":0,"stv_name":"","players":null},{"server_id":302,"name":"Uncletopia | Montréal | 3 | One Thousand Uncles","name_short":"mtl-3","host":"mtl-1.ca.uncletopia.com","port":27035,"enabled":true,"region":"us-east","cc":"ca","latitude":45.50889,"longitude":-73.56167,"reserved":0,"last_update":"0001-01-01T00:00:00Z","name_a2s":"","protocol":0,"map":"","folder":"","game":"","app_id":0,"player_count":0,"max_players":0,"Bots":0,"server_type":"","server_os":"","password":false,"vac":false,"version":"","steam_id":0,"keywords":null,"game_id":0,"stv_port":0,"stv_name":"","players":null},{"server_id":13,"name":"Uncletopia | New York City | 1 | All Maps","name_short":"nyc-1","host":"nyc-1.us.uncletopia.com","port":27015,"enabled":true,"region":"us-east","cc":"us","latitude":40.73061,"longitude":-73.93524,"reserved":0,"last_update":"0001-01-01T00:00:00Z","name_a2s":"Uncletopia | New York City | 1 | All Maps","protocol":17,"map":"pl_swiftwater_final1","folder":"tf","game":"Team Fortress","app_id":440,"player_count":24,"max_players":24,"Bots":0,"server_type":"Dedicated","server_os":"Linux","password":true,"vac":true,"version":"7961495","steam_id":85568392924469993,"keywords":["nocrits","nodmgspread","payload","uncletopia"],"game_id":440,"stv_port":27016,"stv_name":"Uncletopia | New York City | 1 | All Maps | STV","players":[{"user_id":179,"name":"DB1","steam_id":76561199172642819,"connected_time":3418000000000,"state":"active","ping":64},{"user_id":220,"name":"x","steam_id":76561198966980576,"connected_time":225000000000,"state":"active","ping":51},{"user_id":223,"name":"Donkski","steam_id":76561198406895347,"connected_time":72000000000,"state":"active","ping":86},{"user_id":218,"name":"Florida Man","steam_id":76561199085702573,"connected_time":331000000000,"state":"active","ping":87},{"user_id":210,"name":"Midnight-ag","steam_id":76561198115714484,"connected_time":844000000000,"state":"active","ping":150},{"user_id":211,"name":"Winter the Witchie","steam_id":76561198151971178,"connected_time":842000000000,"state":"active","ping":72},{"user_id":107,"name":"taigaxx","steam_id":76561198202669250,"connected_time":11249000000000,"state":"active","ping":63},{"user_id":130,"name":"Sodemo","steam_id":76561198074987146,"connected_time":7805000000000,"state":"active","ping":68},{"user_id":203,"name":"real gamer hours","steam_id":76561198169329362,"connected_time":1459000000000,"state":"active","ping":67},{"user_id":187,"name":"ndvr","steam_id":76561199379200102,"connected_time":2980000000000,"state":"active","ping":55},{"user_id":164,"name":"Bee_Pirate","steam_id":76561199000599111,"connected_time":5082000000000,"state":"active","ping":60},{"user_id":215,"name":"Tots","steam_id":76561198027485007,"connected_time":516000000000,"state":"active","ping":60},{"user_id":202,"name":"The Foolish Samurai","steam_id":76561198094494945,"connected_time":1690000000000,"state":"active","ping":125},{"user_id":214,"name":"bobbymcbobington","steam_id":76561199089411172,"connected_time":577000000000,"state":"active","ping":119},{"user_id":167,"name":"Gobl1n","steam_id":76561198808610991,"connected_time":4872000000000,"state":"active","ping":85},{"user_id":157,"name":"fish","steam_id":76561198303575607,"connected_time":5798000000000,"state":"active","ping":75},{"user_id":205,"name":"cyberas","steam_id":76561198257092290,"connected_time":1159000000000,"state":"active","ping":74},{"user_id":206,"name":"Gustavo Fring","steam_id":76561198132807405,"connected_time":1065000000000,"state":"active","ping":84},{"user_id":219,"name":"Walmart Employee","steam_id":76561198840373909,"connected_time":312000000000,"state":"active","ping":96},{"user_id":209,"name":"Tristen0808","steam_id":76561198154235444,"connected_time":945000000000,"state":"active","ping":69},{"user_id":184,"name":"Jonny4Balls","steam_id":76561198979333994,"connected_time":3070000000000,"state":"active","ping":70},{"user_id":204,"name":"benny worm","steam_id":76561198163238434,"connected_time":1342000000000,"state":"active","ping":48},{"user_id":216,"name":"baconlover09","steam_id":76561198060684892,"connected_time":484000000000,"state":"active","ping":46},{"user_id":224,"name":"Unfortunate Son","steam_id":76561199123285878,"connected_time":69000000000,"state":"active","ping":61}]},{"server_id":14,"name":"Uncletopia | New York City | 2 | All Maps","name_short":"nyc-2","host":"nyc-1.us.uncletopia.com","port":27025,"enabled":true,"region":"us-east","cc":"us","latitude":40.73061,"longitude":-73.93524,"reserved":0,"last_update":"0001-01-01T00:00:00Z","name_a2s":"Uncletopia | New York City | 2 | All Maps","protocol":17,"map":"pl_upward","folder":"tf","game":"Team Fortress","app_id":440,"player_count":23,"max_players":24,"Bots":0,"server_type":"Dedicated","server_os":"Linux","password":true,"vac":true,"version":"7961495","steam_id":85568392924469994,"keywords":["nocrits","nodmgspread","payload","uncletopia"],"game_id":440,"stv_port":27026,"stv_name":"Uncletopia | New York City | 2 | All Maps | STV","players":[{"user_id":218,"name":"njokuani","steam_id":76561199061380038,"connected_time":1544000000000,"state":"connecting","ping":95},{"user_id":56,"name":"John Fortnite","steam_id":76561198076608253,"connected_time":12091000000000,"state":"connecting","ping":64},{"user_id":181,"name":"Goozrat","steam_id":76561198399281848,"connected_time":4320000000000,"state":"connecting","ping":78},{"user_id":177,"name":"ADRIEN BRODY","steam_id":76561198009299473,"connected_time":4848000000000,"state":"connecting","ping":75},{"user_id":240,"name":"Voodo133","steam_id":76561198042670351,"connected_time":15000000000,"state":"connecting","ping":60},{"user_id":236,"name":"Jeffman","steam_id":76561198165402070,"connected_time":227000000000,"state":"connecting","ping":73},{"user_id":213,"name":"your very own pocket medic","steam_id":76561199489320369,"connected_time":1786000000000,"state":"connecting","ping":64},{"user_id":210,"name":"TJ Zensuke","steam_id":76561198033371196,"connected_time":2019000000000,"state":"connecting","ping":94},{"user_id":225,"name":"Vernas","steam_id":76561198118897256,"connected_time":894000000000,"state":"connecting","ping":69},{"user_id":212,"name":"citrus","steam_id":76561198294606679,"connected_time":1804000000000,"state":"connecting","ping":70},{"user_id":230,"name":"Sir Quacksalot","steam_id":76561198048942777,"connected_time":809000000000,"state":"connecting","ping":101},{"user_id":202,"name":"Braamklauw","steam_id":76561198283287697,"connected_time":2542000000000,"state":"connecting","ping":152},{"user_id":221,"name":"Scot","steam_id":76561198871050394,"connected_time":1419000000000,"state":"connecting","ping":82},{"user_id":239,"name":"VergeOfDeath","steam_id":76561198046922194,"connected_time":112000000000,"state":"connecting","ping":81},{"user_id":235,"name":"GlingGlop95","steam_id":76561198386865528,"connected_time":412000000000,"state":"connecting","ping":86},{"user_id":186,"name":"Carson","steam_id":76561198076771071,"connected_time":3498000000000,"state":"connecting","ping":81},{"user_id":211,"name":"xXMLGDOODXx","steam_id":76561198080758365,"connected_time":1864000000000,"state":"connecting","ping":55},{"user_id":103,"name":"chiswola","steam_id":76561198046920142,"connected_time":9849000000000,"state":"connecting","ping":97},{"user_id":241,"name":"Baron von Whoopsie","steam_id":76561197996691013,"connected_time":8000000000,"state":"connecting","ping":59},{"user_id":242,"name":"Sammich Slinger","steam_id":76561198007644532,"connected_time":1000000000,"state":"connecting","ping":113},{"user_id":195,"name":"Raccoon","steam_id":76561199189494190,"connected_time":2922000000000,"state":"connecting","ping":85},{"user_id":234,"name":"Mx. Mourning","steam_id":76561199010673891,"connected_time":471000000000,"state":"connecting","ping":76},{"user_id":238,"name":"Hyd","steam_id":76561198064680410,"connected_time":220000000000,"state":"connecting","ping":79}]},{"server_id":15,"name":"Uncletopia | New York City | 3 | Stopwatch","name_short":"nyc-3","host":"nyc-1.us.uncletopia.com","port":27035,"enabled":true,"region":"us-east","cc":"us","latitude":40.73061,"longitude":-73.93524,"reserved":0,"last_update":"0001-01-01T00:00:00Z","name_a2s":"Uncletopia | New York City | 3 | Stopwatch","protocol":17,"map":"workshop/koth_ramjam_rc1.ugc459778887","folder":"tf","game":"Team Fortress","app_id":440,"player_count":0,"max_players":24,"Bots":0,"server_type":"Dedicated","server_os":"Linux","password":true,"vac":true,"version":"7961495","steam_id":85568392924742820,"keywords":["cp","nocrits","nodmgspread","uncletopia"],"game_id":440,"stv_port":27036,"stv_name":"Uncletopia | New York City | 3 | Stopwatch | STV","players":null},{"server_id":16,"name":"Uncletopia | New York City | 4 | Community","name_short":"nyc-4","host":"nyc-1.us.uncletopia.com","port":27045,"enabled":true,"region":"us-east","cc":"us","latitude":40.73061,"longitude":-73.93524,"reserved":0,"last_update":"0001-01-01T00:00:00Z","name_a2s":"Uncletopia | New York City | 4 | Community","protocol":17,"map":"workshop/cp_snowbase_b18.ugc2081770490","folder":"tf","game":"Team Fortress","app_id":440,"player_count":0,"max_players":24,"Bots":0,"server_type":"Dedicated","server_os":"Linux","password":true,"vac":true,"version":"7961495","steam_id":85568392924742821,"keywords":["cp","nocrits","nodmgspread","uncletopia"],"game_id":440,"stv_port":27046,"stv_name":"Uncletopia | New York City | 4 | Community | STV","players":null},{"server_id":142,"name":"Uncletopia | São Paulo | 1 | All Maps","name_short":"sao-1","host":"sao-1.br.uncletopia.com","port":27015,"enabled":true,"region":"sa","cc":"br","latitude":-23.533773,"longitude":-46.62529,"reserved":0,"last_update":"0001-01-01T00:00:00Z","name_a2s":"Uncletopia | São Paulo | 1 | All Maps","protocol":17,"map":"pl_snowycoast","folder":"tf","game":"Team Fortress","app_id":440,"player_count":0,"max_players":24,"Bots":0,"server_type":"Dedicated","server_os":"Linux","password":true,"vac":true,"version":"7961495","steam_id":85568392924469996,"keywords":["nocrits","nodmgspread","payload","uncletopia"],"game_id":440,"stv_port":27016,"stv_name":"Uncletopia | São Paulo | 1 | All Maps | STV","players":null},{"server_id":143,"name":"Uncletopia | São Paulo | 2 | Community","name_short":"sao-2","host":"sao-2.br.uncletopia.com","port":27015,"enabled":true,"region":"sa","cc":"br","latitude":-23.533773,"longitude":-46.62529,"reserved":0,"last_update":"0001-01-01T00:00:00Z","name_a2s":"Uncletopia | São Paulo | 2 | Community","protocol":17,"map":"workshop/cp_mannbase_rc2a.ugc1900737467","folder":"tf","game":"Team Fortress","app_id":440,"player_count":0,"max_players":24,"Bots":0,"server_type":"Dedicated","server_os":"Linux","password":true,"vac":true,"version":"7961495","steam_id":85568392924485349,"keywords":["cp","nocrits","nodmgspread","uncletopia"],"game_id":440,"stv_port":27016,"stv_name":"Uncletopia | São Paulo | 2 | Community | STV","players":null},{"server_id":7,"name":"Uncletopia | Seattle | 1 | All Maps","name_short":"sea-1","host":"sea-1.us.uncletopia.com","port":27015,"enabled":true,"region":"us-west","cc":"us","latitude":47.608013,"longitude":-122.33517,"reserved":0,"last_update":"0001-01-01T00:00:00Z","name_a2s":"Uncletopia | Seattle | 1 | All Maps","protocol":17,"map":"pl_upward","folder":"tf","game":"Team Fortress","app_id":440,"player_count":24,"max_players":24,"Bots":0,"server_type":"Dedicated","server_os":"Linux","password":true,"vac":true,"version":"7961495","steam_id":85568392924469997,"keywords":["nocrits","nodmgspread","payload","uncletopia"],"game_id":440,"stv_port":27016,"stv_name":"Uncletopia | Seattle | 1 | All Maps | STV","players":[{"user_id":271,"name":"yameii","steam_id":76561198248461754,"connected_time":714000000000,"state":"active","ping":70},{"user_id":232,"name":"UserLeft","steam_id":76561197998297379,"connected_time":3421000000000,"state":"active","ping":68},{"user_id":252,"name":"darkelaine227","steam_id":76561198097330521,"connected_time":1932000000000,"state":"active","ping":115},{"user_id":275,"name":"Level 3 hotdog enjoyer","steam_id":76561198870649125,"connected_time":269000000000,"state":"active","ping":88},{"user_id":250,"name":"plutonium isotope","steam_id":76561198319442494,"connected_time":2175000000000,"state":"active","ping":84},{"user_id":269,"name":"toes","steam_id":76561198221151676,"connected_time":956000000000,"state":"active","ping":58},{"user_id":262,"name":"The Horselords and Animal Gods","steam_id":76561197975094050,"connected_time":1142000000000,"state":"active","ping":73},{"user_id":272,"name":"Munkers","steam_id":76561198286585058,"connected_time":692000000000,"state":"active","ping":47},{"user_id":276,"name":"SpamTheAlien","steam_id":76561199122290968,"connected_time":177000000000,"state":"active","ping":79},{"user_id":259,"name":"SwearWord","steam_id":76561199131184237,"connected_time":1259000000000,"state":"active","ping":60},{"user_id":224,"name":"Nom Skirrett","steam_id":76561198014600788,"connected_time":3757000000000,"state":"active","ping":65},{"user_id":217,"name":"Level 99 Mudcrab","steam_id":76561198077452771,"connected_time":4478000000000,"state":"active","ping":90},{"user_id":249,"name":"Vincent Van Bro","steam_id":76561197966919802,"connected_time":2188000000000,"state":"active","ping":45},{"user_id":277,"name":"Scrux","steam_id":76561198129763115,"connected_time":163000000000,"state":"active","ping":74},{"user_id":254,"name":"Lili","steam_id":76561199488457138,"connected_time":1830000000000,"state":"active","ping":59},{"user_id":264,"name":"Keamy","steam_id":76561199471434875,"connected_time":1127000000000,"state":"active","ping":43},{"user_id":257,"name":"owl","steam_id":76561198088403016,"connected_time":1497000000000,"state":"active","ping":153},{"user_id":273,"name":"sera.","steam_id":76561198312571585,"connected_time":676000000000,"state":"active","ping":74},{"user_id":243,"name":"funtimewolf47","steam_id":76561198354098191,"connected_time":2888000000000,"state":"active","ping":105},{"user_id":180,"name":"aisu","steam_id":76561198043768507,"connected_time":7982000000000,"state":"active","ping":91},{"user_id":267,"name":"ShackerJack","steam_id":76561198118017448,"connected_time":1056000000000,"state":"active","ping":58},{"user_id":226,"name":"alvöru","steam_id":76561198273488925,"connected_time":3725000000000,"state":"active","ping":62},{"user_id":274,"name":"NormanVillage","steam_id":76561198330337371,"connected_time":666000000000,"state":"active","ping":110},{"user_id":279,"name":"Sirfub","steam_id":76561198160767583,"connected_time":55000000000,"state":"active","ping":233}]},{"server_id":119,"name":"Uncletopia | Seattle | 2 | All Maps","name_short":"sea-2","host":"sea-1.us.uncletopia.com","port":27025,"enabled":true,"region":"us-west","cc":"us","latitude":47.608013,"longitude":-122.33517,"reserved":0,"last_update":"0001-01-01T00:00:00Z","name_a2s":"Uncletopia | Seattle | 2 | All Maps","protocol":17,"map":"koth_cascade","folder":"tf","game":"Team Fortress","app_id":440,"player_count":24,"max_players":24,"Bots":0,"server_type":"Dedicated","server_os":"Linux","password":true,"vac":true,"version":"7961495","steam_id":85568392924469998,"keywords":["cp","nocrits","nodmgspread","uncletopia"],"game_id":440,"stv_port":27026,"stv_name":"Uncletopia | Seattle | 2 | All Maps | STV","players":[{"user_id":214,"name":"Saint Edible","steam_id":76561198054534439,"connected_time":4082000000000,"state":"active","ping":75},{"user_id":236,"name":"Petrivus","steam_id":76561198202152453,"connected_time":2562000000000,"state":"active","ping":45},{"user_id":250,"name":"cameronbrke","steam_id":76561199072426363,"connected_time":1694000000000,"state":"active","ping":35},{"user_id":251,"name":"Sweety, your a babe","steam_id":76561198011675372,"connected_time":1642000000000,"state":"active","ping":46},{"user_id":243,"name":"Yabba Dabba Dipshit","steam_id":76561198311805525,"connected_time":2053000000000,"state":"active","ping":135},{"user_id":267,"name":"vvitch","steam_id":76561198279661941,"connected_time":859000000000,"state":"active","ping":75},{"user_id":269,"name":"Spare(8)Ball","steam_id":76561197982432995,"connected_time":828000000000,"state":"active","ping":72},{"user_id":272,"name":"booxofdeath","steam_id":76561198358253942,"connected_time":730000000000,"state":"active","ping":126},{"user_id":275,"name":"sagekiss","steam_id":76561198038831240,"connected_time":519000000000,"state":"active","ping":46},{"user_id":278,"name":"Vaermina","steam_id":76561198169915227,"connected_time":351000000000,"state":"active","ping":43},{"user_id":276,"name":"Cob","steam_id":76561198042518365,"connected_time":507000000000,"state":"active","ping":68},{"user_id":273,"name":"yeah","steam_id":76561199034560505,"connected_time":704000000000,"state":"active","ping":130},{"user_id":230,"name":"for the love of god help me","steam_id":76561198017605637,"connected_time":3245000000000,"state":"active","ping":88},{"user_id":261,"name":"Papa_dump","steam_id":76561199048394261,"connected_time":1265000000000,"state":"active","ping":104},{"user_id":247,"name":"Tenzin Gyatso","steam_id":76561198258980884,"connected_time":1787000000000,"state":"active","ping":52},{"user_id":255,"name":"Buzz Chudson, MD","steam_id":76561198040565889,"connected_time":1476000000000,"state":"active","ping":121},{"user_id":274,"name":"blastingspoon07","steam_id":76561199155810384,"connected_time":558000000000,"state":"active","ping":116},{"user_id":253,"name":"my mom","steam_id":76561199225201569,"connected_time":1593000000000,"state":"active","ping":112},{"user_id":277,"name":"MxProf","steam_id":76561198044519572,"connected_time":392000000000,"state":"active","ping":61},{"user_id":258,"name":"2 Point Tom","steam_id":76561198087617008,"connected_time":1386000000000,"state":"active","ping":53},{"user_id":259,"name":"gdsakjfgewrhdghi","steam_id":76561198277648600,"connected_time":1374000000000,"state":"active","ping":106},{"user_id":262,"name":"RC","steam_id":76561198048127881,"connected_time":1231000000000,"state":"active","ping":81},{"user_id":280,"name":"Skysteele","steam_id":76561198164536662,"connected_time":227000000000,"state":"active","ping":45},{"user_id":211,"name":"fart","steam_id":76561198046073848,"connected_time":4249000000000,"state":"active","ping":52}]},{"server_id":406,"name":"Uncletopia | Seattle | 3 | Stopwatch","name_short":"sea-3","host":"sea-1.us.uncletopia.com","port":27035,"enabled":true,"region":"us-west","cc":"us","latitude":47.608013,"longitude":-122.33517,"reserved":0,"last_update":"0001-01-01T00:00:00Z","name_a2s":"Uncletopia | Seattle | 3 | Stopwatch","protocol":17,"map":"workshop/koth_clearcut_b15.ugc2107050255","folder":"tf","game":"Team Fortress","app_id":440,"player_count":0,"max_players":24,"Bots":0,"server_type":"Dedicated","server_os":"Linux","password":true,"vac":true,"version":"7961495","steam_id":85568392924515217,"keywords":["cp","nocrits","nodmgspread","uncletopia"],"game_id":440,"stv_port":27036,"stv_name":"Uncletopia | Seattle | 3 | Stopwatch | STV","players":null},{"server_id":17,"name":"Uncletopia | San Francisco | 1 | All Maps","name_short":"sfo-1","host":"sfo-1.us.uncletopia.com","port":27015,"enabled":true,"region":"us-west","cc":"us","latitude":37.77397,"longitude":-122.4313,"reserved":0,"last_update":"0001-01-01T00:00:00Z","name_a2s":"Uncletopia | San Francisco | 1 | All Maps","protocol":17,"map":"koth_cascade","folder":"tf","game":"Team Fortress","app_id":440,"player_count":0,"max_players":24,"Bots":0,"server_type":"Dedicated","server_os":"Linux","password":true,"vac":true,"version":"7961495","steam_id":85568392924469999,"keywords":["cp","nocrits","nodmgspread","uncletopia"],"game_id":440,"stv_port":27016,"stv_name":"Uncletopia | San Francisco | 1 | All Maps | STV","players":null},{"server_id":18,"name":"Uncletopia | San Francisco | 2 | All Maps","name_short":"sfo-2","host":"sfo-1.us.uncletopia.com","port":27025,"enabled":true,"region":"us-west","cc":"us","latitude":37.77397,"longitude":-122.4313,"reserved":0,"last_update":"0001-01-01T00:00:00Z","name_a2s":"Uncletopia | San Francisco | 2 | All Maps","protocol":17,"map":"pl_frontier_final","folder":"tf","game":"Team Fortress","app_id":440,"player_count":0,"max_players":24,"Bots":0,"server_type":"Dedicated","server_os":"Linux","password":true,"vac":true,"version":"7961495","steam_id":85568392924470000,"keywords":["nocrits","nodmgspread","payload","uncletopia"],"game_id":440,"stv_port":27026,"stv_name":"Uncletopia | San Francisco | 2 | All Maps | STV","players":null},{"server_id":19,"name":"Uncletopia | San Francisco | 3 | Stopwatch","name_short":"sfo-3","host":"sfo-1.us.uncletopia.com","port":27035,"enabled":true,"region":"us-west","cc":"us","latitude":37.77397,"longitude":-122.4313,"reserved":0,"last_update":"0001-01-01T00:00:00Z","name_a2s":"Uncletopia | San Francisco | 3 | Stopwatch","protocol":17,"map":"pl_pier","folder":"tf","game":"Team Fortress","app_id":440,"player_count":0,"max_players":24,"Bots":0,"server_type":"Dedicated","server_os":"Linux","password":true,"vac":true,"version":"7961495","steam_id":85568392924742824,"keywords":["nocrits","nodmgspread","payload","uncletopia"],"game_id":440,"stv_port":27036,"stv_name":"Uncletopia | San Francisco | 3 | Stopwatch | STV","players":null},{"server_id":20,"name":"Uncletopia | San Francisco | 4 | Community","name_short":"sfo-4","host":"sfo-1.us.uncletopia.com","port":27045,"enabled":true,"region":"us-west","cc":"us","latitude":37.77397,"longitude":-122.4313,"reserved":0,"last_update":"0001-01-01T00:00:00Z","name_a2s":"Uncletopia | San Francisco | 4 | Community","protocol":17,"map":"pl_pier","folder":"tf","game":"Team Fortress","app_id":440,"player_count":0,"max_players":24,"Bots":0,"server_type":"Dedicated","server_os":"Linux","password":true,"vac":true,"version":"7961495","steam_id":85568392924742826,"keywords":["nocrits","nodmgspread","payload","uncletopia"],"game_id":440,"stv_port":27046,"stv_name":"Uncletopia | San Francisco | 4 | Community | STV","players":null},{"server_id":141,"name":"Uncletopia | Sydney | 1 | All Maps","name_short":"syd-1","host":"syd-1.au.uncletopia.com","port":27015,"enabled":true,"region":"au","cc":"au","latitude":-33.865143,"longitude":151.2099,"reserved":0,"last_update":"0001-01-01T00:00:00Z","name_a2s":"Uncletopia | Sydney | 1 | All Maps","protocol":17,"map":"koth_viaduct","folder":"tf","game":"Team Fortress","app_id":440,"player_count":0,"max_players":24,"Bots":0,"server_type":"Dedicated","server_os":"Linux","password":true,"vac":true,"version":"7961495","steam_id":85568392924470001,"keywords":["cp","nocrits","nodmgspread","uncletopia"],"game_id":440,"stv_port":27016,"stv_name":"Uncletopia | Sydney | 1 | All Maps | STV","players":null},{"server_id":123,"name":"Uncletopia | Sydney | 2 | All Maps","name_short":"syd-2","host":"syd-1.au.uncletopia.com","port":27025,"enabled":true,"region":"au","cc":"au","latitude":-33.865143,"longitude":151.2099,"reserved":0,"last_update":"0001-01-01T00:00:00Z","name_a2s":"Uncletopia | Sydney | 2 | All Maps","protocol":17,"map":"koth_lakeside_final","folder":"tf","game":"Team Fortress","app_id":440,"player_count":0,"max_players":24,"Bots":0,"server_type":"Dedicated","server_os":"Linux","password":true,"vac":true,"version":"7961495","steam_id":85568392924470002,"keywords":["cp","nocrits","nodmgspread","uncletopia"],"game_id":440,"stv_port":27026,"stv_name":"Uncletopia | Sydney | 2 | All Maps | STV","players":null},{"server_id":395,"name":"Uncletopia | Sydney | 3 | All Maps","name_short":"syd-3","host":"syd-1.au.uncletopia.com","port":27035,"enabled":true,"region":"au","cc":"au","latitude":-33.865143,"longitude":151.2099,"reserved":0,"last_update":"0001-01-01T00:00:00Z","name_a2s":"Uncletopia | Sydney | 3 | All Maps","protocol":17,"map":"pl_frontier_final","folder":"tf","game":"Team Fortress","app_id":440,"player_count":0,"max_players":24,"Bots":0,"server_type":"Dedicated","server_os":"Linux","password":true,"vac":true,"version":"7961495","steam_id":85568392925194467,"keywords":["nocrits","nodmgspread","payload","uncletopia"],"game_id":440,"stv_port":27036,"stv_name":"Uncletopia | Sydney | 3 | All Maps | STV","players":null},{"server_id":396,"name":"Uncletopia | Sydney | 4 | All Maps","name_short":"syd-4","host":"syd-1.au.uncletopia.com","port":27045,"enabled":true,"region":"au","cc":"au","latitude":-33.865143,"longitude":151.2099,"reserved":0,"last_update":"0001-01-01T00:00:00Z","name_a2s":"Uncletopia | Sydney | 4 | All Maps","protocol":17,"map":"cp_process_final","folder":"tf","game":"Team Fortress","app_id":440,"player_count":0,"max_players":24,"Bots":0,"server_type":"Dedicated","server_os":"Linux","password":true,"vac":true,"version":"7961495","steam_id":85568392925397958,"keywords":["cp","nocrits","nodmgspread","uncletopia"],"game_id":440,"stv_port":27046,"stv_name":"Uncletopia | Sydney | 4 | All Maps | STV","players":null},{"server_id":58,"name":"Uncletopia | Sydney | 5 | Stopwatch","name_short":"syd-5","host":"syd-1.au.uncletopia.com","port":27055,"enabled":true,"region":"au","cc":"au","latitude":-33.865143,"longitude":151.2099,"reserved":0,"last_update":"0001-01-01T00:00:00Z","name_a2s":"Uncletopia | Sydney | 5 | Stopwatch","protocol":17,"map":"pl_frontier_final","folder":"tf","game":"Team Fortress","app_id":440,"player_count":0,"max_players":24,"Bots":0,"server_type":"Dedicated","server_os":"Linux","password":true,"vac":true,"version":"7961495","steam_id":85568392925397959,"keywords":["nocrits","nodmgspread","payload","uncletopia"],"game_id":440,"stv_port":27056,"stv_name":"Uncletopia | Sydney | 5 | Stopwatch | STV","players":null},{"server_id":59,"name":"Uncletopia | Sydney | 6 | Community","name_short":"syd-6","host":"syd-1.au.uncletopia.com","port":27065,"enabled":true,"region":"au","cc":"au","latitude":-33.865143,"longitude":151.2099,"reserved":0,"last_update":"0001-01-01T00:00:00Z","name_a2s":"Uncletopia | Sydney | 6 | Community","protocol":17,"map":"cp_sunshine","folder":"tf","game":"Team Fortress","app_id":440,"player_count":0,"max_players":24,"Bots":0,"server_type":"Dedicated","server_os":"Linux","password":true,"vac":true,"version":"7961495","steam_id":85568392925397960,"keywords":["cp","nocrits","nodmgspread","uncletopia"],"game_id":440,"stv_port":27066,"stv_name":"Uncletopia | Sydney | 6 | Community | STV","players":null},{"server_id":49,"name":"Uncletopia | Warsaw | 1 | One Thousand Uncles","name_short":"waw-1","host":"waw-1.pl.uncletopia.com","port":27015,"enabled":true,"region":"eu","cc":"pl","latitude":52.2297,"longitude":21.017532,"reserved":0,"last_update":"0001-01-01T00:00:00Z","name_a2s":"Uncletopia | Warsaw | 1 | One Thousand Uncles","protocol":17,"map":"cp_mercenarypark","folder":"tf","game":"Team Fortress","app_id":440,"player_count":20,"max_players":32,"Bots":16,"server_type":"Dedicated","server_os":"Linux","password":true,"vac":true,"version":"7961495","steam_id":85568392925397850,"keywords":["alltalk","bots","cp","danepve","increased_maxplayers","nocrits","norespawntime","uncletopia"],"game_id":440,"stv_port":0,"stv_name":"","players":[{"user_id":470,"name":"WolfyGamer21","steam_id":76561199148811704,"connected_time":1422000000000,"state":"active","ping":150},{"user_id":488,"name":"[SQ UA] MartianDill","steam_id":76561198405382822,"connected_time":817000000000,"state":"active","ping":56},{"user_id":489,"name":"ZharMeny","steam_id":76561199086841610,"connected_time":734000000000,"state":"active","ping":105},{"user_id":494,"name":"деми","steam_id":76561199211920922,"connected_time":281000000000,"state":"active","ping":59}]},{"server_id":50,"name":"Uncletopia | Warsaw | 2 | One Thousand Uncles","name_short":"waw-2","host":"waw-1.pl.uncletopia.com","port":27025,"enabled":true,"region":"eu","cc":"pl","latitude":52.2297,"longitude":21.017532,"reserved":0,"last_update":"0001-01-01T00:00:00Z","name_a2s":"Uncletopia | Warsaw | 2 | One Thousand Uncles","protocol":17,"map":"pl_chilly","folder":"tf","game":"Team Fortress","app_id":440,"player_count":28,"max_players":32,"Bots":16,"server_type":"Dedicated","server_os":"Linux","password":true,"vac":true,"version":"7961495","steam_id":85568392925397851,"keywords":["alltalk","bots","danepve","increased_maxplayers","nocrits","norespawntime","payload","uncletopia"],"game_id":440,"stv_port":0,"stv_name":"","players":[{"user_id":645,"name":"///","steam_id":76561199187760544,"connected_time":735000000000,"state":"active","ping":51},{"user_id":647,"name":"UZless","steam_id":76561198814550081,"connected_time":718000000000,"state":"active","ping":104},{"user_id":491,"name":"dank pank","steam_id":76561198995052713,"connected_time":10392000000000,"state":"active","ping":78},{"user_id":634,"name":"FilipeLuk","steam_id":76561198150675438,"connected_time":1401000000000,"state":"active","ping":89},{"user_id":600,"name":"GeraldyJones65","steam_id":76561199122297098,"connected_time":3357000000000,"state":"active","ping":147},{"user_id":636,"name":"Hooty","steam_id":76561198365932023,"connected_time":1187000000000,"state":"active","ping":58},{"user_id":649,"name":"MANBOYBOYBOYMAN","steam_id":76561198097612561,"connected_time":632000000000,"state":"active","ping":86},{"user_id":640,"name":"Samuel L. Jackson","steam_id":76561198130427881,"connected_time":934000000000,"state":"active","ping":170},{"user_id":596,"name":"just a person","steam_id":76561198340369454,"connected_time":4039000000000,"state":"active","ping":41},{"user_id":650,"name":"Nikt Ważny (F2P)","steam_id":76561199273293257,"connected_time":408000000000,"state":"active","ping":83},{"user_id":643,"name":"|⁧AVol","steam_id":76561198217589544,"connected_time":847000000000,"state":"active","ping":116},{"user_id":526,"name":"tirr0j","steam_id":76561198061949211,"connected_time":8048000000000,"state":"active","ping":73}]},{"server_id":51,"name":"Uncletopia | Warsaw | 3 | All Maps","name_short":"waw-3","host":"waw-1.pl.uncletopia.com","port":27035,"enabled":true,"region":"eu","cc":"pl","latitude":52.2297,"longitude":21.017532,"reserved":0,"last_update":"0001-01-01T00:00:00Z","name_a2s":"Uncletopia | Warsaw | 3 | All Maps","protocol":17,"map":"koth_cascade","folder":"tf","game":"Team Fortress","app_id":440,"player_count":0,"max_players":24,"Bots":0,"server_type":"Dedicated","server_os":"Linux","password":true,"vac":true,"version":"7961495","steam_id":85568392925397852,"keywords":["cp","nocrits","nodmgspread","uncletopia"],"game_id":440,"stv_port":27036,"stv_name":"Uncletopia | Warsaw | 3 | All Maps | STV","players":null},{"server_id":52,"name":"Uncletopia | Warsaw | 4 | All Maps","name_short":"waw-4","host":"waw-1.pl.uncletopia.com","port":27045,"enabled":true,"region":"eu","cc":"pl","latitude":52.2297,"longitude":21.017532,"reserved":0,"last_update":"0001-01-01T00:00:00Z","name_a2s":"Uncletopia | Warsaw | 4 | All Maps","protocol":17,"map":"pl_pier","folder":"tf","game":"Team Fortress","app_id":440,"player_count":0,"max_players":24,"Bots":0,"server_type":"Dedicated","server_os":"Linux","password":true,"vac":true,"version":"7961495","steam_id":85568392925397853,"keywords":["nocrits","nodmgspread","payload","uncletopia"],"game_id":440,"stv_port":27046,"stv_name":"Uncletopia | Warsaw | 4 | All Maps | STV","players":null},{"server_id":53,"name":"Uncletopia | Warsaw | 5 | Stopwatch","name_short":"waw-5","host":"waw-1.pl.uncletopia.com","port":27055,"enabled":true,"region":"eu","cc":"pl","latitude":52.2297,"longitude":21.017532,"reserved":0,"last_update":"0001-01-01T00:00:00Z","name_a2s":"Uncletopia | Warsaw | 5 | Stopwatch","protocol":17,"map":"pl_swiftwater_final1","folder":"tf","game":"Team Fortress","app_id":440,"player_count":0,"max_players":24,"Bots":0,"server_type":"Dedicated","server_os":"Linux","password":true,"vac":true,"version":"7961495","steam_id":85568392925397854,"keywords":["nocrits","nodmgspread","payload","uncletopia"],"game_id":440,"stv_port":27056,"stv_name":"Uncletopia | Warsaw | 5 | Stopwatch | STV","players":null},{"server_id":54,"name":"Uncletopia | Warsaw | 6 | Community","name_short":"waw-6","host":"waw-1.pl.uncletopia.com","port":27065,"enabled":true,"region":"eu","cc":"pl","latitude":52.2297,"longitude":21.017532,"reserved":0,"last_update":"0001-01-01T00:00:00Z","name_a2s":"Uncletopia | Warsaw | 6 | Community","protocol":17,"map":"workshop/pl_badwater_pro_v12.ugc2142942074","folder":"tf","game":"Team Fortress","app_id":440,"player_count":5,"max_players":24,"Bots":0,"server_type":"Dedicated","server_os":"Linux","password":true,"vac":true,"version":"7961495","steam_id":85568392925397856,"keywords":["nocrits","nodmgspread","payload","uncletopia"],"game_id":440,"stv_port":27066,"stv_name":"Uncletopia | Warsaw | 6 | Community | STV","players":[{"user_id":9,"name":"Constant","steam_id":76561198849841787,"connected_time":760000000000,"state":"active","ping":77},{"user_id":10,"name":"ThePolandGuy","steam_id":76561199207845189,"connected_time":726000000000,"state":"active","ping":308},{"user_id":11,"name":"mccarthydylan90","steam_id":76561199498820369,"connected_time":628000000000,"state":"active","ping":80},{"user_id":14,"name":"[VKF] Beavis Horizon","steam_id":76561198036733863,"connected_time":0,"state":"spawning","ping":0},{"user_id":13,"name":"odacovA","steam_id":76561199383345208,"connected_time":55000000000,"state":"active","ping":168}]}]}