{"status":true,"message":"","result":[{"server_id":9,"name":"Uncletopia | Atlanta | 1 | All Maps","name_short":"atl-1","host":"atl-1.us.uncletopia.com","port":27015,"enabled":true,"region":"us-east","cc":"us","latitude":33.753746,"longitude":-84.38633,"reserved":0,"last_update":"0001-01-01T00:00:00Z","name_a2s":"Uncletopia | Atlanta | 1 | All Maps","protocol":17,"map":"pl_upward","folder":"tf","game":"Team Fortress","app_id":440,"player_count":18,"max_players":24,"Bots":0,"server_type":"Dedicated","server_os":"Linux","password":true,"vac":true,"version":"7742253","steam_id":85568392924469982,"keywords":["nocrits","nodmgspread","payload","uncletopia"],"game_id":440,"stv_port":27016,"stv_name":"Uncletopia | Atlanta | 1 | All Maps | STV","players":[{"user_id":613,"name":"hunkidorri","steam_id":76561198313288475,"connected_time":7575000000000,"state":"active","ping":111},{"user_id":703,"name":"Bunt","steam_id":76561198124477567,"connected_time":158000000000,"state":"active","ping":44},{"user_id":704,"name":"jr_rusty","steam_id":76561198313937899,"connected_time":153000000000,"state":"active","ping":168},{"user_id":708,"name":"young thug in jail","steam_id":76561198069372731,"connected_time":20000000000,"state":"active","ping":62},{"user_id":701,"name":"Nyx","steam_id":76561198046768602,"connected_time":211000000000,"state":"active","ping":65},{"user_id":699,"name":"Random","steam_id":76561198958364883,"connected_time":442000000000,"state":"active","ping":87},{"user_id":709,"name":"sgt nuts","steam_id":76561198044321082,"connected_time":3000000000,"state":"spawning","ping":70},{"user_id":700,"name":"Straight White Male","steam_id":76561199234350287,"connected_time":362000000000,"state":"active","ping":67},{"user_id":698,"name":"fuckwit","steam_id":76561198342160837,"connected_time":877000000000,"state":"active","ping":93},{"user_id":710,"name":"Meddy","steam_id":76561198044481059,"connected_time":1000000000,"state":"spawning","ping":45},{"user_id":707,"name":"Yoru","steam_id":76561198119698950,"connected_time":87000000000,"state":"active","ping":116},{"user_id":581,"name":"Uung","steam_id":76561198183956731,"connected_time":10714000000000,"state":"active","ping":70},{"user_id":633,"name":"Sam B","steam_id":76561198069277952,"connected_time":5868000000000,"state":"active","ping":84},{"user_id":584,"name":"Egg","steam_id":76561199075359963,"connected_time":10704000000000,"state":"active","ping":84},{"user_id":689,"name":"Hey","steam_id":76561198447517893,"connected_time":1505000000000,"state":"active","ping":62},{"user_id":692,"name":"AAAAAAAAAAAAAAAAAAAAAAAAAAAAAAA","steam_id":76561198817866879,"connected_time":1452000000000,"state":"active","ping":55},{"user_id":697,"name":"G4RZ3N_4L3ST14","steam_id":76561198434995010,"connected_time":895000000000,"state":"active","ping":110},{"user_id":702,"name":"ATL1 | vid_","steam_id":76561198065159053,"connected_time":210000000000,"state":"active","ping":41}]},{"server_id":400,"name":"Uncletopia | Atlanta | 3 | Stopwatch Beta","name_short":"atl-3","host":"atl-1.us.uncletopia.com","port":27035,"enabled":true,"region":"us-east","cc":"us","latitude":33.753746,"longitude":-84.38633,"reserved":0,"last_update":"0001-01-01T00:00:00Z","name_a2s":"Uncletopia | Atlanta | 3 | Stopwatch Beta","protocol":17,"map":"pl_pier","folder":"tf","game":"Team Fortress","app_id":440,"player_count":0,"max_players":24,"Bots":0,"server_type":"Dedicated","server_os":"Linux","password":true,"vac":true,"version":"7742253","steam_id":85568392924515187,"keywords":["nocrits","nodmgspread","payload","uncletopia"],"game_id":440,"stv_port":27036,"stv_name":"Uncletopia | Atlanta | 3 | Stopwatch Beta | STV","players":null},{"server_id":401,"name":"Uncletopia | Atlanta | 4 | No Payload","name_short":"atl-4","host":"atl-1.us.uncletopia.com","port":27045,"enabled":true,"region":"us-east","cc":"us","latitude":33.753746,"longitude":-84.38633,"reserved":0,"last_update":"0001-01-01T00:00:00Z","name_a2s":"Uncletopia | Atlanta | 4 | No Payload","protocol":17,"map":"pl_pier","folder":"tf","game":"Team Fortress","app_id":440,"player_count":0,"max_players":24,"Bots":0,"server_type":"Dedicated","server_os":"Linux","password":true,"vac":true,"version":"7723704","steam_id":85568392924515188,"keywords":["nocrits","nodmgspread","payload","uncletopia"],"game_id":440,"stv_port":27046,"stv_name":"Uncletopia | Atlanta | 4 | No Payload | STV","players":null},{"server_id":2,"name":"Uncletopia | Chicago | 1 | All Maps","name_short":"chi-1","host":"chi-1.us.uncletopia.com","port":27015,"enabled":true,"region":"us-central","cc":"us","latitude":41.881832,"longitude":-87.62318,"reserved":0,"last_update":"0001-01-01T00:00:00Z","name_a2s":"Uncletopia | Chicago | 1 | All Maps","protocol":17,"map":"pl_upward","folder":"tf","game":"Team Fortress","app_id":440,"player_count":24,"max_players":24,"Bots":0,"server_type":"Dedicated","server_os":"Linux","password":true,"vac":true,"version":"7742253","steam_id":85568392924469984,"keywords":["nocrits","nodmgspread","payload","uncletopia"],"game_id":440,"stv_port":27016,"stv_name":"Uncletopia | Chicago | 1 | All Maps | STV","players":[{"user_id":681,"name":"Rudy","steam_id":76561198013456828,"connected_time":948000000000,"state":"active","ping":59},{"user_id":621,"name":"somnia","steam_id":76561198077902438,"connected_time":5884000000000,"state":"active","ping":75},{"user_id":664,"name":"a garbage can","steam_id":76561198403626105,"connected_time":2342000000000,"state":"active","ping":49},{"user_id":686,"name":"gancho","steam_id":76561198170706982,"connected_time":334000000000,"state":"active","ping":58},{"user_id":678,"name":"dP | I'm in a Wookie Suit","steam_id":76561198083307644,"connected_time":1368000000000,"state":"active","ping":101},{"user_id":651,"name":"Turtle","steam_id":76561198262110064,"connected_time":3490000000000,"state":"active","ping":67},{"user_id":663,"name":"ValacPAB","steam_id":76561198272692721,"connected_time":2593000000000,"state":"active","ping":106},{"user_id":679,"name":"keffers","steam_id":76561198202338796,"connected_time":1297000000000,"state":"active","ping":71},{"user_id":671,"name":"twitch.tv/cccilytf2","steam_id":76561198322125595,"connected_time":1624000000000,"state":"active","ping":101},{"user_id":684,"name":"The Famous Captain Smollet","steam_id":76561198051433818,"connected_time":383000000000,"state":"active","ping":73},{"user_id":635,"name":"Thatoneguybunchanumbers","steam_id":76561198028039160,"connected_time":4674000000000,"state":"active","ping":80},{"user_id":685,"name":"frank","steam_id":76561198045436159,"connected_time":366000000000,"state":"active","ping":73},{"user_id":660,"name":"A Fruit","steam_id":76561198951830050,"connected_time":2726000000000,"state":"active","ping":61},{"user_id":646,"name":"tools","steam_id":76561199010542612,"connected_time":4180000000000,"state":"active","ping":45},{"user_id":688,"name":"Ye ( I Love Caulk ) West","steam_id":76561198068830312,"connected_time":194000000000,"state":"active","ping":45},{"user_id":607,"name":"botulism","steam_id":76561198141204302,"connected_time":7263000000000,"state":"active","ping":86},{"user_id":687,"name":"Shidfard ‚ô• Cricket Girl!","steam_id":76561198838054669,"connected_time":331000000000,"state":"active","ping":71},{"user_id":644,"name":"xiii","steam_id":76561198079416036,"connected_time":4192000000000,"state":"active","ping":45},{"user_id":673,"name":"NOLSEY","steam_id":76561198108959504,"connected_time":1499000000000,"state":"active","ping":60},{"user_id":649,"name":"The Great Karizma!","steam_id":76561198346191193,"connected_time":3783000000000,"state":"active","ping":97},{"user_id":619,"name":"Civic Wayfinder","steam_id":76561198060320953,"connected_time":6203000000000,"state":"active","ping":62},{"user_id":669,"name":"JaketheDog217","steam_id":76561198424859448,"connected_time":2201000000000,"state":"active","ping":75},{"user_id":630,"name":"Strung short","steam_id":76561199050174626,"connected_time":5767000000000,"state":"active","ping":63}]},{"server_id":106,"name":"Uncletopia | Chicago | 2 | All Maps","name_short":"chi-2","host":"chi-1.us.uncletopia.com","port":27025,"enabled":true,"region":"us-central","cc":"us","latitude":41.881832,"longitude":-87.62318,"reserved":0,"last_update":"0001-01-01T00:00:00Z","name_a2s":"Uncletopia | Chicago | 2 | All Maps","protocol":17,"map":"pl_borneo","folder":"tf","game":"Team Fortress","app_id":440,"player_count":0,"max_players":24,"Bots":0,"server_type":"Dedicated","server_os":"Linux","password":true,"vac":true,"version":"7742253","steam_id":85568392924469985,"keywords":["nocrits","nodmgspread","payload","uncletopia"],"game_id":440,"stv_port":27026,"stv_name":"Uncletopia | Chicago | 2 | All Maps | STV","players":null},{"server_id":402,"name":"Uncletopia | Chicago | 3 | All Maps","name_short":"chi-3","host":"chi-1.us.uncletopia.com","port":27035,"enabled":true,"region":"us-central","cc":"us","latitude":41.881832,"longitude":-87.62318,"reserved":0,"last_update":"0001-01-01T00:00:00Z","name_a2s":"Uncletopia | Chicago | 3 | All Maps","protocol":17,"map":"pl_frontier_final","folder":"tf","game":"Team Fortress","app_id":440,"player_count":24,"max_players":24,"Bots":0,"server_type":"Dedicated","server_os":"Linux","password":true,"vac":true,"version":"7742253","steam_id":85568392924515191,"keywords":["nocrits","nodmgspread","payload","uncletopia"],"game_id":440,"stv_port":27036,"stv_name":"Uncletopia | Chicago | 3 | All Maps | STV","players":[{"user_id":875,"name":"hreg","steam_id":76561198094258196,"connected_time":1674000000000,"state":"active","ping":64},{"user_id":851,"name":"IDNTT","steam_id":76561198080859587,"connected_time":3613000000000,"state":"active","ping":106},{"user_id":850,"name":"kermitcreeper(ZAZA)","steam_id":76561199222829972,"connected_time":3720000000000,"state":"active","ping":45},{"user_id":894,"name":"T√ñZI","steam_id":76561198045268695,"connected_time":244000000000,"state":"active","ping":50},{"user_id":893,"name":"Money Collector","steam_id":76561198046249467,"connected_time":272000000000,"state":"active","ping":59},{"user_id":882,"name":"Trusty","steam_id":76561198035444237,"connected_time":1295000000000,"state":"active","ping":69},{"user_id":895,"name":"(G)old Ederth14k","steam_id":76561198184252794,"connected_time":197000000000,"state":"active","ping":175},{"user_id":886,"name":"sweaterfan","steam_id":76561199389567214,"connected_time":918000000000,"state":"active","ping":68},{"user_id":842,"name":"TeaPirate [TTC]","steam_id":76561197993068398,"connected_time":4282000000000,"state":"active","ping":64},{"user_id":889,"name":"Boost! Bonk! Bam!","steam_id":76561198040978613,"connected_time":535000000000,"state":"active","ping":78},{"user_id":870,"name":"Myracle","steam_id":76561198070916920,"connected_time":2355000000000,"state":"active","ping":48},{"user_id":896,"name":"Yeah","steam_id":76561198056832457,"connected_time":64000000000,"state":"active","ping":80},{"user_id":872,"name":"Tom","steam_id":76561198126800063,"connected_time":2273000000000,"state":"active","ping":146},{"user_id":884,"name":"JHLO","steam_id":76561198074359967,"connected_time":1187000000000,"state":"active","ping":72},{"user_id":856,"name":"Baka!‚ë®‚ë®‚ë®‚ë®","steam_id":76561198152948254,"connected_time":3320000000000,"state":"active","ping":66},{"user_id":868,"name":"hi","steam_id":76561198809577048,"connected_time":2649000000000,"state":"active","ping":105},{"user_id":888,"name":"SomeScuffedKid","steam_id":76561198086113234,"connected_time":855000000000,"state":"active","ping":63},{"user_id":880,"name":"Family Guy Funny Moments","steam_id":76561198847752839,"connected_time":1617000000000,"state":"active","ping":104},{"user_id":845,"name":"femboy beats","steam_id":76561199245717718,"connected_time":4115000000000,"state":"active","ping":50},{"user_id":869,"name":"the deadliest pyroshark","steam_id":76561198374227766,"connected_time":2377000000000,"state":"active","ping":74},{"user_id":885,"name":"sadie poppet","steam_id":76561197990818183,"connected_time":952000000000,"state":"active","ping":96},{"user_id":831,"name":"Pat.Chet.02","steam_id":76561198158556100,"connected_time":5564000000000,"state":"active","ping":80},{"user_id":881,"name":"nk","steam_id":76561198055170290,"connected_time":1612000000000,"state":"active","ping":91},{"user_id":844,"name":"neonl1","steam_id":76561198818539774,"connected_time":4141000000000,"state":"active","ping":66}]},{"server_id":403,"name":"Uncletopia | Chicago | 4 | All Maps","name_short":"chi-4","host":"chi-1.us.uncletopia.com","port":27045,"enabled":true,"region":"us-central","cc":"us","latitude":41.881832,"longitude":-87.62318,"reserved":0,"last_update":"0001-01-01T00:00:00Z","name_a2s":"Uncletopia | Chicago | 4 | All Maps","protocol":17,"map":"pl_upward","folder":"tf","game":"Team Fortress","app_id":440,"player_count":24,"max_players":24,"Bots":0,"server_type":"Dedicated","server_os":"Linux","password":true,"vac":true,"version":"7742253","steam_id":85568392924515193,"keywords":["nocrits","nodmgspread","payload","uncletopia"],"game_id":440,"stv_port":27046,"stv_name":"Uncletopia | Chicago | 4 | All Maps | STV","players":[{"user_id":421,"name":"TrIcKiNgX3","steam_id":76561198243231748,"connected_time":2003000000000,"state":"active","ping":68},{"user_id":440,"name":"Fantastic","steam_id":76561198079088978,"connected_time":784000000000,"state":"active","ping":39},{"user_id":449,"name":"metra","steam_id":76561198137986639,"connected_time":263000000000,"state":"active","ping":64},{"user_id":429,"name":"Critscare","steam_id":76561198087712508,"connected_time":1265000000000,"state":"active","ping":45},{"user_id":430,"name":"Scared Duck","steam_id":76561198081348409,"connected_time":1235000000000,"state":"active","ping":58},{"user_id":431,"name":"nines","steam_id":76561198078992548,"connected_time":1197000000000,"state":"active","ping":75},{"user_id":414,"name":"Degmac","steam_id":76561198100163166,"connected_time":2126000000000,"state":"active","ping":45},{"user_id":432,"name":"Sixrow","steam_id":76561198269289716,"connected_time":1192000000000,"state":"active","ping":60},{"user_id":445,"name":"SjD","steam_id":76561198068895925,"connected_time":379000000000,"state":"active","ping":54},{"user_id":377,"name":"Harold Chaplin","steam_id":76561198036730227,"connected_time":4551000000000,"state":"active","ping":75},{"user_id":397,"name":"vape god","steam_id":76561198986281248,"connected_time":3295000000000,"state":"active","ping":69},{"user_id":370,"name":"Limasio","steam_id":76561198198176191,"connected_time":5094000000000,"state":"active","ping":68},{"user_id":418,"name":"pasta","steam_id":76561198084719895,"connected_time":2061000000000,"state":"active","ping":70},{"user_id":451,"name":"Passes the Bungus","steam_id":76561198040647717,"connected_time":6000000000,"state":"spawning","ping":133},{"user_id":437,"name":"larguu","steam_id":76561197994336210,"connected_time":1017000000000,"state":"active","ping":55},{"user_id":450,"name":"Nexus","steam_id":76561198187929865,"connected_time":168000000000,"state":"active","ping":44},{"user_id":407,"name":"Regi","steam_id":76561198271508598,"connected_time":2741000000000,"state":"active","ping":60},{"user_id":425,"name":"Takllin","steam_id":76561199289103007,"connected_time":1989000000000,"state":"active","ping":83},{"user_id":441,"name":"Yeshie the Dragon Layer","steam_id":76561198080214214,"connected_time":776000000000,"state":"active","ping":41},{"user_id":423,"name":"Copter_Boy","steam_id":76561198322921312,"connected_time":1998000000000,"state":"active","ping":74},{"user_id":410,"name":"‚òô Corrupt ‚ùß","steam_id":76561197977631915,"connected_time":2579000000000,"state":"active","ping":75},{"user_id":447,"name":"B/S/SuperBoof","steam_id":76561197992030936,"connected_time":356000000000,"state":"active","ping":75},{"user_id":442,"name":"Vulpes","steam_id":76561198038929334,"connected_time":655000000000,"state":"active","ping":60},{"user_id":426,"name":"√Üƒüis","steam_id":76561198105421633,"connected_time":1982000000000,"state":"active","ping":74}]},{"server_id":36,"name":"Uncletopia | Chicago | 5 | All Maps","name_short":"chi-5","host":"chi-2.us.uncletopia.com","port":27015,"enabled":true,"region":"us-central","cc":"us","latitude":41.881832,"longitude":-87.62318,"reserved":0,"last_update":"0001-01-01T00:00:00Z","name_a2s":"Uncletopia | Chicago | 5 | All Maps","protocol":17,"map":"koth_lakeside_final","folder":"tf","game":"Team Fortress","app_id":440,"player_count":24,"max_players":24,"Bots":0,"server_type":"Dedicated","server_os":"Linux","password":true,"vac":true,"version":"7742253","steam_id":85568392924866362,"keywords":["cp","nocrits","nodmgspread","uncletopia"],"game_id":440,"stv_port":27016,"stv_name":"Uncletopia | Chicago | 5 | All Maps | STV","players":[{"user_id":635,"name":"ShitsandGiggles‚Ñ¢","steam_id":76561198058708019,"connected_time":1276000000000,"state":"active","ping":51},{"user_id":641,"name":"NoShen","steam_id":76561198147434663,"connected_time":938000000000,"state":"active","ping":62},{"user_id":642,"name":"Excalibrine","steam_id":76561198129312118,"connected_time":896000000000,"state":"active","ping":90},{"user_id":644,"name":"akirajimbo","steam_id":76561197979960008,"connected_time":195000000000,"state":"active","ping":54},{"user_id":636,"name":"ipod touch","steam_id":76561198098763618,"connected_time":1258000000000,"state":"active","ping":71},{"user_id":637,"name":"awesome","steam_id":76561198248656836,"connected_time":1244000000000,"state":"active","ping":86},{"user_id":624,"name":"dragonbass1974","steam_id":76561198031245913,"connected_time":1797000000000,"state":"active","ping":81},{"user_id":638,"name":"ape (real)","steam_id":76561198379444671,"connected_time":1234000000000,"state":"active","ping":64},{"user_id":616,"name":"awsomeeevee1","steam_id":76561199012905300,"connected_time":2352000000000,"state":"active","ping":93},{"user_id":640,"name":"Steggoman","steam_id":76561198202219235,"connected_time":1043000000000,"state":"active","ping":87},{"user_id":609,"name":"Curvrstob","steam_id":76561199012446849,"connected_time":2545000000000,"state":"active","ping":82},{"user_id":579,"name":"hauntaholic","steam_id":76561198095051652,"connected_time":4075000000000,"state":"active","ping":67},{"user_id":590,"name":"Snake Handler","steam_id":76561198027198306,"connected_time":3575000000000,"state":"active","ping":80},{"user_id":625,"name":"Fly Man","steam_id":76561198201036790,"connected_time":1757000000000,"state":"active","ping":94},{"user_id":610,"name":"UnsettlingVoice","steam_id":76561198036614583,"connected_time":2544000000000,"state":"active","ping":66},{"user_id":621,"name":"VixianUwU","steam_id":76561198948815060,"connected_time":2067000000000,"state":"active","ping":83},{"user_id":612,"name":"ash^","steam_id":76561198388233907,"connected_time":2497000000000,"state":"active","ping":80},{"user_id":626,"name":"tod","steam_id":76561198010204565,"connected_time":1746000000000,"state":"active","ping":69},{"user_id":598,"name":"simplyhere141","steam_id":76561199204117948,"connected_time":3051000000000,"state":"active","ping":37},{"user_id":613,"name":"TheAilingSword","steam_id":76561198250350844,"connected_time":2425000000000,"state":"active","ping":68},{"user_id":643,"name":"DarkForce8","steam_id":76561198853892261,"connected_time":695000000000,"state":"active","ping":112},{"user_id":623,"name":"The Panda that Tried","steam_id":76561198975585358,"connected_time":1820000000000,"state":"active","ping":70},{"user_id":646,"name":"Art Angel","steam_id":76561198013916727,"connected_time":120000000000,"state":"active","ping":82},{"user_id":620,"name":"eryn üó∫","steam_id":76561198004433070,"connected_time":2171000000000,"state":"active","ping":75}]},{"server_id":37,"name":"Uncletopia | Chicago | 6 | All Maps","name_short":"chi-6","host":"chi-2.us.uncletopia.com","port":27025,"enabled":true,"region":"us-central","cc":"us","latitude":41.881832,"longitude":-87.62318,"reserved":0,"last_update":"0001-01-01T00:00:00Z","name_a2s":"Uncletopia | Chicago | 6 | All Maps","protocol":17,"map":"pl_upward","folder":"tf","game":"Team Fortress","app_id":440,"player_count":21,"max_players":24,"Bots":0,"server_type":"Dedicated","server_os":"Linux","password":true,"vac":true,"version":"7742253","steam_id":85568392924866363,"keywords":["nocrits","nodmgspread","payload","uncletopia"],"game_id":440,"stv_port":27026,"stv_name":"Uncletopia | Chicago | 6 | All Maps | STV","players":[{"user_id":777,"name":"Lipton","steam_id":76561198135397441,"connected_time":2284000000000,"state":"active","ping":75},{"user_id":799,"name":"LJ PRODUCTIONS","steam_id":76561198061697475,"connected_time":158000000000,"state":"active","ping":61},{"user_id":797,"name":"Sauce Hut","steam_id":76561198151922248,"connected_time":365000000000,"state":"active","ping":62},{"user_id":803,"name":"DS8U","steam_id":76561198151554321,"connected_time":23000000000,"state":"spawning","ping":65},{"user_id":779,"name":"Brisk","steam_id":76561198129769783,"connected_time":2101000000000,"state":"active","ping":78},{"user_id":784,"name":"Brass beast heavy","steam_id":76561198274197623,"connected_time":1491000000000,"state":"active","ping":137},{"user_id":793,"name":"Gustavo Fring","steam_id":76561198132807405,"connected_time":1300000000000,"state":"active","ping":94},{"user_id":796,"name":"Broccoli","steam_id":76561198838851836,"connected_time":405000000000,"state":"active","ping":50},{"user_id":737,"name":"nongamer girl lf gamer bf","steam_id":76561198048925904,"connected_time":4727000000000,"state":"active","ping":115},{"user_id":795,"name":"pablo.rodriguez2006","steam_id":76561198059740184,"connected_time":1172000000000,"state":"active","ping":89},{"user_id":801,"name":"Ask Nicely For Heals","steam_id":76561198138478907,"connected_time":128000000000,"state":"active","ping":52},{"user_id":804,"name":"SomeFuckingGuy","steam_id":76561199239165015,"connected_time":0,"state":"spawning","ping":38},{"user_id":727,"name":"0-2-4 dart monkey","steam_id":76561198067015101,"connected_time":5387000000000,"state":"active","ping":76},{"user_id":791,"name":"Father Jon","steam_id":76561198324730919,"connected_time":1369000000000,"state":"active","ping":81},{"user_id":736,"name":"honked off the bobo","steam_id":76561198123287268,"connected_time":4745000000000,"state":"active","ping":45},{"user_id":761,"name":"FloatingOnAar","steam_id":76561198201931515,"connected_time":3187000000000,"state":"active","ping":90},{"user_id":728,"name":"0-5-2 dart monkey","steam_id":76561198102040731,"connected_time":5384000000000,"state":"active","ping":60},{"user_id":753,"name":"trobort","steam_id":76561198027150357,"connected_time":3315000000000,"state":"active","ping":76},{"user_id":786,"name":"ElizabethVT","steam_id":76561198305927607,"connected_time":1481000000000,"state":"active","ping":69},{"user_id":755,"name":"Zoomed in Spamton","steam_id":76561198049203455,"connected_time":3282000000000,"state":"active","ping":69},{"user_id":769,"name":"stevemarshall","steam_id":76561198405982285,"connected_time":2855000000000,"state":"active","ping":44}]},{"server_id":38,"name":"Uncletopia | Chicago | 7 | Stopwatch Beta","name_short":"chi-7","host":"chi-2.us.uncletopia.com","port":27035,"enabled":true,"region":"us-central","cc":"us","latitude":41.881832,"longitude":-87.62318,"reserved":0,"last_update":"0001-01-01T00:00:00Z","name_a2s":"Uncletopia | Chicago | 7 | Stopwatch Beta","protocol":17,"map":"workshop/pl_badwater_pro_v12.ugc2142942074","folder":"tf","game":"Team Fortress","app_id":440,"player_count":0,"max_players":24,"Bots":0,"server_type":"Dedicated","server_os":"Linux","password":true,"vac":true,"version":"7742253","steam_id":85568392924866364,"keywords":["nocrits","nodmgspread","payload","uncletopia"],"game_id":440,"stv_port":27036,"stv_name":"Uncletopia | Chicago | 7 | Stopwatch Beta | STV","players":null},{"server_id":39,"name":"Uncletopia | Chicago | 8 | Community","name_short":"chi-8","host":"chi-2.us.uncletopia.com","port":27045,"enabled":true,"region":"us-central","cc":"us","latitude":41.881832,"longitude":-87.62318,"reserved":0,"last_update":"0001-01-01T00:00:00Z","name_a2s":"Uncletopia | Chicago | 8 | Community","protocol":17,"map":"workshop/koth_ashville_final.ugc2130459942","folder":"tf","game":"Team Fortress","app_id":440,"player_count":0,"max_players":24,"Bots":0,"server_type":"Dedicated","server_os":"Linux","password":true,"vac":true,"version":"7742253","steam_id":85568392924866365,"keywords":["cp","nocrits","nodmgspread","uncletopia"],"game_id":440,"stv_port":27046,"stv_name":"Uncletopia | Chicago | 8 | Community | STV","players":null},{"server_id":8,"name":"Uncletopia | Dallas | 1 | All Maps","name_short":"dal-1","host":"dal-1.us.uncletopia.com","port":27015,"enabled":true,"region":"us-central","cc":"us","latitude":32.779167,"longitude":-96.80889,"reserved":0,"last_update":"0001-01-01T00:00:00Z","name_a2s":"Uncletopia | Dallas | 1 | All Maps","protocol":17,"map":"pl_borneo","folder":"tf","game":"Team Fortress","app_id":440,"player_count":24,"max_players":24,"Bots":0,"server_type":"Dedicated","server_os":"Linux","password":true,"vac":true,"version":"7742253","steam_id":85568392924469986,"keywords":["nocrits","nodmgspread","payload","uncletopia"],"game_id":440,"stv_port":27016,"stv_name":"Uncletopia | Dallas | 1 | All Maps | STV","players":[{"user_id":589,"name":"Shampagen","steam_id":76561198400745468,"connected_time":1589000000000,"state":"active","ping":98},{"user_id":569,"name":"Blue_Yoshi","steam_id":76561199455280829,"connected_time":3874000000000,"state":"active","ping":63},{"user_id":581,"name":"i ate atomic bomb","steam_id":76561198150406851,"connected_time":2794000000000,"state":"active","ping":92},{"user_id":579,"name":"Gugomo","steam_id":76561198121428316,"connected_time":2846000000000,"state":"active","ping":63},{"user_id":604,"name":"JUST IN CASE I WANNA DIE","steam_id":76561198927668009,"connected_time":477000000000,"state":"active","ping":83},{"user_id":587,"name":"Toxic Medic Main","steam_id":76561198009314845,"connected_time":1625000000000,"state":"active","ping":64},{"user_id":605,"name":"Scout","steam_id":76561198149172070,"connected_time":421000000000,"state":"active","ping":47},{"user_id":574,"name":"kerdo","steam_id":76561199195205705,"connected_time":2926000000000,"state":"active","ping":56},{"user_id":588,"name":"girlpilled unamerican","steam_id":76561198337705174,"connected_time":1622000000000,"state":"active","ping":73},{"user_id":586,"name":"Shortbane","steam_id":76561198247166584,"connected_time":1685000000000,"state":"active","ping":52},{"user_id":601,"name":"Samsiel","steam_id":76561198094134951,"connected_time":823000000000,"state":"active","ping":87},{"user_id":397,"name":"Marzbee115","steam_id":76561198095821025,"connected_time":15234000000000,"state":"active","ping":65},{"user_id":606,"name":"Uncle Boozy","steam_id":76561198301054092,"connected_time":350000000000,"state":"active","ping":57},{"user_id":530,"name":"nazuna","steam_id":76561198078395002,"connected_time":6429000000000,"state":"active","ping":85},{"user_id":607,"name":"zuna","steam_id":76561199038981515,"connected_time":341000000000,"state":"active","ping":80},{"user_id":593,"name":"pandora da king","steam_id":76561198075490385,"connected_time":1556000000000,"state":"active","ping":82},{"user_id":595,"name":"Artic_Ryuu","steam_id":76561198182194918,"connected_time":1512000000000,"state":"active","ping":78},{"user_id":599,"name":"HanakoToast","steam_id":76561198045233131,"connected_time":1254000000000,"state":"active","ping":78},{"user_id":533,"name":"riku","steam_id":76561198088665810,"connected_time":6392000000000,"state":"active","ping":76},{"user_id":608,"name":"mona cosplayer","steam_id":76561198384206719,"connected_time":315000000000,"state":"active","ping":84},{"user_id":609,"name":"GreenApples","steam_id":76561198120559543,"connected_time":296000000000,"state":"active","ping":89},{"user_id":582,"name":"ixo","steam_id":76561198091018788,"connected_time":2782000000000,"state":"active","ping":77},{"user_id":610,"name":"for the king","steam_id":76561197973488858,"connected_time":286000000000,"state":"active","ping":76},{"user_id":564,"name":"The Caretaker","steam_id":76561198125241411,"connected_time":4143000000000,"state":"active","ping":99}]},{"server_id":108,"name":"Uncletopia | Dallas | 2 | All Maps","name_short":"dal-2","host":"dal-1.us.uncletopia.com","port":27025,"enabled":true,"region":"us-central","cc":"us","latitude":32.779167,"longitude":-96.80889,"reserved":0,"last_update":"0001-01-01T00:00:00Z","name_a2s":"Uncletopia | Dallas | 2 | All Maps","protocol":17,"map":"pl_upward","folder":"tf","game":"Team Fortress","app_id":440,"player_count":20,"max_players":24,"Bots":0,"server_type":"Dedicated","server_os":"Linux","password":true,"vac":true,"version":"7742253","steam_id":85568392924469988,"keywords":["nocrits","nodmgspread","payload","uncletopia"],"game_id":440,"stv_port":27026,"stv_name":"Uncletopia | Dallas | 2 | All Maps | STV","players":[{"user_id":487,"name":"TheDM","steam_id":76561198062402634,"connected_time":6000000000,"state":"spawning","ping":91},{"user_id":482,"name":"Rat Smacker","steam_id":76561199090197628,"connected_time":332000000000,"state":"spawning","ping":270},{"user_id":477,"name":"shellaa","steam_id":76561198044124102,"connected_time":851000000000,"state":"active","ping":61},{"user_id":445,"name":"Etomb","steam_id":76561198210017208,"connected_time":2745000000000,"state":"active","ping":161},{"user_id":488,"name":"Mercutio","steam_id":76561198075248548,"connected_time":5000000000,"state":"spawning","ping":82},{"user_id":442,"name":"Tass","steam_id":76561198037116475,"connected_time":3056000000000,"state":"active","ping":105},{"user_id":478,"name":"Blackout","steam_id":76561198046932321,"connected_time":845000000000,"state":"spawning","ping":99},{"user_id":448,"name":"Beeveelution","steam_id":76561198331526301,"connected_time":2649000000000,"state":"spawning","ping":67},{"user_id":479,"name":"Bri","steam_id":76561198089908485,"connected_time":840000000000,"state":"spawning","ping":106},{"user_id":449,"name":"chucknut","steam_id":76561199329553584,"connected_time":2619000000000,"state":"spawning","ping":105},{"user_id":450,"name":"Insert_Name_Here","steam_id":76561198089428414,"connected_time":2591000000000,"state":"spawning","ping":365},{"user_id":414,"name":"Uncle","steam_id":76561197988647705,"connected_time":6329000000000,"state":"spawning","ping":75},{"user_id":480,"name":"FATHER","steam_id":76561198041308977,"connected_time":664000000000,"state":"active","ping":50},{"user_id":475,"name":"mork","steam_id":76561198056718915,"connected_time":897000000000,"state":"spawning","ping":33},{"user_id":472,"name":"FoodFighter2008","steam_id":76561198115941673,"connected_time":1120000000000,"state":"spawning","ping":51},{"user_id":460,"name":"GreenTea","steam_id":76561199127367587,"connected_time":2354000000000,"state":"spawning","ping":93},{"user_id":489,"name":"luis","steam_id":76561198081341347,"connected_time":1000000000,"state":"spawning","ping":77},{"user_id":439,"name":"[LINUX] F2P=S*(M/B)+H || Spy!","steam_id":76561198093538786,"connected_time":3845000000000,"state":"active","ping":101},{"user_id":457,"name":"Czechoslovakia!","steam_id":76561198214713811,"connected_time":2510000000000,"state":"spawning","ping":95},{"user_id":466,"name":"new year, same me","steam_id":76561198138221795,"connected_time":1639000000000,"state":"spawning","ping":88}]},{"server_id":5,"name":"Uncletopia | Frankfurt | 1 | All Maps","name_short":"frk-1","host":"frk-1.de.uncletopia.com","port":27015,"enabled":true,"region":"eu","cc":"de","latitude":50.110924,"longitude":8.682127,"reserved":0,"last_update":"0001-01-01T00:00:00Z","name_a2s":"Uncletopia | Frankfurt | 1 | All Maps","protocol":17,"map":"pl_borneo","folder":"tf","game":"Team Fortress","app_id":440,"player_count":0,"max_players":24,"Bots":0,"server_type":"Dedicated","server_os":"Linux","password":true,"vac":true,"version":"7742253","steam_id":85568392924469989,"keywords":["nocrits","nodmgspread","payload","uncletopia"],"game_id":440,"stv_port":27016,"stv_name":"Uncletopia | Frankfurt | 1 | All Maps | STV","players":null},{"server_id":110,"name":"Uncletopia | Frankfurt | 2 | All Maps","name_short":"frk-2","host":"frk-1.de.uncletopia.com","port":27025,"enabled":true,"region":"eu","cc":"de","latitude":50.110924,"longitude":8.682127,"reserved":0,"last_update":"0001-01-01T00:00:00Z","name_a2s":"Uncletopia | Frankfurt | 2 | All Maps","protocol":17,"map":"koth_harvest_final","folder":"tf","game":"Team Fortress","app_id":440,"player_count":8,"max_players":24,"Bots":0,"server_type":"Dedicated","server_os":"Linux","password":true,"vac":true,"version":"7742253","steam_id":85568392924469990,"keywords":["cp","nocrits","nodmgspread","uncletopia"],"game_id":440,"stv_port":27026,"stv_name":"Uncletopia | Frankfurt | 2 | All Maps | STV","players":[{"user_id":10,"name":"Loop_Cat","steam_id":76561199045902145,"connected_time":3912000000000,"state":"active","ping":108},{"user_id":4,"name":"Sesse","steam_id":76561198254375590,"connected_time":4509000000000,"state":"active","ping":69},{"user_id":15,"name":"Xerp","steam_id":76561198325049769,"connected_time":2902000000000,"state":"active","ping":42},{"user_id":11,"name":"Sneaky boi","steam_id":76561199195985387,"connected_time":3736000000000,"state":"active","ping":81},{"user_id":20,"name":"shpeck","steam_id":76561198195074654,"connected_time":233000000000,"state":"active","ping":90},{"user_id":21,"name":"Fisherman James","steam_id":76561198004502230,"connected_time":225000000000,"state":"active","ping":57},{"user_id":17,"name":"Red the Jolty","steam_id":76561199216093274,"connected_time":2362000000000,"state":"active","ping":84},{"user_id":22,"name":"Mountain Dew","steam_id":76561198335329113,"connected_time":174000000000,"state":"active","ping":109}]},{"server_id":308,"name":"Uncletopia | Frankfurt | 3 | All Maps","name_short":"frk-3","host":"frk-1.de.uncletopia.com","port":27035,"enabled":true,"region":"eu","cc":"de","latitude":50.110924,"longitude":8.682127,"reserved":0,"last_update":"0001-01-01T00:00:00Z","name_a2s":"Uncletopia | Frankfurt | 3 | All Maps","protocol":17,"map":"cp_dustbowl","folder":"tf","game":"Team Fortress","app_id":440,"player_count":0,"max_players":24,"Bots":0,"server_type":"Dedicated","server_os":"Linux","password":true,"vac":true,"version":"7742253","steam_id":85568392924504274,"keywords":["cp","nocrits","nodmgspread","uncletopia"],"game_id":440,"stv_port":27036,"stv_name":"Uncletopia | Frankfurt | 3 | All Maps | STV","players":null},{"server_id":309,"name":"Uncletopia | Frankfurt | 4 | All Maps","name_short":"frk-4","host":"frk-1.de.uncletopia.com","port":27045,"enabled":true,"region":"eu","cc":"de","latitude":50.110924,"longitude":8.682127,"reserved":0,"last_update":"0001-01-01T00:00:00Z","name_a2s":"Uncletopia | Frankfurt | 4 | All Maps","protocol":17,"map":"cp_sunshine","folder":"tf","game":"Team Fortress","app_id":440,"player_count":0,"max_players":24,"Bots":0,"server_type":"Dedicated","server_os":"Linux","password":true,"vac":true,"version":"7742253","steam_id":85568392924504275,"keywords":["cp","nocrits","nodmgspread","uncletopia"],"game_id":440,"stv_port":27046,"stv_name":"Uncletopia | Frankfurt | 4 | All Maps | STV","players":null},{"server_id":310,"name":"Uncletopia | Frankfurt | 5 | All Maps","name_short":"frk-5","host":"frk-1.de.uncletopia.com","port":27055,"enabled":true,"region":"eu","cc":"de","latitude":50.110924,"longitude":8.682127,"reserved":0,"last_update":"0001-01-01T00:00:00Z","name_a2s":"Uncletopia | Frankfurt | 5 | All Maps","protocol":17,"map":"cp_snakewater_final1","folder":"tf","game":"Team Fortress","app_id":440,"player_count":0,"max_players":24,"Bots":0,"server_type":"Dedicated","server_os":"Linux","password":true,"vac":true,"version":"7742253","steam_id":85568392924504277,"keywords":["cp","nocrits","nodmgspread","uncletopia"],"game_id":440,"stv_port":27056,"stv_name":"Uncletopia | Frankfurt | 5 | All Maps | STV","players":null},{"server_id":311,"name":"Uncletopia | Frankfurt | 6 | All Maps","name_short":"frk-6","host":"frk-1.de.uncletopia.com","port":27065,"enabled":true,"region":"eu","cc":"de","latitude":50.110924,"longitude":8.682127,"reserved":0,"last_update":"0001-01-01T00:00:00Z","name_a2s":"Uncletopia | Frankfurt | 6 | All Maps","protocol":17,"map":"koth_lakeside_final","folder":"tf","game":"Team Fortress","app_id":440,"player_count":0,"max_players":24,"Bots":0,"server_type":"Dedicated","server_os":"Linux","password":true,"vac":true,"version":"7742253","steam_id":85568392924504278,"keywords":["cp","nocrits","nodmgspread","uncletopia"],"game_id":440,"stv_port":27066,"stv_name":"Uncletopia | Frankfurt | 6 | All Maps | STV","players":null},{"server_id":23,"name":"Uncletopia | Frankfurt | 7 | Stopwatch Beta","name_short":"frk-7","host":"frk-1.de.uncletopia.com","port":27075,"enabled":true,"region":"eu","cc":"de","latitude":50.110924,"longitude":8.682127,"reserved":0,"last_update":"0001-01-01T00:00:00Z","name_a2s":"Uncletopia | Frankfurt | 7 | Stopwatch Beta","protocol":17,"map":"pl_badwater","folder":"tf","game":"Team Fortress","app_id":440,"player_count":0,"max_players":24,"Bots":0,"server_type":"Dedicated","server_os":"Linux","password":true,"vac":true,"version":"7742253","steam_id":85568392924742827,"keywords":["nocrits","nodmgspread","payload","uncletopia"],"game_id":440,"stv_port":27076,"stv_name":"Uncletopia | Frankfurt | 7 | Stopwatch Beta | STV","players":null},{"server_id":24,"name":"Uncletopia | Frankfurt | 8 | Community","name_short":"frk-8","host":"frk-1.de.uncletopia.com","port":27085,"enabled":true,"region":"eu","cc":"de","latitude":50.110924,"longitude":8.682127,"reserved":0,"last_update":"0001-01-01T00:00:00Z","name_a2s":"Uncletopia | Frankfurt | 8 | Community","protocol":17,"map":"koth_cascade","folder":"tf","game":"Team Fortress","app_id":440,"player_count":0,"max_players":24,"Bots":0,"server_type":"Dedicated","server_os":"Linux","password":true,"vac":true,"version":"7742253","steam_id":85568392924742828,"keywords":["cp","nocrits","nodmgspread","uncletopia"],"game_id":440,"stv_port":27086,"stv_name":"Uncletopia | Frankfurt | 8 | Community | STV","players":null},{"server_id":202,"name":"Uncletopia | Hong Kong | 1 | All Maps","name_short":"hgk-1","host":"hgk-1.hk.uncletopia.com","port":27015,"enabled":true,"region":"asia","cc":"hk","latitude":22.302711,"longitude":114.177216,"reserved":0,"last_update":"0001-01-01T00:00:00Z","name_a2s":"Uncletopia | Hong Kong | 1 | All Maps","protocol":17,"map":"cp_steel","folder":"tf","game":"Team Fortress","app_id":440,"player_count":23,"max_players":24,"Bots":0,"server_type":"Dedicated","server_os":"Linux","password":true,"vac":true,"version":"7742253","steam_id":85568392924494504,"keywords":["cp","nocrits","nodmgspread","uncletopia"],"game_id":440,"stv_port":27016,"stv_name":"Uncletopia | Hong Kong | 1 | All Maps | STV","players":[{"user_id":143,"name":"Doxie_","steam_id":76561198303101136,"connected_time":138000000000,"state":"active","ping":80},{"user_id":136,"name":"brizzard","steam_id":76561198048438653,"connected_time":973000000000,"state":"active","ping":47},{"user_id":133,"name":"wota bota","steam_id":76561198173345911,"connected_time":1201000000000,"state":"active","ping":80},{"user_id":115,"name":"Shades on Goggles","steam_id":76561198406067629,"connected_time":2562000000000,"state":"active","ping":55},{"user_id":123,"name":"yw","steam_id":76561199382726488,"connected_time":1448000000000,"state":"active","ping":49},{"user_id":132,"name":"smol - est","steam_id":76561198293775978,"connected_time":1212000000000,"state":"active","ping":98},{"user_id":145,"name":"Gold","steam_id":76561199008543001,"connected_time":101000000000,"state":"active","ping":55},{"user_id":138,"name":"Puddin","steam_id":76561198140052918,"connected_time":550000000000,"state":"active","ping":87},{"user_id":141,"name":"IRA car dealership","steam_id":76561199224577498,"connected_time":228000000000,"state":"active","ping":80},{"user_id":137,"name":"Professor 'Iggins","steam_id":76561198064448905,"connected_time":967000000000,"state":"active","ping":50},{"user_id":98,"name":"Windmill","steam_id":76561199230997986,"connected_time":3448000000000,"state":"active","ping":75},{"user_id":144,"name":"PapaFranku69","steam_id":76561199446266814,"connected_time":134000000000,"state":"active","ping":92},{"user_id":108,"name":"Wx","steam_id":76561199217780897,"connected_time":2710000000000,"state":"active","ping":116},{"user_id":54,"name":"bird","steam_id":76561198384135605,"connected_time":6892000000000,"state":"active","ping":135},{"user_id":88,"name":"uptriste","steam_id":76561198158666692,"connected_time":4015000000000,"state":"active","ping":45},{"user_id":129,"name":"C√° Th√°ng 4","steam_id":76561198047162026,"connected_time":1241000000000,"state":"active","ping":66},{"user_id":101,"name":"Ian","steam_id":76561198159334435,"connected_time":3275000000000,"state":"active","ping":158},{"user_id":139,"name":"ÂàòÊüê‰∫∫eee","steam_id":76561199239296003,"connected_time":515000000000,"state":"active","ping":85},{"user_id":102,"name":"ÂñÑËâØ„ÅÆÂ¢®","steam_id":76561199102754539,"connected_time":3264000000000,"state":"active","ping":84},{"user_id":130,"name":"qb","steam_id":76561198412329672,"connected_time":1240000000000,"state":"active","ping":90},{"user_id":89,"name":"average weed enjoyer","steam_id":76561199086337830,"connected_time":3994000000000,"state":"active","ping":119},{"user_id":105,"name":"Talkk More","steam_id":76561198305424433,"connected_time":3085000000000,"state":"active","ping":100},{"user_id":107,"name":"rachel.cylara.2003","steam_id":76561198819779240,"connected_time":2729000000000,"state":"active","ping":161}]},{"server_id":1,"name":"Uncletopia | Los Angeles | 1 | All Maps","name_short":"lax-1","host":"lax-1.us.uncletopia.com","port":27015,"enabled":true,"region":"us-west","cc":"us","latitude":33.94279,"longitude":-118.41004,"reserved":0,"last_update":"0001-01-01T00:00:00Z","name_a2s":"Uncletopia | Los Angeles | 1 | All Maps","protocol":17,"map":"pl_snowycoast","folder":"tf","game":"Team Fortress","app_id":440,"player_count":23,"max_players":24,"Bots":0,"server_type":"Dedicated","server_os":"Linux","password":true,"vac":true,"version":"7742253","steam_id":85568392924469991,"keywords":["nocrits","nodmgspread","payload","uncletopia"],"game_id":440,"stv_port":27016,"stv_name":"Uncletopia | Los Angeles | 1 | All Maps | STV","players":[{"user_id":109,"name":"YasPrince","steam_id":76561198954620104,"connected_time":51000000000,"state":"connecting","ping":77},{"user_id":96,"name":"pt","steam_id":76561198143023330,"connected_time":1041000000000,"state":"active","ping":51},{"user_id":89,"name":"Rx Auntie","steam_id":76561198051618393,"connected_time":2174000000000,"state":"active","ping":47},{"user_id":53,"name":"J2Dx","steam_id":76561198214733740,"connected_time":3537000000000,"state":"active","ping":48},{"user_id":86,"name":"MasterGeek.MX","steam_id":76561198063355220,"connected_time":2300000000000,"state":"active","ping":115},{"user_id":54,"name":"Duck_0nQuack","steam_id":76561198178956322,"connected_time":3478000000000,"state":"active","ping":53},{"user_id":55,"name":"Kello","steam_id":76561198383119727,"connected_time":3447000000000,"state":"active","ping":52},{"user_id":108,"name":"just leo","steam_id":76561198094491158,"connected_time":140000000000,"state":"active","ping":59},{"user_id":57,"name":"LX-24","steam_id":76561198016168993,"connected_time":3301000000000,"state":"active","ping":78},{"user_id":103,"name":"Bean Machine","steam_id":76561199370398532,"connected_time":387000000000,"state":"active","ping":73},{"user_id":84,"name":"Da Wrench","steam_id":76561198210010201,"connected_time":2412000000000,"state":"active","ping":70},{"user_id":100,"name":"Jeremy","steam_id":76561198352333793,"connected_time":950000000000,"state":"active","ping":126},{"user_id":91,"name":"CptSkippy","steam_id":76561198127439343,"connected_time":1951000000000,"state":"active","ping":97},{"user_id":62,"name":"Malmart_Employee","steam_id":76561198320388704,"connected_time":3140000000000,"state":"active","ping":81},{"user_id":95,"name":"Fungus","steam_id":76561198390297486,"connected_time":1083000000000,"state":"active","ping":35},{"user_id":73,"name":"futmaus","steam_id":76561199063130278,"connected_time":2815000000000,"state":"active","ping":47},{"user_id":110,"name":"Bread Dad","steam_id":76561198088284226,"connected_time":44000000000,"state":"active","ping":61},{"user_id":101,"name":"yomommasabitch","steam_id":76561198323217150,"connected_time":591000000000,"state":"active","ping":62},{"user_id":104,"name":"Noob-a-tron","steam_id":76561197970555113,"connected_time":372000000000,"state":"active","ping":46},{"user_id":94,"name":"Professor Sex","steam_id":76561198396414319,"connected_time":1605000000000,"state":"active","ping":50},{"user_id":82,"name":"Boundy","steam_id":76561198343494619,"connected_time":2581000000000,"state":"spawning","ping":53},{"user_id":83,"name":"D_10.Shin","steam_id":76561198209278033,"connected_time":2551000000000,"state":"active","ping":76},{"user_id":107,"name":"Vexal","steam_id":76561198319534082,"connected_time":157000000000,"state":"spawning","ping":72}]},{"server_id":112,"name":"Uncletopia | Los Angeles | 2 | All Maps","name_short":"lax-2","host":"lax-1.us.uncletopia.com","port":27025,"enabled":true,"region":"us-west","cc":"us","latitude":33.94279,"longitude":-118.41004,"reserved":0,"last_update":"0001-01-01T00:00:00Z","name_a2s":"Uncletopia | Los Angeles | 2 | All Maps","protocol":17,"map":"pl_upward","folder":"tf","game":"Team Fortress","app_id":440,"player_count":24,"max_players":24,"Bots":0,"server_type":"Dedicated","server_os":"Linux","password":true,"vac":true,"version":"7742253","steam_id":85568392924469992,"keywords":["nocrits","nodmgspread","payload","uncletopia"],"game_id":440,"stv_port":27026,"stv_name":"Uncletopia | Los Angeles | 2 | All Maps | STV","players":[{"user_id":14,"name":"Lego Papyrus","steam_id":76561199094072099,"connected_time":2610000000000,"state":"active","ping":63},{"user_id":54,"name":"Twitch.tv/jokerloltwitch","steam_id":76561198105661443,"connected_time":427000000000,"state":"active","ping":46},{"user_id":18,"name":"Threefunkds","steam_id":76561198896901040,"connected_time":2356000000000,"state":"active","ping":47},{"user_id":20,"name":"PurplePardner","steam_id":76561199138196708,"connected_time":2052000000000,"state":"active","ping":52},{"user_id":40,"name":"Charles","steam_id":76561198155322277,"connected_time":1096000000000,"state":"active","ping":61},{"user_id":21,"name":"Chump-Action","steam_id":76561198025809566,"connected_time":2012000000000,"state":"active","ping":81},{"user_id":22,"name":"BREAKCORE","steam_id":76561198000279083,"connected_time":1990000000000,"state":"active","ping":87},{"user_id":23,"name":"Gasoline Can","steam_id":76561198057108034,"connected_time":1990000000000,"state":"active","ping":74},{"user_id":41,"name":"geggory","steam_id":76561198381462258,"connected_time":1010000000000,"state":"active","ping":43},{"user_id":29,"name":"Kyurem133","steam_id":76561198145647699,"connected_time":1492000000000,"state":"active","ping":61},{"user_id":27,"name":"Logical Heretek","steam_id":76561198336853271,"connected_time":1751000000000,"state":"active","ping":52},{"user_id":31,"name":"DoopDaSoup","steam_id":76561198203141563,"connected_time":1374000000000,"state":"active","ping":92},{"user_id":32,"name":"Tim Piskles","steam_id":76561198991175279,"connected_time":1313000000000,"state":"active","ping":76},{"user_id":53,"name":"p0t_sMoKiNg_sToNeR_420","steam_id":76561198020489207,"connected_time":620000000000,"state":"active","ping":66},{"user_id":50,"name":"TheRickyG","steam_id":76561198099461287,"connected_time":808000000000,"state":"active","ping":56},{"user_id":38,"name":"Flesh (Tangible)","steam_id":76561198441395237,"connected_time":1148000000000,"state":"active","ping":61},{"user_id":56,"name":"ungr8t","steam_id":76561198063521721,"connected_time":303000000000,"state":"active","ping":90},{"user_id":42,"name":"yaldabaoth","steam_id":76561198084606869,"connected_time":1000000000000,"state":"active","ping":108},{"user_id":43,"name":"Porytal","steam_id":76561198306101889,"connected_time":987000000000,"state":"active","ping":75},{"user_id":45,"name":"Moonflower ‚ú¶","steam_id":76561198191782483,"connected_time":891000000000,"state":"active","ping":66},{"user_id":58,"name":"üíÄChuck SchuldinerüíÄ","steam_id":76561198012101598,"connected_time":266000000000,"state":"active","ping":65},{"user_id":59,"name":"geometrically insensitive","steam_id":76561198038142791,"connected_time":260000000000,"state":"active","ping":102},{"user_id":48,"name":"Wanders","steam_id":76561198261193526,"connected_time":854000000000,"state":"active","ping":61},{"user_id":49,"name":"MrLeftTurn","steam_id":76561198856743969,"connected_time":819000000000,"state":"active","ping":97}]},{"server_id":324,"name":"Uncletopia | Los Angeles | 3 | All Maps","name_short":"lax-3","host":"lax-1.us.uncletopia.com","port":27035,"enabled":true,"region":"us-west","cc":"us","latitude":33.94279,"longitude":-118.41004,"reserved":0,"last_update":"0001-01-01T00:00:00Z","name_a2s":"Uncletopia | Los Angeles | 3 | All Maps","protocol":17,"map":"cp_process_final","folder":"tf","game":"Team Fortress","app_id":440,"player_count":0,"max_players":24,"Bots":0,"server_type":"Dedicated","server_os":"Linux","password":true,"vac":true,"version":"7742253","steam_id":85568392924510198,"keywords":["cp","nocrits","nodmgspread","uncletopia"],"game_id":440,"stv_port":27036,"stv_name":"Uncletopia | Los Angeles | 3 | All Maps | STV","players":null},{"server_id":25,"name":"Uncletopia | Los Angeles | 4 | Stopwatch Beta","name_short":"lax-4","host":"lax-1.us.uncletopia.com","port":27045,"enabled":true,"region":"us-west","cc":"us","latitude":33.94279,"longitude":-118.41004,"reserved":0,"last_update":"0001-01-01T00:00:00Z","name_a2s":"Uncletopia | Los Angeles | 4 | Stopwatch Beta","protocol":17,"map":"workshop/koth_clearcut_b15.ugc2107050255","folder":"tf","game":"Team Fortress","app_id":440,"player_count":0,"max_players":24,"Bots":0,"server_type":"Dedicated","server_os":"Linux","password":true,"vac":true,"version":"7742253","steam_id":85568392924510199,"keywords":["cp","nocrits","nodmgspread","uncletopia"],"game_id":440,"stv_port":27046,"stv_name":"Uncletopia | Los Angeles | 4 | Stopwatch Beta | STV","players":null},{"server_id":11,"name":"Uncletopia | London | 1 | All Maps","name_short":"lon-1","host":"lon-1.uk.uncletopia.com","port":27015,"enabled":true,"region":"eu","cc":"gb","latitude":51.509865,"longitude":-0.118092,"reserved":0,"last_update":"0001-01-01T00:00:00Z","name_a2s":"Uncletopia | London | 1 | All Maps","protocol":17,"map":"cp_process_final","folder":"tf","game":"Team Fortress","app_id":440,"player_count":24,"max_players":24,"Bots":0,"server_type":"Dedicated","server_os":"Linux","password":true,"vac":true,"version":"7742253","steam_id":85568392924367362,"keywords":["cp","nocrits","nodmgspread","uncletopia"],"game_id":440,"stv_port":27016,"stv_name":"Uncletopia | London | 1 | All Maps | STV","players":[{"user_id":3,"name":"sape","steam_id":76561198089322416,"connected_time":919000000000,"state":"active","ping":95},{"user_id":4,"name":"R A S M U S","steam_id":76561198279799226,"connected_time":917000000000,"state":"active","ping":72},{"user_id":5,"name":"SubDragon","steam_id":76561199074530966,"connected_time":916000000000,"state":"active","ping":120},{"user_id":6,"name":"pray4prey","steam_id":76561199151228206,"connected_time":916000000000,"state":"active","ping":90},{"user_id":24,"name":"k","steam_id":76561198818452217,"connected_time":792000000000,"state":"active","ping":71},{"user_id":19,"name":"„Éä„Éä","steam_id":76561198137443215,"connected_time":871000000000,"state":"active","ping":106},{"user_id":9,"name":"Melon","steam_id":76561198150893860,"connected_time":911000000000,"state":"active","ping":84},{"user_id":10,"name":"–ø—Ä–æ–º–æ–∫–∞—à–∫–∞","steam_id":76561199064297073,"connected_time":910000000000,"state":"active","ping":136},{"user_id":11,"name":"GreasyWeeb","steam_id":76561199061382612,"connected_time":909000000000,"state":"active","ping":152},{"user_id":12,"name":"sassy the sasquatch","steam_id":76561198844060342,"connected_time":909000000000,"state":"active","ping":44},{"user_id":34,"name":"--","steam_id":76561198365098582,"connected_time":326000000000,"state":"active","ping":151},{"user_id":14,"name":"Salmiakki","steam_id":76561198061510276,"connected_time":902000000000,"state":"active","ping":69},{"user_id":15,"name":"DocTwoEight","steam_id":76561198153488940,"connected_time":897000000000,"state":"active","ping":75},{"user_id":27,"name":"Leszy","steam_id":76561198372172135,"connected_time":698000000000,"state":"active","ping":75},{"user_id":17,"name":"hmscole09","steam_id":76561198811362788,"connected_time":888000000000,"state":"active","ping":45},{"user_id":18,"name":"duster cat","steam_id":76561198832231975,"connected_time":886000000000,"state":"active","ping":93},{"user_id":31,"name":"IvAn_228_NaGiBaToR_2009","steam_id":76561198152351281,"connected_time":589000000000,"state":"active","ping":175},{"user_id":35,"name":"MilkIsmo","steam_id":76561198078362135,"connected_time":280000000000,"state":"active","ping":90},{"user_id":22,"name":"spxcy","steam_id":76561198080296853,"connected_time":832000000000,"state":"active","ping":92},{"user_id":23,"name":"Guuuuy","steam_id":76561197970893597,"connected_time":818000000000,"state":"active","ping":62},{"user_id":33,"name":"ermag","steam_id":76561198029452347,"connected_time":545000000000,"state":"active","ping":88},{"user_id":28,"name":"‚òæjpxfrd‚úû","steam_id":76561198394082814,"connected_time":628000000000,"state":"active","ping":78},{"user_id":29,"name":"300 Ping Gaming [WLP]","steam_id":76561199042160997,"connected_time":623000000000,"state":"active","ping":48},{"user_id":30,"name":"delta man","steam_id":76561198204491245,"connected_time":607000000000,"state":"active","ping":141}]},{"server_id":114,"name":"Uncletopia | London | 2 | All Maps","name_short":"lon-2","host":"lon-1.uk.uncletopia.com","port":27025,"enabled":true,"region":"eu","cc":"gb","latitude":51.509865,"longitude":-0.118092,"reserved":0,"last_update":"0001-01-01T00:00:00Z","name_a2s":"Uncletopia | London | 2 | All Maps","protocol":17,"map":"pl_swiftwater_final1","folder":"tf","game":"Team Fortress","app_id":440,"player_count":0,"max_players":24,"Bots":0,"server_type":"Dedicated","server_os":"Linux","password":true,"vac":true,"version":"7742253","steam_id":85568392924470941,"keywords":["nocrits","nodmgspread","payload","uncletopia"],"game_id":440,"stv_port":27026,"stv_name":"Uncletopia | London | 2 | All Maps | STV","players":null},{"server_id":320,"name":"Uncletopia | London | 3 | All Maps","name_short":"lon-3","host":"lon-1.uk.uncletopia.com","port":27035,"enabled":true,"region":"eu","cc":"gb","latitude":51.509865,"longitude":-0.118092,"reserved":0,"last_update":"0001-01-01T00:00:00Z","name_a2s":"Uncletopia | London | 3 | All Maps","protocol":17,"map":"pl_upward","folder":"tf","game":"Team Fortress","app_id":440,"player_count":0,"max_players":24,"Bots":0,"server_type":"Dedicated","server_os":"Linux","password":true,"vac":true,"version":"7742253","steam_id":85568392924510192,"keywords":["nocrits","nodmgspread","payload","uncletopia"],"game_id":440,"stv_port":27036,"stv_name":"Uncletopia | London | 3 | All Maps | STV","players":null},{"server_id":321,"name":"Uncletopia | London | 4 | All Maps","name_short":"lon-4","host":"lon-1.uk.uncletopia.com","port":27045,"enabled":true,"region":"eu","cc":"gb","latitude":51.509865,"longitude":-0.118092,"reserved":0,"last_update":"0001-01-01T00:00:00Z","name_a2s":"Uncletopia | London | 4 | All Maps","protocol":17,"map":"koth_highpass","folder":"tf","game":"Team Fortress","app_id":440,"player_count":0,"max_players":24,"Bots":0,"server_type":"Dedicated","server_os":"Linux","password":true,"vac":true,"version":"7742253","steam_id":85568392924510193,"keywords":["cp","nocrits","nodmgspread","uncletopia"],"game_id":440,"stv_port":27046,"stv_name":"Uncletopia | London | 4 | All Maps | STV","players":null},{"server_id":21,"name":"Uncletopia | London | 5 | All Maps","name_short":"lon-5","host":"lon-1.uk.uncletopia.com","port":27055,"enabled":true,"region":"eu","cc":"gb","latitude":51.509865,"longitude":-0.118092,"reserved":0,"last_update":"0001-01-01T00:00:00Z","name_a2s":"Uncletopia | London | 5 | All Maps","protocol":17,"map":"pl_frontier_final","folder":"tf","game":"Team Fortress","app_id":440,"player_count":0,"max_players":24,"Bots":0,"server_type":"Dedicated","server_os":"Linux","password":true,"vac":true,"version":"7742253","steam_id":85568392924742829,"keywords":["nocrits","nodmgspread","payload","uncletopia"],"game_id":440,"stv_port":27056,"stv_name":"Uncletopia | London | 5 | All Maps | STV","players":null},{"server_id":22,"name":"Uncletopia | London | 6 | All Maps","name_short":"lon-6","host":"lon-1.uk.uncletopia.com","port":27065,"enabled":true,"region":"eu","cc":"gb","latitude":51.509865,"longitude":-0.118092,"reserved":0,"last_update":"0001-01-01T00:00:00Z","name_a2s":"Uncletopia | London | 6 | All Maps","protocol":17,"map":"pl_borneo","folder":"tf","game":"Team Fortress","app_id":440,"player_count":0,"max_players":24,"Bots":0,"server_type":"Dedicated","server_os":"Linux","password":true,"vac":true,"version":"7742253","steam_id":85568392924742830,"keywords":["nocrits","nodmgspread","payload","uncletopia"],"game_id":440,"stv_port":27066,"stv_name":"Uncletopia | London | 6 | All Maps | STV","players":null},{"server_id":40,"name":"Uncletopia | London | 7 | No Payload","name_short":"lon-7","host":"lon-1.uk.uncletopia.com","port":27075,"enabled":true,"region":"eu","cc":"gb","latitude":51.509865,"longitude":-0.118092,"reserved":0,"last_update":"0001-01-01T00:00:00Z","name_a2s":"Uncletopia | London | 7 | No Payload","protocol":17,"map":"koth_viaduct","folder":"tf","game":"Team Fortress","app_id":440,"player_count":0,"max_players":24,"Bots":0,"server_type":"Dedicated","server_os":"Linux","password":true,"vac":true,"version":"7742253","steam_id":85568392924964314,"keywords":["cp","nocrits","nodmgspread","uncletopia"],"game_id":440,"stv_port":27076,"stv_name":"Uncletopia | London | 7 | No Payload | STV","players":null},{"server_id":41,"name":"Uncletopia | London | 8 | Community","name_short":"lon-8","host":"lon-1.uk.uncletopia.com","port":27085,"enabled":true,"region":"eu","cc":"gb","latitude":51.509865,"longitude":-0.118092,"reserved":0,"last_update":"0001-01-01T00:00:00Z","name_a2s":"Uncletopia | London | 8 | Community","protocol":17,"map":"cp_altitude","folder":"tf","game":"Team Fortress","app_id":440,"player_count":0,"max_players":24,"Bots":0,"server_type":"Dedicated","server_os":"Linux","password":true,"vac":true,"version":"7742253","steam_id":85568392924964315,"keywords":["cp","nocrits","nodmgspread","uncletopia"],"game_id":440,"stv_port":27086,"stv_name":"Uncletopia | London | 8 | Community | STV","players":null},{"server_id":300,"name":"Uncletopia | Montr√©al | 1 | All Maps","name_short":"mtl-1","host":"mtl-1.ca.uncletopia.com","port":27015,"enabled":true,"region":"us-east","cc":"ca","latitude":45.50889,"longitude":-73.56167,"reserved":0,"last_update":"0001-01-01T00:00:00Z","name_a2s":"Uncletopia | Montr√©al | 1 | All Maps","protocol":17,"map":"koth_cascade","folder":"tf","game":"Team Fortress","app_id":440,"player_count":0,"max_players":24,"Bots":0,"server_type":"Dedicated","server_os":"Linux","password":true,"vac":true,"version":"7742253","steam_id":85568392924500087,"keywords":["cp","nocrits","nodmgspread","uncletopia"],"game_id":440,"stv_port":27016,"stv_name":"Uncletopia | Montr√©al | 1 | All Maps | STV","players":null},{"server_id":301,"name":"Uncletopia | Montr√©al | 2 | All Maps","name_short":"mtl-2","host":"mtl-1.ca.uncletopia.com","port":27025,"enabled":true,"region":"us-east","cc":"ca","latitude":45.50889,"longitude":-73.56167,"reserved":0,"last_update":"0001-01-01T00:00:00Z","name_a2s":"Uncletopia | Montr√©al | 2 | All Maps","protocol":17,"map":"koth_highpass","folder":"tf","game":"Team Fortress","app_id":440,"player_count":0,"max_players":24,"Bots":0,"server_type":"Dedicated","server_os":"Linux","password":true,"vac":true,"version":"7742253","steam_id":85568392924500088,"keywords":["cp","nocrits","nodmgspread","uncletopia"],"game_id":440,"stv_port":27026,"stv_name":"Uncletopia | Montr√©al | 2 | All Maps | STV","players":null},{"server_id":302,"name":"Uncletopia | Montr√©al | 3 | All Maps","name_short":"mtl-3","host":"mtl-1.ca.uncletopia.com","port":27035,"enabled":true,"region":"us-east","cc":"ca","latitude":45.50889,"longitude":-73.56167,"reserved":0,"last_update":"0001-01-01T00:00:00Z","name_a2s":"Uncletopia | Montr√©al | 3 | All Maps","protocol":17,"map":"koth_highpass","folder":"tf","game":"Team Fortress","app_id":440,"player_count":0,"max_players":24,"Bots":0,"server_type":"Dedicated","server_os":"Linux","password":true,"vac":true,"version":"7742253","steam_id":85568392924500089,"keywords":["cp","nocrits","nodmgspread","uncletopia"],"game_id":440,"stv_port":27036,"stv_name":"Uncletopia | Montr√©al | 3 | All Maps | STV","players":null},{"server_id":303,"name":"Uncletopia | Montr√©al | 4 | No Payload","name_short":"mtl-4","host":"mtl-1.ca.uncletopia.com","port":27045,"enabled":true,"region":"us-east","cc":"ca","latitude":45.50889,"longitude":-73.56167,"reserved":0,"last_update":"0001-01-01T00:00:00Z","name_a2s":"Uncletopia | Montr√©al | 4 | No Payload","protocol":17,"map":"cp_steel","folder":"tf","game":"Team Fortress","app_id":440,"player_count":0,"max_players":24,"Bots":0,"server_type":"Dedicated","server_os":"Linux","password":true,"vac":true,"version":"7742253","steam_id":85568392924500090,"keywords":["cp","nocrits","nodmgspread","uncletopia"],"game_id":440,"stv_port":27046,"stv_name":"Uncletopia | Montr√©al | 4 | No Payload | STV","players":null},{"server_id":13,"name":"Uncletopia | New York City | 1 | All Maps","name_short":"nyc-1","host":"nyc-1.us.uncletopia.com","port":27015,"enabled":true,"region":"us-east","cc":"us","latitude":40.73061,"longitude":-73.93524,"reserved":0,"last_update":"0001-01-01T00:00:00Z","name_a2s":"Uncletopia | New York City | 1 | All Maps","protocol":17,"map":"pl_snowycoast","folder":"tf","game":"Team Fortress","app_id":440,"player_count":18,"max_players":24,"Bots":0,"server_type":"Dedicated","server_os":"Linux","password":true,"vac":true,"version":"7742253","steam_id":85568392924469993,"keywords":["nocrits","nodmgspread","payload","uncletopia"],"game_id":440,"stv_port":27016,"stv_name":"Uncletopia | New York City | 1 | All Maps | STV","players":[{"user_id":398,"name":"agentdaffy007","steam_id":76561198000283251,"connected_time":432000000000,"state":"active","ping":61},{"user_id":236,"name":"layabout","steam_id":76561198130892117,"connected_time":13929000000000,"state":"active","ping":60},{"user_id":400,"name":"Juri Han","steam_id":76561198041678517,"connected_time":276000000000,"state":"active","ping":122},{"user_id":361,"name":"Zekinler","steam_id":76561198868861099,"connected_time":3829000000000,"state":"active","ping":69},{"user_id":394,"name":"Dr.BendyBones","steam_id":76561198048846641,"connected_time":1124000000000,"state":"active","ping":61},{"user_id":391,"name":"wby","steam_id":76561198053650453,"connected_time":1451000000000,"state":"active","ping":154},{"user_id":329,"name":"Vince Offer","steam_id":76561198991008825,"connected_time":5107000000000,"state":"active","ping":61},{"user_id":401,"name":"Miramar","steam_id":76561198022057653,"connected_time":184000000000,"state":"active","ping":71},{"user_id":331,"name":"Loafus","steam_id":76561198154561111,"connected_time":5042000000000,"state":"active","ping":79},{"user_id":395,"name":"SamJ","steam_id":76561199012503878,"connected_time":883000000000,"state":"active","ping":53},{"user_id":388,"name":"Atlas","steam_id":76561198127975050,"connected_time":1591000000000,"state":"active","ping":64},{"user_id":390,"name":"stunnas","steam_id":76561198011869609,"connected_time":1452000000000,"state":"active","ping":135},{"user_id":381,"name":"haha","steam_id":76561198173047169,"connected_time":2407000000000,"state":"active","ping":46},{"user_id":399,"name":"videogame1020","steam_id":76561198837706438,"connected_time":408000000000,"state":"active","ping":134},{"user_id":384,"name":"player","steam_id":76561199467897571,"connected_time":2032000000000,"state":"active","ping":86},{"user_id":389,"name":"LAMMY FROM UM JAMMER LAMMY","steam_id":76561199013140117,"connected_time":1583000000000,"state":"active","ping":104},{"user_id":385,"name":"chance01_","steam_id":76561198083840477,"connected_time":1721000000000,"state":"active","ping":47},{"user_id":371,"name":"Lore","steam_id":76561198098407538,"connected_time":3037000000000,"state":"active","ping":63}]},{"server_id":14,"name":"Uncletopia | New York City | 2 | All Maps","name_short":"nyc-2","host":"nyc-1.us.uncletopia.com","port":27025,"enabled":true,"region":"us-east","cc":"us","latitude":40.73061,"longitude":-73.93524,"reserved":0,"last_update":"0001-01-01T00:00:00Z","name_a2s":"Uncletopia | New York City | 2 | All Maps","protocol":17,"map":"pl_barnblitz","folder":"tf","game":"Team Fortress","app_id":440,"player_count":24,"max_players":24,"Bots":0,"server_type":"Dedicated","server_os":"Linux","password":true,"vac":true,"version":"7742253","steam_id":85568392924469994,"keywords":["nocrits","nodmgspread","payload","uncletopia"],"game_id":440,"stv_port":27026,"stv_name":"Uncletopia | New York City | 2 | All Maps | STV","players":[{"user_id":573,"name":"The Indomitable Human Spirit","steam_id":76561198123199575,"connected_time":1610000000000,"state":"active","ping":80},{"user_id":582,"name":"FattSucc","steam_id":76561198009500503,"connected_time":973000000000,"state":"active","ping":92},{"user_id":541,"name":"$$$","steam_id":76561198218897541,"connected_time":2935000000000,"state":"active","ping":50},{"user_id":584,"name":"Comfy!","steam_id":76561198008818346,"connected_time":711000000000,"state":"active","ping":60},{"user_id":574,"name":"LATINO BEAST UNIT 75","steam_id":76561198077789424,"connected_time":1552000000000,"state":"active","ping":127},{"user_id":566,"name":"sheep","steam_id":76561198172943006,"connected_time":2148000000000,"state":"active","ping":60},{"user_id":576,"name":"sniffffff","steam_id":76561198041218710,"connected_time":1492000000000,"state":"active","ping":56},{"user_id":531,"name":"social distance warrior","steam_id":76561198128992994,"connected_time":3265000000000,"state":"active","ping":107},{"user_id":504,"name":"Leviathan","steam_id":76561197997528907,"connected_time":4296000000000,"state":"active","ping":46},{"user_id":527,"name":"aaple","steam_id":76561198056377621,"connected_time":3366000000000,"state":"active","ping":75},{"user_id":587,"name":"HorseCooker","steam_id":76561198076588370,"connected_time":270000000000,"state":"active","ping":62},{"user_id":580,"name":"Goku","steam_id":76561198064143198,"connected_time":1404000000000,"state":"active","ping":67},{"user_id":507,"name":"HumFreY","steam_id":76561198076639682,"connected_time":4041000000000,"state":"active","ping":55},{"user_id":586,"name":"Nnyllazxz","steam_id":76561198247797436,"connected_time":352000000000,"state":"active","ping":55},{"user_id":558,"name":"Ghoulish in Nature","steam_id":76561198058840585,"connected_time":2603000000000,"state":"active","ping":61},{"user_id":588,"name":"Boglim","steam_id":76561199466918607,"connected_time":43000000000,"state":"active","ping":71},{"user_id":526,"name":"lyra","steam_id":76561198200002859,"connected_time":3446000000000,"state":"active","ping":53},{"user_id":532,"name":"Chiaki Nanami","steam_id":76561198164782653,"connected_time":3265000000000,"state":"active","ping":48},{"user_id":565,"name":"Skeptical","steam_id":76561198038261789,"connected_time":2442000000000,"state":"active","ping":118},{"user_id":533,"name":"gerg","steam_id":76561197997127387,"connected_time":3261000000000,"state":"active","ping":118},{"user_id":589,"name":"germba","steam_id":76561198421591995,"connected_time":37000000000,"state":"active","ping":93},{"user_id":570,"name":"Memoirist","steam_id":76561198026002842,"connected_time":2100000000000,"state":"active","ping":67},{"user_id":572,"name":"hurgler","steam_id":76561198046650995,"connected_time":1703000000000,"state":"active","ping":94},{"user_id":585,"name":"level 1 pyro","steam_id":76561198281197072,"connected_time":374000000000,"state":"active","ping":81}]},{"server_id":15,"name":"Uncletopia | New York City | 3 | Stopwatch Beta","name_short":"nyc-3","host":"nyc-1.us.uncletopia.com","port":27035,"enabled":true,"region":"us-east","cc":"us","latitude":40.73061,"longitude":-73.93524,"reserved":0,"last_update":"0001-01-01T00:00:00Z","name_a2s":"Uncletopia | New York City | 3 | Stopwatch Beta","protocol":17,"map":"workshop/koth_bagel_rc5.ugc2514036946","folder":"tf","game":"Team Fortress","app_id":440,"player_count":0,"max_players":24,"Bots":0,"server_type":"Dedicated","server_os":"Linux","password":true,"vac":true,"version":"7742253","steam_id":85568392924742820,"keywords":["cp","nocrits","nodmgspread","uncletopia"],"game_id":440,"stv_port":27036,"stv_name":"Uncletopia | New York City | 3 | Stopwatch Beta | STV","players":null},{"server_id":16,"name":"Uncletopia | New York City | 4 | Community","name_short":"nyc-4","host":"nyc-1.us.uncletopia.com","port":27045,"enabled":true,"region":"us-east","cc":"us","latitude":40.73061,"longitude":-73.93524,"reserved":0,"last_update":"0001-01-01T00:00:00Z","name_a2s":"Uncletopia | New York City | 4 | Community","protocol":17,"map":"workshop/koth_bagel_rc5.ugc2514036946","folder":"tf","game":"Team Fortress","app_id":440,"player_count":3,"max_players":24,"Bots":0,"server_type":"Dedicated","server_os":"Linux","password":true,"vac":true,"version":"7742253","steam_id":85568392924742821,"keywords":["cp","nocrits","nodmgspread","uncletopia"],"game_id":440,"stv_port":27046,"stv_name":"Uncletopia | New York City | 4 | Community | STV","players":[{"user_id":294,"name":"johnman gooberguy","steam_id":76561199014859764,"connected_time":1045000000000,"state":"active","ping":114},{"user_id":283,"name":"KnightBubbs","steam_id":76561198219288169,"connected_time":2369000000000,"state":"active","ping":120},{"user_id":284,"name":"googy doogy","steam_id":76561199025852100,"connected_time":2323000000000,"state":"active","ping":39}]},{"server_id":142,"name":"Uncletopia | S√£o Paulo | 1 | All Maps","name_short":"sao-1","host":"sao-1.br.uncletopia.com","port":27015,"enabled":true,"region":"sa","cc":"br","latitude":-23.533773,"longitude":-46.62529,"reserved":0,"last_update":"0001-01-01T00:00:00Z","name_a2s":"Uncletopia | S√£o Paulo | 1 | All Maps","protocol":17,"map":"koth_lakeside_final","folder":"tf","game":"Team Fortress","app_id":440,"player_count":0,"max_players":24,"Bots":0,"server_type":"Dedicated","server_os":"Linux","password":true,"vac":true,"version":"7742253","steam_id":85568392924469996,"keywords":["cp","nocrits","nodmgspread","uncletopia"],"game_id":440,"stv_port":27016,"stv_name":"Uncletopia | S√£o Paulo | 1 | All Maps | STV","players":null},{"server_id":143,"name":"Uncletopia | S√£o Paulo | 2 | All Maps","name_short":"sao-2","host":"sao-2.br.uncletopia.com","port":27015,"enabled":true,"region":"sa","cc":"br","latitude":-23.533773,"longitude":-46.62529,"reserved":0,"last_update":"0001-01-01T00:00:00Z","name_a2s":"Uncletopia | S√£o Paulo | 2 | All Maps","protocol":17,"map":"koth_viaduct","folder":"tf","game":"Team Fortress","app_id":440,"player_count":0,"max_players":24,"Bots":0,"server_type":"Dedicated","server_os":"Linux","password":true,"vac":true,"version":"7742253","steam_id":85568392924485349,"keywords":["cp","nocrits","nodmgspread","uncletopia"],"game_id":440,"stv_port":27016,"stv_name":"Uncletopia | S√£o Paulo | 2 | All Maps | STV","players":null},{"server_id":7,"name":"Uncletopia | Seattle | 1 | All Maps","name_short":"sea-1","host":"sea-1.us.uncletopia.com","port":27015,"enabled":true,"region":"us-west","cc":"us","latitude":47.608013,"longitude":-122.33517,"reserved":0,"last_update":"0001-01-01T00:00:00Z","name_a2s":"Uncletopia | Seattle | 1 | All Maps","protocol":17,"map":"pl_swiftwater_final1","folder":"tf","game":"Team Fortress","app_id":440,"player_count":24,"max_players":24,"Bots":0,"server_type":"Dedicated","server_os":"Linux","password":true,"vac":true,"version":"7742253","steam_id":85568392924469997,"keywords":["nocrits","nodmgspread","payload","uncletopia"],"game_id":440,"stv_port":27016,"stv_name":"Uncletopia | Seattle | 1 | All Maps | STV","players":[{"user_id":743,"name":"soup","steam_id":76561198043209046,"connected_time":951000000000,"state":"active","ping":59},{"user_id":750,"name":"Attrition","steam_id":76561197969881916,"connected_time":100000000000,"state":"active","ping":48},{"user_id":748,"name":"goldhed","steam_id":76561198051751133,"connected_time":595000000000,"state":"active","ping":51},{"user_id":708,"name":"5392vin","steam_id":76561198880493511,"connected_time":3948000000000,"state":"active","ping":61},{"user_id":720,"name":"Julien","steam_id":76561199389584938,"connected_time":3036000000000,"state":"active","ping":43},{"user_id":737,"name":"Ayayahuasca","steam_id":76561199002906056,"connected_time":1812000000000,"state":"active","ping":46},{"user_id":728,"name":"punt kick kids","steam_id":76561198094749400,"connected_time":2400000000000,"state":"active","ping":54},{"user_id":744,"name":"Flowey","steam_id":76561198442304406,"connected_time":771000000000,"state":"active","ping":50},{"user_id":684,"name":"mumbles","steam_id":76561197994528974,"connected_time":6293000000000,"state":"active","ping":76},{"user_id":699,"name":"Y'o","steam_id":76561198098462500,"connected_time":5075000000000,"state":"active","ping":68},{"user_id":735,"name":"i play for the dilfs","steam_id":76561199023017383,"connected_time":2260000000000,"state":"active","ping":123},{"user_id":733,"name":"lavender","steam_id":76561199069518286,"connected_time":2338000000000,"state":"active","ping":74},{"user_id":729,"name":"Arsonist Goose","steam_id":76561198147441830,"connected_time":2389000000000,"state":"active","ping":74},{"user_id":725,"name":"Lakue","steam_id":76561198047993241,"connected_time":2760000000000,"state":"active","ping":56},{"user_id":669,"name":"Average Motor Vehicle Enjoyer","steam_id":76561199076603690,"connected_time":7501000000000,"state":"active","ping":89},{"user_id":738,"name":"The Pepsi¬Æ Superbowl¬Æ!","steam_id":76561198080828981,"connected_time":1226000000000,"state":"active","ping":68},{"user_id":745,"name":"Sir Galahad","steam_id":76561198195999859,"connected_time":739000000000,"state":"active","ping":43},{"user_id":724,"name":"Jade","steam_id":76561198151596927,"connected_time":2943000000000,"state":"active","ping":108},{"user_id":746,"name":"Mikidy","steam_id":76561197972958970,"connected_time":726000000000,"state":"active","ping":74},{"user_id":704,"name":"WACKY JIM","steam_id":76561198961641122,"connected_time":4298000000000,"state":"active","ping":57},{"user_id":742,"name":"Mr.Thirteen","steam_id":76561198047468836,"connected_time":1001000000000,"state":"active","ping":69},{"user_id":747,"name":"facecheck","steam_id":76561198115269587,"connected_time":716000000000,"state":"active","ping":119},{"user_id":716,"name":"secio5","steam_id":76561198189746963,"connected_time":3666000000000,"state":"active","ping":35},{"user_id":741,"name":"Blank_Sicon","steam_id":76561198887041407,"connected_time":1052000000000,"state":"active","ping":83}]},{"server_id":119,"name":"Uncletopia | Seattle | 2 | All Maps","name_short":"sea-2","host":"sea-1.us.uncletopia.com","port":27025,"enabled":true,"region":"us-west","cc":"us","latitude":47.608013,"longitude":-122.33517,"reserved":0,"last_update":"0001-01-01T00:00:00Z","name_a2s":"Uncletopia | Seattle | 2 | All Maps","protocol":17,"map":"pl_wutville_event","folder":"tf","game":"Team Fortress","app_id":440,"player_count":23,"max_players":24,"Bots":0,"server_type":"Dedicated","server_os":"Linux","password":true,"vac":true,"version":"7742253","steam_id":85568392924469998,"keywords":["nocrits","nodmgspread","payload","uncletopia"],"game_id":440,"stv_port":27026,"stv_name":"Uncletopia | Seattle | 2 | All Maps | STV","players":[{"user_id":370,"name":"Freddie Benson","steam_id":76561198012741266,"connected_time":374000000000,"state":"active","ping":53},{"user_id":351,"name":"Killroy NQP ‚ù§","steam_id":76561198006983771,"connected_time":2246000000000,"state":"active","ping":120},{"user_id":349,"name":"doopsies","steam_id":76561198083000867,"connected_time":2323000000000,"state":"active","ping":53},{"user_id":341,"name":"Anderswo","steam_id":76561198253224241,"connected_time":3391000000000,"state":"active","ping":43},{"user_id":365,"name":"Neopolitan","steam_id":76561198047707500,"connected_time":540000000000,"state":"active","ping":127},{"user_id":346,"name":"El Gato Paranoico","steam_id":76561198116567116,"connected_time":3049000000000,"state":"active","ping":107},{"user_id":335,"name":"Professor Cuthbert Calculus","steam_id":76561198003257461,"connected_time":4015000000000,"state":"active","ping":51},{"user_id":309,"name":"General Fisticuffs","steam_id":76561198255721392,"connected_time":5464000000000,"state":"active","ping":100},{"user_id":350,"name":"Mike Hawk","steam_id":76561198045053326,"connected_time":2272000000000,"state":"active","ping":39},{"user_id":327,"name":"Glen Frogmire","steam_id":76561198059313367,"connected_time":4668000000000,"state":"active","ping":45},{"user_id":363,"name":"mudunit","steam_id":76561198811544015,"connected_time":570000000000,"state":"active","ping":87},{"user_id":366,"name":"bug","steam_id":76561198381048942,"connected_time":514000000000,"state":"active","ping":55},{"user_id":367,"name":"nescoceo","steam_id":76561198040801160,"connected_time":494000000000,"state":"active","ping":83},{"user_id":336,"name":"Alset","steam_id":76561197993820174,"connected_time":4009000000000,"state":"active","ping":101},{"user_id":360,"name":"Tom","steam_id":76561198070630154,"connected_time":593000000000,"state":"active","ping":77},{"user_id":357,"name":"TheCowledWiz","steam_id":76561198016735868,"connected_time":846000000000,"state":"active","ping":52},{"user_id":368,"name":"Eli","steam_id":76561198062356519,"connected_time":452000000000,"state":"active","ping":140},{"user_id":369,"name":"Colt","steam_id":76561198028263156,"connected_time":433000000000,"state":"active","ping":130},{"user_id":329,"name":"KingTinkerer","steam_id":76561198226856548,"connected_time":4565000000000,"state":"active","ping":72},{"user_id":371,"name":"biggus dickus","steam_id":76561198330096760,"connected_time":364000000000,"state":"active","ping":54},{"user_id":372,"name":"Derp","steam_id":76561198273609992,"connected_time":345000000000,"state":"active","ping":97},{"user_id":311,"name":"Mr.Poopy Pants","steam_id":76561199037703635,"connected_time":5418000000000,"state":"active","ping":114},{"user_id":373,"name":"Salmon","steam_id":76561198285883040,"connected_time":273000000000,"state":"active","ping":40}]},{"server_id":406,"name":"Uncletopia | Seattle | 3 | Stopwatch Beta","name_short":"sea-3","host":"sea-1.us.uncletopia.com","port":27035,"enabled":true,"region":"us-west","cc":"us","latitude":47.608013,"longitude":-122.33517,"reserved":0,"last_update":"0001-01-01T00:00:00Z","name_a2s":"Uncletopia | Seattle | 3 | Stopwatch Beta","protocol":17,"map":"pl_swiftwater_final1","folder":"tf","game":"Team Fortress","app_id":440,"player_count":0,"max_players":24,"Bots":0,"server_type":"Dedicated","server_os":"Linux","password":true,"vac":true,"version":"7742253","steam_id":85568392924515217,"keywords":["nocrits","nodmgspread","payload","uncletopia"],"game_id":440,"stv_port":27036,"stv_name":"Uncletopia | Seattle | 3 | Stopwatch Beta | STV","players":null},{"server_id":17,"name":"Uncletopia | San Francisco | 1 | All Maps","name_short":"sfo-1","host":"sfo-1.us.uncletopia.com","port":27015,"enabled":true,"region":"us-west","cc":"us","latitude":37.77397,"longitude":-122.4313,"reserved":0,"last_update":"0001-01-01T00:00:00Z","name_a2s":"Uncletopia | San Francisco | 1 | All Maps","protocol":17,"map":"cp_mountainlab","folder":"tf","game":"Team Fortress","app_id":440,"player_count":24,"max_players":24,"Bots":0,"server_type":"Dedicated","server_os":"Linux","password":true,"vac":true,"version":"7742253","steam_id":85568392924469999,"keywords":["cp","nocrits","nodmgspread","uncletopia"],"game_id":440,"stv_port":27016,"stv_name":"Uncletopia | San Francisco | 1 | All Maps | STV","players":[{"user_id":254,"name":"bro think he carti","steam_id":76561198143132686,"connected_time":2125000000000,"state":"active","ping":76},{"user_id":277,"name":"HOG RIDER","steam_id":76561198298589502,"connected_time":205000000000,"state":"active","ping":58},{"user_id":267,"name":"uosƒ± ûkison","steam_id":76561198161464667,"connected_time":713000000000,"state":"active","ping":88},{"user_id":271,"name":"C‚àÖRVUS","steam_id":76561198100640019,"connected_time":533000000000,"state":"active","ping":72},{"user_id":276,"name":"Ryback","steam_id":76561197988711455,"connected_time":334000000000,"state":"active","ping":59},{"user_id":229,"name":"Grandma","steam_id":76561198131830899,"connected_time":4304000000000,"state":"active","ping":48},{"user_id":275,"name":"nonanona","steam_id":76561198044776946,"connected_time":384000000000,"state":"active","ping":66},{"user_id":268,"name":"WannaSeeA","steam_id":76561198097701042,"connected_time":622000000000,"state":"active","ping":86},{"user_id":278,"name":"SmallErection","steam_id":76561198071770147,"connected_time":199000000000,"state":"active","ping":131},{"user_id":240,"name":"Gucci Shades","steam_id":76561198059537262,"connected_time":3287000000000,"state":"active","ping":47},{"user_id":213,"name":"jungus","steam_id":76561198129862008,"connected_time":5678000000000,"state":"active","ping":50},{"user_id":246,"name":"Sadodere Grimace","steam_id":76561198008332028,"connected_time":3045000000000,"state":"active","ping":64},{"user_id":259,"name":"nickname 123","steam_id":76561198080234033,"connected_time":1870000000000,"state":"active","ping":102},{"user_id":247,"name":"Rusty","steam_id":76561198055585129,"connected_time":2748000000000,"state":"active","ping":73},{"user_id":272,"name":"‚òª","steam_id":76561198176618461,"connected_time":507000000000,"state":"active","ping":129},{"user_id":279,"name":"Seriously Bruh","steam_id":76561198070408485,"connected_time":199000000000,"state":"active","ping":70},{"user_id":280,"name":"magunyamu","steam_id":76561198823083676,"connected_time":134000000000,"state":"active","ping":64},{"user_id":190,"name":"Mignyanne :3","steam_id":76561198048754056,"connected_time":7117000000000,"state":"active","ping":52},{"user_id":281,"name":"UneditedAndy","steam_id":76561198982544947,"connected_time":113000000000,"state":"active","ping":54},{"user_id":282,"name":"Farmer caboose","steam_id":76561198117370670,"connected_time":57000000000,"state":"spawning","ping":253},{"user_id":207,"name":"The Foolish Samurai","steam_id":76561198094494945,"connected_time":6215000000000,"state":"active","ping":129},{"user_id":283,"name":"Bubbus","steam_id":76561198364426763,"connected_time":53000000000,"state":"spawning","ping":81},{"user_id":284,"name":"defcon","steam_id":76561198100656328,"connected_time":51000000000,"state":"active","ping":114},{"user_id":285,"name":"Deryn Sharp","steam_id":76561198047017346,"connected_time":44000000000,"state":"active","ping":62}]},{"server_id":18,"name":"Uncletopia | San Francisco | 2 | All Maps","name_short":"sfo-2","host":"sfo-1.us.uncletopia.com","port":27025,"enabled":true,"region":"us-west","cc":"us","latitude":37.77397,"longitude":-122.4313,"reserved":0,"last_update":"0001-01-01T00:00:00Z","name_a2s":"Uncletopia | San Francisco | 2 | All Maps","protocol":17,"map":"cp_altitude","folder":"tf","game":"Team Fortress","app_id":440,"player_count":23,"max_players":24,"Bots":0,"server_type":"Dedicated","server_os":"Linux","password":true,"vac":true,"version":"7742253","steam_id":85568392924470000,"keywords":["cp","nocrits","nodmgspread","uncletopia"],"game_id":440,"stv_port":27026,"stv_name":"Uncletopia | San Francisco | 2 | All Maps | STV","players":[{"user_id":223,"name":"Mr. Comrade","steam_id":76561198155667562,"connected_time":1001000000000,"state":"active","ping":58},{"user_id":226,"name":"Lily Thorn","steam_id":76561198305488625,"connected_time":535000000000,"state":"active","ping":79},{"user_id":229,"name":"Frog","steam_id":76561198086409943,"connected_time":155000000000,"state":"active","ping":63},{"user_id":213,"name":"StumbleBumble","steam_id":76561199000369528,"connected_time":1939000000000,"state":"active","ping":109},{"user_id":219,"name":"machomelon","steam_id":76561198043683564,"connected_time":1421000000000,"state":"active","ping":53},{"user_id":166,"name":"DarthJiggles","steam_id":76561198088383875,"connected_time":5059000000000,"state":"active","ping":44},{"user_id":205,"name":"Yokogaijin Jr.","steam_id":76561199124647094,"connected_time":2671000000000,"state":"active","ping":48},{"user_id":197,"name":"Master Of Whales","steam_id":76561198349104889,"connected_time":2968000000000,"state":"active","ping":62},{"user_id":181,"name":"Battery_Included","steam_id":76561198067164431,"connected_time":4558000000000,"state":"active","ping":50},{"user_id":208,"name":"Withertion","steam_id":76561199269159614,"connected_time":2338000000000,"state":"active","ping":135},{"user_id":224,"name":"Oxferd ùìíùìªùì∏ùîÄ","steam_id":76561198096916018,"connected_time":839000000000,"state":"active","ping":88},{"user_id":228,"name":"doug","steam_id":76561198020534493,"connected_time":183000000000,"state":"active","ping":118},{"user_id":141,"name":"guy","steam_id":76561198196443262,"connected_time":7641000000000,"state":"active","ping":86},{"user_id":195,"name":"Dezzithediscoduck","steam_id":76561198037043489,"connected_time":3428000000000,"state":"active","ping":47},{"user_id":206,"name":"CumBob","steam_id":76561198168693975,"connected_time":2632000000000,"state":"active","ping":41},{"user_id":222,"name":"SneekiCheekiQbone","steam_id":76561198045077980,"connected_time":1010000000000,"state":"active","ping":58},{"user_id":215,"name":"OH JIMMY I'M HOME #SaveTf2","steam_id":76561198396658806,"connected_time":1877000000000,"state":"active","ping":53},{"user_id":218,"name":"Jarryl97","steam_id":76561198055451373,"connected_time":1737000000000,"state":"active","ping":92},{"user_id":230,"name":"PheebsyDeebsy","steam_id":76561198101509436,"connected_time":143000000000,"state":"active","ping":54},{"user_id":204,"name":"King Kinyon","steam_id":76561198080525234,"connected_time":2760000000000,"state":"active","ping":79},{"user_id":217,"name":"Scampy","steam_id":76561198001506924,"connected_time":1824000000000,"state":"active","ping":78},{"user_id":225,"name":"cirkuu","steam_id":76561198053465042,"connected_time":671000000000,"state":"active","ping":90},{"user_id":158,"name":"‚õßAlkahestry","steam_id":76561198109641497,"connected_time":6150000000000,"state":"active","ping":56}]},{"server_id":19,"name":"Uncletopia | San Francisco | 3 | Stopwatch Beta","name_short":"sfo-3","host":"sfo-1.us.uncletopia.com","port":27035,"enabled":true,"region":"us-west","cc":"us","latitude":37.77397,"longitude":-122.4313,"reserved":0,"last_update":"0001-01-01T00:00:00Z","name_a2s":"Uncletopia | San Francisco | 3 | Stopwatch Beta","protocol":17,"map":"workshop/koth_ashville_final.ugc2130459942","folder":"tf","game":"Team Fortress","app_id":440,"player_count":0,"max_players":24,"Bots":0,"server_type":"Dedicated","server_os":"Linux","password":true,"vac":true,"version":"7742253","steam_id":85568392924742824,"keywords":["cp","nocrits","nodmgspread","uncletopia"],"game_id":440,"stv_port":27036,"stv_name":"Uncletopia | San Francisco | 3 | Stopwatch Beta | STV","players":null},{"server_id":20,"name":"Uncletopia | San Francisco | 4 | Community","name_short":"sfo-4","host":"sfo-1.us.uncletopia.com","port":27045,"enabled":true,"region":"us-west","cc":"us","latitude":37.77397,"longitude":-122.4313,"reserved":0,"last_update":"0001-01-01T00:00:00Z","name_a2s":"Uncletopia | San Francisco | 4 | Community","protocol":17,"map":"workshop/pl_eruption_b9a.ugc2807898013","folder":"tf","game":"Team Fortress","app_id":440,"player_count":0,"max_players":24,"Bots":0,"server_type":"Dedicated","server_os":"Linux","password":true,"vac":true,"version":"7742253","steam_id":85568392924742826,"keywords":["nocrits","nodmgspread","payload","uncletopia"],"game_id":440,"stv_port":27046,"stv_name":"Uncletopia | San Francisco | 4 | Community | STV","players":null},{"server_id":141,"name":"Uncletopia | Sydney | 1 | All Maps","name_short":"syd-1","host":"syd-1.au.uncletopia.com","port":27015,"enabled":true,"region":"au","cc":"au","latitude":-33.865143,"longitude":151.2099,"reserved":0,"last_update":"0001-01-01T00:00:00Z","name_a2s":"Uncletopia | Sydney | 1 | All Maps","protocol":17,"map":"pl_pier","folder":"tf","game":"Team Fortress","app_id":440,"player_count":19,"max_players":24,"Bots":0,"server_type":"Dedicated","server_os":"Linux","password":true,"vac":true,"version":"7742253","steam_id":85568392924470001,"keywords":["nocrits","nodmgspread","payload","uncletopia"],"game_id":440,"stv_port":27016,"stv_name":"Uncletopia | Sydney | 1 | All Maps | STV","players":[{"user_id":166,"name":"Kevin","steam_id":76561198046089618,"connected_time":328000000000,"state":"active","ping":42},{"user_id":173,"name":"Void_Robin","steam_id":76561198855798566,"connected_time":141000000000,"state":"active","ping":66},{"user_id":170,"name":"1bean234","steam_id":76561198054698346,"connected_time":220000000000,"state":"active","ping":54},{"user_id":159,"name":"·µõ‚Å±·∂ú·µí·µà‚Å±‚Åø","steam_id":76561199244230794,"connected_time":513000000000,"state":"active","ping":46},{"user_id":160,"name":"Branko","steam_id":76561199262196710,"connected_time":485000000000,"state":"active","ping":43},{"user_id":165,"name":"Ne1son","steam_id":76561198085020252,"connected_time":350000000000,"state":"active","ping":71},{"user_id":146,"name":"Jazbae","steam_id":76561198350910486,"connected_time":2119000000000,"state":"active","ping":67},{"user_id":161,"name":"trash","steam_id":76561198110764631,"connected_time":484000000000,"state":"active","ping":52},{"user_id":137,"name":"EpicGuy4227","steam_id":76561198094132328,"connected_time":2653000000000,"state":"active","ping":52},{"user_id":163,"name":"(„Éé‡≤†Áõä‡≤†)„Éé","steam_id":76561198409853978,"connected_time":377000000000,"state":"active","ping":40},{"user_id":164,"name":"Peter Popoff","steam_id":76561198051017263,"connected_time":366000000000,"state":"active","ping":51},{"user_id":167,"name":"CIVIL BOSS","steam_id":76561198312855766,"connected_time":327000000000,"state":"active","ping":47},{"user_id":171,"name":"rich","steam_id":76561198003594944,"connected_time":208000000000,"state":"active","ping":48},{"user_id":172,"name":"Who the fuck","steam_id":76561198053433380,"connected_time":176000000000,"state":"active","ping":61},{"user_id":175,"name":"Hertog van Damme","steam_id":76561198152470958,"connected_time":133000000000,"state":"active","ping":61},{"user_id":128,"name":"Pickled Cow","steam_id":76561198292517991,"connected_time":3294000000000,"state":"active","ping":45},{"user_id":176,"name":"kakarot (real)","steam_id":76561198287331600,"connected_time":125000000000,"state":"active","ping":45},{"user_id":156,"name":"Genuline","steam_id":76561198126426787,"connected_time":1524000000000,"state":"active","ping":45},{"user_id":150,"name":"SoyBoy","steam_id":76561197992447102,"connected_time":1900000000000,"state":"active","ping":46}]},{"server_id":123,"name":"Uncletopia | Sydney | 2 | All Maps","name_short":"syd-2","host":"syd-1.au.uncletopia.com","port":27025,"enabled":true,"region":"au","cc":"au","latitude":-33.865143,"longitude":151.2099,"reserved":0,"last_update":"0001-01-01T00:00:00Z","name_a2s":"Uncletopia | Sydney | 2 | All Maps","protocol":17,"map":"koth_lakeside_final","folder":"tf","game":"Team Fortress","app_id":440,"player_count":23,"max_players":24,"Bots":0,"server_type":"Dedicated","server_os":"Linux","password":true,"vac":true,"version":"7742253","steam_id":85568392924470002,"keywords":["cp","nocrits","nodmgspread","uncletopia"],"game_id":440,"stv_port":27026,"stv_name":"Uncletopia | Sydney | 2 | All Maps | STV","players":[{"user_id":436,"name":"¬Ø\\_(„ÉÑ)_/¬Ø","steam_id":76561199206182584,"connected_time":537000000000,"state":"active","ping":59},{"user_id":439,"name":"zebulon","steam_id":76561198063481761,"connected_time":466000000000,"state":"active","ping":45},{"user_id":417,"name":"Wendy","steam_id":76561198078877728,"connected_time":1246000000000,"state":"active","ping":85},{"user_id":409,"name":"ps2 nishiki","steam_id":76561198958322621,"connected_time":1841000000000,"state":"active","ping":95},{"user_id":437,"name":"freek","steam_id":76561198406237673,"connected_time":513000000000,"state":"active","ping":47},{"user_id":442,"name":"bill","steam_id":76561198066726621,"connected_time":362000000000,"state":"active","ping":48},{"user_id":397,"name":"Nylk","steam_id":76561198033625169,"connected_time":2459000000000,"state":"active","ping":44},{"user_id":431,"name":"TheGoldenTerror","steam_id":76561198315446826,"connected_time":642000000000,"state":"active","ping":80},{"user_id":421,"name":"MayoMan","steam_id":76561199140828165,"connected_time":1106000000000,"state":"active","ping":39},{"user_id":441,"name":"krandlez` (Any/All)","steam_id":76561198044839726,"connected_time":405000000000,"state":"active","ping":43},{"user_id":408,"name":"invidious","steam_id":76561198096251579,"connected_time":1910000000000,"state":"active","ping":91},{"user_id":400,"name":"Bitcoin Gazillionare","steam_id":76561198411811796,"connected_time":2379000000000,"state":"active","ping":78},{"user_id":401,"name":"mobile toaster","steam_id":76561198147058821,"connected_time":2366000000000,"state":"active","ping":45},{"user_id":422,"name":"IffyDuke","steam_id":76561199190195703,"connected_time":1094000000000,"state":"active","ping":48},{"user_id":447,"name":"Detective Guzzler","steam_id":76561198114566532,"connected_time":0,"state":"spawning","ping":18},{"user_id":427,"name":"Cheese","steam_id":76561198880265093,"connected_time":844000000000,"state":"active","ping":75},{"user_id":428,"name":"UnseenStroke","steam_id":76561198265303268,"connected_time":807000000000,"state":"active","ping":55},{"user_id":424,"name":"MineSweeper2048","steam_id":76561198338746543,"connected_time":1090000000000,"state":"active","ping":64},{"user_id":370,"name":"Chooka","steam_id":76561197992307814,"connected_time":3566000000000,"state":"active","ping":68},{"user_id":429,"name":"Glockenspe (She/Her)","steam_id":76561199184115241,"connected_time":738000000000,"state":"active","ping":46},{"user_id":445,"name":"Chronic Feeder","steam_id":76561198086465847,"connected_time":109000000000,"state":"active","ping":35},{"user_id":433,"name":"BilboSwaggins79","steam_id":76561198984446872,"connected_time":583000000000,"state":"active","ping":51},{"user_id":444,"name":"Kiwoo","steam_id":76561198097429186,"connected_time":143000000000,"state":"active","ping":92}]},{"server_id":395,"name":"Uncletopia | Sydney | 3 | All Maps","name_short":"syd-3","host":"syd-1.au.uncletopia.com","port":27035,"enabled":true,"region":"au","cc":"au","latitude":-33.865143,"longitude":151.2099,"reserved":0,"last_update":"0001-01-01T00:00:00Z","name_a2s":"Uncletopia | Sydney | 3 | All Maps","protocol":17,"map":"koth_lakeside_final","folder":"tf","game":"Team Fortress","app_id":440,"player_count":1,"max_players":24,"Bots":0,"server_type":"Dedicated","server_os":"Linux","password":true,"vac":true,"version":"7742253","steam_id":85568392925194467,"keywords":["cp","nocrits","nodmgspread","uncletopia"],"game_id":440,"stv_port":27036,"stv_name":"Uncletopia | Sydney | 3 | All Maps | STV","players":[{"user_id":64,"name":"Ve√∞rf√∂lnir","steam_id":76561198105113720,"connected_time":287000000000,"state":"active","ping":83}]},{"server_id":396,"name":"Uncletopia | Sydney | 4 | All Maps","name_short":"syd-4","host":"syd-1.au.uncletopia.com","port":27045,"enabled":true,"region":"au","cc":"au","latitude":-33.865143,"longitude":151.2099,"reserved":0,"last_update":"0001-01-01T00:00:00Z","name_a2s":"Uncletopia | Sydney | 4 | All Maps","protocol":17,"map":"koth_lakeside_final","folder":"tf","game":"Team Fortress","app_id":440,"player_count":0,"max_players":24,"Bots":0,"server_type":"Dedicated","server_os":"Linux","password":true,"vac":true,"version":"7742253","steam_id":85568392925397958,"keywords":["cp","nocrits","nodmgspread","uncletopia"],"game_id":440,"stv_port":27046,"stv_name":"Uncletopia | Sydney | 4 | All Maps | STV","players":null},{"server_id":58,"name":"Uncletopia | Sydney | 5 | Stopwatch Beta","name_short":"syd-5","host":"syd-1.au.uncletopia.com","port":27055,"enabled":true,"region":"au","cc":"au","latitude":-33.865143,"longitude":151.2099,"reserved":0,"last_update":"0001-01-01T00:00:00Z","name_a2s":"Uncletopia | Sydney | 5 | Stopwatch Beta","protocol":17,"map":"cp_sunshine","folder":"tf","game":"Team Fortress","app_id":440,"player_count":0,"max_players":24,"Bots":0,"server_type":"Dedicated","server_os":"Linux","password":true,"vac":true,"version":"7742253","steam_id":85568392925397959,"keywords":["cp","nocrits","nodmgspread","uncletopia"],"game_id":440,"stv_port":27056,"stv_name":"Uncletopia | Sydney | 5 | Stopwatch Beta | STV","players":null},{"server_id":59,"name":"Uncletopia | Sydney | 6 | Community","name_short":"syd-6","host":"syd-1.au.uncletopia.com","port":27065,"enabled":true,"region":"au","cc":"au","latitude":-33.865143,"longitude":151.2099,"reserved":0,"last_update":"0001-01-01T00:00:00Z","name_a2s":"Uncletopia | Sydney | 6 | Community","protocol":17,"map":"cp_dustbowl","folder":"tf","game":"Team Fortress","app_id":440,"player_count":0,"max_players":24,"Bots":0,"server_type":"Dedicated","server_os":"Linux","password":true,"vac":true,"version":"7742253","steam_id":85568392925397960,"keywords":["cp","nocrits","nodmgspread","uncletopia"],"game_id":440,"stv_port":27066,"stv_name":"Uncletopia | Sydney | 6 | Community | STV","players":null},{"server_id":49,"name":"Uncletopia | Warsaw | 1 | All Maps","name_short":"waw-1","host":"waw-1.pl.uncletopia.com","port":27015,"enabled":true,"region":"eu","cc":"pl","latitude":52.2297,"longitude":21.017532,"reserved":0,"last_update":"0001-01-01T00:00:00Z","name_a2s":"","protocol":0,"map":"","folder":"","game":"","app_id":0,"player_count":0,"max_players":0,"Bots":0,"server_type":"","server_os":"","password":false,"vac":false,"version":"","steam_id":0,"keywords":null,"game_id":0,"stv_port":0,"stv_name":"","players":null},{"server_id":50,"name":"Uncletopia | Warsaw | 2 | All Maps","name_short":"waw-2","host":"waw-1.pl.uncletopia.com","port":27025,"enabled":true,"region":"eu","cc":"pl","latitude":52.2297,"longitude":21.017532,"reserved":0,"last_update":"0001-01-01T00:00:00Z","name_a2s":"Uncletopia | Warsaw | 2 | All Maps","protocol":17,"map":"pl_upward","folder":"tf","game":"Team Fortress","app_id":440,"player_count":0,"max_players":24,"Bots":0,"server_type":"Dedicated","server_os":"Linux","password":true,"vac":true,"version":"7742253","steam_id":85568392925397851,"keywords":["nocrits","nodmgspread","payload","uncletopia"],"game_id":440,"stv_port":27026,"stv_name":"Uncletopia | Warsaw | 2 | All Maps | STV","players":null},{"server_id":51,"name":"Uncletopia | Warsaw | 3 | All Maps","name_short":"waw-3","host":"waw-1.pl.uncletopia.com","port":27035,"enabled":true,"region":"eu","cc":"pl","latitude":52.2297,"longitude":21.017532,"reserved":0,"last_update":"0001-01-01T00:00:00Z","name_a2s":"Uncletopia | Warsaw | 3 | All Maps","protocol":17,"map":"koth_lakeside_final","folder":"tf","game":"Team Fortress","app_id":440,"player_count":0,"max_players":24,"Bots":0,"server_type":"Dedicated","server_os":"Linux","password":true,"vac":true,"version":"7742253","steam_id":85568392925397852,"keywords":["cp","nocrits","nodmgspread","uncletopia"],"game_id":440,"stv_port":27036,"stv_name":"Uncletopia | Warsaw | 3 | All Maps | STV","players":null},{"server_id":52,"name":"Uncletopia | Warsaw | 4 | All Maps","name_short":"waw-4","host":"waw-1.pl.uncletopia.com","port":27045,"enabled":true,"region":"eu","cc":"pl","latitude":52.2297,"longitude":21.017532,"reserved":0,"last_update":"0001-01-01T00:00:00Z","name_a2s":"Uncletopia | Warsaw | 4 | All Maps","protocol":17,"map":"pl_upward","folder":"tf","game":"Team Fortress","app_id":440,"player_count":0,"max_players":24,"Bots":0,"server_type":"Dedicated","server_os":"Linux","password":true,"vac":true,"version":"7742253","steam_id":85568392925397853,"keywords":["nocrits","nodmgspread","payload","uncletopia"],"game_id":440,"stv_port":27046,"stv_name":"Uncletopia | Warsaw | 4 | All Maps | STV","players":null},{"server_id":53,"name":"Uncletopia | Warsaw | 5 | Stopwatch Beta","name_short":"waw-5","host":"waw-1.pl.uncletopia.com","port":27055,"enabled":true,"region":"eu","cc":"pl","latitude":52.2297,"longitude":21.017532,"reserved":0,"last_update":"0001-01-01T00:00:00Z","name_a2s":"Uncletopia | Warsaw | 5 | Stopwatch Beta","protocol":17,"map":"pl_swiftwater_final1","folder":"tf","game":"Team Fortress","app_id":440,"player_count":0,"max_players":24,"Bots":0,"server_type":"Dedicated","server_os":"Linux","password":true,"vac":true,"version":"7742253","steam_id":85568392925397854,"keywords":["nocrits","nodmgspread","payload","uncletopia"],"game_id":440,"stv_port":27056,"stv_name":"Uncletopia | Warsaw | 5 | Stopwatch Beta | STV","players":null},{"server_id":54,"name":"Uncletopia | Warsaw | 6 | Community","name_short":"waw-6","host":"waw-1.pl.uncletopia.com","port":27065,"enabled":true,"region":"eu","cc":"pl","latitude":52.2297,"longitude":21.017532,"reserved":0,"last_update":"0001-01-01T00:00:00Z","name_a2s":"Uncletopia | Warsaw | 6 | Community","protocol":17,"map":"koth_highpass","folder":"tf","game":"Team Fortress","app_id":440,"player_count":0,"max_players":24,"Bots":0,"server_type":"Dedicated","server_os":"Linux","password":true,"vac":true,"version":"7742253","steam_id":85568392925397856,"keywords":["cp","nocrits","nodmgspread","uncletopia"],"game_id":440,"stv_port":27066,"stv_name":"Uncletopia | Warsaw | 6 | Community | STV","players":null}]}