{"status":true,"message":"","result":[{"server_id":9,"name":"Uncletopia | Atlanta | 1 | All Maps","name_short":"atl-1","host":"atl-1.us.uncletopia.com","port":27015,"enabled":true,"region":"us-east","cc":"us","latitude":33.753746,"longitude":-84.38633,"reserved":0,"last_update":"0001-01-01T00:00:00Z","name_a2s":"Uncletopia | Atlanta | 1 | All Maps","protocol":17,"map":"pl_barnblitz","folder":"tf","game":"Team Fortress","app_id":440,"player_count":0,"max_players":24,"Bots":0,"server_type":"Dedicated","server_os":"Linux","password":true,"vac":true,"version":"7961495","steam_id":85568392924469982,"keywords":["nocrits","nodmgspread","payload","uncletopia"],"game_id":440,"stv_port":27016,"stv_name":"Uncletopia | Atlanta | 1 | All Maps | STV","players":null},{"server_id":104,"name":"Uncletopia | Atlanta | 2 | All Maps","name_short":"atl-2","host":"atl-1.us.uncletopia.com","port":27025,"enabled":true,"region":"us-east","cc":"us","latitude":33.753746,"longitude":-84.38633,"reserved":0,"last_update":"0001-01-01T00:00:00Z","name_a2s":"Uncletopia | Atlanta | 2 | All Maps","protocol":17,"map":"cp_process_final","folder":"tf","game":"Team Fortress","app_id":440,"player_count":0,"max_players":24,"Bots":0,"server_type":"Dedicated","server_os":"Linux","password":true,"vac":true,"version":"7961495","steam_id":85568392924469983,"keywords":["cp","nocrits","nodmgspread","uncletopia"],"game_id":440,"stv_port":27026,"stv_name":"Uncletopia | Atlanta | 2 | All Maps | STV","players":null},{"server_id":400,"name":"Uncletopia | Atlanta | 3 | Stopwatch","name_short":"atl-3","host":"atl-1.us.uncletopia.com","port":27035,"enabled":true,"region":"us-east","cc":"us","latitude":33.753746,"longitude":-84.38633,"reserved":0,"last_update":"0001-01-01T00:00:00Z","name_a2s":"Uncletopia | Atlanta | 3 | Stopwatch","protocol":17,"map":"koth_lakeside_final","folder":"tf","game":"Team Fortress","app_id":440,"player_count":0,"max_players":24,"Bots":0,"server_type":"Dedicated","server_os":"Linux","password":true,"vac":true,"version":"7961495","steam_id":85568392924515187,"keywords":["cp","nocrits","nodmgspread","uncletopia"],"game_id":440,"stv_port":27036,"stv_name":"Uncletopia | Atlanta | 3 | Stopwatch | STV","players":null},{"server_id":401,"name":"Uncletopia | Atlanta | 4 | Community","name_short":"atl-4","host":"atl-1.us.uncletopia.com","port":27045,"enabled":true,"region":"us-east","cc":"us","latitude":33.753746,"longitude":-84.38633,"reserved":0,"last_update":"0001-01-01T00:00:00Z","name_a2s":"Uncletopia | Atlanta | 4 | Community","protocol":17,"map":"workshop/koth_slaughter_rc1.ugc1712845210","folder":"tf","game":"Team Fortress","app_id":440,"player_count":0,"max_players":24,"Bots":0,"server_type":"Dedicated","server_os":"Linux","password":true,"vac":true,"version":"7961495","steam_id":85568392924515188,"keywords":["cp","nocrits","nodmgspread","uncletopia"],"game_id":440,"stv_port":27046,"stv_name":"Uncletopia | Atlanta | 4 | Community | STV","players":null},{"server_id":2,"name":"Uncletopia | Chicago | 1 | All Maps","name_short":"chi-1","host":"chi-1.us.uncletopia.com","port":27015,"enabled":true,"region":"us-central","cc":"us","latitude":41.881832,"longitude":-87.62318,"reserved":0,"last_update":"0001-01-01T00:00:00Z","name_a2s":"Uncletopia | Chicago | 1 | All Maps","protocol":17,"map":"cp_mountainlab","folder":"tf","game":"Team Fortress","app_id":440,"player_count":0,"max_players":24,"Bots":0,"server_type":"Dedicated","server_os":"Linux","password":true,"vac":true,"version":"7961495","steam_id":85568392924469984,"keywords":["cp","nocrits","nodmgspread","uncletopia"],"game_id":440,"stv_port":27016,"stv_name":"Uncletopia | Chicago | 1 | All Maps | STV","players":null},{"server_id":106,"name":"Uncletopia | Chicago | 2 | All Maps","name_short":"chi-2","host":"chi-1.us.uncletopia.com","port":27025,"enabled":true,"region":"us-central","cc":"us","latitude":41.881832,"longitude":-87.62318,"reserved":0,"last_update":"0001-01-01T00:00:00Z","name_a2s":"Uncletopia | Chicago | 2 | All Maps","protocol":17,"map":"koth_cascade","folder":"tf","game":"Team Fortress","app_id":440,"player_count":2,"max_players":24,"Bots":0,"server_type":"Dedicated","server_os":"Linux","password":true,"vac":true,"version":"7961495","steam_id":85568392924469985,"keywords":["cp","nocrits","nodmgspread","uncletopia"],"game_id":440,"stv_port":27026,"stv_name":"Uncletopia | Chicago | 2 | All Maps | STV","players":[{"user_id":477,"name":"WoHBilly","steam_id":76561198125307221,"connected_time":322000000000,"state":"active","ping":74},{"user_id":478,"name":"Nachtsuchen","steam_id":76561198079448618,"connected_time":256000000000,"state":"active","ping":75}]},{"server_id":402,"name":"Uncletopia | Chicago | 3 | All Maps","name_short":"chi-3","host":"chi-1.us.uncletopia.com","port":27035,"enabled":true,"region":"us-central","cc":"us","latitude":41.881832,"longitude":-87.62318,"reserved":0,"last_update":"0001-01-01T00:00:00Z","name_a2s":"Uncletopia | Chicago | 3 | All Maps","protocol":17,"map":"cp_snakewater_final1","folder":"tf","game":"Team Fortress","app_id":440,"player_count":24,"max_players":24,"Bots":0,"server_type":"Dedicated","server_os":"Linux","password":true,"vac":true,"version":"7961495","steam_id":85568392924515191,"keywords":["cp","nocrits","nodmgspread","uncletopia"],"game_id":440,"stv_port":27036,"stv_name":"Uncletopia | Chicago | 3 | All Maps | STV","players":[{"user_id":795,"name":"Mixed Up","steam_id":76561198042570322,"connected_time":902000000000,"state":"active","ping":60},{"user_id":777,"name":"BL√òRG","steam_id":76561198036126673,"connected_time":1754000000000,"state":"active","ping":77},{"user_id":729,"name":"zpalmtree","steam_id":76561198134307620,"connected_time":5192000000000,"state":"active","ping":47},{"user_id":771,"name":"Prot4g","steam_id":76561198036164393,"connected_time":1920000000000,"state":"active","ping":63},{"user_id":773,"name":"Catscout","steam_id":76561198140893643,"connected_time":1875000000000,"state":"active","ping":89},{"user_id":786,"name":"^-^","steam_id":76561198831996918,"connected_time":1484000000000,"state":"active","ping":49},{"user_id":774,"name":"Acorn","steam_id":76561198353480153,"connected_time":1850000000000,"state":"active","ping":56},{"user_id":675,"name":"¬´D·µÉ ≥·µè.,,.T·µâ·µê·µñ¬ª","steam_id":76561198018185884,"connected_time":8458000000000,"state":"active","ping":90},{"user_id":791,"name":"goopgrabber","steam_id":76561199029951083,"connected_time":1163000000000,"state":"active","ping":94},{"user_id":776,"name":"Oni","steam_id":76561198112066584,"connected_time":1794000000000,"state":"active","ping":63},{"user_id":778,"name":"Ember The Femboy","steam_id":76561198139630565,"connected_time":1740000000000,"state":"active","ping":154},{"user_id":789,"name":"Potato Larry [WHAB]","steam_id":76561198155925304,"connected_time":1188000000000,"state":"active","ping":63},{"user_id":759,"name":"juxtapositionjared95","steam_id":76561198136846340,"connected_time":3032000000000,"state":"active","ping":84},{"user_id":787,"name":"Rukks","steam_id":76561197993918954,"connected_time":1467000000000,"state":"active","ping":90},{"user_id":790,"name":"Zesty Zucchini Ziti","steam_id":76561198092494136,"connected_time":1174000000000,"state":"active","ping":60},{"user_id":792,"name":"Dzhoshua","steam_id":76561198071915251,"connected_time":1096000000000,"state":"active","ping":69},{"user_id":793,"name":"Microsoft Word","steam_id":76561198381554195,"connected_time":1061000000000,"state":"active","ping":120},{"user_id":781,"name":"Cheeseburger","steam_id":76561198044131927,"connected_time":1716000000000,"state":"active","ping":63},{"user_id":794,"name":"Matches_                       ","steam_id":76561198048925904,"connected_time":972000000000,"state":"active","ping":107},{"user_id":768,"name":"Female Gamer","steam_id":76561199366482682,"connected_time":2320000000000,"state":"active","ping":109},{"user_id":796,"name":"Vordt","steam_id":76561198040942866,"connected_time":878000000000,"state":"active","ping":63},{"user_id":798,"name":"Fu Qian Qian","steam_id":76561199081837220,"connected_time":851000000000,"state":"active","ping":69},{"user_id":799,"name":"Stultus","steam_id":76561198115116367,"connected_time":799000000000,"state":"active","ping":73},{"user_id":785,"name":"Rat Bastard","steam_id":76561198153443658,"connected_time":1504000000000,"state":"active","ping":81}]},{"server_id":403,"name":"Uncletopia | Chicago | 4 | All Maps","name_short":"chi-4","host":"chi-1.us.uncletopia.com","port":27045,"enabled":true,"region":"us-central","cc":"us","latitude":41.881832,"longitude":-87.62318,"reserved":0,"last_update":"0001-01-01T00:00:00Z","name_a2s":"Uncletopia | Chicago | 4 | All Maps","protocol":17,"map":"pl_borneo","folder":"tf","game":"Team Fortress","app_id":440,"player_count":24,"max_players":24,"Bots":0,"server_type":"Dedicated","server_os":"Linux","password":true,"vac":true,"version":"7961495","steam_id":85568392924515193,"keywords":["nocrits","nodmgspread","payload","uncletopia"],"game_id":440,"stv_port":27046,"stv_name":"Uncletopia | Chicago | 4 | All Maps | STV","players":[{"user_id":569,"name":"OH BOY","steam_id":76561199052273428,"connected_time":6073000000000,"state":"active","ping":51},{"user_id":547,"name":"Chin (SFM Comms Open)","steam_id":76561198953123833,"connected_time":8555000000000,"state":"active","ping":104},{"user_id":535,"name":"cheddar baked ruffles","steam_id":76561198799404824,"connected_time":9367000000000,"state":"active","ping":73},{"user_id":510,"name":"Stealthguy724","steam_id":76561198195961430,"connected_time":10542000000000,"state":"active","ping":64},{"user_id":607,"name":"Intensely Determined Swat Man","steam_id":76561199182450602,"connected_time":2620000000000,"state":"active","ping":130},{"user_id":622,"name":"YeshieSirYesSir","steam_id":76561198080214214,"connected_time":802000000000,"state":"active","ping":44},{"user_id":390,"name":"ItsThatBear","steam_id":76561198169617659,"connected_time":20501000000000,"state":"active","ping":85},{"user_id":608,"name":"Pika","steam_id":76561198068063436,"connected_time":2615000000000,"state":"active","ping":51},{"user_id":610,"name":"Catdog32","steam_id":76561198113364714,"connected_time":2517000000000,"state":"active","ping":58},{"user_id":619,"name":"Beebo, Son of Beebo","steam_id":76561198055948497,"connected_time":1449000000000,"state":"active","ping":57},{"user_id":611,"name":"Exalted Finalist","steam_id":76561198192021295,"connected_time":2493000000000,"state":"active","ping":136},{"user_id":612,"name":"playguy carter","steam_id":76561198080679337,"connected_time":2484000000000,"state":"active","ping":49},{"user_id":621,"name":"Baby gaming","steam_id":76561198867319323,"connected_time":832000000000,"state":"active","ping":66},{"user_id":604,"name":"johnny hotcock","steam_id":76561198122943559,"connected_time":2715000000000,"state":"active","ping":60},{"user_id":598,"name":"Nestor","steam_id":76561198070782619,"connected_time":3261000000000,"state":"active","ping":72},{"user_id":624,"name":"Fresnel","steam_id":76561198266960876,"connected_time":69000000000,"state":"spawning","ping":93},{"user_id":613,"name":"Castroy","steam_id":76561198108160099,"connected_time":2468000000000,"state":"active","ping":45},{"user_id":595,"name":"Not Giga Chad","steam_id":76561198059785363,"connected_time":4074000000000,"state":"active","ping":74},{"user_id":614,"name":"LynnLantern","steam_id":76561198116326726,"connected_time":2459000000000,"state":"active","ping":44},{"user_id":599,"name":"trans they gender she/her/they/","steam_id":76561198212470305,"connected_time":3235000000000,"state":"active","ping":70},{"user_id":590,"name":"ElixirMan","steam_id":76561199102118368,"connected_time":4219000000000,"state":"active","ping":115},{"user_id":615,"name":"87987974","steam_id":76561198046948758,"connected_time":2434000000000,"state":"active","ping":67},{"user_id":616,"name":"Piss Sniper","steam_id":76561198317602350,"connected_time":2434000000000,"state":"active","ping":87},{"user_id":617,"name":"muck","steam_id":76561198120437909,"connected_time":2399000000000,"state":"active","ping":66}]},{"server_id":36,"name":"Uncletopia | Chicago | 5 | All Maps","name_short":"chi-5","host":"chi-2.us.uncletopia.com","port":27015,"enabled":true,"region":"us-central","cc":"us","latitude":41.881832,"longitude":-87.62318,"reserved":0,"last_update":"0001-01-01T00:00:00Z","name_a2s":"Uncletopia | Chicago | 5 | All Maps","protocol":17,"map":"pl_barnblitz","folder":"tf","game":"Team Fortress","app_id":440,"player_count":0,"max_players":24,"Bots":0,"server_type":"Dedicated","server_os":"Linux","password":true,"vac":true,"version":"7961495","steam_id":85568392924866362,"keywords":["nocrits","nodmgspread","payload","uncletopia"],"game_id":440,"stv_port":27016,"stv_name":"Uncletopia | Chicago | 5 | All Maps | STV","players":null},{"server_id":37,"name":"Uncletopia | Chicago | 6 | All Maps","name_short":"chi-6","host":"chi-2.us.uncletopia.com","port":27025,"enabled":true,"region":"us-central","cc":"us","latitude":41.881832,"longitude":-87.62318,"reserved":0,"last_update":"0001-01-01T00:00:00Z","name_a2s":"Uncletopia | Chicago | 6 | All Maps","protocol":17,"map":"cp_egypt_final","folder":"tf","game":"Team Fortress","app_id":440,"player_count":24,"max_players":24,"Bots":0,"server_type":"Dedicated","server_os":"Linux","password":true,"vac":true,"version":"7961495","steam_id":85568392924866363,"keywords":["cp","nocrits","nodmgspread","uncletopia"],"game_id":440,"stv_port":27026,"stv_name":"Uncletopia | Chicago | 6 | All Maps | STV","players":[{"user_id":443,"name":"Killer Moth","steam_id":76561198246812566,"connected_time":74000000000,"state":"active","ping":52},{"user_id":413,"name":"Uncle Wizard (They/Them)","steam_id":76561198045008130,"connected_time":2682000000000,"state":"active","ping":68},{"user_id":401,"name":"BARON VON FLUFF AND STUFF","steam_id":76561198036325020,"connected_time":3325000000000,"state":"active","ping":96},{"user_id":433,"name":"berserker_tf2 )HE/SHE(","steam_id":76561198303464488,"connected_time":1408000000000,"state":"active","ping":62},{"user_id":414,"name":"XmasterEZ12","steam_id":76561198216207079,"connected_time":2675000000000,"state":"active","ping":109},{"user_id":435,"name":"Hound From Heck","steam_id":76561198087764017,"connected_time":1208000000000,"state":"active","ping":77},{"user_id":429,"name":"RPGnoob","steam_id":76561198384913758,"connected_time":1589000000000,"state":"active","ping":86},{"user_id":415,"name":"Cheshire (she/they)","steam_id":76561198209836397,"connected_time":2655000000000,"state":"active","ping":100},{"user_id":387,"name":"family-friendly chainsaw man","steam_id":76561198007464245,"connected_time":4251000000000,"state":"active","ping":77},{"user_id":405,"name":"Zombee","steam_id":76561198105367546,"connected_time":3001000000000,"state":"active","ping":77},{"user_id":438,"name":"Master Lemons","steam_id":76561198272406084,"connected_time":661000000000,"state":"active","ping":78},{"user_id":441,"name":"ZachTheBuddy","steam_id":76561198099997292,"connected_time":636000000000,"state":"active","ping":79},{"user_id":406,"name":"Tabby!!!!","steam_id":76561198018288153,"connected_time":2985000000000,"state":"active","ping":42},{"user_id":432,"name":"DYGIILYIAHSPJTOS (she/her)","steam_id":76561198042177809,"connected_time":1558000000000,"state":"active","ping":75},{"user_id":439,"name":"Prey","steam_id":76561198043901319,"connected_time":656000000000,"state":"active","ping":76},{"user_id":336,"name":"BreakfastTacos","steam_id":76561198847620442,"connected_time":8848000000000,"state":"active","ping":96},{"user_id":407,"name":"The Burglar","steam_id":76561198325685937,"connected_time":2890000000000,"state":"active","ping":54},{"user_id":442,"name":"ms. capgras","steam_id":76561199080209996,"connected_time":527000000000,"state":"active","ping":53},{"user_id":409,"name":"Lj3online, Questing Ronin","steam_id":76561198009960926,"connected_time":2876000000000,"state":"active","ping":109},{"user_id":437,"name":"Do It Yua Serufu","steam_id":76561198078574114,"connected_time":789000000000,"state":"active","ping":100},{"user_id":440,"name":"Rat Bastard","steam_id":76561198236951292,"connected_time":650000000000,"state":"active","ping":74},{"user_id":418,"name":"No.21 - Feral Scent","steam_id":76561198045844070,"connected_time":2611000000000,"state":"active","ping":82},{"user_id":425,"name":"MR SKELTAL","steam_id":76561198031089598,"connected_time":2287000000000,"state":"active","ping":72},{"user_id":444,"name":"Skip Hop Doo Bop","steam_id":76561199161571849,"connected_time":9000000000,"state":"active","ping":117}]},{"server_id":38,"name":"Uncletopia | Chicago | 7 | Stopwatch","name_short":"chi-7","host":"chi-2.us.uncletopia.com","port":27035,"enabled":true,"region":"us-central","cc":"us","latitude":41.881832,"longitude":-87.62318,"reserved":0,"last_update":"0001-01-01T00:00:00Z","name_a2s":"Uncletopia | Chicago | 7 | Stopwatch","protocol":17,"map":"koth_lakeside_final","folder":"tf","game":"Team Fortress","app_id":440,"player_count":0,"max_players":24,"Bots":0,"server_type":"Dedicated","server_os":"Linux","password":true,"vac":true,"version":"7961495","steam_id":85568392924866364,"keywords":["cp","nocrits","nodmgspread","uncletopia"],"game_id":440,"stv_port":27036,"stv_name":"Uncletopia | Chicago | 7 | Stopwatch | STV","players":null},{"server_id":39,"name":"Uncletopia | Chicago | 8 | Community","name_short":"chi-8","host":"chi-2.us.uncletopia.com","port":27045,"enabled":true,"region":"us-central","cc":"us","latitude":41.881832,"longitude":-87.62318,"reserved":0,"last_update":"0001-01-01T00:00:00Z","name_a2s":"Uncletopia | Chicago | 8 | Community","protocol":17,"map":"workshop/koth_bagel_rc6.ugc2514036946","folder":"tf","game":"Team Fortress","app_id":440,"player_count":6,"max_players":24,"Bots":0,"server_type":"Dedicated","server_os":"Linux","password":true,"vac":true,"version":"7961495","steam_id":85568392924866365,"keywords":["cp","nocrits","nodmgspread","uncletopia"],"game_id":440,"stv_port":27046,"stv_name":"Uncletopia | Chicago | 8 | Community | STV","players":[{"user_id":127,"name":"Kantamoe","steam_id":76561198046661611,"connected_time":88000000000,"state":"active","ping":88},{"user_id":124,"name":"h4h","steam_id":76561198353456379,"connected_time":182000000000,"state":"active","ping":67},{"user_id":125,"name":"Mr.President","steam_id":76561198971144834,"connected_time":152000000000,"state":"active","ping":59},{"user_id":126,"name":"Thequirka","steam_id":76561198968058652,"connected_time":120000000000,"state":"active","ping":92},{"user_id":121,"name":"[R–Ø] ShibesGoneWow","steam_id":76561198036090516,"connected_time":1799000000000,"state":"active","ping":59},{"user_id":103,"name":"AzuriousAlex","steam_id":76561198158026405,"connected_time":2990000000000,"state":"active","ping":79}]},{"server_id":8,"name":"Uncletopia | Dallas | 1 | All Maps","name_short":"dal-1","host":"dal-1.us.uncletopia.com","port":27015,"enabled":true,"region":"us-central","cc":"us","latitude":32.779167,"longitude":-96.80889,"reserved":0,"last_update":"0001-01-01T00:00:00Z","name_a2s":"Uncletopia | Dallas | 1 | All Maps","protocol":17,"map":"cp_process_final","folder":"tf","game":"Team Fortress","app_id":440,"player_count":24,"max_players":24,"Bots":0,"server_type":"Dedicated","server_os":"Linux","password":true,"vac":true,"version":"7961495","steam_id":85568392924469986,"keywords":["cp","nocrits","nodmgspread","uncletopia"],"game_id":440,"stv_port":27016,"stv_name":"Uncletopia | Dallas | 1 | All Maps | STV","players":[{"user_id":577,"name":"Fake21","steam_id":76561198282065071,"connected_time":683000000000,"state":"active","ping":47},{"user_id":578,"name":"itcamefromspace","steam_id":76561198138860356,"connected_time":681000000000,"state":"active","ping":63},{"user_id":580,"name":"porz","steam_id":76561198195711453,"connected_time":643000000000,"state":"active","ping":45},{"user_id":590,"name":"de_pandora","steam_id":76561198075490385,"connected_time":375000000000,"state":"active","ping":75},{"user_id":583,"name":"yeeye","steam_id":76561198094306054,"connected_time":567000000000,"state":"active","ping":60},{"user_id":547,"name":"Typh","steam_id":76561198315344079,"connected_time":3473000000000,"state":"active","ping":75},{"user_id":564,"name":"Transgender Spider Priestess","steam_id":76561198111286397,"connected_time":2749000000000,"state":"active","ping":102},{"user_id":560,"name":"Luz Luz Luz","steam_id":76561198011442255,"connected_time":3049000000000,"state":"active","ping":76},{"user_id":575,"name":"dobby","steam_id":76561198012274834,"connected_time":1270000000000,"state":"active","ping":70},{"user_id":579,"name":"Dot.","steam_id":76561198149463984,"connected_time":678000000000,"state":"active","ping":67},{"user_id":594,"name":"Jellojiggler","steam_id":76561198094320477,"connected_time":204000000000,"state":"active","ping":50},{"user_id":582,"name":"[S]Mr. X [No Monitor]","steam_id":76561197963746035,"connected_time":624000000000,"state":"active","ping":119},{"user_id":576,"name":"plink","steam_id":76561198057829889,"connected_time":784000000000,"state":"active","ping":59},{"user_id":591,"name":"Penguin","steam_id":76561198042896082,"connected_time":313000000000,"state":"active","ping":91},{"user_id":584,"name":"Pepilepsi","steam_id":76561198000809372,"connected_time":563000000000,"state":"active","ping":72},{"user_id":592,"name":"harlowng","steam_id":76561198060542928,"connected_time":300000000000,"state":"active","ping":123},{"user_id":586,"name":"Punished Shitster","steam_id":76561198150452857,"connected_time":513000000000,"state":"active","ping":46},{"user_id":513,"name":"Momiji Pop!","steam_id":76561198039869773,"connected_time":6450000000000,"state":"active","ping":72},{"user_id":587,"name":"zig","steam_id":76561199020345303,"connected_time":504000000000,"state":"active","ping":97},{"user_id":593,"name":"Philo","steam_id":76561198061873341,"connected_time":295000000000,"state":"active","ping":94},{"user_id":589,"name":"AvapXia","steam_id":76561198147476096,"connected_time":492000000000,"state":"active","ping":102},{"user_id":572,"name":"Lezabel","steam_id":76561198970753261,"connected_time":2530000000000,"state":"active","ping":75},{"user_id":568,"name":"CWCLONE","steam_id":76561198132459460,"connected_time":2684000000000,"state":"active","ping":82},{"user_id":536,"name":"Ojen","steam_id":76561197998414482,"connected_time":4612000000000,"state":"active","ping":86}]},{"server_id":108,"name":"Uncletopia | Dallas | 2 | All Maps","name_short":"dal-2","host":"dal-1.us.uncletopia.com","port":27025,"enabled":true,"region":"us-central","cc":"us","latitude":32.779167,"longitude":-96.80889,"reserved":0,"last_update":"0001-01-01T00:00:00Z","name_a2s":"Uncletopia | Dallas | 2 | All Maps","protocol":17,"map":"pl_snowycoast","folder":"tf","game":"Team Fortress","app_id":440,"player_count":0,"max_players":24,"Bots":0,"server_type":"Dedicated","server_os":"Linux","password":true,"vac":true,"version":"7961495","steam_id":85568392924469988,"keywords":["nocrits","nodmgspread","payload","uncletopia"],"game_id":440,"stv_port":27026,"stv_name":"Uncletopia | Dallas | 2 | All Maps | STV","players":null},{"server_id":404,"name":"Uncletopia | Dallas | 3 | All Maps","name_short":"dal-3","host":"dal-1.us.uncletopia.com","port":27035,"enabled":true,"region":"us-central","cc":"us","latitude":32.779167,"longitude":-96.80889,"reserved":0,"last_update":"0001-01-01T00:00:00Z","name_a2s":"Uncletopia | Dallas | 3 | All Maps","protocol":17,"map":"cp_altitude","folder":"tf","game":"Team Fortress","app_id":440,"player_count":0,"max_players":24,"Bots":0,"server_type":"Dedicated","server_os":"Linux","password":true,"vac":true,"version":"7961495","steam_id":85568392924515219,"keywords":["cp","nocrits","nodmgspread","uncletopia"],"game_id":440,"stv_port":27036,"stv_name":"Uncletopia | Dallas | 3 | All Maps | STV","players":null},{"server_id":405,"name":"Uncletopia | Dallas | 4 | Community","name_short":"dal-4","host":"dal-1.us.uncletopia.com","port":27045,"enabled":true,"region":"us-central","cc":"us","latitude":32.779167,"longitude":-96.80889,"reserved":0,"last_update":"0001-01-01T00:00:00Z","name_a2s":"Uncletopia | Dallas | 4 | Community","protocol":17,"map":"workshop/pl_corrode_rc2.ugc546577989","folder":"tf","game":"Team Fortress","app_id":440,"player_count":0,"max_players":24,"Bots":0,"server_type":"Dedicated","server_os":"Linux","password":true,"vac":true,"version":"7961495","steam_id":85568392924515220,"keywords":["nocrits","nodmgspread","payload","uncletopia"],"game_id":440,"stv_port":27046,"stv_name":"Uncletopia | Dallas | 4 | Community | STV","players":null},{"server_id":5,"name":"Uncletopia | Frankfurt | 1 | All Maps","name_short":"frk-1","host":"frk-1.de.uncletopia.com","port":27015,"enabled":true,"region":"eu","cc":"de","latitude":50.110924,"longitude":8.682127,"reserved":0,"last_update":"0001-01-01T00:00:00Z","name_a2s":"Uncletopia | Frankfurt | 1 | All Maps","protocol":17,"map":"koth_highpass","folder":"tf","game":"Team Fortress","app_id":440,"player_count":0,"max_players":24,"Bots":0,"server_type":"Dedicated","server_os":"Linux","password":true,"vac":true,"version":"7961495","steam_id":85568392924469989,"keywords":["cp","nocrits","nodmgspread","uncletopia"],"game_id":440,"stv_port":27016,"stv_name":"Uncletopia | Frankfurt | 1 | All Maps | STV","players":null},{"server_id":110,"name":"Uncletopia | Frankfurt | 2 | All Maps","name_short":"frk-2","host":"frk-1.de.uncletopia.com","port":27025,"enabled":true,"region":"eu","cc":"de","latitude":50.110924,"longitude":8.682127,"reserved":0,"last_update":"0001-01-01T00:00:00Z","name_a2s":"Uncletopia | Frankfurt | 2 | All Maps","protocol":17,"map":"cp_dustbowl","folder":"tf","game":"Team Fortress","app_id":440,"player_count":0,"max_players":24,"Bots":0,"server_type":"Dedicated","server_os":"Linux","password":true,"vac":true,"version":"7961495","steam_id":85568392924469990,"keywords":["cp","nocrits","nodmgspread","uncletopia"],"game_id":440,"stv_port":27026,"stv_name":"Uncletopia | Frankfurt | 2 | All Maps | STV","players":null},{"server_id":308,"name":"Uncletopia | Frankfurt | 3 | All Maps","name_short":"frk-3","host":"frk-1.de.uncletopia.com","port":27035,"enabled":true,"region":"eu","cc":"de","latitude":50.110924,"longitude":8.682127,"reserved":0,"last_update":"0001-01-01T00:00:00Z","name_a2s":"Uncletopia | Frankfurt | 3 | All Maps","protocol":17,"map":"pl_barnblitz","folder":"tf","game":"Team Fortress","app_id":440,"player_count":0,"max_players":24,"Bots":0,"server_type":"Dedicated","server_os":"Linux","password":true,"vac":true,"version":"7961495","steam_id":85568392924504274,"keywords":["nocrits","nodmgspread","payload","uncletopia"],"game_id":440,"stv_port":27036,"stv_name":"Uncletopia | Frankfurt | 3 | All Maps | STV","players":null},{"server_id":309,"name":"Uncletopia | Frankfurt | 4 | All Maps","name_short":"frk-4","host":"frk-1.de.uncletopia.com","port":27045,"enabled":true,"region":"eu","cc":"de","latitude":50.110924,"longitude":8.682127,"reserved":0,"last_update":"0001-01-01T00:00:00Z","name_a2s":"Uncletopia | Frankfurt | 4 | All Maps","protocol":17,"map":"koth_highpass","folder":"tf","game":"Team Fortress","app_id":440,"player_count":0,"max_players":24,"Bots":0,"server_type":"Dedicated","server_os":"Linux","password":true,"vac":true,"version":"7961495","steam_id":85568392924504275,"keywords":["cp","nocrits","nodmgspread","uncletopia"],"game_id":440,"stv_port":27046,"stv_name":"Uncletopia | Frankfurt | 4 | All Maps | STV","players":null},{"server_id":310,"name":"Uncletopia | Frankfurt | 5 | All Maps","name_short":"frk-5","host":"frk-1.de.uncletopia.com","port":27055,"enabled":true,"region":"eu","cc":"de","latitude":50.110924,"longitude":8.682127,"reserved":0,"last_update":"0001-01-01T00:00:00Z","name_a2s":"Uncletopia | Frankfurt | 5 | All Maps","protocol":17,"map":"pl_badwater","folder":"tf","game":"Team Fortress","app_id":440,"player_count":0,"max_players":24,"Bots":0,"server_type":"Dedicated","server_os":"Linux","password":true,"vac":true,"version":"7961495","steam_id":85568392924504277,"keywords":["nocrits","nodmgspread","payload","uncletopia"],"game_id":440,"stv_port":27056,"stv_name":"Uncletopia | Frankfurt | 5 | All Maps | STV","players":null},{"server_id":311,"name":"Uncletopia | Frankfurt | 6 | All Maps","name_short":"frk-6","host":"frk-1.de.uncletopia.com","port":27065,"enabled":true,"region":"eu","cc":"de","latitude":50.110924,"longitude":8.682127,"reserved":0,"last_update":"0001-01-01T00:00:00Z","name_a2s":"Uncletopia | Frankfurt | 6 | All Maps","protocol":17,"map":"cp_altitude","folder":"tf","game":"Team Fortress","app_id":440,"player_count":0,"max_players":24,"Bots":0,"server_type":"Dedicated","server_os":"Linux","password":true,"vac":true,"version":"7961495","steam_id":85568392924504278,"keywords":["cp","nocrits","nodmgspread","uncletopia"],"game_id":440,"stv_port":27066,"stv_name":"Uncletopia | Frankfurt | 6 | All Maps | STV","players":null},{"server_id":23,"name":"Uncletopia | Frankfurt | 7 | Stopwatch","name_short":"frk-7","host":"frk-1.de.uncletopia.com","port":27075,"enabled":true,"region":"eu","cc":"de","latitude":50.110924,"longitude":8.682127,"reserved":0,"last_update":"0001-01-01T00:00:00Z","name_a2s":"Uncletopia | Frankfurt | 7 | Stopwatch","protocol":17,"map":"pl_upward","folder":"tf","game":"Team Fortress","app_id":440,"player_count":0,"max_players":24,"Bots":0,"server_type":"Dedicated","server_os":"Linux","password":true,"vac":true,"version":"7961495","steam_id":85568392924742827,"keywords":["nocrits","nodmgspread","payload","uncletopia"],"game_id":440,"stv_port":27076,"stv_name":"Uncletopia | Frankfurt | 7 | Stopwatch | STV","players":null},{"server_id":24,"name":"Uncletopia | Frankfurt | 8 | Community","name_short":"frk-8","host":"frk-1.de.uncletopia.com","port":27085,"enabled":true,"region":"eu","cc":"de","latitude":50.110924,"longitude":8.682127,"reserved":0,"last_update":"0001-01-01T00:00:00Z","name_a2s":"Uncletopia | Frankfurt | 8 | Community","protocol":17,"map":"workshop/rd_asteroid_redux_b1.ugc2154902912","folder":"tf","game":"Team Fortress","app_id":440,"player_count":0,"max_players":24,"Bots":0,"server_type":"Dedicated","server_os":"Linux","password":true,"vac":true,"version":"7961495","steam_id":85568392924742828,"keywords":["beta","nocrits","nodmgspread","rd","uncletopia"],"game_id":440,"stv_port":27086,"stv_name":"Uncletopia | Frankfurt | 8 | Community | STV","players":null},{"server_id":202,"name":"Uncletopia | Hong Kong | 1 | All Maps","name_short":"hgk-1","host":"hgk-1.hk.uncletopia.com","port":27015,"enabled":true,"region":"asia","cc":"hk","latitude":22.302711,"longitude":114.177216,"reserved":0,"last_update":"0001-01-01T00:00:00Z","name_a2s":"Uncletopia | Hong Kong | 1 | All Maps","protocol":17,"map":"pl_borneo","folder":"tf","game":"Team Fortress","app_id":440,"player_count":22,"max_players":24,"Bots":0,"server_type":"Dedicated","server_os":"Linux","password":true,"vac":true,"version":"7961495","steam_id":85568392924494504,"keywords":["nocrits","nodmgspread","payload","uncletopia"],"game_id":440,"stv_port":27016,"stv_name":"Uncletopia | Hong Kong | 1 | All Maps | STV","players":[{"user_id":47,"name":"LEGS","steam_id":76561199111623890,"connected_time":6242000000000,"state":"active","ping":64},{"user_id":122,"name":"2746","steam_id":76561199390507975,"connected_time":30000000000,"state":"active","ping":50},{"user_id":116,"name":"water tastes good","steam_id":76561199375947670,"connected_time":914000000000,"state":"active","ping":66},{"user_id":117,"name":"Jun-char","steam_id":76561198126774704,"connected_time":452000000000,"state":"active","ping":90},{"user_id":109,"name":"protons","steam_id":76561198008307645,"connected_time":1513000000000,"state":"active","ping":126},{"user_id":93,"name":"sett.","steam_id":76561199010718657,"connected_time":2062000000000,"state":"active","ping":74},{"user_id":95,"name":"coincidence","steam_id":76561198104877130,"connected_time":1983000000000,"state":"active","ping":76},{"user_id":74,"name":"Lanz","steam_id":76561198815561855,"connected_time":3044000000000,"state":"active","ping":55},{"user_id":78,"name":"E","steam_id":76561198796342005,"connected_time":2730000000000,"state":"active","ping":101},{"user_id":61,"name":"im_0ff","steam_id":76561198339346695,"connected_time":4229000000000,"state":"active","ping":126},{"user_id":70,"name":"MS PowerPoint","steam_id":76561198369523192,"connected_time":3663000000000,"state":"active","ping":65},{"user_id":97,"name":"RailyTheNeko","steam_id":76561198350453802,"connected_time":1955000000000,"state":"active","ping":74},{"user_id":81,"name":"lshleo","steam_id":76561198366975960,"connected_time":2530000000000,"state":"active","ping":73},{"user_id":83,"name":"j_rex","steam_id":76561198132473926,"connected_time":2426000000000,"state":"active","ping":52},{"user_id":84,"name":"Goldy","steam_id":76561199008543001,"connected_time":2383000000000,"state":"active","ping":60},{"user_id":85,"name":"The one who shit on piss","steam_id":76561199254649689,"connected_time":2369000000000,"state":"active","ping":126},{"user_id":113,"name":"‚¨û","steam_id":76561199373637717,"connected_time":1211000000000,"state":"active","ping":148},{"user_id":96,"name":"AkiraeShiro","steam_id":76561198288096334,"connected_time":1964000000000,"state":"active","ping":91},{"user_id":98,"name":"what in tarnation","steam_id":76561199023360624,"connected_time":1919000000000,"state":"active","ping":103},{"user_id":104,"name":"Yoshi | TF2Pugs.com","steam_id":76561198002516729,"connected_time":1821000000000,"state":"active","ping":80},{"user_id":108,"name":"thieunanghung27","steam_id":76561199501379163,"connected_time":1618000000000,"state":"active","ping":86},{"user_id":112,"name":"NOPE","steam_id":76561199244543572,"connected_time":1260000000000,"state":"active","ping":61}]},{"server_id":1,"name":"Uncletopia | Los Angeles | 1 | All Maps","name_short":"lax-1","host":"lax-1.us.uncletopia.com","port":27015,"enabled":true,"region":"us-west","cc":"us","latitude":33.94279,"longitude":-118.41004,"reserved":0,"last_update":"0001-01-01T00:00:00Z","name_a2s":"Uncletopia | Los Angeles | 1 | All Maps","protocol":17,"map":"pl_badwater","folder":"tf","game":"Team Fortress","app_id":440,"player_count":24,"max_players":24,"Bots":0,"server_type":"Dedicated","server_os":"Linux","password":true,"vac":true,"version":"7961495","steam_id":85568392924469991,"keywords":["nocrits","nodmgspread","payload","uncletopia"],"game_id":440,"stv_port":27016,"stv_name":"Uncletopia | Los Angeles | 1 | All Maps | STV","players":[{"user_id":339,"name":"knatspray","steam_id":76561198832507482,"connected_time":972000000000,"state":"active","ping":83},{"user_id":333,"name":"Geight","steam_id":76561197991645292,"connected_time":1685000000000,"state":"active","ping":81},{"user_id":337,"name":"Maid 'n' China","steam_id":76561198423392976,"connected_time":1451000000000,"state":"active","ping":54},{"user_id":307,"name":"darren","steam_id":76561199050155136,"connected_time":2965000000000,"state":"active","ping":45},{"user_id":359,"name":"Skribbles","steam_id":76561198373073766,"connected_time":37000000000,"state":"active","ping":55},{"user_id":345,"name":"danEY","steam_id":76561198049857596,"connected_time":752000000000,"state":"active","ping":52},{"user_id":340,"name":"rmbl (fork eater)","steam_id":76561198150137369,"connected_time":839000000000,"state":"active","ping":46},{"user_id":311,"name":"Whisper!","steam_id":76561198119609795,"connected_time":2935000000000,"state":"active","ping":56},{"user_id":341,"name":"OHGODBEES!","steam_id":76561198000653374,"connected_time":807000000000,"state":"active","ping":76},{"user_id":316,"name":"[DATS‚û°] Sugar Meowth","steam_id":76561197995251793,"connected_time":2839000000000,"state":"active","ping":64},{"user_id":343,"name":"MORE BOUNCE TO THE OUNCE","steam_id":76561198243399336,"connected_time":770000000000,"state":"active","ping":67},{"user_id":353,"name":"Galactamarx","steam_id":76561198028065755,"connected_time":651000000000,"state":"active","ping":103},{"user_id":232,"name":"(¬∞ Õú   ¬∞)","steam_id":76561198064273568,"connected_time":9285000000000,"state":"active","ping":45},{"user_id":356,"name":"FlexTape","steam_id":76561198871834867,"connected_time":262000000000,"state":"active","ping":68},{"user_id":336,"name":"bleach‚Ç™","steam_id":76561198004482768,"connected_time":1494000000000,"state":"active","ping":56},{"user_id":344,"name":"The Grim Heaper","steam_id":76561197987759101,"connected_time":760000000000,"state":"active","ping":94},{"user_id":357,"name":"David","steam_id":76561198880517863,"connected_time":240000000000,"state":"active","ping":102},{"user_id":355,"name":"Tortilla boy bean","steam_id":76561198385916730,"connected_time":344000000000,"state":"active","ping":64},{"user_id":358,"name":"GMFD! Juustin","steam_id":76561198121922413,"connected_time":211000000000,"state":"active","ping":50},{"user_id":349,"name":"Artic_Ryuu","steam_id":76561198182194918,"connected_time":714000000000,"state":"active","ping":72},{"user_id":350,"name":"OxOoxen841","steam_id":76561198297981993,"connected_time":714000000000,"state":"active","ping":115},{"user_id":351,"name":"'Oddo","steam_id":76561198090866900,"connected_time":701000000000,"state":"active","ping":94},{"user_id":324,"name":"ColdRamen","steam_id":76561198128945664,"connected_time":2664000000000,"state":"active","ping":57},{"user_id":352,"name":"Link_Starr","steam_id":76561198133884015,"connected_time":667000000000,"state":"active","ping":54}]},{"server_id":112,"name":"Uncletopia | Los Angeles | 2 | All Maps","name_short":"lax-2","host":"lax-1.us.uncletopia.com","port":27025,"enabled":true,"region":"us-west","cc":"us","latitude":33.94279,"longitude":-118.41004,"reserved":0,"last_update":"0001-01-01T00:00:00Z","name_a2s":"Uncletopia | Los Angeles | 2 | All Maps","protocol":17,"map":"cp_process_final","folder":"tf","game":"Team Fortress","app_id":440,"player_count":24,"max_players":24,"Bots":0,"server_type":"Dedicated","server_os":"Linux","password":true,"vac":true,"version":"7961495","steam_id":85568392924469992,"keywords":["cp","nocrits","nodmgspread","uncletopia"],"game_id":440,"stv_port":27026,"stv_name":"Uncletopia | Los Angeles | 2 | All Maps | STV","players":[{"user_id":377,"name":"Cheesecake","steam_id":76561197978508626,"connected_time":1212000000000,"state":"active","ping":76},{"user_id":319,"name":"Torikaesu","steam_id":76561198277813823,"connected_time":4666000000000,"state":"active","ping":61},{"user_id":381,"name":"Broly218","steam_id":76561198207104341,"connected_time":764000000000,"state":"active","ping":48},{"user_id":331,"name":"panda","steam_id":76561198025214612,"connected_time":3962000000000,"state":"active","ping":76},{"user_id":332,"name":"Mario Barret","steam_id":76561198301353499,"connected_time":3940000000000,"state":"active","ping":47},{"user_id":350,"name":"Username","steam_id":76561198198918781,"connected_time":2807000000000,"state":"active","ping":67},{"user_id":383,"name":"nuclear_covenant_admiral74","steam_id":76561198309010627,"connected_time":725000000000,"state":"active","ping":68},{"user_id":351,"name":"MadGodJesus","steam_id":76561198876130112,"connected_time":2772000000000,"state":"active","ping":87},{"user_id":352,"name":"Gimme your Teeth","steam_id":76561198240523882,"connected_time":2762000000000,"state":"active","ping":47},{"user_id":369,"name":"Salad and Absinthe","steam_id":76561198169915227,"connected_time":1404000000000,"state":"active","ping":58},{"user_id":334,"name":"_cza","steam_id":76561198079793576,"connected_time":3838000000000,"state":"active","ping":75},{"user_id":384,"name":"Ethan7704","steam_id":76561198821010606,"connected_time":710000000000,"state":"active","ping":113},{"user_id":389,"name":"i need to see your balls","steam_id":76561198168492250,"connected_time":465000000000,"state":"active","ping":50},{"user_id":336,"name":"Randle of John","steam_id":76561198328210524,"connected_time":3734000000000,"state":"active","ping":51},{"user_id":382,"name":"vgMaster749","steam_id":76561198205048900,"connected_time":758000000000,"state":"active","ping":93},{"user_id":392,"name":"jovial","steam_id":76561198297130941,"connected_time":44000000000,"state":"active","ping":51},{"user_id":391,"name":"Tideflat","steam_id":76561198179850851,"connected_time":66000000000,"state":"active","ping":89},{"user_id":372,"name":"Grassman (Cc)","steam_id":76561198026488532,"connected_time":1347000000000,"state":"active","ping":53},{"user_id":390,"name":"vvitch","steam_id":76561198279661941,"connected_time":404000000000,"state":"active","ping":49},{"user_id":346,"name":"KittySophie","steam_id":76561198072947773,"connected_time":3462000000000,"state":"active","ping":90},{"user_id":378,"name":"tutua","steam_id":76561198065709917,"connected_time":1147000000000,"state":"active","ping":119},{"user_id":366,"name":"Birby","steam_id":76561198884009768,"connected_time":1525000000000,"state":"active","ping":72},{"user_id":385,"name":"FROYO b4nny","steam_id":76561197970669109,"connected_time":652000000000,"state":"active","ping":57},{"user_id":376,"name":"‚òÖTC2","steam_id":76561198026985346,"connected_time":1303000000000,"state":"active","ping":102}]},{"server_id":324,"name":"Uncletopia | Los Angeles | 3 | All Maps","name_short":"lax-3","host":"lax-1.us.uncletopia.com","port":27035,"enabled":true,"region":"us-west","cc":"us","latitude":33.94279,"longitude":-118.41004,"reserved":0,"last_update":"0001-01-01T00:00:00Z","name_a2s":"Uncletopia | Los Angeles | 3 | All Maps","protocol":17,"map":"cp_dustbowl","folder":"tf","game":"Team Fortress","app_id":440,"player_count":24,"max_players":24,"Bots":0,"server_type":"Dedicated","server_os":"Linux","password":true,"vac":true,"version":"7961495","steam_id":85568392924510198,"keywords":["cp","nocrits","nodmgspread","uncletopia"],"game_id":440,"stv_port":27036,"stv_name":"Uncletopia | Los Angeles | 3 | All Maps | STV","players":[{"user_id":271,"name":"The_Pacific_gamer","steam_id":76561198089491446,"connected_time":1934000000000,"state":"active","ping":74},{"user_id":292,"name":"BackToSchoolAds","steam_id":76561198870281128,"connected_time":749000000000,"state":"active","ping":109},{"user_id":296,"name":"Zeke","steam_id":76561198389722871,"connected_time":598000000000,"state":"active","ping":55},{"user_id":251,"name":"Joe","steam_id":76561198290315229,"connected_time":4658000000000,"state":"active","ping":57},{"user_id":263,"name":"sleepy‚äπ","steam_id":76561199200969139,"connected_time":2376000000000,"state":"active","ping":110},{"user_id":291,"name":"blozet","steam_id":76561199120161035,"connected_time":855000000000,"state":"active","ping":108},{"user_id":289,"name":"cheese biddle","steam_id":76561198971552734,"connected_time":1007000000000,"state":"active","ping":47},{"user_id":294,"name":"perc 10","steam_id":76561198116471653,"connected_time":676000000000,"state":"active","ping":60},{"user_id":295,"name":"wizerd","steam_id":76561198342480009,"connected_time":639000000000,"state":"active","ping":46},{"user_id":310,"name":"Korn Dawg","steam_id":76561198026941076,"connected_time":25000000000,"state":"spawning","ping":65},{"user_id":298,"name":"Zebulon","steam_id":76561198025719753,"connected_time":507000000000,"state":"active","ping":57},{"user_id":299,"name":"Whiskey","steam_id":76561198858154667,"connected_time":472000000000,"state":"active","ping":44},{"user_id":272,"name":"Green Giller","steam_id":76561198046617830,"connected_time":1916000000000,"state":"active","ping":50},{"user_id":311,"name":"C Sharp Minor","steam_id":76561199185191710,"connected_time":21000000000,"state":"active","ping":109},{"user_id":268,"name":"suiseal","steam_id":76561199202850130,"connected_time":2122000000000,"state":"active","ping":46},{"user_id":300,"name":"Shadoe","steam_id":76561198218577281,"connected_time":465000000000,"state":"active","ping":96},{"user_id":301,"name":"bluefoxx118","steam_id":76561198182884975,"connected_time":461000000000,"state":"active","ping":110},{"user_id":308,"name":"loser","steam_id":76561198259380127,"connected_time":248000000000,"state":"active","ping":101},{"user_id":280,"name":"jointheinternet","steam_id":76561198003627772,"connected_time":1460000000000,"state":"active","ping":60},{"user_id":281,"name":"üéÉBunnyüéÉ","steam_id":76561198074872531,"connected_time":1394000000000,"state":"active","ping":80},{"user_id":304,"name":"Scrump.","steam_id":76561198115355451,"connected_time":399000000000,"state":"active","ping":35},{"user_id":305,"name":"Cheetose Intolerant","steam_id":76561198013399809,"connected_time":391000000000,"state":"active","ping":45},{"user_id":313,"name":"Halo\u003c3","steam_id":76561198144909435,"connected_time":8000000000,"state":"spawning","ping":58},{"user_id":307,"name":"Cynical-Mania","steam_id":76561198871011158,"connected_time":324000000000,"state":"active","ping":63}]},{"server_id":25,"name":"Uncletopia | Los Angeles | 4 | Stopwatch","name_short":"lax-4","host":"lax-1.us.uncletopia.com","port":27045,"enabled":true,"region":"us-west","cc":"us","latitude":33.94279,"longitude":-118.41004,"reserved":0,"last_update":"0001-01-01T00:00:00Z","name_a2s":"Uncletopia | Los Angeles | 4 | Stopwatch","protocol":17,"map":"cp_gullywash_final1","folder":"tf","game":"Team Fortress","app_id":440,"player_count":0,"max_players":24,"Bots":0,"server_type":"Dedicated","server_os":"Linux","password":true,"vac":true,"version":"7961495","steam_id":85568392924510199,"keywords":["cp","nocrits","nodmgspread","uncletopia"],"game_id":440,"stv_port":27046,"stv_name":"Uncletopia | Los Angeles | 4 | Stopwatch | STV","players":null},{"server_id":11,"name":"Uncletopia | London | 1 | All Maps","name_short":"lon-1","host":"lon-1.uk.uncletopia.com","port":27015,"enabled":true,"region":"eu","cc":"gb","latitude":51.509865,"longitude":-0.118092,"reserved":0,"last_update":"0001-01-01T00:00:00Z","name_a2s":"Uncletopia | London | 1 | All Maps","protocol":17,"map":"koth_highpass","folder":"tf","game":"Team Fortress","app_id":440,"player_count":0,"max_players":24,"Bots":0,"server_type":"Dedicated","server_os":"Linux","password":true,"vac":true,"version":"7961495","steam_id":85568392924367362,"keywords":["cp","nocrits","nodmgspread","uncletopia"],"game_id":440,"stv_port":27016,"stv_name":"Uncletopia | London | 1 | All Maps | STV","players":null},{"server_id":114,"name":"Uncletopia | London | 2 | All Maps","name_short":"lon-2","host":"lon-1.uk.uncletopia.com","port":27025,"enabled":true,"region":"eu","cc":"gb","latitude":51.509865,"longitude":-0.118092,"reserved":0,"last_update":"0001-01-01T00:00:00Z","name_a2s":"Uncletopia | London | 2 | All Maps","protocol":17,"map":"koth_lakeside_final","folder":"tf","game":"Team Fortress","app_id":440,"player_count":0,"max_players":24,"Bots":0,"server_type":"Dedicated","server_os":"Linux","password":true,"vac":true,"version":"7961495","steam_id":85568392924470941,"keywords":["cp","nocrits","nodmgspread","uncletopia"],"game_id":440,"stv_port":27026,"stv_name":"Uncletopia | London | 2 | All Maps | STV","players":null},{"server_id":320,"name":"Uncletopia | London | 3 | All Maps","name_short":"lon-3","host":"lon-1.uk.uncletopia.com","port":27035,"enabled":true,"region":"eu","cc":"gb","latitude":51.509865,"longitude":-0.118092,"reserved":0,"last_update":"0001-01-01T00:00:00Z","name_a2s":"Uncletopia | London | 3 | All Maps","protocol":17,"map":"cp_process_final","folder":"tf","game":"Team Fortress","app_id":440,"player_count":0,"max_players":24,"Bots":0,"server_type":"Dedicated","server_os":"Linux","password":true,"vac":true,"version":"7961495","steam_id":85568392924510192,"keywords":["cp","nocrits","nodmgspread","uncletopia"],"game_id":440,"stv_port":27036,"stv_name":"Uncletopia | London | 3 | All Maps | STV","players":null},{"server_id":321,"name":"Uncletopia | London | 4 | All Maps","name_short":"lon-4","host":"lon-1.uk.uncletopia.com","port":27045,"enabled":true,"region":"eu","cc":"gb","latitude":51.509865,"longitude":-0.118092,"reserved":0,"last_update":"0001-01-01T00:00:00Z","name_a2s":"Uncletopia | London | 4 | All Maps","protocol":17,"map":"koth_cascade","folder":"tf","game":"Team Fortress","app_id":440,"player_count":0,"max_players":24,"Bots":0,"server_type":"Dedicated","server_os":"Linux","password":true,"vac":true,"version":"7961495","steam_id":85568392924510193,"keywords":["cp","nocrits","nodmgspread","uncletopia"],"game_id":440,"stv_port":27046,"stv_name":"Uncletopia | London | 4 | All Maps | STV","players":null},{"server_id":21,"name":"Uncletopia | London | 5 | All Maps","name_short":"lon-5","host":"lon-1.uk.uncletopia.com","port":27055,"enabled":true,"region":"eu","cc":"gb","latitude":51.509865,"longitude":-0.118092,"reserved":0,"last_update":"0001-01-01T00:00:00Z","name_a2s":"Uncletopia | London | 5 | All Maps","protocol":17,"map":"koth_lakeside_final","folder":"tf","game":"Team Fortress","app_id":440,"player_count":0,"max_players":24,"Bots":0,"server_type":"Dedicated","server_os":"Linux","password":true,"vac":true,"version":"7961495","steam_id":85568392924742829,"keywords":["cp","nocrits","nodmgspread","uncletopia"],"game_id":440,"stv_port":27056,"stv_name":"Uncletopia | London | 5 | All Maps | STV","players":null},{"server_id":22,"name":"Uncletopia | London | 6 | All Maps","name_short":"lon-6","host":"lon-1.uk.uncletopia.com","port":27065,"enabled":true,"region":"eu","cc":"gb","latitude":51.509865,"longitude":-0.118092,"reserved":0,"last_update":"0001-01-01T00:00:00Z","name_a2s":"Uncletopia | London | 6 | All Maps","protocol":17,"map":"cp_dustbowl","folder":"tf","game":"Team Fortress","app_id":440,"player_count":0,"max_players":24,"Bots":0,"server_type":"Dedicated","server_os":"Linux","password":true,"vac":true,"version":"7961495","steam_id":85568392924742830,"keywords":["cp","nocrits","nodmgspread","uncletopia"],"game_id":440,"stv_port":27066,"stv_name":"Uncletopia | London | 6 | All Maps | STV","players":null},{"server_id":40,"name":"Uncletopia | London | 7 | Stopwatch","name_short":"lon-7","host":"lon-1.uk.uncletopia.com","port":27075,"enabled":true,"region":"eu","cc":"gb","latitude":51.509865,"longitude":-0.118092,"reserved":0,"last_update":"0001-01-01T00:00:00Z","name_a2s":"Uncletopia | London | 7 | Stopwatch","protocol":17,"map":"koth_lakeside_final","folder":"tf","game":"Team Fortress","app_id":440,"player_count":0,"max_players":24,"Bots":0,"server_type":"Dedicated","server_os":"Linux","password":true,"vac":true,"version":"7961495","steam_id":85568392924964314,"keywords":["cp","nocrits","nodmgspread","uncletopia"],"game_id":440,"stv_port":27076,"stv_name":"Uncletopia | London | 7 | Stopwatch | STV","players":null},{"server_id":41,"name":"Uncletopia | London | 8 | Community","name_short":"lon-8","host":"lon-1.uk.uncletopia.com","port":27085,"enabled":true,"region":"eu","cc":"gb","latitude":51.509865,"longitude":-0.118092,"reserved":0,"last_update":"0001-01-01T00:00:00Z","name_a2s":"Uncletopia | London | 8 | Community","protocol":17,"map":"cp_snakewater_final1","folder":"tf","game":"Team Fortress","app_id":440,"player_count":0,"max_players":24,"Bots":0,"server_type":"Dedicated","server_os":"Linux","password":true,"vac":true,"version":"7961495","steam_id":85568392924964315,"keywords":["cp","nocrits","nodmgspread","uncletopia"],"game_id":440,"stv_port":27086,"stv_name":"Uncletopia | London | 8 | Community | STV","players":null},{"server_id":300,"name":"Uncletopia | Montr√©al | 1 | One Thousand Uncles","name_short":"mtl-1","host":"mtl-1.ca.uncletopia.com","port":27015,"enabled":true,"region":"us-east","cc":"ca","latitude":45.50889,"longitude":-73.56167,"reserved":0,"last_update":"0001-01-01T00:00:00Z","name_a2s":"","protocol":0,"map":"","folder":"","game":"","app_id":0,"player_count":0,"max_players":0,"Bots":0,"server_type":"","server_os":"","password":false,"vac":false,"version":"","steam_id":0,"keywords":null,"game_id":0,"stv_port":0,"stv_name":"","players":null},{"server_id":301,"name":"Uncletopia | Montr√©al | 2 | One Thousand Uncles","name_short":"mtl-2","host":"mtl-1.ca.uncletopia.com","port":27025,"enabled":true,"region":"us-east","cc":"ca","latitude":45.50889,"longitude":-73.56167,"reserved":0,"last_update":"0001-01-01T00:00:00Z","name_a2s":"","protocol":0,"map":"","folder":"","game":"","app_id":0,"player_count":0,"max_players":0,"Bots":0,"server_type":"","server_os":"","password":false,"vac":false,"version":"","steam_id":0,"keywords":null,"game_id":0,"stv_port":0,"stv_name":"","players":null},{"server_id":302,"name":"Uncletopia | Montr√©al | 3 | One Thousand Uncles","name_short":"mtl-3","host":"mtl-1.ca.uncletopia.com","port":27035,"enabled":true,"region":"us-east","cc":"ca","latitude":45.50889,"longitude":-73.56167,"reserved":0,"last_update":"0001-01-01T00:00:00Z","name_a2s":"","protocol":0,"map":"","folder":"","game":"","app_id":0,"player_count":0,"max_players":0,"Bots":0,"server_type":"","server_os":"","password":false,"vac":false,"version":"","steam_id":0,"keywords":null,"game_id":0,"stv_port":0,"stv_name":"","players":null},{"server_id":13,"name":"Uncletopia | New York City | 1 | All Maps","name_short":"nyc-1","host":"nyc-1.us.uncletopia.com","port":27015,"enabled":true,"region":"us-east","cc":"us","latitude":40.73061,"longitude":-73.93524,"reserved":0,"last_update":"0001-01-01T00:00:00Z","name_a2s":"Uncletopia | New York City | 1 | All Maps","protocol":17,"map":"cp_altitude","folder":"tf","game":"Team Fortress","app_id":440,"player_count":24,"max_players":24,"Bots":0,"server_type":"Dedicated","server_os":"Linux","password":true,"vac":true,"version":"7961495","steam_id":85568392924469993,"keywords":["cp","nocrits","nodmgspread","uncletopia"],"game_id":440,"stv_port":27016,"stv_name":"Uncletopia | New York City | 1 | All Maps | STV","players":[{"user_id":598,"name":"J.Universe","steam_id":76561198400071405,"connected_time":329000000000,"state":"active","ping":53},{"user_id":561,"name":"Femboy Medic Main","steam_id":76561198268225109,"connected_time":2482000000000,"state":"active","ping":106},{"user_id":593,"name":"oppenheimer style","steam_id":76561198026664629,"connected_time":568000000000,"state":"active","ping":45},{"user_id":599,"name":"Tf Classic better","steam_id":76561198391284380,"connected_time":277000000000,"state":"active","ping":67},{"user_id":572,"name":"CherryPieRed2023","steam_id":76561198998007496,"connected_time":1615000000000,"state":"active","ping":126},{"user_id":594,"name":"Golden Boy","steam_id":76561198987866839,"connected_time":540000000000,"state":"active","ping":146},{"user_id":523,"name":"kikikikoboy","steam_id":76561198073380271,"connected_time":5546000000000,"state":"active","ping":74},{"user_id":595,"name":"shadow wizard money gang","steam_id":76561198181153199,"connected_time":539000000000,"state":"active","ping":79},{"user_id":559,"name":"Voracious Puma","steam_id":76561197963621649,"connected_time":2485000000000,"state":"active","ping":89},{"user_id":549,"name":"ndvr","steam_id":76561199379200102,"connected_time":3934000000000,"state":"active","ping":53},{"user_id":584,"name":"Socialist Warrior","steam_id":76561198085664421,"connected_time":1095000000000,"state":"active","ping":73},{"user_id":603,"name":"woman respecter","steam_id":76561198083225542,"connected_time":11000000000,"state":"active","ping":85},{"user_id":596,"name":"AugustusLove","steam_id":76561198004785839,"connected_time":526000000000,"state":"active","ping":119},{"user_id":566,"name":"rubn","steam_id":76561198119586410,"connected_time":2235000000000,"state":"active","ping":138},{"user_id":586,"name":"Comfy!","steam_id":76561198008818346,"connected_time":931000000000,"state":"active","ping":45},{"user_id":567,"name":"TTV hunter","steam_id":76561198115812405,"connected_time":2231000000000,"state":"active","ping":71},{"user_id":597,"name":"Frisciaman","steam_id":76561198274287443,"connected_time":521000000000,"state":"active","ping":74},{"user_id":602,"name":"Dr. Gonzo","steam_id":76561198076588370,"connected_time":178000000000,"state":"active","ping":62},{"user_id":558,"name":"king julian","steam_id":76561198119651530,"connected_time":2491000000000,"state":"active","ping":55},{"user_id":601,"name":"Xyverle","steam_id":76561198799726415,"connected_time":218000000000,"state":"active","ping":73},{"user_id":581,"name":"Snoopist","steam_id":76561198144023761,"connected_time":1339000000000,"state":"active","ping":60},{"user_id":600,"name":"Rambly Dambly","steam_id":76561198844496567,"connected_time":268000000000,"state":"active","ping":41},{"user_id":583,"name":"MNKY","steam_id":76561198057125058,"connected_time":1305000000000,"state":"active","ping":136},{"user_id":503,"name":"WitheringLeo","steam_id":76561198046722918,"connected_time":7424000000000,"state":"active","ping":70}]},{"server_id":14,"name":"Uncletopia | New York City | 2 | All Maps","name_short":"nyc-2","host":"nyc-1.us.uncletopia.com","port":27025,"enabled":true,"region":"us-east","cc":"us","latitude":40.73061,"longitude":-73.93524,"reserved":0,"last_update":"0001-01-01T00:00:00Z","name_a2s":"Uncletopia | New York City | 2 | All Maps","protocol":17,"map":"cp_sunshine","folder":"tf","game":"Team Fortress","app_id":440,"player_count":0,"max_players":24,"Bots":0,"server_type":"Dedicated","server_os":"Linux","password":true,"vac":true,"version":"7961495","steam_id":85568392924469994,"keywords":["cp","nocrits","nodmgspread","uncletopia"],"game_id":440,"stv_port":27026,"stv_name":"Uncletopia | New York City | 2 | All Maps | STV","players":null},{"server_id":15,"name":"Uncletopia | New York City | 3 | Stopwatch","name_short":"nyc-3","host":"nyc-1.us.uncletopia.com","port":27035,"enabled":true,"region":"us-east","cc":"us","latitude":40.73061,"longitude":-73.93524,"reserved":0,"last_update":"0001-01-01T00:00:00Z","name_a2s":"Uncletopia | New York City | 3 | Stopwatch","protocol":17,"map":"pl_borneo","folder":"tf","game":"Team Fortress","app_id":440,"player_count":0,"max_players":24,"Bots":0,"server_type":"Dedicated","server_os":"Linux","password":true,"vac":true,"version":"7961495","steam_id":85568392924742820,"keywords":["nocrits","nodmgspread","payload","uncletopia"],"game_id":440,"stv_port":27036,"stv_name":"Uncletopia | New York City | 3 | Stopwatch | STV","players":null},{"server_id":16,"name":"Uncletopia | New York City | 4 | Community","name_short":"nyc-4","host":"nyc-1.us.uncletopia.com","port":27045,"enabled":true,"region":"us-east","cc":"us","latitude":40.73061,"longitude":-73.93524,"reserved":0,"last_update":"0001-01-01T00:00:00Z","name_a2s":"Uncletopia | New York City | 4 | Community","protocol":17,"map":"workshop/koth_ramjam_rc1.ugc459778887","folder":"tf","game":"Team Fortress","app_id":440,"player_count":0,"max_players":24,"Bots":0,"server_type":"Dedicated","server_os":"Linux","password":true,"vac":true,"version":"7961495","steam_id":85568392924742821,"keywords":["cp","nocrits","nodmgspread","uncletopia"],"game_id":440,"stv_port":27046,"stv_name":"Uncletopia | New York City | 4 | Community | STV","players":null},{"server_id":142,"name":"Uncletopia | S√£o Paulo | 1 | All Maps","name_short":"sao-1","host":"sao-1.br.uncletopia.com","port":27015,"enabled":true,"region":"sa","cc":"br","latitude":-23.533773,"longitude":-46.62529,"reserved":0,"last_update":"0001-01-01T00:00:00Z","name_a2s":"Uncletopia | S√£o Paulo | 1 | All Maps","protocol":17,"map":"pl_swiftwater_final1","folder":"tf","game":"Team Fortress","app_id":440,"player_count":0,"max_players":24,"Bots":0,"server_type":"Dedicated","server_os":"Linux","password":true,"vac":true,"version":"7961495","steam_id":85568392924469996,"keywords":["nocrits","nodmgspread","payload","uncletopia"],"game_id":440,"stv_port":27016,"stv_name":"Uncletopia | S√£o Paulo | 1 | All Maps | STV","players":null},{"server_id":143,"name":"Uncletopia | S√£o Paulo | 2 | Community","name_short":"sao-2","host":"sao-2.br.uncletopia.com","port":27015,"enabled":true,"region":"sa","cc":"br","latitude":-23.533773,"longitude":-46.62529,"reserved":0,"last_update":"0001-01-01T00:00:00Z","name_a2s":"Uncletopia | S√£o Paulo | 2 | Community","protocol":17,"map":"workshop/koth_product_final.ugc454272353","folder":"tf","game":"Team Fortress","app_id":440,"player_count":0,"max_players":24,"Bots":0,"server_type":"Dedicated","server_os":"Linux","password":true,"vac":true,"version":"7961495","steam_id":85568392924485349,"keywords":["cp","nocrits","nodmgspread","uncletopia"],"game_id":440,"stv_port":27016,"stv_name":"Uncletopia | S√£o Paulo | 2 | Community | STV","players":null},{"server_id":7,"name":"Uncletopia | Seattle | 1 | All Maps","name_short":"sea-1","host":"sea-1.us.uncletopia.com","port":27015,"enabled":true,"region":"us-west","cc":"us","latitude":47.608013,"longitude":-122.33517,"reserved":0,"last_update":"0001-01-01T00:00:00Z","name_a2s":"Uncletopia | Seattle | 1 | All Maps","protocol":17,"map":"koth_harvest_final","folder":"tf","game":"Team Fortress","app_id":440,"player_count":24,"max_players":24,"Bots":0,"server_type":"Dedicated","server_os":"Linux","password":true,"vac":true,"version":"7961495","steam_id":85568392924469997,"keywords":["cp","nocrits","nodmgspread","uncletopia"],"game_id":440,"stv_port":27016,"stv_name":"Uncletopia | Seattle | 1 | All Maps | STV","players":[{"user_id":543,"name":"2 Point Tom","steam_id":76561198087617008,"connected_time":3010000000000,"state":"active","ping":49},{"user_id":530,"name":"I am (no longer) mentally stabl","steam_id":76561198451812135,"connected_time":4154000000000,"state":"active","ping":54},{"user_id":544,"name":"Lily Thorn","steam_id":76561198305488625,"connected_time":2746000000000,"state":"active","ping":59},{"user_id":529,"name":"Lord Hater","steam_id":76561199158148782,"connected_time":4161000000000,"state":"active","ping":54},{"user_id":551,"name":"cerious","steam_id":76561197994365894,"connected_time":2056000000000,"state":"active","ping":33},{"user_id":557,"name":"TommyBoi","steam_id":76561198025528637,"connected_time":1408000000000,"state":"active","ping":37},{"user_id":555,"name":"Nom Skirrett","steam_id":76561198014600788,"connected_time":1641000000000,"state":"active","ping":61},{"user_id":574,"name":"Mike Bean Burritos","steam_id":76561198173430607,"connected_time":631000000000,"state":"active","ping":54},{"user_id":559,"name":"motherfucker 2.0","steam_id":76561198141189209,"connected_time":1318000000000,"state":"active","ping":90},{"user_id":560,"name":"MisterSJK","steam_id":76561198163892060,"connected_time":1302000000000,"state":"active","ping":100},{"user_id":561,"name":"El Gato Paranoico","steam_id":76561198116567116,"connected_time":1301000000000,"state":"active","ping":111},{"user_id":534,"name":"gorlab","steam_id":76561198025089694,"connected_time":4029000000000,"state":"active","ping":60},{"user_id":552,"name":"[TrC] Dackstrus","steam_id":76561197973518509,"connected_time":1961000000000,"state":"active","ping":52},{"user_id":550,"name":"Havi","steam_id":76561198197832829,"connected_time":2093000000000,"state":"active","ping":45},{"user_id":566,"name":"_Ati","steam_id":76561198339777801,"connected_time":933000000000,"state":"active","ping":91},{"user_id":484,"name":"Haven","steam_id":76561198087584756,"connected_time":8137000000000,"state":"active","ping":58},{"user_id":473,"name":"the sneeze of 87","steam_id":76561198062451648,"connected_time":9521000000000,"state":"active","ping":91},{"user_id":579,"name":"bootyzilla·¥∏·¥Æ·¥¥","steam_id":76561198322206140,"connected_time":95000000000,"state":"active","ping":60},{"user_id":562,"name":"Biggest Dude In Town 4U","steam_id":76561198070281464,"connected_time":1252000000000,"state":"active","ping":102},{"user_id":575,"name":"Divergence Test","steam_id":76561198103653795,"connected_time":614000000000,"state":"active","ping":90},{"user_id":580,"name":"malvery","steam_id":76561198076554933,"connected_time":77000000000,"state":"active","ping":49},{"user_id":554,"name":"TROY","steam_id":76561197983852176,"connected_time":1761000000000,"state":"active","ping":75},{"user_id":564,"name":"The_RainbowTrout","steam_id":76561199309554436,"connected_time":1195000000000,"state":"active","ping":34},{"user_id":578,"name":"fragadelphia","steam_id":76561198066116363,"connected_time":119000000000,"state":"active","ping":52}]},{"server_id":119,"name":"Uncletopia | Seattle | 2 | All Maps","name_short":"sea-2","host":"sea-1.us.uncletopia.com","port":27025,"enabled":true,"region":"us-west","cc":"us","latitude":47.608013,"longitude":-122.33517,"reserved":0,"last_update":"0001-01-01T00:00:00Z","name_a2s":"Uncletopia | Seattle | 2 | All Maps","protocol":17,"map":"plr_bananabay","folder":"tf","game":"Team Fortress","app_id":440,"player_count":24,"max_players":24,"Bots":0,"server_type":"Dedicated","server_os":"Linux","password":true,"vac":true,"version":"7961495","steam_id":85568392924469998,"keywords":["nocrits","nodmgspread","payload","uncletopia"],"game_id":440,"stv_port":27026,"stv_name":"Uncletopia | Seattle | 2 | All Maps | STV","players":[{"user_id":378,"name":"FidelGuevara","steam_id":76561198368296171,"connected_time":570000000000,"state":"active","ping":92},{"user_id":372,"name":"Spooky Santabox","steam_id":76561198329679481,"connected_time":1237000000000,"state":"active","ping":54},{"user_id":367,"name":"Everything Is So Small Now","steam_id":76561198167583291,"connected_time":1424000000000,"state":"active","ping":87},{"user_id":349,"name":"Jeramosa","steam_id":76561198811000094,"connected_time":2686000000000,"state":"active","ping":80},{"user_id":322,"name":"Escapism","steam_id":76561198045302512,"connected_time":4797000000000,"state":"active","ping":49},{"user_id":377,"name":"MxProf","steam_id":76561198044519572,"connected_time":990000000000,"state":"active","ping":56},{"user_id":363,"name":"clue","steam_id":76561198299379768,"connected_time":1611000000000,"state":"active","ping":58},{"user_id":379,"name":"Dante KoK","steam_id":76561198853666775,"connected_time":555000000000,"state":"active","ping":78},{"user_id":380,"name":"C^a^L","steam_id":76561198241124222,"connected_time":458000000000,"state":"active","ping":67},{"user_id":381,"name":"jodi engwyrn","steam_id":76561198131833567,"connected_time":376000000000,"state":"active","ping":64},{"user_id":364,"name":"cracky","steam_id":76561197971365444,"connected_time":1593000000000,"state":"active","ping":34},{"user_id":354,"name":"Spicy Chicken","steam_id":76561198074209737,"connected_time":2309000000000,"state":"active","ping":90},{"user_id":331,"name":"Mr8bittripper","steam_id":76561198133894229,"connected_time":4503000000000,"state":"active","ping":42},{"user_id":336,"name":"Hawksgamer","steam_id":76561198152405941,"connected_time":3966000000000,"state":"active","ping":38},{"user_id":369,"name":"james_bondage","steam_id":76561199476062624,"connected_time":1401000000000,"state":"active","ping":146},{"user_id":382,"name":"–ø–∞–≤–ª–æ","steam_id":76561198314446564,"connected_time":349000000000,"state":"active","ping":60},{"user_id":345,"name":"mrthugpug1732","steam_id":76561198881200768,"connected_time":3012000000000,"state":"active","ping":81},{"user_id":370,"name":"Cat on the Moon","steam_id":76561198272661627,"connected_time":1284000000000,"state":"active","ping":75},{"user_id":371,"name":"Antwan","steam_id":76561198246200638,"connected_time":1276000000000,"state":"active","ping":93},{"user_id":375,"name":"Monarch of Glass","steam_id":76561198165638237,"connected_time":1082000000000,"state":"active","ping":44},{"user_id":383,"name":"Santicules","steam_id":76561198209373536,"connected_time":343000000000,"state":"active","ping":104},{"user_id":344,"name":"Satori Komeiji","steam_id":76561198158211423,"connected_time":3080000000000,"state":"active","ping":65},{"user_id":348,"name":"K1ng_Terpz #savelight_env","steam_id":76561198094217198,"connected_time":2782000000000,"state":"active","ping":52},{"user_id":326,"name":"ohohaye","steam_id":76561198043911164,"connected_time":4742000000000,"state":"active","ping":60}]},{"server_id":406,"name":"Uncletopia | Seattle | 3 | Stopwatch","name_short":"sea-3","host":"sea-1.us.uncletopia.com","port":27035,"enabled":true,"region":"us-west","cc":"us","latitude":47.608013,"longitude":-122.33517,"reserved":0,"last_update":"0001-01-01T00:00:00Z","name_a2s":"Uncletopia | Seattle | 3 | Stopwatch","protocol":17,"map":"workshop/koth_ashville_final.ugc2130459942","folder":"tf","game":"Team Fortress","app_id":440,"player_count":0,"max_players":24,"Bots":0,"server_type":"Dedicated","server_os":"Linux","password":true,"vac":true,"version":"7961495","steam_id":85568392924515217,"keywords":["cp","nocrits","nodmgspread","uncletopia"],"game_id":440,"stv_port":27036,"stv_name":"Uncletopia | Seattle | 3 | Stopwatch | STV","players":null},{"server_id":17,"name":"Uncletopia | San Francisco | 1 | All Maps","name_short":"sfo-1","host":"sfo-1.us.uncletopia.com","port":27015,"enabled":true,"region":"us-west","cc":"us","latitude":37.77397,"longitude":-122.4313,"reserved":0,"last_update":"0001-01-01T00:00:00Z","name_a2s":"Uncletopia | San Francisco | 1 | All Maps","protocol":17,"map":"pl_barnblitz","folder":"tf","game":"Team Fortress","app_id":440,"player_count":0,"max_players":24,"Bots":0,"server_type":"Dedicated","server_os":"Linux","password":true,"vac":true,"version":"7961495","steam_id":85568392924469999,"keywords":["nocrits","nodmgspread","payload","uncletopia"],"game_id":440,"stv_port":27016,"stv_name":"Uncletopia | San Francisco | 1 | All Maps | STV","players":null},{"server_id":18,"name":"Uncletopia | San Francisco | 2 | All Maps","name_short":"sfo-2","host":"sfo-1.us.uncletopia.com","port":27025,"enabled":true,"region":"us-west","cc":"us","latitude":37.77397,"longitude":-122.4313,"reserved":0,"last_update":"0001-01-01T00:00:00Z","name_a2s":"Uncletopia | San Francisco | 2 | All Maps","protocol":17,"map":"cp_mountainlab","folder":"tf","game":"Team Fortress","app_id":440,"player_count":24,"max_players":24,"Bots":0,"server_type":"Dedicated","server_os":"Linux","password":true,"vac":true,"version":"7961495","steam_id":85568392924470000,"keywords":["cp","nocrits","nodmgspread","uncletopia"],"game_id":440,"stv_port":27026,"stv_name":"Uncletopia | San Francisco | 2 | All Maps | STV","players":[{"user_id":198,"name":"Be Gay, Do Crimes, Smoke Weed!","steam_id":76561198092419868,"connected_time":7425000000000,"state":"active","ping":85},{"user_id":260,"name":"Sketchdude","steam_id":76561198428554205,"connected_time":4171000000000,"state":"active","ping":89},{"user_id":287,"name":"Pudsla","steam_id":76561198258974036,"connected_time":352000000000,"state":"active","ping":45},{"user_id":269,"name":"cool beans","steam_id":76561198045758072,"connected_time":3029000000000,"state":"active","ping":46},{"user_id":192,"name":"Drone #0432 (they/it)","steam_id":76561198027321950,"connected_time":7790000000000,"state":"active","ping":90},{"user_id":298,"name":"Lord Pretty Flocko Jordye","steam_id":76561198962880749,"connected_time":42000000000,"state":"active","ping":71},{"user_id":204,"name":"Lambchop","steam_id":76561198043900363,"connected_time":7209000000000,"state":"active","ping":59},{"user_id":282,"name":"f1a2s3s4","steam_id":76561198228400104,"connected_time":1030000000000,"state":"active","ping":139},{"user_id":283,"name":"EdxTheFig","steam_id":76561198108650109,"connected_time":1014000000000,"state":"active","ping":52},{"user_id":289,"name":"OneMisguidedSlyGuy","steam_id":76561198372243261,"connected_time":297000000000,"state":"active","ping":48},{"user_id":291,"name":"‚Ä∫ We Are You.j2 [NO SOUND]","steam_id":76561197995242200,"connected_time":274000000000,"state":"active","ping":55},{"user_id":257,"name":"Mapachito Lindo","steam_id":76561198031359995,"connected_time":4255000000000,"state":"active","ping":62},{"user_id":293,"name":"A lost cow.","steam_id":76561198047673765,"connected_time":94000000000,"state":"active","ping":80},{"user_id":246,"name":"Ya_Boi_Clapitao","steam_id":76561198274969584,"connected_time":5464000000000,"state":"active","ping":68},{"user_id":292,"name":"Geesemans","steam_id":76561199478892816,"connected_time":136000000000,"state":"active","ping":117},{"user_id":294,"name":"Moon And Star","steam_id":76561198084449092,"connected_time":76000000000,"state":"active","ping":154},{"user_id":276,"name":"Munderscore","steam_id":76561198029168210,"connected_time":1771000000000,"state":"active","ping":73},{"user_id":258,"name":"sincerelymagicmeister","steam_id":76561198393923543,"connected_time":4209000000000,"state":"active","ping":70},{"user_id":278,"name":"ninety9dragonfly","steam_id":76561198363406983,"connected_time":1712000000000,"state":"active","ping":77},{"user_id":295,"name":"The Horny","steam_id":76561198863639459,"connected_time":69000000000,"state":"spawning","ping":76},{"user_id":297,"name":"Panzer Vor","steam_id":76561198435091099,"connected_time":61000000000,"state":"active","ping":56},{"user_id":279,"name":"Choctoling","steam_id":76561198351622498,"connected_time":1674000000000,"state":"active","ping":62},{"user_id":265,"name":"Daddy-O Dizzy","steam_id":76561198292349348,"connected_time":3495000000000,"state":"active","ping":84},{"user_id":267,"name":"pipebombrater","steam_id":76561199029030831,"connected_time":3340000000000,"state":"active","ping":118}]},{"server_id":19,"name":"Uncletopia | San Francisco | 3 | Stopwatch","name_short":"sfo-3","host":"sfo-1.us.uncletopia.com","port":27035,"enabled":true,"region":"us-west","cc":"us","latitude":37.77397,"longitude":-122.4313,"reserved":0,"last_update":"0001-01-01T00:00:00Z","name_a2s":"Uncletopia | San Francisco | 3 | Stopwatch","protocol":17,"map":"workshop/pl_barnblitz_pro7.ugc582280235","folder":"tf","game":"Team Fortress","app_id":440,"player_count":0,"max_players":24,"Bots":0,"server_type":"Dedicated","server_os":"Linux","password":true,"vac":true,"version":"7961495","steam_id":85568392924742824,"keywords":["nocrits","nodmgspread","payload","uncletopia"],"game_id":440,"stv_port":27036,"stv_name":"Uncletopia | San Francisco | 3 | Stopwatch | STV","players":null},{"server_id":20,"name":"Uncletopia | San Francisco | 4 | Community","name_short":"sfo-4","host":"sfo-1.us.uncletopia.com","port":27045,"enabled":true,"region":"us-west","cc":"us","latitude":37.77397,"longitude":-122.4313,"reserved":0,"last_update":"0001-01-01T00:00:00Z","name_a2s":"Uncletopia | San Francisco | 4 | Community","protocol":17,"map":"workshop/koth_bagel_rc6.ugc2514036946","folder":"tf","game":"Team Fortress","app_id":440,"player_count":0,"max_players":24,"Bots":0,"server_type":"Dedicated","server_os":"Linux","password":true,"vac":true,"version":"7961495","steam_id":85568392924742826,"keywords":["cp","nocrits","nodmgspread","uncletopia"],"game_id":440,"stv_port":27046,"stv_name":"Uncletopia | San Francisco | 4 | Community | STV","players":null},{"server_id":141,"name":"Uncletopia | Sydney | 1 | All Maps","name_short":"syd-1","host":"syd-1.au.uncletopia.com","port":27015,"enabled":true,"region":"au","cc":"au","latitude":-33.865143,"longitude":151.2099,"reserved":0,"last_update":"0001-01-01T00:00:00Z","name_a2s":"Uncletopia | Sydney | 1 | All Maps","protocol":17,"map":"pl_borneo","folder":"tf","game":"Team Fortress","app_id":440,"player_count":0,"max_players":24,"Bots":0,"server_type":"Dedicated","server_os":"Linux","password":true,"vac":true,"version":"7961495","steam_id":85568392924470001,"keywords":["nocrits","nodmgspread","payload","uncletopia"],"game_id":440,"stv_port":27016,"stv_name":"Uncletopia | Sydney | 1 | All Maps | STV","players":null},{"server_id":123,"name":"Uncletopia | Sydney | 2 | All Maps","name_short":"syd-2","host":"syd-1.au.uncletopia.com","port":27025,"enabled":true,"region":"au","cc":"au","latitude":-33.865143,"longitude":151.2099,"reserved":0,"last_update":"0001-01-01T00:00:00Z","name_a2s":"Uncletopia | Sydney | 2 | All Maps","protocol":17,"map":"koth_lakeside_final","folder":"tf","game":"Team Fortress","app_id":440,"player_count":0,"max_players":24,"Bots":0,"server_type":"Dedicated","server_os":"Linux","password":true,"vac":true,"version":"7961495","steam_id":85568392924470002,"keywords":["cp","nocrits","nodmgspread","uncletopia"],"game_id":440,"stv_port":27026,"stv_name":"Uncletopia | Sydney | 2 | All Maps | STV","players":null},{"server_id":395,"name":"Uncletopia | Sydney | 3 | All Maps","name_short":"syd-3","host":"syd-1.au.uncletopia.com","port":27035,"enabled":true,"region":"au","cc":"au","latitude":-33.865143,"longitude":151.2099,"reserved":0,"last_update":"0001-01-01T00:00:00Z","name_a2s":"Uncletopia | Sydney | 3 | All Maps","protocol":17,"map":"cp_sunshine","folder":"tf","game":"Team Fortress","app_id":440,"player_count":0,"max_players":24,"Bots":0,"server_type":"Dedicated","server_os":"Linux","password":true,"vac":true,"version":"7961495","steam_id":85568392925194467,"keywords":["cp","nocrits","nodmgspread","uncletopia"],"game_id":440,"stv_port":27036,"stv_name":"Uncletopia | Sydney | 3 | All Maps | STV","players":null},{"server_id":396,"name":"Uncletopia | Sydney | 4 | All Maps","name_short":"syd-4","host":"syd-1.au.uncletopia.com","port":27045,"enabled":true,"region":"au","cc":"au","latitude":-33.865143,"longitude":151.2099,"reserved":0,"last_update":"0001-01-01T00:00:00Z","name_a2s":"Uncletopia | Sydney | 4 | All Maps","protocol":17,"map":"koth_highpass","folder":"tf","game":"Team Fortress","app_id":440,"player_count":0,"max_players":24,"Bots":0,"server_type":"Dedicated","server_os":"Linux","password":true,"vac":true,"version":"7961495","steam_id":85568392925397958,"keywords":["cp","nocrits","nodmgspread","uncletopia"],"game_id":440,"stv_port":27046,"stv_name":"Uncletopia | Sydney | 4 | All Maps | STV","players":null},{"server_id":58,"name":"Uncletopia | Sydney | 5 | Stopwatch","name_short":"syd-5","host":"syd-1.au.uncletopia.com","port":27055,"enabled":true,"region":"au","cc":"au","latitude":-33.865143,"longitude":151.2099,"reserved":0,"last_update":"0001-01-01T00:00:00Z","name_a2s":"Uncletopia | Sydney | 5 | Stopwatch","protocol":17,"map":"pl_frontier_final","folder":"tf","game":"Team Fortress","app_id":440,"player_count":0,"max_players":24,"Bots":0,"server_type":"Dedicated","server_os":"Linux","password":true,"vac":true,"version":"7961495","steam_id":85568392925397959,"keywords":["nocrits","nodmgspread","payload","uncletopia"],"game_id":440,"stv_port":27056,"stv_name":"Uncletopia | Sydney | 5 | Stopwatch | STV","players":null},{"server_id":59,"name":"Uncletopia | Sydney | 6 | Community","name_short":"syd-6","host":"syd-1.au.uncletopia.com","port":27065,"enabled":true,"region":"au","cc":"au","latitude":-33.865143,"longitude":151.2099,"reserved":0,"last_update":"0001-01-01T00:00:00Z","name_a2s":"Uncletopia | Sydney | 6 | Community","protocol":17,"map":"cp_sunshine","folder":"tf","game":"Team Fortress","app_id":440,"player_count":0,"max_players":24,"Bots":0,"server_type":"Dedicated","server_os":"Linux","password":true,"vac":true,"version":"7961495","steam_id":85568392925397960,"keywords":["cp","nocrits","nodmgspread","uncletopia"],"game_id":440,"stv_port":27066,"stv_name":"Uncletopia | Sydney | 6 | Community | STV","players":null},{"server_id":49,"name":"Uncletopia | Warsaw | 1 | One Thousand Uncles","name_short":"waw-1","host":"waw-1.pl.uncletopia.com","port":27015,"enabled":true,"region":"eu","cc":"pl","latitude":52.2297,"longitude":21.017532,"reserved":0,"last_update":"0001-01-01T00:00:00Z","name_a2s":"Uncletopia | Warsaw | 1 | One Thousand Uncles","protocol":17,"map":"koth_highpass","folder":"tf","game":"Team Fortress","app_id":440,"player_count":0,"max_players":32,"Bots":0,"server_type":"Dedicated","server_os":"Linux","password":true,"vac":true,"version":"7961495","steam_id":85568392925397850,"keywords":["alltalk","cp","danepve","increased_maxplayers","nocrits","norespawntime","uncletopia"],"game_id":440,"stv_port":0,"stv_name":"","players":null},{"server_id":50,"name":"Uncletopia | Warsaw | 2 | One Thousand Uncles","name_short":"waw-2","host":"waw-1.pl.uncletopia.com","port":27025,"enabled":true,"region":"eu","cc":"pl","latitude":52.2297,"longitude":21.017532,"reserved":0,"last_update":"0001-01-01T00:00:00Z","name_a2s":"Uncletopia | Warsaw | 2 | One Thousand Uncles","protocol":17,"map":"pl_goldrush","folder":"tf","game":"Team Fortress","app_id":440,"player_count":0,"max_players":32,"Bots":0,"server_type":"Dedicated","server_os":"Linux","password":true,"vac":true,"version":"7961495","steam_id":85568392925397851,"keywords":["alltalk","danepve","increased_maxplayers","nocrits","norespawntime","payload","uncletopia"],"game_id":440,"stv_port":0,"stv_name":"","players":null},{"server_id":51,"name":"Uncletopia | Warsaw | 3 | All Maps","name_short":"waw-3","host":"waw-1.pl.uncletopia.com","port":27035,"enabled":true,"region":"eu","cc":"pl","latitude":52.2297,"longitude":21.017532,"reserved":0,"last_update":"0001-01-01T00:00:00Z","name_a2s":"Uncletopia | Warsaw | 3 | All Maps","protocol":17,"map":"plr_pipeline","folder":"tf","game":"Team Fortress","app_id":440,"player_count":0,"max_players":24,"Bots":0,"server_type":"Dedicated","server_os":"Linux","password":true,"vac":true,"version":"7961495","steam_id":85568392925397852,"keywords":["nocrits","nodmgspread","payload","uncletopia"],"game_id":440,"stv_port":27036,"stv_name":"Uncletopia | Warsaw | 3 | All Maps | STV","players":null},{"server_id":52,"name":"Uncletopia | Warsaw | 4 | All Maps","name_short":"waw-4","host":"waw-1.pl.uncletopia.com","port":27045,"enabled":true,"region":"eu","cc":"pl","latitude":52.2297,"longitude":21.017532,"reserved":0,"last_update":"0001-01-01T00:00:00Z","name_a2s":"Uncletopia | Warsaw | 4 | All Maps","protocol":17,"map":"cp_coldfront","folder":"tf","game":"Team Fortress","app_id":440,"player_count":0,"max_players":24,"Bots":0,"server_type":"Dedicated","server_os":"Linux","password":true,"vac":true,"version":"7961495","steam_id":85568392925397853,"keywords":["cp","nocrits","nodmgspread","uncletopia"],"game_id":440,"stv_port":27046,"stv_name":"Uncletopia | Warsaw | 4 | All Maps | STV","players":null},{"server_id":53,"name":"Uncletopia | Warsaw | 5 | Stopwatch","name_short":"waw-5","host":"waw-1.pl.uncletopia.com","port":27055,"enabled":true,"region":"eu","cc":"pl","latitude":52.2297,"longitude":21.017532,"reserved":0,"last_update":"0001-01-01T00:00:00Z","name_a2s":"Uncletopia | Warsaw | 5 | Stopwatch","protocol":17,"map":"workshop/koth_bagel_rc6.ugc2514036946","folder":"tf","game":"Team Fortress","app_id":440,"player_count":0,"max_players":24,"Bots":0,"server_type":"Dedicated","server_os":"Linux","password":true,"vac":true,"version":"7961495","steam_id":85568392925397854,"keywords":["cp","nocrits","nodmgspread","uncletopia"],"game_id":440,"stv_port":27056,"stv_name":"Uncletopia | Warsaw | 5 | Stopwatch | STV","players":null},{"server_id":54,"name":"Uncletopia | Warsaw | 6 | Community","name_short":"waw-6","host":"waw-1.pl.uncletopia.com","port":27065,"enabled":true,"region":"eu","cc":"pl","latitude":52.2297,"longitude":21.017532,"reserved":0,"last_update":"0001-01-01T00:00:00Z","name_a2s":"Uncletopia | Warsaw | 6 | Community","protocol":17,"map":"workshop/pl_badwater_pro_v12.ugc2142942074","folder":"tf","game":"Team Fortress","app_id":440,"player_count":0,"max_players":24,"Bots":0,"server_type":"Dedicated","server_os":"Linux","password":true,"vac":true,"version":"7961495","steam_id":85568392925397856,"keywords":["nocrits","nodmgspread","payload","uncletopia"],"game_id":440,"stv_port":27066,"stv_name":"Uncletopia | Warsaw | 6 | Community | STV","players":null}]}