{"status":true,"message":"","result":[{"server_id":9,"name":"Uncletopia | Atlanta | 1 | All Maps","name_short":"atl-1","host":"atl-1.us.uncletopia.com","port":27015,"enabled":true,"region":"us-east","cc":"us","latitude":33.753746,"longitude":-84.38633,"reserved":0,"last_update":"0001-01-01T00:00:00Z","name_a2s":"Uncletopia | Atlanta | 1 | All Maps","protocol":17,"map":"cp_dustbowl","folder":"tf","game":"Team Fortress","app_id":440,"player_count":24,"max_players":24,"Bots":0,"server_type":"Dedicated","server_os":"Linux","password":true,"vac":true,"version":"7961495","steam_id":85568392924469982,"keywords":["cp","nocrits","nodmgspread","uncletopia"],"game_id":440,"stv_port":27016,"stv_name":"Uncletopia | Atlanta | 1 | All Maps | STV","players":[{"user_id":379,"name":"Jndu_","steam_id":76561199437710547,"connected_time":449000000000,"state":"active","ping":59},{"user_id":359,"name":"JohnFMX","steam_id":76561198175608097,"connected_time":1809000000000,"state":"active","ping":64},{"user_id":308,"name":"OdysseyTen","steam_id":76561198133082665,"connected_time":6492000000000,"state":"active","ping":68},{"user_id":369,"name":"Winzinf","steam_id":76561198026152232,"connected_time":1388000000000,"state":"active","ping":60},{"user_id":364,"name":"Boter","steam_id":76561198035572821,"connected_time":1641000000000,"state":"active","ping":69},{"user_id":329,"name":"PinkLemonade","steam_id":76561198799286228,"connected_time":4961000000000,"state":"active","ping":71},{"user_id":382,"name":"Artixes","steam_id":76561198379574232,"connected_time":30000000000,"state":"active","ping":27},{"user_id":375,"name":"ATL1 | on my hunting trip","steam_id":76561198315341646,"connected_time":735000000000,"state":"active","ping":77},{"user_id":304,"name":"Xavibite","steam_id":76561198209380493,"connected_time":6833000000000,"state":"active","ping":63},{"user_id":352,"name":"lu","steam_id":76561198080731872,"connected_time":2332000000000,"state":"active","ping":71},{"user_id":381,"name":"Icaras","steam_id":76561198416724843,"connected_time":93000000000,"state":"active","ping":134},{"user_id":377,"name":"zuchima","steam_id":76561198026152104,"connected_time":527000000000,"state":"active","ping":59},{"user_id":322,"name":"CoffeeZombi","steam_id":76561198172708053,"connected_time":5257000000000,"state":"active","ping":66},{"user_id":341,"name":"awakelist","steam_id":76561199129744011,"connected_time":3283000000000,"state":"active","ping":105},{"user_id":378,"name":"KrashBoomBang","steam_id":76561199002978777,"connected_time":507000000000,"state":"active","ping":66},{"user_id":365,"name":"Krillsby","steam_id":76561198079431325,"connected_time":1637000000000,"state":"active","ping":71},{"user_id":307,"name":"trianamarco780","steam_id":76561199084319677,"connected_time":6540000000000,"state":"active","ping":110},{"user_id":360,"name":"Blackwing","steam_id":76561198225732032,"connected_time":1809000000000,"state":"active","ping":52},{"user_id":357,"name":"corviraptor (certified failgirl","steam_id":76561198058284392,"connected_time":1896000000000,"state":"active","ping":86},{"user_id":374,"name":"A Turtle","steam_id":76561198060194520,"connected_time":863000000000,"state":"active","ping":139},{"user_id":367,"name":"toucan","steam_id":76561198016562343,"connected_time":1559000000000,"state":"active","ping":77},{"user_id":339,"name":"DarkenedPolarity","steam_id":76561199073099596,"connected_time":3764000000000,"state":"active","ping":54},{"user_id":337,"name":"paetho YT","steam_id":76561198152690003,"connected_time":3980000000000,"state":"active","ping":46},{"user_id":350,"name":"thomasdee725???","steam_id":76561199189526173,"connected_time":2389000000000,"state":"active","ping":137}]},{"server_id":104,"name":"Uncletopia | Atlanta | 2 | All Maps","name_short":"atl-2","host":"atl-1.us.uncletopia.com","port":27025,"enabled":true,"region":"us-east","cc":"us","latitude":33.753746,"longitude":-84.38633,"reserved":0,"last_update":"0001-01-01T00:00:00Z","name_a2s":"Uncletopia | Atlanta | 2 | All Maps","protocol":17,"map":"pl_badwater","folder":"tf","game":"Team Fortress","app_id":440,"player_count":24,"max_players":24,"Bots":0,"server_type":"Dedicated","server_os":"Linux","password":true,"vac":true,"version":"7961495","steam_id":85568392924469983,"keywords":["nocrits","nodmgspread","payload","uncletopia"],"game_id":440,"stv_port":27026,"stv_name":"Uncletopia | Atlanta | 2 | All Maps | STV","players":[{"user_id":381,"name":"Trenbolone Acetate","steam_id":76561198353869378,"connected_time":371000000000,"state":"active","ping":50},{"user_id":320,"name":"Tideflat","steam_id":76561198179850851,"connected_time":4160000000000,"state":"active","ping":133},{"user_id":364,"name":"IsleBound","steam_id":76561198278451717,"connected_time":1263000000000,"state":"active","ping":75},{"user_id":383,"name":"Barmy","steam_id":76561198111626352,"connected_time":114000000000,"state":"active","ping":66},{"user_id":239,"name":"Baconator","steam_id":76561198941700660,"connected_time":10227000000000,"state":"active","ping":91},{"user_id":384,"name":"Rochelle","steam_id":76561199104733276,"connected_time":112000000000,"state":"active","ping":65},{"user_id":362,"name":"Crayfry","steam_id":76561198146525237,"connected_time":1379000000000,"state":"active","ping":60},{"user_id":327,"name":"ragu","steam_id":76561198004882625,"connected_time":3609000000000,"state":"active","ping":104},{"user_id":377,"name":"The_atom_bomb","steam_id":76561198139944683,"connected_time":927000000000,"state":"active","ping":68},{"user_id":382,"name":"IlikeChowMien","steam_id":76561199466131782,"connected_time":334000000000,"state":"active","ping":83},{"user_id":366,"name":"scarecr0wzz","steam_id":76561198416218389,"connected_time":1260000000000,"state":"active","ping":72},{"user_id":328,"name":"KYLE KYLESON","steam_id":76561198021920887,"connected_time":3604000000000,"state":"active","ping":60},{"user_id":385,"name":"talented","steam_id":76561198800259660,"connected_time":50000000000,"state":"spawning","ping":51},{"user_id":370,"name":"b4rry","steam_id":76561198365887154,"connected_time":1192000000000,"state":"active","ping":75},{"user_id":361,"name":"EnDemoknight_TF2","steam_id":76561198136059961,"connected_time":1555000000000,"state":"active","ping":65},{"user_id":357,"name":"BrawlingBuckaroo","steam_id":76561199067026847,"connected_time":2134000000000,"state":"active","ping":89},{"user_id":352,"name":"Ahaboda","steam_id":76561198987200640,"connected_time":2443000000000,"state":"active","ping":78},{"user_id":367,"name":"turtlewho","steam_id":76561199071366637,"connected_time":1213000000000,"state":"active","ping":59},{"user_id":375,"name":"jallo","steam_id":76561199274158922,"connected_time":1034000000000,"state":"active","ping":115},{"user_id":376,"name":"Dr Gregory House, MD","steam_id":76561198986281248,"connected_time":956000000000,"state":"active","ping":71},{"user_id":345,"name":"Pi Guy","steam_id":76561199071784224,"connected_time":2959000000000,"state":"active","ping":94},{"user_id":360,"name":"lalalemons","steam_id":76561198243965308,"connected_time":1689000000000,"state":"active","ping":95},{"user_id":380,"name":"Oxygen User","steam_id":76561199111975528,"connected_time":447000000000,"state":"active","ping":59},{"user_id":373,"name":"Isaac Goldstein","steam_id":76561198094538336,"connected_time":1156000000000,"state":"active","ping":96}]},{"server_id":400,"name":"Uncletopia | Atlanta | 3 | Stopwatch","name_short":"atl-3","host":"atl-1.us.uncletopia.com","port":27035,"enabled":true,"region":"us-east","cc":"us","latitude":33.753746,"longitude":-84.38633,"reserved":0,"last_update":"0001-01-01T00:00:00Z","name_a2s":"Uncletopia | Atlanta | 3 | Stopwatch","protocol":17,"map":"workshop/cp_reckoner_rc6.ugc674719999","folder":"tf","game":"Team Fortress","app_id":440,"player_count":0,"max_players":24,"Bots":0,"server_type":"Dedicated","server_os":"Linux","password":true,"vac":true,"version":"7961495","steam_id":85568392924515187,"keywords":["cp","nocrits","nodmgspread","uncletopia"],"game_id":440,"stv_port":27036,"stv_name":"Uncletopia | Atlanta | 3 | Stopwatch | STV","players":null},{"server_id":401,"name":"Uncletopia | Atlanta | 4 | Community","name_short":"atl-4","host":"atl-1.us.uncletopia.com","port":27045,"enabled":true,"region":"us-east","cc":"us","latitude":33.753746,"longitude":-84.38633,"reserved":0,"last_update":"0001-01-01T00:00:00Z","name_a2s":"Uncletopia | Atlanta | 4 | Community","protocol":17,"map":"workshop/pl_barnblitz_pro7.ugc582280235","folder":"tf","game":"Team Fortress","app_id":440,"player_count":0,"max_players":24,"Bots":0,"server_type":"Dedicated","server_os":"Linux","password":true,"vac":true,"version":"7961495","steam_id":85568392924515188,"keywords":["nocrits","nodmgspread","payload","uncletopia"],"game_id":440,"stv_port":27046,"stv_name":"Uncletopia | Atlanta | 4 | Community | STV","players":null},{"server_id":2,"name":"Uncletopia | Chicago | 1 | All Maps","name_short":"chi-1","host":"chi-1.us.uncletopia.com","port":27015,"enabled":true,"region":"us-central","cc":"us","latitude":41.881832,"longitude":-87.62318,"reserved":0,"last_update":"0001-01-01T00:00:00Z","name_a2s":"Uncletopia | Chicago | 1 | All Maps","protocol":17,"map":"pl_upward","folder":"tf","game":"Team Fortress","app_id":440,"player_count":24,"max_players":24,"Bots":0,"server_type":"Dedicated","server_os":"Linux","password":true,"vac":true,"version":"7961495","steam_id":85568392924469984,"keywords":["nocrits","nodmgspread","payload","uncletopia"],"game_id":440,"stv_port":27016,"stv_name":"Uncletopia | Chicago | 1 | All Maps | STV","players":[{"user_id":486,"name":"Daehypeels","steam_id":76561198268981599,"connected_time":5789000000000,"state":"active","ping":67},{"user_id":539,"name":"frank","steam_id":76561198045436159,"connected_time":2316000000000,"state":"active","ping":64},{"user_id":538,"name":"Sone","steam_id":76561198069601032,"connected_time":2490000000000,"state":"active","ping":71},{"user_id":546,"name":"101_the_Robot","steam_id":76561198331039848,"connected_time":1543000000000,"state":"active","ping":89},{"user_id":553,"name":"bomba","steam_id":76561198301585642,"connected_time":1036000000000,"state":"active","ping":57},{"user_id":554,"name":"Kiko._.","steam_id":76561199116816452,"connected_time":1005000000000,"state":"active","ping":62},{"user_id":550,"name":"Leonidas","steam_id":76561198398004258,"connected_time":1359000000000,"state":"active","ping":70},{"user_id":545,"name":"prisxma","steam_id":76561198055682838,"connected_time":1588000000000,"state":"active","ping":56},{"user_id":540,"name":"[El Fail] MR.BadassMCLee","steam_id":76561198043787818,"connected_time":2233000000000,"state":"active","ping":114},{"user_id":558,"name":"rickyrickyricky","steam_id":76561198041765918,"connected_time":517000000000,"state":"active","ping":75},{"user_id":559,"name":"Kracko","steam_id":76561198240580798,"connected_time":339000000000,"state":"active","ping":60},{"user_id":542,"name":"suns","steam_id":76561198079583278,"connected_time":1742000000000,"state":"active","ping":59},{"user_id":549,"name":"._.","steam_id":76561198820617005,"connected_time":1453000000000,"state":"active","ping":120},{"user_id":528,"name":"DinkleBerg","steam_id":76561198891626233,"connected_time":3385000000000,"state":"active","ping":69},{"user_id":536,"name":"rin","steam_id":76561198155841915,"connected_time":2509000000000,"state":"active","ping":67},{"user_id":529,"name":"Owen","steam_id":76561198025446908,"connected_time":3382000000000,"state":"active","ping":65},{"user_id":548,"name":"Pyrovision Distributor","steam_id":76561198242118240,"connected_time":1540000000000,"state":"active","ping":46},{"user_id":560,"name":"lilscot","steam_id":76561198099212453,"connected_time":180000000000,"state":"active","ping":71},{"user_id":561,"name":"Piss God","steam_id":76561198090504334,"connected_time":16000000000,"state":"spawning","ping":88},{"user_id":562,"name":"Milkmur","steam_id":76561198210043821,"connected_time":5000000000,"state":"spawning","ping":45},{"user_id":526,"name":"Shulgin_4-HO_MET","steam_id":76561198038784254,"connected_time":3477000000000,"state":"active","ping":62},{"user_id":541,"name":"Kilphax","steam_id":76561197993814144,"connected_time":1762000000000,"state":"active","ping":58},{"user_id":557,"name":"Laventhey","steam_id":76561198977523626,"connected_time":605000000000,"state":"active","ping":68},{"user_id":544,"name":"National anti-aerial defense","steam_id":76561198329179651,"connected_time":1603000000000,"state":"active","ping":110}]},{"server_id":106,"name":"Uncletopia | Chicago | 2 | All Maps","name_short":"chi-2","host":"chi-1.us.uncletopia.com","port":27025,"enabled":true,"region":"us-central","cc":"us","latitude":41.881832,"longitude":-87.62318,"reserved":0,"last_update":"0001-01-01T00:00:00Z","name_a2s":"Uncletopia | Chicago | 2 | All Maps","protocol":17,"map":"koth_viaduct","folder":"tf","game":"Team Fortress","app_id":440,"player_count":23,"max_players":24,"Bots":0,"server_type":"Dedicated","server_os":"Linux","password":true,"vac":true,"version":"7961495","steam_id":85568392924469985,"keywords":["cp","nocrits","nodmgspread","uncletopia"],"game_id":440,"stv_port":27026,"stv_name":"Uncletopia | Chicago | 2 | All Maps | STV","players":[{"user_id":334,"name":"troll","steam_id":76561198082680563,"connected_time":1249000000000,"state":"active","ping":59},{"user_id":339,"name":"bob","steam_id":76561198274522348,"connected_time":735000000000,"state":"active","ping":58},{"user_id":344,"name":"Shrebbie","steam_id":76561198875230824,"connected_time":477000000000,"state":"active","ping":56},{"user_id":350,"name":"what the freak","steam_id":76561198080754727,"connected_time":93000000000,"state":"active","ping":92},{"user_id":333,"name":"goldenninja76","steam_id":76561198123341944,"connected_time":1731000000000,"state":"active","ping":70},{"user_id":347,"name":"BOT Fred","steam_id":76561198367664346,"connected_time":150000000000,"state":"active","ping":59},{"user_id":312,"name":"Goomby","steam_id":76561198079416561,"connected_time":3109000000000,"state":"active","ping":110},{"user_id":255,"name":"OH BOY","steam_id":76561199052273428,"connected_time":4873000000000,"state":"active","ping":45},{"user_id":287,"name":"Ｓｈｎｅｓｈ","steam_id":76561198826005248,"connected_time":3837000000000,"state":"active","ping":157},{"user_id":325,"name":"moson","steam_id":76561198043943405,"connected_time":2397000000000,"state":"active","ping":108},{"user_id":351,"name":"⸸ gaige ⛧","steam_id":76561198090576796,"connected_time":80000000000,"state":"active","ping":48},{"user_id":258,"name":"astrobob911","steam_id":76561199099110654,"connected_time":4784000000000,"state":"active","ping":60},{"user_id":310,"name":"Chris P. Bacon","steam_id":76561198000851038,"connected_time":3187000000000,"state":"active","ping":75},{"user_id":341,"name":"Kartyac","steam_id":76561197991069005,"connected_time":597000000000,"state":"active","ping":78},{"user_id":340,"name":"Telly G","steam_id":76561198049592405,"connected_time":676000000000,"state":"active","ping":96},{"user_id":352,"name":"PageBoiSkull","steam_id":76561198237353578,"connected_time":65000000000,"state":"active","ping":118},{"user_id":345,"name":"WhoAteMyDonut1","steam_id":76561198353757530,"connected_time":320000000000,"state":"active","ping":92},{"user_id":335,"name":"Vodka Slut","steam_id":76561198079594847,"connected_time":1242000000000,"state":"active","ping":60},{"user_id":251,"name":"MoiMoi","steam_id":76561198873850038,"connected_time":5323000000000,"state":"active","ping":74},{"user_id":252,"name":"/G/ Punish ♥ 牧濑红莉栖","steam_id":76561198207987376,"connected_time":5311000000000,"state":"active","ping":48},{"user_id":264,"name":"Master Of Whales","steam_id":76561198349104889,"connected_time":4232000000000,"state":"active","ping":111},{"user_id":266,"name":"TheHumanTaco119","steam_id":76561198996107520,"connected_time":4220000000000,"state":"active","ping":124},{"user_id":336,"name":"elpful","steam_id":76561198189659530,"connected_time":1215000000000,"state":"active","ping":74}]},{"server_id":402,"name":"Uncletopia | Chicago | 3 | All Maps","name_short":"chi-3","host":"chi-1.us.uncletopia.com","port":27035,"enabled":true,"region":"us-central","cc":"us","latitude":41.881832,"longitude":-87.62318,"reserved":0,"last_update":"0001-01-01T00:00:00Z","name_a2s":"Uncletopia | Chicago | 3 | All Maps","protocol":17,"map":"koth_lakeside_final","folder":"tf","game":"Team Fortress","app_id":440,"player_count":24,"max_players":24,"Bots":0,"server_type":"Dedicated","server_os":"Linux","password":true,"vac":true,"version":"7961495","steam_id":85568392924515191,"keywords":["cp","nocrits","nodmgspread","uncletopia"],"game_id":440,"stv_port":27036,"stv_name":"Uncletopia | Chicago | 3 | All Maps | STV","players":[{"user_id":156,"name":"START PRAYIN BOY","steam_id":76561198089173996,"connected_time":364000000000,"state":"active","ping":76},{"user_id":141,"name":"Lunagriff","steam_id":76561198036889008,"connected_time":873000000000,"state":"active","ping":81},{"user_id":148,"name":"Xiria","steam_id":76561198187268207,"connected_time":688000000000,"state":"active","ping":127},{"user_id":152,"name":"biden cart 15 dollars","steam_id":76561198253731826,"connected_time":600000000000,"state":"active","ping":58},{"user_id":158,"name":"󠀡󠀡","steam_id":76561199324961605,"connected_time":152000000000,"state":"active","ping":47},{"user_id":125,"name":"Kilian","steam_id":76561197964374101,"connected_time":2775000000000,"state":"active","ping":101},{"user_id":154,"name":"The Looker","steam_id":76561198272961376,"connected_time":548000000000,"state":"active","ping":80},{"user_id":146,"name":"Fredrick","steam_id":76561197981419964,"connected_time":762000000000,"state":"active","ping":69},{"user_id":82,"name":"FROYO donovin","steam_id":76561198045679387,"connected_time":4972000000000,"state":"active","ping":44},{"user_id":83,"name":"Evelynn the Fox","steam_id":76561198050946208,"connected_time":4966000000000,"state":"active","ping":81},{"user_id":137,"name":"otwtomarsoffdabars(spacecore)","steam_id":76561199085974120,"connected_time":1670000000000,"state":"active","ping":77},{"user_id":159,"name":"leumas","steam_id":76561198240408540,"connected_time":150000000000,"state":"active","ping":76},{"user_id":120,"name":"No, this is Patrick","steam_id":76561198058776774,"connected_time":3282000000000,"state":"active","ping":48},{"user_id":88,"name":"LerN","steam_id":76561198083463877,"connected_time":4831000000000,"state":"active","ping":56},{"user_id":45,"name":"Bluedemon","steam_id":76561199212058684,"connected_time":7190000000000,"state":"active","ping":110},{"user_id":160,"name":"doubleshare","steam_id":76561198024472046,"connected_time":15000000000,"state":"active","ping":67},{"user_id":126,"name":"shadow6","steam_id":76561197979807910,"connected_time":2666000000000,"state":"active","ping":93},{"user_id":157,"name":"Bluedot","steam_id":76561198019909639,"connected_time":219000000000,"state":"active","ping":60},{"user_id":96,"name":"DualiTea","steam_id":76561198081733870,"connected_time":4512000000000,"state":"active","ping":57},{"user_id":135,"name":"The Rat Bastard","steam_id":76561198112705880,"connected_time":1895000000000,"state":"active","ping":92},{"user_id":139,"name":"River","steam_id":76561198053962431,"connected_time":1061000000000,"state":"active","ping":87},{"user_id":155,"name":"Soda","steam_id":76561198219209367,"connected_time":439000000000,"state":"active","ping":60},{"user_id":140,"name":"Bewtee","steam_id":76561198146745998,"connected_time":1017000000000,"state":"active","ping":75},{"user_id":151,"name":"jimmyfnaf172198yay","steam_id":76561198311446636,"connected_time":664000000000,"state":"active","ping":65}]},{"server_id":403,"name":"Uncletopia | Chicago | 4 | All Maps","name_short":"chi-4","host":"chi-1.us.uncletopia.com","port":27045,"enabled":true,"region":"us-central","cc":"us","latitude":41.881832,"longitude":-87.62318,"reserved":0,"last_update":"0001-01-01T00:00:00Z","name_a2s":"Uncletopia | Chicago | 4 | All Maps","protocol":17,"map":"pl_goldrush","folder":"tf","game":"Team Fortress","app_id":440,"player_count":24,"max_players":24,"Bots":0,"server_type":"Dedicated","server_os":"Linux","password":true,"vac":true,"version":"7961495","steam_id":85568392924515193,"keywords":["nocrits","nodmgspread","payload","uncletopia"],"game_id":440,"stv_port":27046,"stv_name":"Uncletopia | Chicago | 4 | All Maps | STV","players":[{"user_id":386,"name":"fifionet","steam_id":76561198026618085,"connected_time":637000000000,"state":"active","ping":158},{"user_id":389,"name":"MechanizedCanine","steam_id":76561198103815371,"connected_time":577000000000,"state":"active","ping":77},{"user_id":393,"name":"Ace Chromatica","steam_id":76561198042211131,"connected_time":468000000000,"state":"active","ping":76},{"user_id":336,"name":"Typh","steam_id":76561198315344079,"connected_time":4092000000000,"state":"active","ping":77},{"user_id":345,"name":"while(1)","steam_id":76561198000876529,"connected_time":3593000000000,"state":"active","ping":59},{"user_id":333,"name":"MedRed™ #IATAH","steam_id":76561198002962970,"connected_time":4544000000000,"state":"active","ping":91},{"user_id":392,"name":"iCarly Lore Expert","steam_id":76561198111902910,"connected_time":511000000000,"state":"active","ping":69},{"user_id":387,"name":"GuyGoom","steam_id":76561198254522178,"connected_time":594000000000,"state":"active","ping":59},{"user_id":402,"name":"The Announcer's Feet","steam_id":76561199501227879,"connected_time":183000000000,"state":"active","ping":83},{"user_id":403,"name":"Sheev Palpatine","steam_id":76561198252332430,"connected_time":154000000000,"state":"active","ping":64},{"user_id":390,"name":"the.land.of.avalon","steam_id":76561198245431668,"connected_time":573000000000,"state":"active","ping":55},{"user_id":394,"name":"..!","steam_id":76561198882483441,"connected_time":384000000000,"state":"active","ping":90},{"user_id":385,"name":"Sylvain","steam_id":76561198113385271,"connected_time":733000000000,"state":"active","ping":76},{"user_id":398,"name":"HundchenTanque","steam_id":76561198122692754,"connected_time":340000000000,"state":"active","ping":50},{"user_id":396,"name":"LogicGate","steam_id":76561199189481990,"connected_time":379000000000,"state":"active","ping":83},{"user_id":397,"name":"Vega","steam_id":76561198141126883,"connected_time":372000000000,"state":"active","ping":91},{"user_id":400,"name":"Grimm - (RIP Rick May/Kitty0706","steam_id":76561199050642411,"connected_time":276000000000,"state":"active","ping":92},{"user_id":401,"name":"dadgummit","steam_id":76561198005806915,"connected_time":206000000000,"state":"active","ping":60},{"user_id":366,"name":"Dom","steam_id":76561198156431338,"connected_time":2664000000000,"state":"active","ping":48},{"user_id":404,"name":"105 ° AntiCheatv4","steam_id":76561198408747483,"connected_time":97000000000,"state":"active","ping":76},{"user_id":405,"name":"Live","steam_id":76561198003194656,"connected_time":85000000000,"state":"active","ping":53},{"user_id":406,"name":"Monty","steam_id":76561197993567253,"connected_time":74000000000,"state":"active","ping":105},{"user_id":407,"name":"BongHits4Africa","steam_id":76561198212533685,"connected_time":46000000000,"state":"active","ping":72},{"user_id":408,"name":"twitch.tv/kegaman_","steam_id":76561198043632775,"connected_time":45000000000,"state":"active","ping":101}]},{"server_id":36,"name":"Uncletopia | Chicago | 5 | All Maps","name_short":"chi-5","host":"chi-2.us.uncletopia.com","port":27015,"enabled":true,"region":"us-central","cc":"us","latitude":41.881832,"longitude":-87.62318,"reserved":0,"last_update":"0001-01-01T00:00:00Z","name_a2s":"Uncletopia | Chicago | 5 | All Maps","protocol":17,"map":"pl_barnblitz","folder":"tf","game":"Team Fortress","app_id":440,"player_count":24,"max_players":24,"Bots":0,"server_type":"Dedicated","server_os":"Linux","password":true,"vac":true,"version":"7961495","steam_id":85568392924866362,"keywords":["nocrits","nodmgspread","payload","uncletopia"],"game_id":440,"stv_port":27016,"stv_name":"Uncletopia | Chicago | 5 | All Maps | STV","players":[{"user_id":219,"name":"NotASliceOfToast","steam_id":76561199060935194,"connected_time":3448000000000,"state":"active","ping":46},{"user_id":246,"name":"Boxcars","steam_id":76561198120978767,"connected_time":1226000000000,"state":"active","ping":100},{"user_id":262,"name":"Pinkie Pie","steam_id":76561198957996236,"connected_time":507000000000,"state":"active","ping":61},{"user_id":259,"name":"when","steam_id":76561198443289583,"connected_time":563000000000,"state":"active","ping":51},{"user_id":243,"name":"gen","steam_id":76561199118569153,"connected_time":1760000000000,"state":"active","ping":57},{"user_id":142,"name":"V","steam_id":76561199223266577,"connected_time":9342000000000,"state":"active","ping":92},{"user_id":220,"name":"Keylix","steam_id":76561198040371331,"connected_time":3435000000000,"state":"active","ping":71},{"user_id":216,"name":"gothpapa","steam_id":76561198452122510,"connected_time":3511000000000,"state":"active","ping":60},{"user_id":254,"name":"icecxld","steam_id":76561198079018805,"connected_time":591000000000,"state":"active","ping":69},{"user_id":208,"name":"Just washed","steam_id":76561199030160932,"connected_time":5131000000000,"state":"active","ping":78},{"user_id":255,"name":"zy","steam_id":76561199339997328,"connected_time":587000000000,"state":"active","ping":79},{"user_id":202,"name":"Miruko","steam_id":76561198014724033,"connected_time":5420000000000,"state":"active","ping":85},{"user_id":256,"name":"champagne","steam_id":76561198097007522,"connected_time":583000000000,"state":"active","ping":88},{"user_id":233,"name":"erem2k","steam_id":76561198079020059,"connected_time":1993000000000,"state":"active","ping":47},{"user_id":251,"name":"the creature","steam_id":76561199015635037,"connected_time":798000000000,"state":"active","ping":82},{"user_id":257,"name":"CJDGuy","steam_id":76561198213009545,"connected_time":582000000000,"state":"active","ping":69},{"user_id":258,"name":"TATARA","steam_id":76561199098759517,"connected_time":579000000000,"state":"active","ping":120},{"user_id":265,"name":"ya ya breathe","steam_id":76561198075858067,"connected_time":39000000000,"state":"active","ping":63},{"user_id":189,"name":"Jay","steam_id":76561198055227546,"connected_time":6511000000000,"state":"active","ping":73},{"user_id":263,"name":"Magnet Dood","steam_id":76561198364178746,"connected_time":487000000000,"state":"active","ping":59},{"user_id":260,"name":"BlueSpy","steam_id":76561198134707089,"connected_time":562000000000,"state":"active","ping":71},{"user_id":250,"name":"Limitless","steam_id":76561198057139998,"connected_time":905000000000,"state":"active","ping":86},{"user_id":239,"name":"Uncle Kirk","steam_id":76561198200909977,"connected_time":1960000000000,"state":"active","ping":76},{"user_id":240,"name":"Grify","steam_id":76561198012292317,"connected_time":1957000000000,"state":"active","ping":87}]},{"server_id":37,"name":"Uncletopia | Chicago | 6 | All Maps","name_short":"chi-6","host":"chi-2.us.uncletopia.com","port":27025,"enabled":true,"region":"us-central","cc":"us","latitude":41.881832,"longitude":-87.62318,"reserved":0,"last_update":"0001-01-01T00:00:00Z","name_a2s":"Uncletopia | Chicago | 6 | All Maps","protocol":17,"map":"pl_borneo","folder":"tf","game":"Team Fortress","app_id":440,"player_count":0,"max_players":24,"Bots":0,"server_type":"Dedicated","server_os":"Linux","password":true,"vac":true,"version":"7961495","steam_id":85568392924866363,"keywords":["nocrits","nodmgspread","payload","uncletopia"],"game_id":440,"stv_port":27026,"stv_name":"Uncletopia | Chicago | 6 | All Maps | STV","players":null},{"server_id":38,"name":"Uncletopia | Chicago | 7 | Stopwatch","name_short":"chi-7","host":"chi-2.us.uncletopia.com","port":27035,"enabled":true,"region":"us-central","cc":"us","latitude":41.881832,"longitude":-87.62318,"reserved":0,"last_update":"0001-01-01T00:00:00Z","name_a2s":"Uncletopia | Chicago | 7 | Stopwatch","protocol":17,"map":"pl_upward","folder":"tf","game":"Team Fortress","app_id":440,"player_count":0,"max_players":24,"Bots":0,"server_type":"Dedicated","server_os":"Linux","password":true,"vac":true,"version":"7961495","steam_id":85568392924866364,"keywords":["nocrits","nodmgspread","payload","uncletopia"],"game_id":440,"stv_port":27036,"stv_name":"Uncletopia | Chicago | 7 | Stopwatch | STV","players":null},{"server_id":39,"name":"Uncletopia | Chicago | 8 | Community","name_short":"chi-8","host":"chi-2.us.uncletopia.com","port":27045,"enabled":true,"region":"us-central","cc":"us","latitude":41.881832,"longitude":-87.62318,"reserved":0,"last_update":"0001-01-01T00:00:00Z","name_a2s":"Uncletopia | Chicago | 8 | Community","protocol":17,"map":"workshop/cp_caldera_rc3.ugc2834196889","folder":"tf","game":"Team Fortress","app_id":440,"player_count":0,"max_players":24,"Bots":0,"server_type":"Dedicated","server_os":"Linux","password":true,"vac":true,"version":"7961495","steam_id":85568392924866365,"keywords":["cp","nocrits","nodmgspread","uncletopia"],"game_id":440,"stv_port":27046,"stv_name":"Uncletopia | Chicago | 8 | Community | STV","players":null},{"server_id":8,"name":"Uncletopia | Dallas | 1 | All Maps","name_short":"dal-1","host":"dal-1.us.uncletopia.com","port":27015,"enabled":true,"region":"us-central","cc":"us","latitude":32.779167,"longitude":-96.80889,"reserved":0,"last_update":"0001-01-01T00:00:00Z","name_a2s":"Uncletopia | Dallas | 1 | All Maps","protocol":17,"map":"cp_snakewater_final1","folder":"tf","game":"Team Fortress","app_id":440,"player_count":23,"max_players":24,"Bots":0,"server_type":"Dedicated","server_os":"Linux","password":true,"vac":true,"version":"7961495","steam_id":85568392924469986,"keywords":["cp","nocrits","nodmgspread","uncletopia"],"game_id":440,"stv_port":27016,"stv_name":"Uncletopia | Dallas | 1 | All Maps | STV","players":[{"user_id":237,"name":"The Disciple","steam_id":76561198169219561,"connected_time":4176000000000,"state":"connecting","ping":92},{"user_id":276,"name":"Evan","steam_id":76561198822242810,"connected_time":2245000000000,"state":"connecting","ping":85},{"user_id":286,"name":"d4ngerd4n","steam_id":76561198043758735,"connected_time":1103000000000,"state":"connecting","ping":103},{"user_id":295,"name":"therealmrstarfish","steam_id":76561198974482075,"connected_time":864000000000,"state":"connecting","ping":74},{"user_id":297,"name":"Mer","steam_id":76561198192171041,"connected_time":659000000000,"state":"connecting","ping":136},{"user_id":300,"name":"hypnotize","steam_id":76561198359634841,"connected_time":25000000000,"state":"connecting","ping":81},{"user_id":287,"name":"Greg Boberton 2012","steam_id":76561198983566026,"connected_time":1096000000000,"state":"connecting","ping":118},{"user_id":174,"name":"THE DARKNESS","steam_id":76561198311004039,"connected_time":7697000000000,"state":"connecting","ping":124},{"user_id":133,"name":"errant","steam_id":76561197961758410,"connected_time":10102000000000,"state":"connecting","ping":57},{"user_id":301,"name":"emerge","steam_id":76561198186882891,"connected_time":24000000000,"state":"connecting","ping":115},{"user_id":298,"name":"pim","steam_id":76561198095163441,"connected_time":461000000000,"state":"connecting","ping":61},{"user_id":285,"name":"Wooden E","steam_id":76561198020308956,"connected_time":1104000000000,"state":"connecting","ping":78},{"user_id":266,"name":"ᴛᴏʀᴛᴜʀᴇᴅsᴏᴜʟ","steam_id":76561198206662424,"connected_time":2821000000000,"state":"connecting","ping":104},{"user_id":245,"name":"jayeezy","steam_id":76561198118562391,"connected_time":3605000000000,"state":"connecting","ping":59},{"user_id":296,"name":"Bogey","steam_id":76561198096227944,"connected_time":756000000000,"state":"connecting","ping":53},{"user_id":178,"name":"goblin","steam_id":76561199004451589,"connected_time":7377000000000,"state":"connecting","ping":55},{"user_id":292,"name":"SanitysEdge","steam_id":76561198130732813,"connected_time":1008000000000,"state":"connecting","ping":83},{"user_id":284,"name":"fish","steam_id":76561198111396488,"connected_time":1111000000000,"state":"connecting","ping":45},{"user_id":280,"name":"McDonald","steam_id":76561199028533497,"connected_time":2081000000000,"state":"connecting","ping":87},{"user_id":222,"name":"FreonAddict9x19","steam_id":76561198060010824,"connected_time":4644000000000,"state":"connecting","ping":95},{"user_id":281,"name":"mu","steam_id":76561197997530228,"connected_time":1890000000000,"state":"connecting","ping":118},{"user_id":299,"name":"MAN I CAN'T COMPLAIN","steam_id":76561198111925708,"connected_time":220000000000,"state":"connecting","ping":75},{"user_id":293,"name":"Linguine Alfredo","steam_id":76561198022045816,"connected_time":1005000000000,"state":"connecting","ping":90}]},{"server_id":108,"name":"Uncletopia | Dallas | 2 | All Maps","name_short":"dal-2","host":"dal-1.us.uncletopia.com","port":27025,"enabled":true,"region":"us-central","cc":"us","latitude":32.779167,"longitude":-96.80889,"reserved":0,"last_update":"0001-01-01T00:00:00Z","name_a2s":"Uncletopia | Dallas | 2 | All Maps","protocol":17,"map":"cp_altitude","folder":"tf","game":"Team Fortress","app_id":440,"player_count":24,"max_players":24,"Bots":0,"server_type":"Dedicated","server_os":"Linux","password":true,"vac":true,"version":"7961495","steam_id":85568392924469988,"keywords":["cp","nocrits","nodmgspread","uncletopia"],"game_id":440,"stv_port":27026,"stv_name":"Uncletopia | Dallas | 2 | All Maps | STV","players":[{"user_id":327,"name":"DMM","steam_id":76561198065426171,"connected_time":1226000000000,"state":"active","ping":53},{"user_id":298,"name":"PostBASH","steam_id":76561199194134673,"connected_time":3392000000000,"state":"active","ping":52},{"user_id":328,"name":"Major Woody","steam_id":76561198835541533,"connected_time":1166000000000,"state":"active","ping":62},{"user_id":333,"name":"Goofy Goober","steam_id":76561198065361279,"connected_time":853000000000,"state":"active","ping":89},{"user_id":337,"name":"Bro D. Foxx","steam_id":76561198859557921,"connected_time":545000000000,"state":"active","ping":90},{"user_id":352,"name":"Yayboo Bear","steam_id":76561197990770266,"connected_time":211000000000,"state":"active","ping":57},{"user_id":320,"name":"Melt","steam_id":76561197987214550,"connected_time":1866000000000,"state":"active","ping":70},{"user_id":350,"name":"Ethanol Buttchugger","steam_id":76561199127590316,"connected_time":265000000000,"state":"active","ping":81},{"user_id":318,"name":"Menacing","steam_id":76561198009093788,"connected_time":1890000000000,"state":"active","ping":50},{"user_id":334,"name":"TOXIC PLAYER #KILLTF2","steam_id":76561199509493760,"connected_time":851000000000,"state":"active","ping":83},{"user_id":335,"name":"Lebron James","steam_id":76561198046272302,"connected_time":816000000000,"state":"active","ping":86},{"user_id":346,"name":"sofia \u003c3","steam_id":76561198982584470,"connected_time":401000000000,"state":"active","ping":60},{"user_id":351,"name":"Panda Loser","steam_id":76561198828745176,"connected_time":229000000000,"state":"active","ping":87},{"user_id":356,"name":"Derblitz","steam_id":76561198040953176,"connected_time":53000000000,"state":"active","ping":88},{"user_id":322,"name":"slayer","steam_id":76561198017543156,"connected_time":1757000000000,"state":"active","ping":60},{"user_id":278,"name":"Rob","steam_id":76561199187786660,"connected_time":4480000000000,"state":"active","ping":51},{"user_id":250,"name":"EMPTY WITCH","steam_id":76561198068800572,"connected_time":7013000000000,"state":"active","ping":102},{"user_id":342,"name":"Harry Spotter","steam_id":76561198115714484,"connected_time":458000000000,"state":"active","ping":105},{"user_id":343,"name":"Deoxis110","steam_id":76561198997269000,"connected_time":448000000000,"state":"active","ping":166},{"user_id":38,"name":"Tony","steam_id":76561198169799653,"connected_time":18356000000000,"state":"active","ping":61},{"user_id":348,"name":"rilby","steam_id":76561198132755619,"connected_time":275000000000,"state":"active","ping":64},{"user_id":354,"name":"Scout","steam_id":76561199090100417,"connected_time":177000000000,"state":"active","ping":69},{"user_id":345,"name":"Rhutebeer","steam_id":76561198018302761,"connected_time":408000000000,"state":"active","ping":73},{"user_id":349,"name":"Pickles","steam_id":76561198010609340,"connected_time":270000000000,"state":"active","ping":65}]},{"server_id":404,"name":"Uncletopia | Dallas | 3 | All Maps","name_short":"dal-3","host":"dal-1.us.uncletopia.com","port":27035,"enabled":true,"region":"us-central","cc":"us","latitude":32.779167,"longitude":-96.80889,"reserved":0,"last_update":"0001-01-01T00:00:00Z","name_a2s":"Uncletopia | Dallas | 3 | All Maps","protocol":17,"map":"pl_pier","folder":"tf","game":"Team Fortress","app_id":440,"player_count":24,"max_players":24,"Bots":0,"server_type":"Dedicated","server_os":"Linux","password":true,"vac":true,"version":"7961495","steam_id":85568392924515219,"keywords":["nocrits","nodmgspread","payload","uncletopia"],"game_id":440,"stv_port":27036,"stv_name":"Uncletopia | Dallas | 3 | All Maps | STV","players":[{"user_id":363,"name":"Certified Hood Classic","steam_id":76561199086159354,"connected_time":2973000000000,"state":"active","ping":57},{"user_id":426,"name":"The Horselords and Animal Gods","steam_id":76561197975094050,"connected_time":80000000000,"state":"active","ping":85},{"user_id":409,"name":"Prsm","steam_id":76561198053344995,"connected_time":833000000000,"state":"active","ping":75},{"user_id":414,"name":"the man","steam_id":76561198389268114,"connected_time":620000000000,"state":"active","ping":137},{"user_id":401,"name":"for the king","steam_id":76561197973488858,"connected_time":1228000000000,"state":"active","ping":78},{"user_id":410,"name":"dantheman","steam_id":76561199486390813,"connected_time":784000000000,"state":"active","ping":77},{"user_id":324,"name":"♥ Tomboy ♥","steam_id":76561198069881436,"connected_time":4860000000000,"state":"active","ping":74},{"user_id":405,"name":"Red on Red","steam_id":76561198802356746,"connected_time":1024000000000,"state":"active","ping":62},{"user_id":424,"name":"Scut","steam_id":76561198973734291,"connected_time":138000000000,"state":"active","ping":91},{"user_id":392,"name":"JakePackage","steam_id":76561198033973438,"connected_time":1534000000000,"state":"active","ping":53},{"user_id":417,"name":"celestia ludenberg","steam_id":76561199196437823,"connected_time":466000000000,"state":"active","ping":106},{"user_id":385,"name":"Preston","steam_id":76561199130754110,"connected_time":1793000000000,"state":"active","ping":70},{"user_id":411,"name":"sanxi's cave","steam_id":76561199034371191,"connected_time":781000000000,"state":"active","ping":181},{"user_id":367,"name":"slowdance","steam_id":76561198097427947,"connected_time":2885000000000,"state":"active","ping":130},{"user_id":412,"name":"e doctor","steam_id":76561198081851446,"connected_time":709000000000,"state":"active","ping":68},{"user_id":406,"name":"VixianUwU","steam_id":76561198948815060,"connected_time":976000000000,"state":"active","ping":81},{"user_id":408,"name":"K","steam_id":76561198157492580,"connected_time":921000000000,"state":"active","ping":76},{"user_id":371,"name":"ODav","steam_id":76561198252522394,"connected_time":2806000000000,"state":"active","ping":50},{"user_id":419,"name":"a_person747","steam_id":76561198368387023,"connected_time":298000000000,"state":"active","ping":78},{"user_id":425,"name":"DethSQRL","steam_id":76561199149628610,"connected_time":125000000000,"state":"active","ping":79},{"user_id":422,"name":"Zomb3Red","steam_id":76561198075677894,"connected_time":216000000000,"state":"active","ping":79},{"user_id":413,"name":"Jovyel","steam_id":76561198118777065,"connected_time":680000000000,"state":"active","ping":63},{"user_id":404,"name":"Chhaam","steam_id":76561198058508132,"connected_time":1070000000000,"state":"active","ping":75},{"user_id":407,"name":"Nostic","steam_id":76561199508767541,"connected_time":955000000000,"state":"active","ping":60}]},{"server_id":405,"name":"Uncletopia | Dallas | 4 | Community","name_short":"dal-4","host":"dal-1.us.uncletopia.com","port":27045,"enabled":true,"region":"us-central","cc":"us","latitude":32.779167,"longitude":-96.80889,"reserved":0,"last_update":"0001-01-01T00:00:00Z","name_a2s":"Uncletopia | Dallas | 4 | Community","protocol":17,"map":"workshop/cp_hazyfort_rc6.ugc1365963729","folder":"tf","game":"Team Fortress","app_id":440,"player_count":0,"max_players":24,"Bots":0,"server_type":"Dedicated","server_os":"Linux","password":true,"vac":true,"version":"7961495","steam_id":85568392924515220,"keywords":["cp","nocrits","nodmgspread","uncletopia"],"game_id":440,"stv_port":27046,"stv_name":"Uncletopia | Dallas | 4 | Community | STV","players":null},{"server_id":5,"name":"Uncletopia | Frankfurt | 1 | All Maps","name_short":"frk-1","host":"frk-1.de.uncletopia.com","port":27015,"enabled":true,"region":"eu","cc":"de","latitude":50.110924,"longitude":8.682127,"reserved":0,"last_update":"0001-01-01T00:00:00Z","name_a2s":"Uncletopia | Frankfurt | 1 | All Maps","protocol":17,"map":"pl_upward","folder":"tf","game":"Team Fortress","app_id":440,"player_count":19,"max_players":24,"Bots":0,"server_type":"Dedicated","server_os":"Linux","password":true,"vac":true,"version":"7961495","steam_id":85568392924469989,"keywords":["nocrits","nodmgspread","payload","uncletopia"],"game_id":440,"stv_port":27016,"stv_name":"Uncletopia | Frankfurt | 1 | All Maps | STV","players":[{"user_id":606,"name":"MaypulSoyrup","steam_id":76561199213966821,"connected_time":221000000000,"state":"active","ping":100},{"user_id":587,"name":"Chill Spirit","steam_id":76561198845001725,"connected_time":2138000000000,"state":"active","ping":45},{"user_id":598,"name":"faccboi","steam_id":76561198137816642,"connected_time":1526000000000,"state":"active","ping":60},{"user_id":486,"name":"Billy Herrington","steam_id":76561198205193503,"connected_time":9701000000000,"state":"active","ping":75},{"user_id":607,"name":"Superiumentarius","steam_id":76561198081642249,"connected_time":190000000000,"state":"active","ping":45},{"user_id":583,"name":"siarczan (VI) miedzi (II)","steam_id":76561198327848460,"connected_time":2424000000000,"state":"active","ping":65},{"user_id":608,"name":"Quake","steam_id":76561197999073078,"connected_time":159000000000,"state":"active","ping":204},{"user_id":609,"name":"Tá prátaí go maith","steam_id":76561198372536459,"connected_time":117000000000,"state":"active","ping":65},{"user_id":564,"name":"DoKo_O","steam_id":76561198028025069,"connected_time":3748000000000,"state":"active","ping":53},{"user_id":610,"name":"panakid","steam_id":76561198364121077,"connected_time":92000000000,"state":"active","ping":79},{"user_id":593,"name":"yush","steam_id":76561198121688934,"connected_time":1870000000000,"state":"active","ping":85},{"user_id":611,"name":"John Doe","steam_id":76561198369597903,"connected_time":89000000000,"state":"spawning","ping":109},{"user_id":612,"name":"Stinky Whizzleteats","steam_id":76561197968945306,"connected_time":85000000000,"state":"active","ping":74},{"user_id":613,"name":"slnc","steam_id":76561198041151496,"connected_time":65000000000,"state":"active","ping":59},{"user_id":614,"name":"redlix","steam_id":76561198119413461,"connected_time":59000000000,"state":"active","ping":57},{"user_id":595,"name":"Poule De Combat","steam_id":76561198002108430,"connected_time":1822000000000,"state":"active","ping":74},{"user_id":588,"name":"Zephyr","steam_id":76561199116936359,"connected_time":2079000000000,"state":"active","ping":65},{"user_id":482,"name":"PlasticVoid","steam_id":76561197997870306,"connected_time":9853000000000,"state":"active","ping":45},{"user_id":600,"name":"=OKB= P4NTH3R","steam_id":76561197999204603,"connected_time":1035000000000,"state":"active","ping":65}]},{"server_id":110,"name":"Uncletopia | Frankfurt | 2 | All Maps","name_short":"frk-2","host":"frk-1.de.uncletopia.com","port":27025,"enabled":true,"region":"eu","cc":"de","latitude":50.110924,"longitude":8.682127,"reserved":0,"last_update":"0001-01-01T00:00:00Z","name_a2s":"Uncletopia | Frankfurt | 2 | All Maps","protocol":17,"map":"pl_swiftwater_final1","folder":"tf","game":"Team Fortress","app_id":440,"player_count":24,"max_players":24,"Bots":0,"server_type":"Dedicated","server_os":"Linux","password":true,"vac":true,"version":"7961495","steam_id":85568392924469990,"keywords":["nocrits","nodmgspread","payload","uncletopia"],"game_id":440,"stv_port":27026,"stv_name":"Uncletopia | Frankfurt | 2 | All Maps | STV","players":[{"user_id":478,"name":"Tiny Desk Engineer","steam_id":76561199049784560,"connected_time":1056000000000,"state":"active","ping":171},{"user_id":479,"name":"Cold Beverage Enjoyer","steam_id":76561198060638325,"connected_time":1001000000000,"state":"active","ping":31},{"user_id":505,"name":"kitt3hcak3","steam_id":76561198075255688,"connected_time":34000000000,"state":"spawning","ping":60},{"user_id":480,"name":"Sabour","steam_id":76561197963965445,"connected_time":991000000000,"state":"active","ping":58},{"user_id":497,"name":"Bobo","steam_id":76561198052308399,"connected_time":261000000000,"state":"active","ping":53},{"user_id":469,"name":"Malekith","steam_id":76561198216412200,"connected_time":1998000000000,"state":"active","ping":65},{"user_id":461,"name":"Cabbch","steam_id":76561198045955679,"connected_time":2772000000000,"state":"active","ping":45},{"user_id":477,"name":"oxidius","steam_id":76561198261730746,"connected_time":1189000000000,"state":"active","ping":65},{"user_id":353,"name":"DONK","steam_id":76561198109679698,"connected_time":10443000000000,"state":"active","ping":62},{"user_id":481,"name":"sword machine","steam_id":76561198895235231,"connected_time":929000000000,"state":"active","ping":70},{"user_id":489,"name":"SocialistBacon","steam_id":76561198055872267,"connected_time":554000000000,"state":"active","ping":92},{"user_id":494,"name":"TidB","steam_id":76561198055342304,"connected_time":376000000000,"state":"active","ping":52},{"user_id":496,"name":"kernstjean97","steam_id":76561199216661045,"connected_time":304000000000,"state":"active","ping":168},{"user_id":484,"name":"denkisuperi","steam_id":76561197992646656,"connected_time":846000000000,"state":"active","ping":47},{"user_id":485,"name":"Kenny","steam_id":76561198994898206,"connected_time":771000000000,"state":"active","ping":74},{"user_id":499,"name":"Berdly","steam_id":76561199029872533,"connected_time":143000000000,"state":"active","ping":60},{"user_id":487,"name":"Lunarian","steam_id":76561198055811259,"connected_time":737000000000,"state":"active","ping":65},{"user_id":490,"name":"Quartermistress","steam_id":76561198140199123,"connected_time":546000000000,"state":"active","ping":57},{"user_id":488,"name":"aimily","steam_id":76561198091887284,"connected_time":717000000000,"state":"active","ping":57},{"user_id":447,"name":"Çanak yalayıcı","steam_id":76561198113677852,"connected_time":3666000000000,"state":"active","ping":90},{"user_id":500,"name":"LiterallyRyanGosling","steam_id":76561199017856691,"connected_time":118000000000,"state":"active","ping":64},{"user_id":501,"name":"BELADIT","steam_id":76561198011911501,"connected_time":113000000000,"state":"active","ping":65},{"user_id":502,"name":"Steve, from HR","steam_id":76561198072088365,"connected_time":71000000000,"state":"active","ping":65},{"user_id":504,"name":"papyrus","steam_id":76561199123470562,"connected_time":68000000000,"state":"active","ping":171}]},{"server_id":308,"name":"Uncletopia | Frankfurt | 3 | All Maps","name_short":"frk-3","host":"frk-1.de.uncletopia.com","port":27035,"enabled":true,"region":"eu","cc":"de","latitude":50.110924,"longitude":8.682127,"reserved":0,"last_update":"0001-01-01T00:00:00Z","name_a2s":"Uncletopia | Frankfurt | 3 | All Maps","protocol":17,"map":"pl_frontier_final","folder":"tf","game":"Team Fortress","app_id":440,"player_count":24,"max_players":24,"Bots":0,"server_type":"Dedicated","server_os":"Linux","password":true,"vac":true,"version":"7961495","steam_id":85568392924504274,"keywords":["nocrits","nodmgspread","payload","uncletopia"],"game_id":440,"stv_port":27036,"stv_name":"Uncletopia | Frankfurt | 3 | All Maps | STV","players":[{"user_id":365,"name":"M4tt_Four","steam_id":76561198261887595,"connected_time":1176000000000,"state":"active","ping":76},{"user_id":376,"name":"Niyaah","steam_id":76561198110209191,"connected_time":22000000000,"state":"spawning","ping":138},{"user_id":372,"name":"Henry","steam_id":76561198108018305,"connected_time":348000000000,"state":"active","ping":72},{"user_id":362,"name":"Economic crisis","steam_id":76561198063562843,"connected_time":1336000000000,"state":"active","ping":59},{"user_id":373,"name":"Maxin","steam_id":76561197999923364,"connected_time":248000000000,"state":"active","ping":60},{"user_id":328,"name":"RAT BASTARD","steam_id":76561199195985387,"connected_time":2539000000000,"state":"active","ping":85},{"user_id":368,"name":"Frögg-Kät","steam_id":76561198263561004,"connected_time":702000000000,"state":"active","ping":59},{"user_id":369,"name":"JebusTheSavior","steam_id":76561197970083444,"connected_time":574000000000,"state":"active","ping":134},{"user_id":352,"name":"LivEssense","steam_id":76561198052476979,"connected_time":1785000000000,"state":"active","ping":73},{"user_id":332,"name":"Bombilla","steam_id":76561198084281798,"connected_time":2419000000000,"state":"active","ping":77},{"user_id":377,"name":"elo","steam_id":76561198094531377,"connected_time":22000000000,"state":"spawning","ping":45},{"user_id":364,"name":"Snow","steam_id":76561198246680606,"connected_time":1187000000000,"state":"active","ping":59},{"user_id":358,"name":"rajAs","steam_id":76561198035928111,"connected_time":1574000000000,"state":"active","ping":79},{"user_id":335,"name":"odacovA","steam_id":76561199383345208,"connected_time":2392000000000,"state":"active","ping":157},{"user_id":337,"name":"0x01A4","steam_id":76561199038801888,"connected_time":2351000000000,"state":"active","ping":62},{"user_id":314,"name":"tallen","steam_id":76561198061708595,"connected_time":3865000000000,"state":"active","ping":82},{"user_id":355,"name":"j","steam_id":76561198299474630,"connected_time":1749000000000,"state":"active","ping":44},{"user_id":339,"name":"squidly","steam_id":76561198331480295,"connected_time":2321000000000,"state":"active","ping":68},{"user_id":371,"name":"Marty Pants","steam_id":76561198004449634,"connected_time":398000000000,"state":"active","ping":74},{"user_id":374,"name":"my mom","steam_id":76561199225201569,"connected_time":188000000000,"state":"active","ping":133},{"user_id":375,"name":"Nuuskis","steam_id":76561198084042012,"connected_time":72000000000,"state":"active","ping":86},{"user_id":366,"name":"bongo","steam_id":76561198015489880,"connected_time":1142000000000,"state":"active","ping":45},{"user_id":347,"name":"Hnreeee","steam_id":76561198332936466,"connected_time":2225000000000,"state":"active","ping":47},{"user_id":367,"name":"frbuz (ع)","steam_id":76561198327135462,"connected_time":1075000000000,"state":"active","ping":149}]},{"server_id":309,"name":"Uncletopia | Frankfurt | 4 | All Maps","name_short":"frk-4","host":"frk-1.de.uncletopia.com","port":27045,"enabled":true,"region":"eu","cc":"de","latitude":50.110924,"longitude":8.682127,"reserved":0,"last_update":"0001-01-01T00:00:00Z","name_a2s":"Uncletopia | Frankfurt | 4 | All Maps","protocol":17,"map":"pl_snowycoast","folder":"tf","game":"Team Fortress","app_id":440,"player_count":0,"max_players":24,"Bots":0,"server_type":"Dedicated","server_os":"Linux","password":true,"vac":true,"version":"7961495","steam_id":85568392924504275,"keywords":["nocrits","nodmgspread","payload","uncletopia"],"game_id":440,"stv_port":27046,"stv_name":"Uncletopia | Frankfurt | 4 | All Maps | STV","players":null},{"server_id":310,"name":"Uncletopia | Frankfurt | 5 | All Maps","name_short":"frk-5","host":"frk-1.de.uncletopia.com","port":27055,"enabled":true,"region":"eu","cc":"de","latitude":50.110924,"longitude":8.682127,"reserved":0,"last_update":"0001-01-01T00:00:00Z","name_a2s":"Uncletopia | Frankfurt | 5 | All Maps","protocol":17,"map":"pl_upward","folder":"tf","game":"Team Fortress","app_id":440,"player_count":24,"max_players":24,"Bots":0,"server_type":"Dedicated","server_os":"Linux","password":true,"vac":true,"version":"7961495","steam_id":85568392924504277,"keywords":["nocrits","nodmgspread","payload","uncletopia"],"game_id":440,"stv_port":27056,"stv_name":"Uncletopia | Frankfurt | 5 | All Maps | STV","players":[{"user_id":640,"name":"Lyell","steam_id":76561198350329389,"connected_time":1527000000000,"state":"active","ping":99},{"user_id":624,"name":"The flying Drunksman","steam_id":76561198966358094,"connected_time":2666000000000,"state":"active","ping":48},{"user_id":641,"name":"Tails8521","steam_id":76561198051747164,"connected_time":1499000000000,"state":"active","ping":59},{"user_id":651,"name":"Keyo","steam_id":76561198018887589,"connected_time":578000000000,"state":"active","ping":63},{"user_id":642,"name":"blank","steam_id":76561198805181599,"connected_time":1476000000000,"state":"active","ping":71},{"user_id":625,"name":"crystal kerosene","steam_id":76561198963378933,"connected_time":2620000000000,"state":"active","ping":60},{"user_id":597,"name":"gaming (official)","steam_id":76561198106012909,"connected_time":3945000000000,"state":"active","ping":67},{"user_id":545,"name":"Teecho","steam_id":76561197995269610,"connected_time":7658000000000,"state":"active","ping":67},{"user_id":588,"name":"Müesli","steam_id":76561198183105149,"connected_time":5119000000000,"state":"active","ping":35},{"user_id":643,"name":"Bzd","steam_id":76561198204521956,"connected_time":1452000000000,"state":"active","ping":68},{"user_id":637,"name":"Efeca","steam_id":76561198018923829,"connected_time":1931000000000,"state":"active","ping":62},{"user_id":559,"name":"Horo","steam_id":76561198009504508,"connected_time":7221000000000,"state":"active","ping":56},{"user_id":653,"name":"Gen","steam_id":76561198021775885,"connected_time":190000000000,"state":"active","ping":47},{"user_id":575,"name":"Keffals Bully (aka Null)","steam_id":76561198050374170,"connected_time":5870000000000,"state":"active","ping":89},{"user_id":636,"name":"travis","steam_id":76561198138119811,"connected_time":2036000000000,"state":"active","ping":60},{"user_id":645,"name":"Mega","steam_id":76561197970389664,"connected_time":1422000000000,"state":"active","ping":47},{"user_id":650,"name":"Haha?","steam_id":76561198056882245,"connected_time":728000000000,"state":"active","ping":50},{"user_id":657,"name":"This is me. If you even care.","steam_id":76561198116223995,"connected_time":46000000000,"state":"active","ping":60},{"user_id":606,"name":"Dairo","steam_id":76561197961707932,"connected_time":3798000000000,"state":"active","ping":45},{"user_id":655,"name":"randompixel","steam_id":76561198003941207,"connected_time":85000000000,"state":"active","ping":56},{"user_id":632,"name":"Snowmotion","steam_id":76561198075022454,"connected_time":2463000000000,"state":"active","ping":55},{"user_id":646,"name":"Coac","steam_id":76561198085265740,"connected_time":1379000000000,"state":"active","ping":73},{"user_id":630,"name":"Big Mean Muther Hubbard","steam_id":76561199223016965,"connected_time":2561000000000,"state":"active","ping":58},{"user_id":649,"name":"☁ Lou1smeister ☁","steam_id":76561198004032968,"connected_time":930000000000,"state":"active","ping":70}]},{"server_id":311,"name":"Uncletopia | Frankfurt | 6 | All Maps","name_short":"frk-6","host":"frk-1.de.uncletopia.com","port":27065,"enabled":true,"region":"eu","cc":"de","latitude":50.110924,"longitude":8.682127,"reserved":0,"last_update":"0001-01-01T00:00:00Z","name_a2s":"Uncletopia | Frankfurt | 6 | All Maps","protocol":17,"map":"pl_goldrush","folder":"tf","game":"Team Fortress","app_id":440,"player_count":1,"max_players":24,"Bots":0,"server_type":"Dedicated","server_os":"Linux","password":true,"vac":true,"version":"7961495","steam_id":85568392924504278,"keywords":["nocrits","nodmgspread","payload","uncletopia"],"game_id":440,"stv_port":27066,"stv_name":"Uncletopia | Frankfurt | 6 | All Maps | STV","players":[{"user_id":486,"name":"Diamand creeper","steam_id":76561199472132111,"connected_time":267000000000,"state":"active","ping":98}]},{"server_id":23,"name":"Uncletopia | Frankfurt | 7 | Stopwatch","name_short":"frk-7","host":"frk-1.de.uncletopia.com","port":27075,"enabled":true,"region":"eu","cc":"de","latitude":50.110924,"longitude":8.682127,"reserved":0,"last_update":"0001-01-01T00:00:00Z","name_a2s":"Uncletopia | Frankfurt | 7 | Stopwatch","protocol":17,"map":"workshop/koth_bagel_rc6.ugc2514036946","folder":"tf","game":"Team Fortress","app_id":440,"player_count":0,"max_players":24,"Bots":0,"server_type":"Dedicated","server_os":"Linux","password":true,"vac":true,"version":"7961495","steam_id":85568392924742827,"keywords":["cp","nocrits","nodmgspread","uncletopia"],"game_id":440,"stv_port":27076,"stv_name":"Uncletopia | Frankfurt | 7 | Stopwatch | STV","players":null},{"server_id":24,"name":"Uncletopia | Frankfurt | 8 | Community","name_short":"frk-8","host":"frk-1.de.uncletopia.com","port":27085,"enabled":true,"region":"eu","cc":"de","latitude":50.110924,"longitude":8.682127,"reserved":0,"last_update":"0001-01-01T00:00:00Z","name_a2s":"Uncletopia | Frankfurt | 8 | Community","protocol":17,"map":"workshop/rd_asteroid_redux_b1.ugc2154902912","folder":"tf","game":"Team Fortress","app_id":440,"player_count":0,"max_players":24,"Bots":0,"server_type":"Dedicated","server_os":"Linux","password":true,"vac":true,"version":"7961495","steam_id":85568392924742828,"keywords":["beta","nocrits","nodmgspread","rd","uncletopia"],"game_id":440,"stv_port":27086,"stv_name":"Uncletopia | Frankfurt | 8 | Community | STV","players":null},{"server_id":202,"name":"Uncletopia | Hong Kong | 1 | All Maps","name_short":"hgk-1","host":"hgk-1.hk.uncletopia.com","port":27015,"enabled":true,"region":"asia","cc":"hk","latitude":22.302711,"longitude":114.177216,"reserved":0,"last_update":"0001-01-01T00:00:00Z","name_a2s":"Uncletopia | Hong Kong | 1 | All Maps","protocol":17,"map":"cp_metalworks","folder":"tf","game":"Team Fortress","app_id":440,"player_count":0,"max_players":24,"Bots":0,"server_type":"Dedicated","server_os":"Linux","password":true,"vac":true,"version":"7961495","steam_id":85568392924494504,"keywords":["cp","nocrits","nodmgspread","uncletopia"],"game_id":440,"stv_port":27016,"stv_name":"Uncletopia | Hong Kong | 1 | All Maps | STV","players":null},{"server_id":1,"name":"Uncletopia | Los Angeles | 1 | All Maps","name_short":"lax-1","host":"lax-1.us.uncletopia.com","port":27015,"enabled":true,"region":"us-west","cc":"us","latitude":33.94279,"longitude":-118.41004,"reserved":0,"last_update":"0001-01-01T00:00:00Z","name_a2s":"Uncletopia | Los Angeles | 1 | All Maps","protocol":17,"map":"koth_lakeside_final","folder":"tf","game":"Team Fortress","app_id":440,"player_count":7,"max_players":24,"Bots":0,"server_type":"Dedicated","server_os":"Linux","password":true,"vac":true,"version":"7961495","steam_id":85568392924469991,"keywords":["cp","nocrits","nodmgspread","uncletopia"],"game_id":440,"stv_port":27016,"stv_name":"Uncletopia | Los Angeles | 1 | All Maps | STV","players":[{"user_id":10,"name":"Penne","steam_id":76561198982393756,"connected_time":606000000000,"state":"active","ping":49},{"user_id":8,"name":"cringy","steam_id":76561198323000455,"connected_time":959000000000,"state":"active","ping":51},{"user_id":9,"name":"life","steam_id":76561198227112556,"connected_time":929000000000,"state":"active","ping":45},{"user_id":11,"name":"Max Headass","steam_id":76561198964210411,"connected_time":494000000000,"state":"active","ping":48},{"user_id":12,"name":"Shuch","steam_id":76561198932961317,"connected_time":414000000000,"state":"active","ping":55},{"user_id":13,"name":"Insomniac","steam_id":76561199180653046,"connected_time":370000000000,"state":"active","ping":158},{"user_id":14,"name":"AGGC","steam_id":76561199424161304,"connected_time":277000000000,"state":"active","ping":60}]},{"server_id":112,"name":"Uncletopia | Los Angeles | 2 | All Maps","name_short":"lax-2","host":"lax-1.us.uncletopia.com","port":27025,"enabled":true,"region":"us-west","cc":"us","latitude":33.94279,"longitude":-118.41004,"reserved":0,"last_update":"0001-01-01T00:00:00Z","name_a2s":"Uncletopia | Los Angeles | 2 | All Maps","protocol":17,"map":"koth_lazarus","folder":"tf","game":"Team Fortress","app_id":440,"player_count":0,"max_players":24,"Bots":0,"server_type":"Dedicated","server_os":"Linux","password":true,"vac":true,"version":"7961495","steam_id":85568392924469992,"keywords":["cp","nocrits","nodmgspread","uncletopia"],"game_id":440,"stv_port":27026,"stv_name":"Uncletopia | Los Angeles | 2 | All Maps | STV","players":null},{"server_id":324,"name":"Uncletopia | Los Angeles | 3 | All Maps","name_short":"lax-3","host":"lax-1.us.uncletopia.com","port":27035,"enabled":true,"region":"us-west","cc":"us","latitude":33.94279,"longitude":-118.41004,"reserved":0,"last_update":"0001-01-01T00:00:00Z","name_a2s":"Uncletopia | Los Angeles | 3 | All Maps","protocol":17,"map":"pl_frontier_final","folder":"tf","game":"Team Fortress","app_id":440,"player_count":0,"max_players":24,"Bots":0,"server_type":"Dedicated","server_os":"Linux","password":true,"vac":true,"version":"7961495","steam_id":85568392924510198,"keywords":["nocrits","nodmgspread","payload","uncletopia"],"game_id":440,"stv_port":27036,"stv_name":"Uncletopia | Los Angeles | 3 | All Maps | STV","players":null},{"server_id":25,"name":"Uncletopia | Los Angeles | 4 | Stopwatch","name_short":"lax-4","host":"lax-1.us.uncletopia.com","port":27045,"enabled":true,"region":"us-west","cc":"us","latitude":33.94279,"longitude":-118.41004,"reserved":0,"last_update":"0001-01-01T00:00:00Z","name_a2s":"Uncletopia | Los Angeles | 4 | Stopwatch","protocol":17,"map":"workshop/koth_bagel_rc6.ugc2514036946","folder":"tf","game":"Team Fortress","app_id":440,"player_count":0,"max_players":24,"Bots":0,"server_type":"Dedicated","server_os":"Linux","password":true,"vac":true,"version":"7961495","steam_id":85568392924510199,"keywords":["cp","nocrits","nodmgspread","uncletopia"],"game_id":440,"stv_port":27046,"stv_name":"Uncletopia | Los Angeles | 4 | Stopwatch | STV","players":null},{"server_id":11,"name":"Uncletopia | London | 1 | All Maps","name_short":"lon-1","host":"lon-1.uk.uncletopia.com","port":27015,"enabled":true,"region":"eu","cc":"gb","latitude":51.509865,"longitude":-0.118092,"reserved":0,"last_update":"0001-01-01T00:00:00Z","name_a2s":"Uncletopia | London | 1 | All Maps","protocol":17,"map":"cp_foundry","folder":"tf","game":"Team Fortress","app_id":440,"player_count":24,"max_players":24,"Bots":0,"server_type":"Dedicated","server_os":"Linux","password":true,"vac":true,"version":"7961495","steam_id":85568392924367362,"keywords":["cp","nocrits","nodmgspread","uncletopia"],"game_id":440,"stv_port":27016,"stv_name":"Uncletopia | London | 1 | All Maps | STV","players":[{"user_id":502,"name":"BreadBubbles","steam_id":76561198174332826,"connected_time":841000000000,"state":"active","ping":61},{"user_id":474,"name":"Paint","steam_id":76561198166823873,"connected_time":3400000000000,"state":"active","ping":46},{"user_id":485,"name":"sora","steam_id":76561198096547662,"connected_time":2490000000000,"state":"active","ping":52},{"user_id":507,"name":"Switah","steam_id":76561198308413721,"connected_time":144000000000,"state":"active","ping":34},{"user_id":488,"name":"⸸aura⸸","steam_id":76561198066258544,"connected_time":2186000000000,"state":"active","ping":58},{"user_id":408,"name":"H the Creator","steam_id":76561198335971475,"connected_time":11248000000000,"state":"active","ping":57},{"user_id":504,"name":"Rx07","steam_id":76561199013720618,"connected_time":493000000000,"state":"active","ping":89},{"user_id":497,"name":"swagmeester","steam_id":76561198045828392,"connected_time":1150000000000,"state":"active","ping":54},{"user_id":509,"name":"Zamorocian","steam_id":76561198076604017,"connected_time":10000000000,"state":"active","ping":38},{"user_id":463,"name":"Ozzie","steam_id":76561197992915315,"connected_time":4773000000000,"state":"active","ping":60},{"user_id":434,"name":"Speed-Dial","steam_id":76561198012428315,"connected_time":7185000000000,"state":"active","ping":53},{"user_id":495,"name":"Karabast","steam_id":76561198041208332,"connected_time":1812000000000,"state":"active","ping":78},{"user_id":475,"name":"Whoguru5","steam_id":76561198043997516,"connected_time":3363000000000,"state":"active","ping":66},{"user_id":493,"name":"Leviin_","steam_id":76561198066978511,"connected_time":2018000000000,"state":"active","ping":41},{"user_id":494,"name":"_420_StopItDudeCmon","steam_id":76561197997146481,"connected_time":1990000000000,"state":"active","ping":51},{"user_id":445,"name":"Dan Dan the Furious","steam_id":76561198091032527,"connected_time":6416000000000,"state":"active","ping":45},{"user_id":452,"name":"Janneke Maan","steam_id":76561198069290924,"connected_time":5763000000000,"state":"active","ping":69},{"user_id":508,"name":"eve has trolled you","steam_id":76561197973182789,"connected_time":134000000000,"state":"active","ping":49},{"user_id":393,"name":"Anri Okita's Massive Milkers","steam_id":76561199186352720,"connected_time":13831000000000,"state":"active","ping":52},{"user_id":501,"name":"Jørn","steam_id":76561199073257952,"connected_time":854000000000,"state":"active","ping":61},{"user_id":506,"name":"Janosik","steam_id":76561198013528365,"connected_time":454000000000,"state":"active","ping":64},{"user_id":466,"name":"Shapeshifter","steam_id":76561197999453583,"connected_time":4449000000000,"state":"active","ping":81},{"user_id":484,"name":"ber.","steam_id":76561197993892057,"connected_time":3088000000000,"state":"active","ping":90},{"user_id":496,"name":"AKKUPORAKONE","steam_id":76561198379904093,"connected_time":1256000000000,"state":"active","ping":75}]},{"server_id":114,"name":"Uncletopia | London | 2 | All Maps","name_short":"lon-2","host":"lon-1.uk.uncletopia.com","port":27025,"enabled":true,"region":"eu","cc":"gb","latitude":51.509865,"longitude":-0.118092,"reserved":0,"last_update":"0001-01-01T00:00:00Z","name_a2s":"Uncletopia | London | 2 | All Maps","protocol":17,"map":"pl_barnblitz","folder":"tf","game":"Team Fortress","app_id":440,"player_count":14,"max_players":24,"Bots":0,"server_type":"Dedicated","server_os":"Linux","password":true,"vac":true,"version":"7961495","steam_id":85568392924470941,"keywords":["nocrits","nodmgspread","payload","uncletopia"],"game_id":440,"stv_port":27026,"stv_name":"Uncletopia | London | 2 | All Maps | STV","players":[{"user_id":99,"name":"Cosmic Gamer","steam_id":76561198027357981,"connected_time":1945000000000,"state":"active","ping":102},{"user_id":102,"name":"Welder","steam_id":76561198355300561,"connected_time":1756000000000,"state":"active","ping":62},{"user_id":121,"name":"Aspartus","steam_id":76561198101385763,"connected_time":1141000000000,"state":"active","ping":30},{"user_id":133,"name":"gaggle","steam_id":76561197988226281,"connected_time":87000000000,"state":"active","ping":78},{"user_id":134,"name":"-_-","steam_id":76561199210154597,"connected_time":49000000000,"state":"active","ping":47},{"user_id":132,"name":"Sniper's Kangaroo Ex","steam_id":76561198334042273,"connected_time":355000000000,"state":"active","ping":50},{"user_id":65,"name":"❤ [HoneyBe_] ❤","steam_id":76561198288930154,"connected_time":4283000000000,"state":"active","ping":56},{"user_id":135,"name":"rookie @ talk.happyslap.net","steam_id":76561198022052297,"connected_time":38000000000,"state":"active","ping":69},{"user_id":91,"name":"Locke","steam_id":76561198339408300,"connected_time":2610000000000,"state":"active","ping":55},{"user_id":136,"name":"Luigi @ talk.happyslap.net","steam_id":76561198257269154,"connected_time":37000000000,"state":"active","ping":43},{"user_id":131,"name":"DidoSquarepants","steam_id":76561198813776572,"connected_time":463000000000,"state":"active","ping":57},{"user_id":86,"name":"ChPerette 🎮","steam_id":76561198060004887,"connected_time":2986000000000,"state":"active","ping":40},{"user_id":125,"name":"he is literally me","steam_id":76561199179040672,"connected_time":1082000000000,"state":"active","ping":53},{"user_id":129,"name":"igvanhoute","steam_id":76561199509386378,"connected_time":946000000000,"state":"active","ping":55}]},{"server_id":320,"name":"Uncletopia | London | 3 | All Maps","name_short":"lon-3","host":"lon-1.uk.uncletopia.com","port":27035,"enabled":true,"region":"eu","cc":"gb","latitude":51.509865,"longitude":-0.118092,"reserved":0,"last_update":"0001-01-01T00:00:00Z","name_a2s":"Uncletopia | London | 3 | All Maps","protocol":17,"map":"pl_pier","folder":"tf","game":"Team Fortress","app_id":440,"player_count":0,"max_players":24,"Bots":0,"server_type":"Dedicated","server_os":"Linux","password":true,"vac":true,"version":"7961495","steam_id":85568392924510192,"keywords":["nocrits","nodmgspread","payload","uncletopia"],"game_id":440,"stv_port":27036,"stv_name":"Uncletopia | London | 3 | All Maps | STV","players":null},{"server_id":321,"name":"Uncletopia | London | 4 | All Maps","name_short":"lon-4","host":"lon-1.uk.uncletopia.com","port":27045,"enabled":true,"region":"eu","cc":"gb","latitude":51.509865,"longitude":-0.118092,"reserved":0,"last_update":"0001-01-01T00:00:00Z","name_a2s":"Uncletopia | London | 4 | All Maps","protocol":17,"map":"pl_borneo","folder":"tf","game":"Team Fortress","app_id":440,"player_count":24,"max_players":24,"Bots":0,"server_type":"Dedicated","server_os":"Linux","password":true,"vac":true,"version":"7961495","steam_id":85568392924510193,"keywords":["nocrits","nodmgspread","payload","uncletopia"],"game_id":440,"stv_port":27046,"stv_name":"Uncletopia | London | 4 | All Maps | STV","players":[{"user_id":836,"name":"Froenzi","steam_id":76561198168841723,"connected_time":1353000000000,"state":"active","ping":57},{"user_id":841,"name":"8 Ball","steam_id":76561197960988736,"connected_time":1006000000000,"state":"active","ping":44},{"user_id":803,"name":"SuperBob103","steam_id":76561199175360012,"connected_time":2209000000000,"state":"active","ping":86},{"user_id":844,"name":"jack'o classes","steam_id":76561199030218131,"connected_time":760000000000,"state":"active","ping":40},{"user_id":835,"name":"bigwish | bmod.tf","steam_id":76561197997859723,"connected_time":1405000000000,"state":"active","ping":79},{"user_id":838,"name":"psu","steam_id":76561198094652091,"connected_time":1153000000000,"state":"active","ping":81},{"user_id":682,"name":"RubyTheUnicorn","steam_id":76561198091772218,"connected_time":4790000000000,"state":"active","ping":62},{"user_id":847,"name":"ayy 🍋","steam_id":76561198033695429,"connected_time":662000000000,"state":"active","ping":40},{"user_id":850,"name":"Saucy Jack","steam_id":76561198894525288,"connected_time":623000000000,"state":"active","ping":42},{"user_id":839,"name":"Pimpin' \u0026 Blimpin'","steam_id":76561198326776107,"connected_time":1089000000000,"state":"active","ping":95},{"user_id":842,"name":"badasscoolboy57","steam_id":76561198795412055,"connected_time":961000000000,"state":"active","ping":136},{"user_id":551,"name":"Borat","steam_id":76561198122226417,"connected_time":7086000000000,"state":"active","ping":44},{"user_id":861,"name":"Wixa Enjoyer","steam_id":76561198336835743,"connected_time":184000000000,"state":"active","ping":109},{"user_id":853,"name":"Grillem Dafoe","steam_id":76561198306874574,"connected_time":525000000000,"state":"active","ping":49},{"user_id":855,"name":"John Noob","steam_id":76561197999170026,"connected_time":459000000000,"state":"active","ping":86},{"user_id":846,"name":"gionnibravo12","steam_id":76561199500492557,"connected_time":750000000000,"state":"active","ping":68},{"user_id":854,"name":"Pestilence","steam_id":76561198140938904,"connected_time":516000000000,"state":"active","ping":78},{"user_id":860,"name":"PlacebO.-","steam_id":76561197973577950,"connected_time":364000000000,"state":"active","ping":66},{"user_id":562,"name":"A Table","steam_id":76561198056456470,"connected_time":6838000000000,"state":"active","ping":64},{"user_id":856,"name":"I have 42 pipe bombs in my ass","steam_id":76561199111979000,"connected_time":458000000000,"state":"active","ping":57},{"user_id":863,"name":"cirrem","steam_id":76561198265192382,"connected_time":103000000000,"state":"active","ping":76},{"user_id":858,"name":"Lennox","steam_id":76561198069063554,"connected_time":412000000000,"state":"active","ping":50},{"user_id":471,"name":"medick","steam_id":76561199380849468,"connected_time":9808000000000,"state":"active","ping":64},{"user_id":859,"name":"tapeworms!","steam_id":76561198069649097,"connected_time":410000000000,"state":"active","ping":48}]},{"server_id":21,"name":"Uncletopia | London | 5 | All Maps","name_short":"lon-5","host":"lon-1.uk.uncletopia.com","port":27055,"enabled":true,"region":"eu","cc":"gb","latitude":51.509865,"longitude":-0.118092,"reserved":0,"last_update":"0001-01-01T00:00:00Z","name_a2s":"Uncletopia | London | 5 | All Maps","protocol":17,"map":"koth_viaduct","folder":"tf","game":"Team Fortress","app_id":440,"player_count":1,"max_players":24,"Bots":0,"server_type":"Dedicated","server_os":"Linux","password":true,"vac":true,"version":"7961495","steam_id":85568392924742829,"keywords":["cp","nocrits","nodmgspread","uncletopia"],"game_id":440,"stv_port":27056,"stv_name":"Uncletopia | London | 5 | All Maps | STV","players":[{"user_id":260,"name":"Ivan_Negrovich","steam_id":76561199249126079,"connected_time":184000000000,"state":"active","ping":77}]},{"server_id":22,"name":"Uncletopia | London | 6 | All Maps","name_short":"lon-6","host":"lon-1.uk.uncletopia.com","port":27065,"enabled":true,"region":"eu","cc":"gb","latitude":51.509865,"longitude":-0.118092,"reserved":0,"last_update":"0001-01-01T00:00:00Z","name_a2s":"Uncletopia | London | 6 | All Maps","protocol":17,"map":"cp_gorge","folder":"tf","game":"Team Fortress","app_id":440,"player_count":0,"max_players":24,"Bots":0,"server_type":"Dedicated","server_os":"Linux","password":true,"vac":true,"version":"7961495","steam_id":85568392924742830,"keywords":["cp","nocrits","nodmgspread","uncletopia"],"game_id":440,"stv_port":27066,"stv_name":"Uncletopia | London | 6 | All Maps | STV","players":null},{"server_id":40,"name":"Uncletopia | London | 7 | Stopwatch","name_short":"lon-7","host":"lon-1.uk.uncletopia.com","port":27075,"enabled":true,"region":"eu","cc":"gb","latitude":51.509865,"longitude":-0.118092,"reserved":0,"last_update":"0001-01-01T00:00:00Z","name_a2s":"Uncletopia | London | 7 | Stopwatch","protocol":17,"map":"workshop/koth_ashville_final.ugc2130459942","folder":"tf","game":"Team Fortress","app_id":440,"player_count":2,"max_players":24,"Bots":0,"server_type":"Dedicated","server_os":"Linux","password":true,"vac":true,"version":"7961495","steam_id":85568392924964314,"keywords":["cp","nocrits","nodmgspread","uncletopia"],"game_id":440,"stv_port":27076,"stv_name":"Uncletopia | London | 7 | Stopwatch | STV","players":[{"user_id":13,"name":"Special","steam_id":76561199073634881,"connected_time":935000000000,"state":"active","ping":142},{"user_id":14,"name":"Dumb_Looking_Rock","steam_id":76561198170198678,"connected_time":598000000000,"state":"active","ping":152}]},{"server_id":41,"name":"Uncletopia | London | 8 | Community","name_short":"lon-8","host":"lon-1.uk.uncletopia.com","port":27085,"enabled":true,"region":"eu","cc":"gb","latitude":51.509865,"longitude":-0.118092,"reserved":0,"last_update":"0001-01-01T00:00:00Z","name_a2s":"Uncletopia | London | 8 | Community","protocol":17,"map":"workshop/pl_corrode_rc2.ugc546577989","folder":"tf","game":"Team Fortress","app_id":440,"player_count":0,"max_players":24,"Bots":0,"server_type":"Dedicated","server_os":"Linux","password":true,"vac":true,"version":"7961495","steam_id":85568392924964315,"keywords":["nocrits","nodmgspread","payload","uncletopia"],"game_id":440,"stv_port":27086,"stv_name":"Uncletopia | London | 8 | Community | STV","players":null},{"server_id":300,"name":"Uncletopia | Montréal | 1 | One Thousand Uncles","name_short":"mtl-1","host":"mtl-1.ca.uncletopia.com","port":27015,"enabled":true,"region":"us-east","cc":"ca","latitude":45.50889,"longitude":-73.56167,"reserved":0,"last_update":"0001-01-01T00:00:00Z","name_a2s":"Uncletopia | Montréal | 1 | One Thousand Uncles","protocol":17,"map":"pl_pier","folder":"tf","game":"Team Fortress","app_id":440,"player_count":23,"max_players":32,"Bots":20,"server_type":"Dedicated","server_os":"Linux","password":true,"vac":true,"version":"7961495","steam_id":85568392924500087,"keywords":["alltalk","bots","danepve","increased_maxplayers","norespawntime","payload","uncletopia"],"game_id":440,"stv_port":0,"stv_name":"","players":[{"user_id":217,"name":"Wooper","steam_id":76561198047491931,"connected_time":2282000000000,"state":"active","ping":46},{"user_id":218,"name":"Waning Sanity","steam_id":76561197963089845,"connected_time":1885000000000,"state":"active","ping":66},{"user_id":219,"name":"oofy1820","steam_id":76561199164952300,"connected_time":1686000000000,"state":"active","ping":63}]},{"server_id":301,"name":"Uncletopia | Montréal | 2 | One Thousand Uncles","name_short":"mtl-2","host":"mtl-1.ca.uncletopia.com","port":27025,"enabled":true,"region":"us-east","cc":"ca","latitude":45.50889,"longitude":-73.56167,"reserved":0,"last_update":"0001-01-01T00:00:00Z","name_a2s":"Uncletopia | Montréal | 2 | One Thousand Uncles","protocol":17,"map":"cp_mossrock","folder":"tf","game":"Team Fortress","app_id":440,"player_count":0,"max_players":32,"Bots":0,"server_type":"Dedicated","server_os":"Linux","password":true,"vac":true,"version":"7961495","steam_id":85568392924500088,"keywords":["alltalk","cp","danepve","increased_maxplayers","norespawntime","uncletopia"],"game_id":440,"stv_port":0,"stv_name":"","players":null},{"server_id":302,"name":"Uncletopia | Montréal | 3 | One Thousand Uncles","name_short":"mtl-3","host":"mtl-1.ca.uncletopia.com","port":27035,"enabled":true,"region":"us-east","cc":"ca","latitude":45.50889,"longitude":-73.56167,"reserved":0,"last_update":"0001-01-01T00:00:00Z","name_a2s":"Uncletopia | Montréal | 3 | One Thousand Uncles","protocol":17,"map":"cp_dustbowl","folder":"tf","game":"Team Fortress","app_id":440,"player_count":0,"max_players":32,"Bots":0,"server_type":"Dedicated","server_os":"Linux","password":true,"vac":true,"version":"7961495","steam_id":85568392924500089,"keywords":["alltalk","cp","danepve","increased_maxplayers","norespawntime","uncletopia"],"game_id":440,"stv_port":0,"stv_name":"","players":null},{"server_id":13,"name":"Uncletopia | New York City | 1 | All Maps","name_short":"nyc-1","host":"nyc-1.us.uncletopia.com","port":27015,"enabled":true,"region":"us-east","cc":"us","latitude":40.73061,"longitude":-73.93524,"reserved":0,"last_update":"0001-01-01T00:00:00Z","name_a2s":"Uncletopia | New York City | 1 | All Maps","protocol":17,"map":"koth_lakeside_final","folder":"tf","game":"Team Fortress","app_id":440,"player_count":23,"max_players":24,"Bots":0,"server_type":"Dedicated","server_os":"Linux","password":true,"vac":true,"version":"7961495","steam_id":85568392924469993,"keywords":["cp","nocrits","nodmgspread","uncletopia"],"game_id":440,"stv_port":27016,"stv_name":"Uncletopia | New York City | 1 | All Maps | STV","players":[{"user_id":531,"name":"Panzer4000","steam_id":76561198121308618,"connected_time":885000000000,"state":"active","ping":59},{"user_id":444,"name":"MAXIMUS","steam_id":76561198085809453,"connected_time":7165000000000,"state":"active","ping":76},{"user_id":524,"name":"coda","steam_id":76561198092052685,"connected_time":1252000000000,"state":"active","ping":52},{"user_id":505,"name":"joddson63","steam_id":76561198124576125,"connected_time":1931000000000,"state":"active","ping":86},{"user_id":533,"name":"(kyra) is a |-|oe","steam_id":76561199438877625,"connected_time":841000000000,"state":"active","ping":104},{"user_id":389,"name":"stormfoam","steam_id":76561198936871387,"connected_time":12247000000000,"state":"active","ping":75},{"user_id":497,"name":"LPenne","steam_id":76561198072972471,"connected_time":2225000000000,"state":"active","ping":64},{"user_id":527,"name":"MistaRattle","steam_id":76561199144406643,"connected_time":1049000000000,"state":"active","ping":117},{"user_id":520,"name":"chris","steam_id":76561198209248312,"connected_time":1404000000000,"state":"active","ping":60},{"user_id":522,"name":"Gundam Exia","steam_id":76561199231966873,"connected_time":1321000000000,"state":"active","ping":58},{"user_id":500,"name":"↑Slimbro","steam_id":76561198088926489,"connected_time":2056000000000,"state":"active","ping":54},{"user_id":501,"name":"cowboy leon","steam_id":76561198007464245,"connected_time":2025000000000,"state":"active","ping":75},{"user_id":513,"name":"WibbyOne","steam_id":76561198052843846,"connected_time":1597000000000,"state":"active","ping":36},{"user_id":523,"name":"stink","steam_id":76561198099318923,"connected_time":1297000000000,"state":"active","ping":73},{"user_id":506,"name":"Harry S. Truman","steam_id":76561197993339757,"connected_time":1823000000000,"state":"active","ping":55},{"user_id":528,"name":"7Deepsartlu","steam_id":76561198161393237,"connected_time":1043000000000,"state":"active","ping":46},{"user_id":530,"name":"Avo","steam_id":76561197993340494,"connected_time":904000000000,"state":"active","ping":65},{"user_id":516,"name":"Ultraspeed7","steam_id":76561198092488322,"connected_time":1576000000000,"state":"active","ping":135},{"user_id":493,"name":"XtraCrums","steam_id":76561199230212648,"connected_time":2531000000000,"state":"active","ping":68},{"user_id":534,"name":"Top Frog","steam_id":76561198072793446,"connected_time":384000000000,"state":"active","ping":71},{"user_id":536,"name":"Gaming","steam_id":76561198107080532,"connected_time":123000000000,"state":"active","ping":67},{"user_id":518,"name":"chilimario","steam_id":76561198282257201,"connected_time":1569000000000,"state":"active","ping":46},{"user_id":535,"name":"tiernan330","steam_id":76561198271912722,"connected_time":272000000000,"state":"active","ping":49}]},{"server_id":14,"name":"Uncletopia | New York City | 2 | All Maps","name_short":"nyc-2","host":"nyc-1.us.uncletopia.com","port":27025,"enabled":true,"region":"us-east","cc":"us","latitude":40.73061,"longitude":-73.93524,"reserved":0,"last_update":"0001-01-01T00:00:00Z","name_a2s":"Uncletopia | New York City | 2 | All Maps","protocol":17,"map":"koth_sawmill","folder":"tf","game":"Team Fortress","app_id":440,"player_count":0,"max_players":24,"Bots":0,"server_type":"Dedicated","server_os":"Linux","password":true,"vac":true,"version":"7961495","steam_id":85568392924469994,"keywords":["cp","nocrits","nodmgspread","uncletopia"],"game_id":440,"stv_port":27026,"stv_name":"Uncletopia | New York City | 2 | All Maps | STV","players":null},{"server_id":15,"name":"Uncletopia | New York City | 3 | Stopwatch","name_short":"nyc-3","host":"nyc-1.us.uncletopia.com","port":27035,"enabled":true,"region":"us-east","cc":"us","latitude":40.73061,"longitude":-73.93524,"reserved":0,"last_update":"0001-01-01T00:00:00Z","name_a2s":"Uncletopia | New York City | 3 | Stopwatch","protocol":17,"map":"workshop/pl_vigil_rc10.ugc1266210012","folder":"tf","game":"Team Fortress","app_id":440,"player_count":0,"max_players":24,"Bots":0,"server_type":"Dedicated","server_os":"Linux","password":true,"vac":true,"version":"7961495","steam_id":85568392924742820,"keywords":["nocrits","nodmgspread","payload","uncletopia"],"game_id":440,"stv_port":27036,"stv_name":"Uncletopia | New York City | 3 | Stopwatch | STV","players":null},{"server_id":16,"name":"Uncletopia | New York City | 4 | Community","name_short":"nyc-4","host":"nyc-1.us.uncletopia.com","port":27045,"enabled":true,"region":"us-east","cc":"us","latitude":40.73061,"longitude":-73.93524,"reserved":0,"last_update":"0001-01-01T00:00:00Z","name_a2s":"Uncletopia | New York City | 4 | Community","protocol":17,"map":"workshop/rd_asteroid_redux_b1.ugc2154902912","folder":"tf","game":"Team Fortress","app_id":440,"player_count":6,"max_players":24,"Bots":0,"server_type":"Dedicated","server_os":"Linux","password":true,"vac":true,"version":"7961495","steam_id":85568392924742821,"keywords":["beta","nocrits","nodmgspread","rd","uncletopia"],"game_id":440,"stv_port":27046,"stv_name":"Uncletopia | New York City | 4 | Community | STV","players":[{"user_id":6,"name":"Suu","steam_id":76561198332072536,"connected_time":2679000000000,"state":"active","ping":41},{"user_id":7,"name":"NovaSphericool","steam_id":76561198998629759,"connected_time":2675000000000,"state":"active","ping":65},{"user_id":8,"name":"EPICAlbert777","steam_id":76561198093718909,"connected_time":2641000000000,"state":"active","ping":62},{"user_id":13,"name":"Skittle","steam_id":76561199230586163,"connected_time":465000000000,"state":"active","ping":86},{"user_id":10,"name":"Cringys","steam_id":76561199029812838,"connected_time":1259000000000,"state":"active","ping":136},{"user_id":14,"name":"jacobwang274","steam_id":76561199196656012,"connected_time":442000000000,"state":"active","ping":82}]},{"server_id":142,"name":"Uncletopia | São Paulo | 1 | All Maps","name_short":"sao-1","host":"sao-1.br.uncletopia.com","port":27015,"enabled":true,"region":"sa","cc":"br","latitude":-23.533773,"longitude":-46.62529,"reserved":0,"last_update":"0001-01-01T00:00:00Z","name_a2s":"Uncletopia | São Paulo | 1 | All Maps","protocol":17,"map":"cp_sunshine","folder":"tf","game":"Team Fortress","app_id":440,"player_count":0,"max_players":24,"Bots":0,"server_type":"Dedicated","server_os":"Linux","password":true,"vac":true,"version":"7961495","steam_id":85568392924469996,"keywords":["cp","nocrits","nodmgspread","uncletopia"],"game_id":440,"stv_port":27016,"stv_name":"Uncletopia | São Paulo | 1 | All Maps | STV","players":null},{"server_id":143,"name":"Uncletopia | São Paulo | 2 | Community","name_short":"sao-2","host":"sao-2.br.uncletopia.com","port":27015,"enabled":true,"region":"sa","cc":"br","latitude":-23.533773,"longitude":-46.62529,"reserved":0,"last_update":"0001-01-01T00:00:00Z","name_a2s":"Uncletopia | São Paulo | 2 | Community","protocol":17,"map":"workshop/koth_slaughter_rc1.ugc1712845210","folder":"tf","game":"Team Fortress","app_id":440,"player_count":1,"max_players":24,"Bots":0,"server_type":"Dedicated","server_os":"Linux","password":true,"vac":true,"version":"7961495","steam_id":85568392924485349,"keywords":["cp","nocrits","nodmgspread","uncletopia"],"game_id":440,"stv_port":27016,"stv_name":"Uncletopia | São Paulo | 2 | Community | STV","players":[{"user_id":7,"name":"every class gaming","steam_id":76561199245700507,"connected_time":12000000000,"state":"spawning","ping":208}]},{"server_id":7,"name":"Uncletopia | Seattle | 1 | All Maps","name_short":"sea-1","host":"sea-1.us.uncletopia.com","port":27015,"enabled":true,"region":"us-west","cc":"us","latitude":47.608013,"longitude":-122.33517,"reserved":0,"last_update":"0001-01-01T00:00:00Z","name_a2s":"Uncletopia | Seattle | 1 | All Maps","protocol":17,"map":"pl_borneo","folder":"tf","game":"Team Fortress","app_id":440,"player_count":24,"max_players":24,"Bots":0,"server_type":"Dedicated","server_os":"Linux","password":true,"vac":true,"version":"7961495","steam_id":85568392924469997,"keywords":["nocrits","nodmgspread","payload","uncletopia"],"game_id":440,"stv_port":27016,"stv_name":"Uncletopia | Seattle | 1 | All Maps | STV","players":[{"user_id":467,"name":"Mr.Frundles","steam_id":76561198134559026,"connected_time":508000000000,"state":"active","ping":60},{"user_id":455,"name":"NFL.com","steam_id":76561198113405376,"connected_time":1730000000000,"state":"active","ping":86},{"user_id":468,"name":"Djosaurus","steam_id":76561199117271153,"connected_time":449000000000,"state":"active","ping":92},{"user_id":408,"name":"Drive-By-Fish-Guy","steam_id":76561198105513652,"connected_time":5524000000000,"state":"active","ping":88},{"user_id":374,"name":"mega","steam_id":76561198089520959,"connected_time":7415000000000,"state":"active","ping":68},{"user_id":449,"name":"The Benefactor","steam_id":76561198307247913,"connected_time":2254000000000,"state":"active","ping":83},{"user_id":471,"name":"delta","steam_id":76561199143524989,"connected_time":86000000000,"state":"active","ping":82},{"user_id":469,"name":"Hamlindigo Blue™","steam_id":76561198116337540,"connected_time":198000000000,"state":"active","ping":88},{"user_id":446,"name":"John Calibur","steam_id":76561197999986606,"connected_time":2295000000000,"state":"active","ping":74},{"user_id":396,"name":"Kelladrin","steam_id":76561198040727880,"connected_time":6452000000000,"state":"active","ping":62},{"user_id":430,"name":"Keamy","steam_id":76561199471434875,"connected_time":3543000000000,"state":"active","ping":35},{"user_id":402,"name":"you just got dyked on","steam_id":76561198018977723,"connected_time":6279000000000,"state":"active","ping":86},{"user_id":438,"name":"Oldengie","steam_id":76561199074712665,"connected_time":2751000000000,"state":"active","ping":134},{"user_id":460,"name":"Tassde","steam_id":76561197989374405,"connected_time":1396000000000,"state":"active","ping":68},{"user_id":461,"name":"AntiocoG","steam_id":76561199060853099,"connected_time":1370000000000,"state":"active","ping":57},{"user_id":414,"name":"Perfume Department","steam_id":76561198128299594,"connected_time":5428000000000,"state":"active","ping":77},{"user_id":451,"name":"A UsedNom","steam_id":76561198402832756,"connected_time":2134000000000,"state":"active","ping":57},{"user_id":452,"name":"YoyoMama","steam_id":76561198260113828,"connected_time":2133000000000,"state":"active","ping":75},{"user_id":424,"name":"Dextersbrain","steam_id":76561198011831579,"connected_time":4218000000000,"state":"active","ping":64},{"user_id":457,"name":"mindgiant","steam_id":76561197992995915,"connected_time":1715000000000,"state":"active","ping":76},{"user_id":436,"name":"買不起陶朱隱園戶？別\ufffd","steam_id":76561198068672882,"connected_time":2862000000000,"state":"active","ping":65},{"user_id":459,"name":"MrYadaization","steam_id":76561198050770818,"connected_time":1422000000000,"state":"active","ping":60},{"user_id":462,"name":"earthDF","steam_id":76561198026084025,"connected_time":1363000000000,"state":"active","ping":83},{"user_id":464,"name":"Constipated Barry","steam_id":76561198004482269,"connected_time":1038000000000,"state":"active","ping":66}]},{"server_id":119,"name":"Uncletopia | Seattle | 2 | All Maps","name_short":"sea-2","host":"sea-1.us.uncletopia.com","port":27025,"enabled":true,"region":"us-west","cc":"us","latitude":47.608013,"longitude":-122.33517,"reserved":0,"last_update":"0001-01-01T00:00:00Z","name_a2s":"Uncletopia | Seattle | 2 | All Maps","protocol":17,"map":"pl_frontier_final","folder":"tf","game":"Team Fortress","app_id":440,"player_count":24,"max_players":24,"Bots":0,"server_type":"Dedicated","server_os":"Linux","password":true,"vac":true,"version":"7961495","steam_id":85568392924469998,"keywords":["nocrits","nodmgspread","payload","uncletopia"],"game_id":440,"stv_port":27026,"stv_name":"Uncletopia | Seattle | 2 | All Maps | STV","players":[{"user_id":212,"name":"Skribbles","steam_id":76561198373073766,"connected_time":869000000000,"state":"active","ping":81},{"user_id":213,"name":"chickenenthusiast427","steam_id":76561198909415646,"connected_time":867000000000,"state":"active","ping":68},{"user_id":189,"name":"A Human-Shaped Set of Pixels","steam_id":76561198043589323,"connected_time":2265000000000,"state":"active","ping":128},{"user_id":203,"name":"CInnabitch","steam_id":76561198913057497,"connected_time":1388000000000,"state":"active","ping":97},{"user_id":206,"name":"SQbuilder","steam_id":76561198076473375,"connected_time":1064000000000,"state":"active","ping":63},{"user_id":173,"name":"Saltine Cracker","steam_id":76561198889144728,"connected_time":3526000000000,"state":"active","ping":70},{"user_id":209,"name":"ack.awesome676","steam_id":76561199109415958,"connected_time":1016000000000,"state":"active","ping":67},{"user_id":216,"name":"Amateur Glaswegian","steam_id":76561198030851956,"connected_time":817000000000,"state":"active","ping":53},{"user_id":186,"name":"Trips","steam_id":76561198054581597,"connected_time":2755000000000,"state":"active","ping":65},{"user_id":225,"name":"Lord Shmeck","steam_id":76561198023851456,"connected_time":512000000000,"state":"active","ping":45},{"user_id":215,"name":"put fentanyl back in pepsi","steam_id":76561198238592900,"connected_time":827000000000,"state":"active","ping":80},{"user_id":217,"name":"bcizzo","steam_id":76561197994399953,"connected_time":804000000000,"state":"active","ping":66},{"user_id":226,"name":"Tritium","steam_id":76561198043305626,"connected_time":498000000000,"state":"active","ping":67},{"user_id":182,"name":"ShoddyBog","steam_id":76561199043208281,"connected_time":2954000000000,"state":"active","ping":100},{"user_id":228,"name":"goos  e","steam_id":76561198036774894,"connected_time":364000000000,"state":"active","ping":57},{"user_id":219,"name":"Lily Thorn","steam_id":76561198305488625,"connected_time":772000000000,"state":"active","ping":71},{"user_id":175,"name":"Mii Guest C, From Wii Sports","steam_id":76561198197964803,"connected_time":3470000000000,"state":"active","ping":63},{"user_id":117,"name":"PhD Flopper","steam_id":76561198961051809,"connected_time":7248000000000,"state":"active","ping":100},{"user_id":220,"name":"_cza","steam_id":76561198079793576,"connected_time":735000000000,"state":"active","ping":45},{"user_id":229,"name":"Soap Man","steam_id":76561198000490235,"connected_time":350000000000,"state":"active","ping":53},{"user_id":224,"name":"AkaDoggo","steam_id":76561198968291063,"connected_time":585000000000,"state":"active","ping":109},{"user_id":230,"name":"Mr. Trumgaydo","steam_id":76561198127881967,"connected_time":163000000000,"state":"active","ping":123},{"user_id":136,"name":"Why Me...","steam_id":76561199124019937,"connected_time":5301000000000,"state":"active","ping":74},{"user_id":205,"name":"Mr.matt neon","steam_id":76561198207551757,"connected_time":1378000000000,"state":"active","ping":89}]},{"server_id":406,"name":"Uncletopia | Seattle | 3 | Stopwatch","name_short":"sea-3","host":"sea-1.us.uncletopia.com","port":27035,"enabled":true,"region":"us-west","cc":"us","latitude":47.608013,"longitude":-122.33517,"reserved":0,"last_update":"0001-01-01T00:00:00Z","name_a2s":"Uncletopia | Seattle | 3 | Stopwatch","protocol":17,"map":"workshop/pl_vigil_rc10.ugc1266210012","folder":"tf","game":"Team Fortress","app_id":440,"player_count":0,"max_players":24,"Bots":0,"server_type":"Dedicated","server_os":"Linux","password":true,"vac":true,"version":"7961495","steam_id":85568392924515217,"keywords":["nocrits","nodmgspread","payload","uncletopia"],"game_id":440,"stv_port":27036,"stv_name":"Uncletopia | Seattle | 3 | Stopwatch | STV","players":null},{"server_id":17,"name":"Uncletopia | San Francisco | 1 | All Maps","name_short":"sfo-1","host":"sfo-1.us.uncletopia.com","port":27015,"enabled":true,"region":"us-west","cc":"us","latitude":37.77397,"longitude":-122.4313,"reserved":0,"last_update":"0001-01-01T00:00:00Z","name_a2s":"Uncletopia | San Francisco | 1 | All Maps","protocol":17,"map":"cp_process_final","folder":"tf","game":"Team Fortress","app_id":440,"player_count":0,"max_players":24,"Bots":0,"server_type":"Dedicated","server_os":"Linux","password":true,"vac":true,"version":"7961495","steam_id":85568392924469999,"keywords":["cp","nocrits","nodmgspread","uncletopia"],"game_id":440,"stv_port":27016,"stv_name":"Uncletopia | San Francisco | 1 | All Maps | STV","players":null},{"server_id":18,"name":"Uncletopia | San Francisco | 2 | All Maps","name_short":"sfo-2","host":"sfo-1.us.uncletopia.com","port":27025,"enabled":true,"region":"us-west","cc":"us","latitude":37.77397,"longitude":-122.4313,"reserved":0,"last_update":"0001-01-01T00:00:00Z","name_a2s":"Uncletopia | San Francisco | 2 | All Maps","protocol":17,"map":"cp_sunshine","folder":"tf","game":"Team Fortress","app_id":440,"player_count":0,"max_players":24,"Bots":0,"server_type":"Dedicated","server_os":"Linux","password":true,"vac":true,"version":"7961495","steam_id":85568392924470000,"keywords":["cp","nocrits","nodmgspread","uncletopia"],"game_id":440,"stv_port":27026,"stv_name":"Uncletopia | San Francisco | 2 | All Maps | STV","players":null},{"server_id":19,"name":"Uncletopia | San Francisco | 3 | Stopwatch","name_short":"sfo-3","host":"sfo-1.us.uncletopia.com","port":27035,"enabled":true,"region":"us-west","cc":"us","latitude":37.77397,"longitude":-122.4313,"reserved":0,"last_update":"0001-01-01T00:00:00Z","name_a2s":"Uncletopia | San Francisco | 3 | Stopwatch","protocol":17,"map":"workshop/koth_clearcut_b15.ugc2107050255","folder":"tf","game":"Team Fortress","app_id":440,"player_count":0,"max_players":24,"Bots":0,"server_type":"Dedicated","server_os":"Linux","password":true,"vac":true,"version":"7961495","steam_id":85568392924742824,"keywords":["cp","nocrits","nodmgspread","uncletopia"],"game_id":440,"stv_port":27036,"stv_name":"Uncletopia | San Francisco | 3 | Stopwatch | STV","players":null},{"server_id":20,"name":"Uncletopia | San Francisco | 4 | Community","name_short":"sfo-4","host":"sfo-1.us.uncletopia.com","port":27045,"enabled":true,"region":"us-west","cc":"us","latitude":37.77397,"longitude":-122.4313,"reserved":0,"last_update":"0001-01-01T00:00:00Z","name_a2s":"Uncletopia | San Francisco | 4 | Community","protocol":17,"map":"workshop/koth_product_final.ugc454272353","folder":"tf","game":"Team Fortress","app_id":440,"player_count":0,"max_players":24,"Bots":0,"server_type":"Dedicated","server_os":"Linux","password":true,"vac":true,"version":"7961495","steam_id":85568392924742826,"keywords":["cp","nocrits","nodmgspread","uncletopia"],"game_id":440,"stv_port":27046,"stv_name":"Uncletopia | San Francisco | 4 | Community | STV","players":null},{"server_id":141,"name":"Uncletopia | Sydney | 1 | All Maps","name_short":"syd-1","host":"syd-1.au.uncletopia.com","port":27015,"enabled":true,"region":"au","cc":"au","latitude":-33.865143,"longitude":151.2099,"reserved":0,"last_update":"0001-01-01T00:00:00Z","name_a2s":"Uncletopia | Sydney | 1 | All Maps","protocol":17,"map":"cp_mountainlab","folder":"tf","game":"Team Fortress","app_id":440,"player_count":0,"max_players":24,"Bots":0,"server_type":"Dedicated","server_os":"Linux","password":true,"vac":true,"version":"7961495","steam_id":85568392924470001,"keywords":["cp","nocrits","nodmgspread","uncletopia"],"game_id":440,"stv_port":27016,"stv_name":"Uncletopia | Sydney | 1 | All Maps | STV","players":null},{"server_id":123,"name":"Uncletopia | Sydney | 2 | All Maps","name_short":"syd-2","host":"syd-1.au.uncletopia.com","port":27025,"enabled":true,"region":"au","cc":"au","latitude":-33.865143,"longitude":151.2099,"reserved":0,"last_update":"0001-01-01T00:00:00Z","name_a2s":"Uncletopia | Sydney | 2 | All Maps","protocol":17,"map":"cp_mercenarypark","folder":"tf","game":"Team Fortress","app_id":440,"player_count":0,"max_players":24,"Bots":0,"server_type":"Dedicated","server_os":"Linux","password":true,"vac":true,"version":"7961495","steam_id":85568392924470002,"keywords":["cp","nocrits","nodmgspread","uncletopia"],"game_id":440,"stv_port":27026,"stv_name":"Uncletopia | Sydney | 2 | All Maps | STV","players":null},{"server_id":395,"name":"Uncletopia | Sydney | 3 | All Maps","name_short":"syd-3","host":"syd-1.au.uncletopia.com","port":27035,"enabled":true,"region":"au","cc":"au","latitude":-33.865143,"longitude":151.2099,"reserved":0,"last_update":"0001-01-01T00:00:00Z","name_a2s":"Uncletopia | Sydney | 3 | All Maps","protocol":17,"map":"koth_brazil","folder":"tf","game":"Team Fortress","app_id":440,"player_count":0,"max_players":24,"Bots":0,"server_type":"Dedicated","server_os":"Linux","password":true,"vac":true,"version":"7961495","steam_id":85568392925194467,"keywords":["cp","nocrits","nodmgspread","uncletopia"],"game_id":440,"stv_port":27036,"stv_name":"Uncletopia | Sydney | 3 | All Maps | STV","players":null},{"server_id":396,"name":"Uncletopia | Sydney | 4 | All Maps","name_short":"syd-4","host":"syd-1.au.uncletopia.com","port":27045,"enabled":true,"region":"au","cc":"au","latitude":-33.865143,"longitude":151.2099,"reserved":0,"last_update":"0001-01-01T00:00:00Z","name_a2s":"Uncletopia | Sydney | 4 | All Maps","protocol":17,"map":"cp_standin_final","folder":"tf","game":"Team Fortress","app_id":440,"player_count":0,"max_players":24,"Bots":0,"server_type":"Dedicated","server_os":"Linux","password":true,"vac":true,"version":"7961495","steam_id":85568392925397958,"keywords":["cp","nocrits","nodmgspread","uncletopia"],"game_id":440,"stv_port":27046,"stv_name":"Uncletopia | Sydney | 4 | All Maps | STV","players":null},{"server_id":58,"name":"Uncletopia | Sydney | 5 | Stopwatch","name_short":"syd-5","host":"syd-1.au.uncletopia.com","port":27055,"enabled":true,"region":"au","cc":"au","latitude":-33.865143,"longitude":151.2099,"reserved":0,"last_update":"0001-01-01T00:00:00Z","name_a2s":"Uncletopia | Sydney | 5 | Stopwatch","protocol":17,"map":"koth_highpass","folder":"tf","game":"Team Fortress","app_id":440,"player_count":0,"max_players":24,"Bots":0,"server_type":"Dedicated","server_os":"Linux","password":true,"vac":true,"version":"7961495","steam_id":85568392925397959,"keywords":["cp","nocrits","nodmgspread","uncletopia"],"game_id":440,"stv_port":27056,"stv_name":"Uncletopia | Sydney | 5 | Stopwatch | STV","players":null},{"server_id":59,"name":"Uncletopia | Sydney | 6 | Community","name_short":"syd-6","host":"syd-1.au.uncletopia.com","port":27065,"enabled":true,"region":"au","cc":"au","latitude":-33.865143,"longitude":151.2099,"reserved":0,"last_update":"0001-01-01T00:00:00Z","name_a2s":"Uncletopia | Sydney | 6 | Community","protocol":17,"map":"workshop/koth_soot_final1.ugc2969540689","folder":"tf","game":"Team Fortress","app_id":440,"player_count":0,"max_players":24,"Bots":0,"server_type":"Dedicated","server_os":"Linux","password":true,"vac":true,"version":"7961495","steam_id":85568392925397960,"keywords":["cp","nocrits","nodmgspread","uncletopia"],"game_id":440,"stv_port":27066,"stv_name":"Uncletopia | Sydney | 6 | Community | STV","players":null},{"server_id":49,"name":"Uncletopia | Warsaw | 1 | One Thousand Uncles","name_short":"waw-1","host":"waw-1.pl.uncletopia.com","port":27015,"enabled":true,"region":"eu","cc":"pl","latitude":52.2297,"longitude":21.017532,"reserved":0,"last_update":"0001-01-01T00:00:00Z","name_a2s":"Uncletopia | Warsaw | 1 | One Thousand Uncles","protocol":17,"map":"pl_badwater","folder":"tf","game":"Team Fortress","app_id":440,"player_count":0,"max_players":32,"Bots":0,"server_type":"Dedicated","server_os":"Linux","password":true,"vac":true,"version":"7961495","steam_id":85568392925397850,"keywords":["alltalk","danepve","increased_maxplayers","norespawntime","payload","uncletopia"],"game_id":440,"stv_port":0,"stv_name":"","players":null},{"server_id":50,"name":"Uncletopia | Warsaw | 2 | One Thousand Uncles","name_short":"waw-2","host":"waw-1.pl.uncletopia.com","port":27025,"enabled":true,"region":"eu","cc":"pl","latitude":52.2297,"longitude":21.017532,"reserved":0,"last_update":"0001-01-01T00:00:00Z","name_a2s":"Uncletopia | Warsaw | 2 | One Thousand Uncles","protocol":17,"map":"pl_hoodoo_final","folder":"tf","game":"Team Fortress","app_id":440,"player_count":30,"max_players":32,"Bots":20,"server_type":"Dedicated","server_os":"Linux","password":true,"vac":true,"version":"7961495","steam_id":85568392925397851,"keywords":["alltalk","bots","danepve","increased_maxplayers","norespawntime","payload","uncletopia"],"game_id":440,"stv_port":0,"stv_name":"","players":[{"user_id":302,"name":"sotry","steam_id":76561198098107663,"connected_time":2332000000000,"state":"active","ping":79},{"user_id":306,"name":"ОберштурмЧурка","steam_id":76561198249134828,"connected_time":1522000000000,"state":"active","ping":59},{"user_id":242,"name":"Mr_Pulse_","steam_id":76561198095001602,"connected_time":7056000000000,"state":"active","ping":121},{"user_id":301,"name":"Dirtier Harry","steam_id":76561198134378108,"connected_time":2886000000000,"state":"active","ping":95},{"user_id":311,"name":"nguyen.minh.phuc3966","steam_id":76561199254042753,"connected_time":385000000000,"state":"active","ping":363},{"user_id":307,"name":"76561198869576262","steam_id":76561198869576262,"connected_time":1228000000000,"state":"active","ping":66},{"user_id":310,"name":"Sir Lancelot","steam_id":76561198049709392,"connected_time":766000000000,"state":"active","ping":107},{"user_id":278,"name":"jackthegreenlade","steam_id":76561199468264132,"connected_time":3834000000000,"state":"active","ping":126},{"user_id":309,"name":"MC_Void_0","steam_id":76561199148827012,"connected_time":806000000000,"state":"active","ping":225},{"user_id":312,"name":"foolproof","steam_id":76561198115801132,"connected_time":375000000000,"state":"active","ping":64},{"user_id":313,"name":"LVIXX","steam_id":76561198188767928,"connected_time":309000000000,"state":"active","ping":97}]},{"server_id":51,"name":"Uncletopia | Warsaw | 3 | All Maps","name_short":"waw-3","host":"waw-1.pl.uncletopia.com","port":27035,"enabled":true,"region":"eu","cc":"pl","latitude":52.2297,"longitude":21.017532,"reserved":0,"last_update":"0001-01-01T00:00:00Z","name_a2s":"Uncletopia | Warsaw | 3 | All Maps","protocol":17,"map":"koth_highpass","folder":"tf","game":"Team Fortress","app_id":440,"player_count":0,"max_players":24,"Bots":0,"server_type":"Dedicated","server_os":"Linux","password":true,"vac":true,"version":"7961495","steam_id":85568392925397852,"keywords":["cp","nocrits","nodmgspread","uncletopia"],"game_id":440,"stv_port":27036,"stv_name":"Uncletopia | Warsaw | 3 | All Maps | STV","players":null},{"server_id":52,"name":"Uncletopia | Warsaw | 4 | All Maps","name_short":"waw-4","host":"waw-1.pl.uncletopia.com","port":27045,"enabled":true,"region":"eu","cc":"pl","latitude":52.2297,"longitude":21.017532,"reserved":0,"last_update":"0001-01-01T00:00:00Z","name_a2s":"Uncletopia | Warsaw | 4 | All Maps","protocol":17,"map":"koth_highpass","folder":"tf","game":"Team Fortress","app_id":440,"player_count":0,"max_players":24,"Bots":0,"server_type":"Dedicated","server_os":"Linux","password":true,"vac":true,"version":"7961495","steam_id":85568392925397853,"keywords":["cp","nocrits","nodmgspread","uncletopia"],"game_id":440,"stv_port":27046,"stv_name":"Uncletopia | Warsaw | 4 | All Maps | STV","players":null},{"server_id":53,"name":"Uncletopia | Warsaw | 5 | Stopwatch","name_short":"waw-5","host":"waw-1.pl.uncletopia.com","port":27055,"enabled":true,"region":"eu","cc":"pl","latitude":52.2297,"longitude":21.017532,"reserved":0,"last_update":"0001-01-01T00:00:00Z","name_a2s":"Uncletopia | Warsaw | 5 | Stopwatch","protocol":17,"map":"koth_lakeside_final","folder":"tf","game":"Team Fortress","app_id":440,"player_count":0,"max_players":24,"Bots":0,"server_type":"Dedicated","server_os":"Linux","password":true,"vac":true,"version":"7961495","steam_id":85568392925397854,"keywords":["cp","nocrits","nodmgspread","uncletopia"],"game_id":440,"stv_port":27056,"stv_name":"Uncletopia | Warsaw | 5 | Stopwatch | STV","players":null},{"server_id":54,"name":"Uncletopia | Warsaw | 6 | Community","name_short":"waw-6","host":"waw-1.pl.uncletopia.com","port":27065,"enabled":true,"region":"eu","cc":"pl","latitude":52.2297,"longitude":21.017532,"reserved":0,"last_update":"0001-01-01T00:00:00Z","name_a2s":"Uncletopia | Warsaw | 6 | Community","protocol":17,"map":"workshop/koth_product_final.ugc454272353","folder":"tf","game":"Team Fortress","app_id":440,"player_count":0,"max_players":24,"Bots":0,"server_type":"Dedicated","server_os":"Linux","password":true,"vac":true,"version":"7961495","steam_id":85568392925397856,"keywords":["cp","nocrits","nodmgspread","uncletopia"],"game_id":440,"stv_port":27066,"stv_name":"Uncletopia | Warsaw | 6 | Community | STV","players":null}]}