{"status":true,"message":"","result":[{"server_id":9,"name":"Uncletopia | Atlanta | 1 | All Maps","name_short":"atl-1","host":"atl-1.us.uncletopia.com","port":27015,"enabled":true,"region":"us-east","cc":"us","latitude":33.753746,"longitude":-84.38633,"reserved":0,"last_update":"0001-01-01T00:00:00Z","name_a2s":"Uncletopia | Atlanta | 1 | All Maps","protocol":17,"map":"koth_viaduct","folder":"tf","game":"Team Fortress","app_id":440,"player_count":24,"max_players":24,"Bots":0,"server_type":"Dedicated","server_os":"Linux","password":true,"vac":true,"version":"7757534","steam_id":85568392924469982,"keywords":["cp","nocrits","nodmgspread","uncletopia"],"game_id":440,"stv_port":27016,"stv_name":"Uncletopia | Atlanta | 1 | All Maps | STV","players":[{"user_id":363,"name":"white ray","steam_id":76561198026664629,"connected_time":777000000000,"state":"active","ping":59},{"user_id":287,"name":"\u003c blank \u003e","steam_id":76561198012566503,"connected_time":4778000000000,"state":"active","ping":86},{"user_id":362,"name":"Zoratunictoon","steam_id":76561199475066871,"connected_time":810000000000,"state":"active","ping":80},{"user_id":353,"name":"wack","steam_id":76561198095697330,"connected_time":1147000000000,"state":"active","ping":96},{"user_id":361,"name":"laszlo","steam_id":76561198141198352,"connected_time":858000000000,"state":"active","ping":62},{"user_id":312,"name":"Footsies Nun","steam_id":76561198366918608,"connected_time":1715000000000,"state":"active","ping":73},{"user_id":364,"name":"Lilith","steam_id":76561198125102885,"connected_time":748000000000,"state":"active","ping":65},{"user_id":351,"name":"Ambi","steam_id":76561198218669111,"connected_time":1158000000000,"state":"active","ping":80},{"user_id":370,"name":"Ghost","steam_id":76561198110914180,"connected_time":397000000000,"state":"active","ping":165},{"user_id":366,"name":"whisper","steam_id":76561198116741891,"connected_time":718000000000,"state":"active","ping":50},{"user_id":341,"name":"Im High","steam_id":76561198049954886,"connected_time":1284000000000,"state":"active","ping":70},{"user_id":248,"name":"Edited Atom","steam_id":76561198210844957,"connected_time":6179000000000,"state":"active","ping":61},{"user_id":283,"name":"peppino spaghetti (pizza tower)","steam_id":76561199180661813,"connected_time":5059000000000,"state":"active","ping":63},{"user_id":299,"name":"Meringue","steam_id":76561198067899943,"connected_time":2978000000000,"state":"active","ping":68},{"user_id":368,"name":"PinkLemonade","steam_id":76561198799286228,"connected_time":568000000000,"state":"active","ping":65},{"user_id":277,"name":"Kiso ÁÅ´","steam_id":76561198141026844,"connected_time":5330000000000,"state":"active","ping":116},{"user_id":367,"name":"shadow elite","steam_id":76561198165212575,"connected_time":666000000000,"state":"active","ping":151},{"user_id":371,"name":"sam","steam_id":76561198217362968,"connected_time":361000000000,"state":"active","ping":84},{"user_id":311,"name":"Tony Pizza","steam_id":76561198044331477,"connected_time":1768000000000,"state":"active","ping":71},{"user_id":347,"name":"Mikael_01","steam_id":76561199080253129,"connected_time":1202000000000,"state":"active","ping":183},{"user_id":372,"name":"dog flattening machine","steam_id":76561198122487460,"connected_time":87000000000,"state":"active","ping":73},{"user_id":309,"name":"Chipmunk Gaming","steam_id":76561198251851220,"connected_time":1791000000000,"state":"active","ping":57},{"user_id":373,"name":"Towns","steam_id":76561198984662863,"connected_time":45000000000,"state":"active","ping":54},{"user_id":302,"name":"Knight","steam_id":76561198154529952,"connected_time":2865000000000,"state":"active","ping":114}]},{"server_id":104,"name":"Uncletopia | Atlanta | 2 | All Maps","name_short":"atl-2","host":"atl-1.us.uncletopia.com","port":27025,"enabled":true,"region":"us-east","cc":"us","latitude":33.753746,"longitude":-84.38633,"reserved":0,"last_update":"0001-01-01T00:00:00Z","name_a2s":"Uncletopia | Atlanta | 2 | All Maps","protocol":17,"map":"koth_lakeside_final","folder":"tf","game":"Team Fortress","app_id":440,"player_count":0,"max_players":24,"Bots":0,"server_type":"Dedicated","server_os":"Linux","password":true,"vac":true,"version":"7757534","steam_id":85568392924469983,"keywords":["cp","nocrits","nodmgspread","uncletopia"],"game_id":440,"stv_port":27026,"stv_name":"Uncletopia | Atlanta | 2 | All Maps | STV","players":null},{"server_id":400,"name":"Uncletopia | Atlanta | 3 | Community","name_short":"atl-3","host":"atl-1.us.uncletopia.com","port":27035,"enabled":true,"region":"us-east","cc":"us","latitude":33.753746,"longitude":-84.38633,"reserved":0,"last_update":"0001-01-01T00:00:00Z","name_a2s":"Uncletopia | Atlanta | 3 | Community","protocol":17,"map":"workshop/koth_trenchfoot_b1a.ugc731436616","folder":"tf","game":"Team Fortress","app_id":440,"player_count":0,"max_players":24,"Bots":0,"server_type":"Dedicated","server_os":"Linux","password":true,"vac":true,"version":"7757534","steam_id":85568392924515187,"keywords":["cp","nocrits","nodmgspread","uncletopia"],"game_id":440,"stv_port":27036,"stv_name":"Uncletopia | Atlanta | 3 | Community | STV","players":null},{"server_id":401,"name":"Uncletopia | Atlanta | 4 | No Payload","name_short":"atl-4","host":"atl-1.us.uncletopia.com","port":27045,"enabled":true,"region":"us-east","cc":"us","latitude":33.753746,"longitude":-84.38633,"reserved":0,"last_update":"0001-01-01T00:00:00Z","name_a2s":"","protocol":0,"map":"","folder":"","game":"","app_id":0,"player_count":0,"max_players":0,"Bots":0,"server_type":"","server_os":"","password":false,"vac":false,"version":"","steam_id":0,"keywords":null,"game_id":0,"stv_port":0,"stv_name":"","players":null},{"server_id":2,"name":"Uncletopia | Chicago | 1 | All Maps","name_short":"chi-1","host":"chi-1.us.uncletopia.com","port":27015,"enabled":true,"region":"us-central","cc":"us","latitude":41.881832,"longitude":-87.62318,"reserved":0,"last_update":"0001-01-01T00:00:00Z","name_a2s":"Uncletopia | Chicago | 1 | All Maps","protocol":17,"map":"cp_snakewater_final1","folder":"tf","game":"Team Fortress","app_id":440,"player_count":24,"max_players":24,"Bots":0,"server_type":"Dedicated","server_os":"Linux","password":true,"vac":true,"version":"7757534","steam_id":85568392924469984,"keywords":["cp","nocrits","nodmgspread","uncletopia"],"game_id":440,"stv_port":27016,"stv_name":"Uncletopia | Chicago | 1 | All Maps | STV","players":[{"user_id":89,"name":"ÔºîÔºê Ôº¶Ôº∞Ôº≥","steam_id":76561198272394965,"connected_time":2393000000000,"state":"active","ping":132},{"user_id":39,"name":"Elefant√©","steam_id":76561198258765900,"connected_time":5286000000000,"state":"active","ping":86},{"user_id":109,"name":"G6 bunky","steam_id":76561198111669774,"connected_time":1102000000000,"state":"active","ping":50},{"user_id":117,"name":"soup","steam_id":76561198099977572,"connected_time":932000000000,"state":"active","ping":53},{"user_id":42,"name":"Tho-Radia","steam_id":76561198093999190,"connected_time":5268000000000,"state":"active","ping":136},{"user_id":125,"name":"Captain Underbelly","steam_id":76561198811270935,"connected_time":740000000000,"state":"active","ping":114},{"user_id":92,"name":"FredJoeBob","steam_id":76561198160361317,"connected_time":2244000000000,"state":"active","ping":71},{"user_id":135,"name":"Rooty Tooty Point and Shooty","steam_id":76561198039074432,"connected_time":215000000000,"state":"active","ping":95},{"user_id":123,"name":"Ëä±„ÅÆÊ¥æÊâã„Å™Èºª","steam_id":76561198042735130,"connected_time":821000000000,"state":"active","ping":108},{"user_id":130,"name":"Dreayth","steam_id":76561198072014453,"connected_time":565000000000,"state":"active","ping":78},{"user_id":124,"name":"yitz","steam_id":76561198375575841,"connected_time":768000000000,"state":"active","ping":56},{"user_id":65,"name":"Coach McFish","steam_id":76561198210456405,"connected_time":4404000000000,"state":"active","ping":77},{"user_id":107,"name":"Kamikazedoctor","steam_id":76561198157078818,"connected_time":1364000000000,"state":"active","ping":65},{"user_id":108,"name":"bojack from the show bojack hor","steam_id":76561198053006712,"connected_time":1252000000000,"state":"active","ping":58},{"user_id":126,"name":"Goob","steam_id":76561198256918638,"connected_time":734000000000,"state":"active","ping":101},{"user_id":134,"name":"PotatoIsUs‚Ñ¢","steam_id":76561198241109482,"connected_time":251000000000,"state":"active","ping":76},{"user_id":127,"name":"i guess thats it","steam_id":76561198053832401,"connected_time":730000000000,"state":"active","ping":132},{"user_id":84,"name":"Chevlanae","steam_id":76561198038180603,"connected_time":2896000000000,"state":"active","ping":61},{"user_id":132,"name":"stop reddit","steam_id":76561198166982558,"connected_time":443000000000,"state":"active","ping":89},{"user_id":116,"name":"Super Blooper","steam_id":76561198155872356,"connected_time":965000000000,"state":"active","ping":57},{"user_id":119,"name":"9Bendy9","steam_id":76561198164023601,"connected_time":923000000000,"state":"active","ping":110},{"user_id":133,"name":"Mister Frank","steam_id":76561198161473385,"connected_time":358000000000,"state":"active","ping":65},{"user_id":129,"name":"Boogie","steam_id":76561198043626626,"connected_time":707000000000,"state":"active","ping":56},{"user_id":122,"name":"Training Arc","steam_id":76561198038832034,"connected_time":890000000000,"state":"active","ping":108}]},{"server_id":106,"name":"Uncletopia | Chicago | 2 | All Maps","name_short":"chi-2","host":"chi-1.us.uncletopia.com","port":27025,"enabled":true,"region":"us-central","cc":"us","latitude":41.881832,"longitude":-87.62318,"reserved":0,"last_update":"0001-01-01T00:00:00Z","name_a2s":"Uncletopia | Chicago | 2 | All Maps","protocol":17,"map":"pl_upward","folder":"tf","game":"Team Fortress","app_id":440,"player_count":24,"max_players":24,"Bots":0,"server_type":"Dedicated","server_os":"Linux","password":true,"vac":true,"version":"7757534","steam_id":85568392924469985,"keywords":["nocrits","nodmgspread","payload","uncletopia"],"game_id":440,"stv_port":27026,"stv_name":"Uncletopia | Chicago | 2 | All Maps | STV","players":[{"user_id":428,"name":"INHUMAN MOOSE","steam_id":76561198044496997,"connected_time":321000000000,"state":"active","ping":68},{"user_id":426,"name":"nao","steam_id":76561199067925855,"connected_time":337000000000,"state":"active","ping":73},{"user_id":432,"name":"Hertz","steam_id":76561198245322982,"connected_time":305000000000,"state":"active","ping":48},{"user_id":407,"name":"Fluffeline","steam_id":76561198352909489,"connected_time":2305000000000,"state":"active","ping":138},{"user_id":405,"name":"AuzzieJZ","steam_id":76561198134430439,"connected_time":2907000000000,"state":"active","ping":60},{"user_id":291,"name":"TwistedTurk","steam_id":76561198082047119,"connected_time":11263000000000,"state":"active","ping":67},{"user_id":430,"name":"Gay Priest","steam_id":76561198800303258,"connected_time":312000000000,"state":"active","ping":68},{"user_id":416,"name":"Bee","steam_id":76561198074681324,"connected_time":1319000000000,"state":"active","ping":60},{"user_id":427,"name":"creeeeeee","steam_id":76561198392539722,"connected_time":335000000000,"state":"active","ping":77},{"user_id":433,"name":"jzplr üé∑üêõ","steam_id":76561198091901520,"connected_time":290000000000,"state":"active","ping":75},{"user_id":153,"name":"Ajax","steam_id":76561197962240140,"connected_time":22697000000000,"state":"active","ping":69},{"user_id":399,"name":"Swaggot","steam_id":76561199104492369,"connected_time":4186000000000,"state":"active","ping":78},{"user_id":337,"name":"ThatGamingKiwi","steam_id":76561199170522237,"connected_time":7094000000000,"state":"active","ping":77},{"user_id":406,"name":"CeigeBirb","steam_id":76561198068538473,"connected_time":2773000000000,"state":"active","ping":75},{"user_id":423,"name":"Madd Maxx","steam_id":76561198339584998,"connected_time":599000000000,"state":"active","ping":84},{"user_id":328,"name":"dairy","steam_id":76561198117033273,"connected_time":7951000000000,"state":"active","ping":146},{"user_id":422,"name":"autumnal.messenger","steam_id":76561199345816635,"connected_time":819000000000,"state":"active","ping":100},{"user_id":389,"name":"ribbonborn","steam_id":76561198001195423,"connected_time":4818000000000,"state":"active","ping":102},{"user_id":410,"name":"Michaelpc1","steam_id":76561198088365519,"connected_time":2223000000000,"state":"active","ping":75},{"user_id":403,"name":"the spy from team fortress 2","steam_id":76561198047797306,"connected_time":3099000000000,"state":"active","ping":59},{"user_id":284,"name":"Rick Beato","steam_id":76561199080451611,"connected_time":12059000000000,"state":"active","ping":73},{"user_id":397,"name":"Snorty","steam_id":76561198114304454,"connected_time":4334000000000,"state":"active","ping":77},{"user_id":366,"name":"vv","steam_id":76561198134813102,"connected_time":6374000000000,"state":"active","ping":59},{"user_id":425,"name":"Magik","steam_id":76561198115443354,"connected_time":402000000000,"state":"active","ping":49}]},{"server_id":402,"name":"Uncletopia | Chicago | 3 | All Maps","name_short":"chi-3","host":"chi-1.us.uncletopia.com","port":27035,"enabled":true,"region":"us-central","cc":"us","latitude":41.881832,"longitude":-87.62318,"reserved":0,"last_update":"0001-01-01T00:00:00Z","name_a2s":"Uncletopia | Chicago | 3 | All Maps","protocol":17,"map":"koth_highpass","folder":"tf","game":"Team Fortress","app_id":440,"player_count":4,"max_players":24,"Bots":0,"server_type":"Dedicated","server_os":"Linux","password":true,"vac":true,"version":"7757534","steam_id":85568392924515191,"keywords":["cp","nocrits","nodmgspread","uncletopia"],"game_id":440,"stv_port":27036,"stv_name":"Uncletopia | Chicago | 3 | All Maps | STV","players":[{"user_id":13,"name":"KSupes","steam_id":76561199131995067,"connected_time":163000000000,"state":"active","ping":45},{"user_id":14,"name":"Ricky Dicky Doo Dah Grimes","steam_id":76561198080430008,"connected_time":120000000000,"state":"active","ping":69},{"user_id":15,"name":"∆ê’å—¥∆≥","steam_id":76561198099470277,"connected_time":88000000000,"state":"active","ping":76},{"user_id":16,"name":"ShadowWasUhOh","steam_id":76561198400361935,"connected_time":88000000000,"state":"active","ping":77}]},{"server_id":403,"name":"Uncletopia | Chicago | 4 | All Maps","name_short":"chi-4","host":"chi-1.us.uncletopia.com","port":27045,"enabled":true,"region":"us-central","cc":"us","latitude":41.881832,"longitude":-87.62318,"reserved":0,"last_update":"0001-01-01T00:00:00Z","name_a2s":"Uncletopia | Chicago | 4 | All Maps","protocol":17,"map":"cp_dustbowl","folder":"tf","game":"Team Fortress","app_id":440,"player_count":24,"max_players":24,"Bots":0,"server_type":"Dedicated","server_os":"Linux","password":true,"vac":true,"version":"7757534","steam_id":85568392924515193,"keywords":["cp","nocrits","nodmgspread","uncletopia"],"game_id":440,"stv_port":27046,"stv_name":"Uncletopia | Chicago | 4 | All Maps | STV","players":[{"user_id":10,"name":"superkahles","steam_id":76561198844096180,"connected_time":3669000000000,"state":"active","ping":70},{"user_id":58,"name":"BasicPeaches","steam_id":76561198190890150,"connected_time":1416000000000,"state":"active","ping":79},{"user_id":17,"name":"kirbo","steam_id":76561198057895955,"connected_time":3089000000000,"state":"active","ping":65},{"user_id":13,"name":"Chucklez","steam_id":76561198058193135,"connected_time":3232000000000,"state":"active","ping":53},{"user_id":21,"name":"El prisas","steam_id":76561198807907486,"connected_time":2849000000000,"state":"active","ping":116},{"user_id":63,"name":"TacticalDuckie","steam_id":76561198275769295,"connected_time":470000000000,"state":"active","ping":76},{"user_id":23,"name":"IM SHITTING YOUR PANTS","steam_id":76561198119344547,"connected_time":2807000000000,"state":"active","ping":85},{"user_id":20,"name":"connor","steam_id":76561198835389452,"connected_time":3078000000000,"state":"active","ping":76},{"user_id":57,"name":"TypicalGiftig","steam_id":76561198170372495,"connected_time":1583000000000,"state":"active","ping":69},{"user_id":47,"name":"P.C. Baby","steam_id":76561198067011379,"connected_time":1906000000000,"state":"active","ping":112},{"user_id":61,"name":"'LaxAttack","steam_id":76561198044129346,"connected_time":802000000000,"state":"active","ping":67},{"user_id":28,"name":"MINI CRIT!999","steam_id":76561198027649268,"connected_time":2616000000000,"state":"active","ping":82},{"user_id":60,"name":"faxxy","steam_id":76561198079621240,"connected_time":1220000000000,"state":"active","ping":91},{"user_id":32,"name":"Super","steam_id":76561199179611350,"connected_time":2507000000000,"state":"active","ping":66},{"user_id":34,"name":"My dad owns Club Penguin.","steam_id":76561198032864436,"connected_time":2267000000000,"state":"active","ping":71},{"user_id":35,"name":"Rick O'Connell","steam_id":76561198140709878,"connected_time":2169000000000,"state":"active","ping":72},{"user_id":56,"name":"rock raiders enjoyer","steam_id":76561198139718219,"connected_time":1717000000000,"state":"active","ping":85},{"user_id":64,"name":"Kiss Master","steam_id":76561198289572271,"connected_time":230000000000,"state":"active","ping":80},{"user_id":38,"name":"caberknight tf2","steam_id":76561199273882768,"connected_time":2080000000000,"state":"active","ping":69},{"user_id":45,"name":"shmeatshmaker","steam_id":76561198259968011,"connected_time":1999000000000,"state":"active","ping":91},{"user_id":54,"name":"thai","steam_id":76561198052462287,"connected_time":1803000000000,"state":"active","ping":90},{"user_id":42,"name":"sheep girl \u003c3","steam_id":76561198068189558,"connected_time":2010000000000,"state":"active","ping":91},{"user_id":62,"name":"_Lusty_","steam_id":76561198876948142,"connected_time":627000000000,"state":"active","ping":66},{"user_id":53,"name":"Viennetta","steam_id":76561198044088335,"connected_time":1830000000000,"state":"active","ping":64}]},{"server_id":36,"name":"Uncletopia | Chicago | 5 | All Maps","name_short":"chi-5","host":"chi-2.us.uncletopia.com","port":27015,"enabled":true,"region":"us-central","cc":"us","latitude":41.881832,"longitude":-87.62318,"reserved":0,"last_update":"0001-01-01T00:00:00Z","name_a2s":"Uncletopia | Chicago | 5 | All Maps","protocol":17,"map":"pl_frontier_final","folder":"tf","game":"Team Fortress","app_id":440,"player_count":24,"max_players":24,"Bots":0,"server_type":"Dedicated","server_os":"Linux","password":true,"vac":true,"version":"7757534","steam_id":85568392924866362,"keywords":["nocrits","nodmgspread","payload","uncletopia"],"game_id":440,"stv_port":27016,"stv_name":"Uncletopia | Chicago | 5 | All Maps | STV","players":[{"user_id":108,"name":"Ex-Phlogger","steam_id":76561198400058665,"connected_time":268000000000,"state":"active","ping":74},{"user_id":77,"name":"Trove","steam_id":76561198110970476,"connected_time":3466000000000,"state":"active","ping":45},{"user_id":64,"name":"fuckterry","steam_id":76561198271957738,"connected_time":5222000000000,"state":"active","ping":74},{"user_id":107,"name":"Skullypoo","steam_id":76561198067912022,"connected_time":359000000000,"state":"active","ping":60},{"user_id":106,"name":"Tusk","steam_id":76561199066977033,"connected_time":532000000000,"state":"active","ping":71},{"user_id":79,"name":"the doo doo man","steam_id":76561198057076267,"connected_time":3445000000000,"state":"active","ping":74},{"user_id":94,"name":"AnonymousCritter","steam_id":76561198864475187,"connected_time":1676000000000,"state":"active","ping":49},{"user_id":21,"name":"griff928","steam_id":76561198149614679,"connected_time":7196000000000,"state":"active","ping":48},{"user_id":110,"name":"Starbox","steam_id":76561198141054773,"connected_time":106000000000,"state":"active","ping":79},{"user_id":91,"name":"Deltaco","steam_id":76561198094572694,"connected_time":3240000000000,"state":"active","ping":119},{"user_id":93,"name":"Warkeidan","steam_id":76561198118805546,"connected_time":2832000000000,"state":"active","ping":73},{"user_id":111,"name":"Walter White","steam_id":76561198875469297,"connected_time":68000000000,"state":"active","ping":55},{"user_id":95,"name":"Le0901","steam_id":76561198372891244,"connected_time":1660000000000,"state":"active","ping":57},{"user_id":84,"name":"kraig","steam_id":76561198044198130,"connected_time":3331000000000,"state":"active","ping":71},{"user_id":86,"name":"epstein didnt kill himself","steam_id":76561198268174395,"connected_time":3308000000000,"state":"active","ping":57},{"user_id":87,"name":"Pourpel","steam_id":76561198059125470,"connected_time":3302000000000,"state":"active","ping":75},{"user_id":88,"name":"A Shiny Meat Bicycle","steam_id":76561198358757709,"connected_time":3296000000000,"state":"active","ping":100},{"user_id":97,"name":"sawrik","steam_id":76561198018808213,"connected_time":1631000000000,"state":"active","ping":71},{"user_id":109,"name":"Thnikkakid","steam_id":76561198079311239,"connected_time":196000000000,"state":"active","ping":67},{"user_id":100,"name":"Alara","steam_id":76561198083144491,"connected_time":1543000000000,"state":"active","ping":67},{"user_id":101,"name":"shadow6","steam_id":76561197979807910,"connected_time":1522000000000,"state":"active","ping":90},{"user_id":90,"name":"Truffleoil","steam_id":76561198114689041,"connected_time":3262000000000,"state":"active","ping":64},{"user_id":102,"name":"Broadsword","steam_id":76561198011160411,"connected_time":1486000000000,"state":"active","ping":81},{"user_id":104,"name":"TweetTweet17","steam_id":76561198994956859,"connected_time":982000000000,"state":"active","ping":88}]},{"server_id":37,"name":"Uncletopia | Chicago | 6 | All Maps","name_short":"chi-6","host":"chi-2.us.uncletopia.com","port":27025,"enabled":true,"region":"us-central","cc":"us","latitude":41.881832,"longitude":-87.62318,"reserved":0,"last_update":"0001-01-01T00:00:00Z","name_a2s":"Uncletopia | Chicago | 6 | All Maps","protocol":17,"map":"cp_mountainlab","folder":"tf","game":"Team Fortress","app_id":440,"player_count":0,"max_players":24,"Bots":0,"server_type":"Dedicated","server_os":"Linux","password":true,"vac":true,"version":"7757534","steam_id":85568392924866363,"keywords":["cp","nocrits","nodmgspread","uncletopia"],"game_id":440,"stv_port":27026,"stv_name":"Uncletopia | Chicago | 6 | All Maps | STV","players":null},{"server_id":38,"name":"Uncletopia | Chicago | 7 | Stopwatch Beta","name_short":"chi-7","host":"chi-2.us.uncletopia.com","port":27035,"enabled":true,"region":"us-central","cc":"us","latitude":41.881832,"longitude":-87.62318,"reserved":0,"last_update":"0001-01-01T00:00:00Z","name_a2s":"Uncletopia | Chicago | 7 | Stopwatch Beta","protocol":17,"map":"pl_barnblitz","folder":"tf","game":"Team Fortress","app_id":440,"player_count":0,"max_players":24,"Bots":0,"server_type":"Dedicated","server_os":"Linux","password":true,"vac":true,"version":"7757534","steam_id":85568392924866364,"keywords":["nocrits","nodmgspread","payload","uncletopia"],"game_id":440,"stv_port":27036,"stv_name":"Uncletopia | Chicago | 7 | Stopwatch Beta | STV","players":null},{"server_id":39,"name":"Uncletopia | Chicago | 8 | Community","name_short":"chi-8","host":"chi-2.us.uncletopia.com","port":27045,"enabled":true,"region":"us-central","cc":"us","latitude":41.881832,"longitude":-87.62318,"reserved":0,"last_update":"0001-01-01T00:00:00Z","name_a2s":"Uncletopia | Chicago | 8 | Community","protocol":17,"map":"workshop/koth_slaughter_rc1.ugc1712845210","folder":"tf","game":"Team Fortress","app_id":440,"player_count":0,"max_players":24,"Bots":0,"server_type":"Dedicated","server_os":"Linux","password":true,"vac":true,"version":"7757534","steam_id":85568392924866365,"keywords":["cp","nocrits","nodmgspread","uncletopia"],"game_id":440,"stv_port":27046,"stv_name":"Uncletopia | Chicago | 8 | Community | STV","players":null},{"server_id":8,"name":"Uncletopia | Dallas | 1 | All Maps","name_short":"dal-1","host":"dal-1.us.uncletopia.com","port":27015,"enabled":true,"region":"us-central","cc":"us","latitude":32.779167,"longitude":-96.80889,"reserved":0,"last_update":"0001-01-01T00:00:00Z","name_a2s":"Uncletopia | Dallas | 1 | All Maps","protocol":17,"map":"pl_upward","folder":"tf","game":"Team Fortress","app_id":440,"player_count":24,"max_players":24,"Bots":0,"server_type":"Dedicated","server_os":"Linux","password":true,"vac":true,"version":"7757534","steam_id":85568392924469986,"keywords":["nocrits","nodmgspread","payload","uncletopia"],"game_id":440,"stv_port":27016,"stv_name":"Uncletopia | Dallas | 1 | All Maps | STV","players":[{"user_id":418,"name":"Fibly","steam_id":76561198139522952,"connected_time":720000000000,"state":"active","ping":45},{"user_id":393,"name":"TothBrush","steam_id":76561198028254471,"connected_time":3515000000000,"state":"active","ping":63},{"user_id":394,"name":"Weerk","steam_id":76561199209543551,"connected_time":3503000000000,"state":"active","ping":87},{"user_id":409,"name":"sebasbreach","steam_id":76561199061928331,"connected_time":2040000000000,"state":"active","ping":181},{"user_id":399,"name":"Virgo‚ôç","steam_id":76561198092704879,"connected_time":3324000000000,"state":"active","ping":84},{"user_id":410,"name":"Kosmic Ink","steam_id":76561198344286099,"connected_time":1996000000000,"state":"active","ping":58},{"user_id":352,"name":"CPUnit","steam_id":76561198162881878,"connected_time":6535000000000,"state":"active","ping":79},{"user_id":415,"name":"ItsRoy","steam_id":76561198119525485,"connected_time":1164000000000,"state":"active","ping":79},{"user_id":365,"name":"N'Frieden","steam_id":76561198125840265,"connected_time":5415000000000,"state":"active","ping":74},{"user_id":419,"name":"TheFail36","steam_id":76561199111552786,"connected_time":564000000000,"state":"active","ping":153},{"user_id":416,"name":"BOTBOT","steam_id":76561198271928618,"connected_time":1160000000000,"state":"active","ping":105},{"user_id":414,"name":"Doomagedden","steam_id":76561198272589475,"connected_time":1705000000000,"state":"active","ping":51},{"user_id":420,"name":"sip","steam_id":76561198000422839,"connected_time":6000000000,"state":"spawning","ping":73},{"user_id":391,"name":"The Moon","steam_id":76561198082926682,"connected_time":3631000000000,"state":"active","ping":81},{"user_id":390,"name":"zapato","steam_id":76561198142278437,"connected_time":3684000000000,"state":"active","ping":102},{"user_id":340,"name":"Imrgrim","steam_id":76561198135866481,"connected_time":7434000000000,"state":"active","ping":61},{"user_id":384,"name":"Bonk","steam_id":76561198116945752,"connected_time":4151000000000,"state":"active","ping":64},{"user_id":377,"name":"Alexhcgar„ÉÖ","steam_id":76561198085706389,"connected_time":4453000000000,"state":"active","ping":115},{"user_id":421,"name":"bigboimarven","steam_id":76561198844778810,"connected_time":5000000000,"state":"spawning","ping":53},{"user_id":400,"name":"suns","steam_id":76561198079583278,"connected_time":3202000000000,"state":"active","ping":64},{"user_id":347,"name":"Can You Feel It Mr.Krabs","steam_id":76561198128302414,"connected_time":7244000000000,"state":"active","ping":64},{"user_id":401,"name":"oxbudy","steam_id":76561198022120207,"connected_time":2936000000000,"state":"active","ping":62},{"user_id":392,"name":"Stamin-Pol","steam_id":76561198280081805,"connected_time":3523000000000,"state":"active","ping":69},{"user_id":417,"name":"U.S. MARINE","steam_id":76561199127423378,"connected_time":1159000000000,"state":"active","ping":82}]},{"server_id":108,"name":"Uncletopia | Dallas | 2 | All Maps","name_short":"dal-2","host":"dal-1.us.uncletopia.com","port":27025,"enabled":true,"region":"us-central","cc":"us","latitude":32.779167,"longitude":-96.80889,"reserved":0,"last_update":"0001-01-01T00:00:00Z","name_a2s":"Uncletopia | Dallas | 2 | All Maps","protocol":17,"map":"pl_upward","folder":"tf","game":"Team Fortress","app_id":440,"player_count":24,"max_players":24,"Bots":0,"server_type":"Dedicated","server_os":"Linux","password":true,"vac":true,"version":"7757534","steam_id":85568392924469988,"keywords":["nocrits","nodmgspread","payload","uncletopia"],"game_id":440,"stv_port":27026,"stv_name":"Uncletopia | Dallas | 2 | All Maps | STV","players":[{"user_id":258,"name":"FRDWNR4EVER","steam_id":76561198151032242,"connected_time":621000000000,"state":"active","ping":79},{"user_id":253,"name":"Fox","steam_id":76561198063507627,"connected_time":1728000000000,"state":"active","ping":37},{"user_id":248,"name":"iphoneibong","steam_id":76561198054647777,"connected_time":2145000000000,"state":"active","ping":33},{"user_id":265,"name":"stall","steam_id":76561199152861652,"connected_time":74000000000,"state":"active","ping":74},{"user_id":259,"name":"Basil","steam_id":76561198272049572,"connected_time":584000000000,"state":"active","ping":112},{"user_id":254,"name":"momb","steam_id":76561198142234038,"connected_time":1665000000000,"state":"active","ping":85},{"user_id":215,"name":"Stove Confiscation Authority","steam_id":76561198069735882,"connected_time":5547000000000,"state":"active","ping":85},{"user_id":241,"name":"Kraul","steam_id":76561198043682060,"connected_time":2497000000000,"state":"active","ping":74},{"user_id":260,"name":"schnedwob","steam_id":76561197999146588,"connected_time":560000000000,"state":"active","ping":56},{"user_id":252,"name":"Wyes_","steam_id":76561198085002695,"connected_time":1777000000000,"state":"active","ping":59},{"user_id":255,"name":"loudpisser","steam_id":76561198078802110,"connected_time":1020000000000,"state":"active","ping":94},{"user_id":192,"name":"Eden","steam_id":76561198075587475,"connected_time":7212000000000,"state":"active","ping":64},{"user_id":264,"name":"B0otstrut beel","steam_id":76561198202457221,"connected_time":260000000000,"state":"active","ping":90},{"user_id":256,"name":"old slimey ichabod","steam_id":76561198043900518,"connected_time":1003000000000,"state":"active","ping":90},{"user_id":257,"name":"guywholikesSOUP","steam_id":76561198006670369,"connected_time":694000000000,"state":"active","ping":86},{"user_id":249,"name":"Herobrineclone7","steam_id":76561199193733613,"connected_time":2143000000000,"state":"active","ping":103},{"user_id":262,"name":"VixianUwU","steam_id":76561198948815060,"connected_time":485000000000,"state":"active","ping":77},{"user_id":250,"name":"EJ","steam_id":76561198419829068,"connected_time":2066000000000,"state":"active","ping":89},{"user_id":251,"name":"LordZahe","steam_id":76561198241749034,"connected_time":2001000000000,"state":"active","ping":87},{"user_id":244,"name":"Resident Thrussy Lender","steam_id":76561198071790583,"connected_time":2381000000000,"state":"active","ping":59},{"user_id":218,"name":"Queen Frau the Round","steam_id":76561197999942134,"connected_time":5512000000000,"state":"active","ping":71},{"user_id":133,"name":"greenpeace","steam_id":76561197983221708,"connected_time":11480000000000,"state":"active","ping":93},{"user_id":205,"name":"General Jimbo","steam_id":76561198075426735,"connected_time":6768000000000,"state":"active","ping":105},{"user_id":263,"name":"hidden_games","steam_id":76561198149683392,"connected_time":460000000000,"state":"active","ping":75}]},{"server_id":5,"name":"Uncletopia | Frankfurt | 1 | All Maps","name_short":"frk-1","host":"frk-1.de.uncletopia.com","port":27015,"enabled":true,"region":"eu","cc":"de","latitude":50.110924,"longitude":8.682127,"reserved":0,"last_update":"0001-01-01T00:00:00Z","name_a2s":"Uncletopia | Frankfurt | 1 | All Maps","protocol":17,"map":"pl_pier","folder":"tf","game":"Team Fortress","app_id":440,"player_count":14,"max_players":24,"Bots":0,"server_type":"Dedicated","server_os":"Linux","password":true,"vac":true,"version":"7757534","steam_id":85568392924469989,"keywords":["nocrits","nodmgspread","payload","uncletopia"],"game_id":440,"stv_port":27016,"stv_name":"Uncletopia | Frankfurt | 1 | All Maps | STV","players":[{"user_id":649,"name":"Baki ‡∂û","steam_id":76561198193615529,"connected_time":3807000000000,"state":"active","ping":55},{"user_id":704,"name":"UnknownHero","steam_id":76561198864766392,"connected_time":49000000000,"state":"active","ping":77},{"user_id":688,"name":"WasserGurke","steam_id":76561198372482746,"connected_time":812000000000,"state":"active","ping":90},{"user_id":682,"name":"DiracDeltaFunction","steam_id":76561199201624841,"connected_time":915000000000,"state":"active","ping":102},{"user_id":623,"name":"Tonne","steam_id":76561197970856766,"connected_time":5854000000000,"state":"active","ping":53},{"user_id":669,"name":"[O\u0026O]YaboiDucki","steam_id":76561198195976589,"connected_time":2235000000000,"state":"active","ping":79},{"user_id":701,"name":"Mari Christmas","steam_id":76561197997020707,"connected_time":279000000000,"state":"active","ping":64},{"user_id":697,"name":"Garfailed The Dumbass","steam_id":76561198979140645,"connected_time":544000000000,"state":"active","ping":56},{"user_id":583,"name":"Ged","steam_id":76561198079288943,"connected_time":8244000000000,"state":"active","ping":100},{"user_id":635,"name":"ciliorkun18","steam_id":76561198228942500,"connected_time":5109000000000,"state":"active","ping":90},{"user_id":692,"name":"guru{Bishop_45}","steam_id":76561197983245285,"connected_time":640000000000,"state":"active","ping":56},{"user_id":695,"name":"kpn","steam_id":76561198063512694,"connected_time":573000000000,"state":"active","ping":54},{"user_id":696,"name":"kbbq","steam_id":76561198346638308,"connected_time":565000000000,"state":"active","ping":49},{"user_id":698,"name":"dn4k","steam_id":76561199221755690,"connected_time":519000000000,"state":"active","ping":72}]},{"server_id":110,"name":"Uncletopia | Frankfurt | 2 | All Maps","name_short":"frk-2","host":"frk-1.de.uncletopia.com","port":27025,"enabled":true,"region":"eu","cc":"de","latitude":50.110924,"longitude":8.682127,"reserved":0,"last_update":"0001-01-01T00:00:00Z","name_a2s":"Uncletopia | Frankfurt | 2 | All Maps","protocol":17,"map":"koth_highpass","folder":"tf","game":"Team Fortress","app_id":440,"player_count":24,"max_players":24,"Bots":0,"server_type":"Dedicated","server_os":"Linux","password":true,"vac":true,"version":"7757534","steam_id":85568392924469990,"keywords":["cp","nocrits","nodmgspread","uncletopia"],"game_id":440,"stv_port":27026,"stv_name":"Uncletopia | Frankfurt | 2 | All Maps | STV","players":[{"user_id":204,"name":"‚ú™ qua ‚ú™","steam_id":76561198066408333,"connected_time":742000000000,"state":"active","ping":68},{"user_id":207,"name":"Certified Fool","steam_id":76561199013303235,"connected_time":381000000000,"state":"active","ping":144},{"user_id":156,"name":"2BCD","steam_id":76561198178254946,"connected_time":3968000000000,"state":"active","ping":62},{"user_id":188,"name":"Kek meister 8 mil","steam_id":76561197989904384,"connected_time":2232000000000,"state":"active","ping":66},{"user_id":214,"name":"–ü–µ—Å –ü–∞—Ç—Ä–æ–Ω","steam_id":76561198273199378,"connected_time":60000000000,"state":"active","ping":62},{"user_id":102,"name":"1112","steam_id":76561198172046813,"connected_time":7704000000000,"state":"active","ping":73},{"user_id":208,"name":"Distarche","steam_id":76561198122507617,"connected_time":343000000000,"state":"active","ping":84},{"user_id":209,"name":"chocolate flavoured femboy","steam_id":76561198819353867,"connected_time":340000000000,"state":"active","ping":48},{"user_id":206,"name":"–ù—ñ–∫—ñ—Ç—Ä–æ–Ω","steam_id":76561198044401080,"connected_time":697000000000,"state":"active","ping":59},{"user_id":195,"name":"yush","steam_id":76561198121688934,"connected_time":2044000000000,"state":"active","ping":73},{"user_id":171,"name":"DeCypher [She/Her]","steam_id":76561198171992619,"connected_time":2920000000000,"state":"active","ping":64},{"user_id":95,"name":"nytronytronytro","steam_id":76561198080496833,"connected_time":8450000000000,"state":"active","ping":66},{"user_id":167,"name":"i collect ants","steam_id":76561198069649097,"connected_time":3096000000000,"state":"active","ping":62},{"user_id":202,"name":"marti parti","steam_id":76561198410342598,"connected_time":1238000000000,"state":"active","ping":80},{"user_id":210,"name":"Premysl","steam_id":76561198075584825,"connected_time":329000000000,"state":"active","ping":61},{"user_id":215,"name":"finbar","steam_id":76561198056812396,"connected_time":38000000000,"state":"active","ping":80},{"user_id":205,"name":"Honest Tom's Discount Beef","steam_id":76561198029971392,"connected_time":733000000000,"state":"active","ping":68},{"user_id":203,"name":"that fat croc from donkey kong","steam_id":76561198159172495,"connected_time":797000000000,"state":"active","ping":73},{"user_id":212,"name":"brandoncg04","steam_id":76561199189398427,"connected_time":314000000000,"state":"active","ping":134},{"user_id":161,"name":"KAKTyC","steam_id":76561198019296536,"connected_time":3868000000000,"state":"active","ping":89},{"user_id":213,"name":"ma≈Çy","steam_id":76561198074409147,"connected_time":261000000000,"state":"active","ping":56},{"user_id":194,"name":"metodmiha","steam_id":76561199111498575,"connected_time":2137000000000,"state":"active","ping":77},{"user_id":174,"name":"thuurs","steam_id":76561198095850568,"connected_time":2877000000000,"state":"active","ping":56},{"user_id":182,"name":"Valentine","steam_id":76561198121343565,"connected_time":2452000000000,"state":"active","ping":47}]},{"server_id":308,"name":"Uncletopia | Frankfurt | 3 | All Maps","name_short":"frk-3","host":"frk-1.de.uncletopia.com","port":27035,"enabled":true,"region":"eu","cc":"de","latitude":50.110924,"longitude":8.682127,"reserved":0,"last_update":"0001-01-01T00:00:00Z","name_a2s":"Uncletopia | Frankfurt | 3 | All Maps","protocol":17,"map":"pl_badwater","folder":"tf","game":"Team Fortress","app_id":440,"player_count":24,"max_players":24,"Bots":0,"server_type":"Dedicated","server_os":"Linux","password":true,"vac":true,"version":"7757534","steam_id":85568392924504274,"keywords":["nocrits","nodmgspread","payload","uncletopia"],"game_id":440,"stv_port":27036,"stv_name":"Uncletopia | Frankfurt | 3 | All Maps | STV","players":[{"user_id":211,"name":"Skirlez","steam_id":76561198110662773,"connected_time":1983000000000,"state":"active","ping":103},{"user_id":238,"name":"‚ù§ToxicAngel‚ù§","steam_id":76561198062208751,"connected_time":1019000000000,"state":"active","ping":56},{"user_id":230,"name":"ELON MUSK","steam_id":76561198132788284,"connected_time":1549000000000,"state":"active","ping":70},{"user_id":247,"name":"honshu","steam_id":76561198102211716,"connected_time":651000000000,"state":"active","ping":75},{"user_id":244,"name":"ultralow B\u003eKeys ppal 1.75$","steam_id":76561197982127154,"connected_time":823000000000,"state":"active","ping":49},{"user_id":250,"name":"Roe Jogan","steam_id":76561198871991529,"connected_time":368000000000,"state":"active","ping":80},{"user_id":239,"name":"xoxoji19910501","steam_id":76561199037007405,"connected_time":1009000000000,"state":"active","ping":85},{"user_id":251,"name":"mespe","steam_id":76561198121530649,"connected_time":315000000000,"state":"active","ping":69},{"user_id":236,"name":"Cookies and Bakies","steam_id":76561198017442928,"connected_time":1154000000000,"state":"active","ping":57},{"user_id":222,"name":"rummy","steam_id":76561197997573379,"connected_time":1815000000000,"state":"active","ping":61},{"user_id":213,"name":"AwterSix","steam_id":76561198042561678,"connected_time":1962000000000,"state":"active","ping":57},{"user_id":249,"name":"Hercules","steam_id":76561198041164170,"connected_time":591000000000,"state":"active","ping":59},{"user_id":237,"name":"Primus","steam_id":76561198124927367,"connected_time":1099000000000,"state":"active","ping":185},{"user_id":221,"name":"Zenith_GL","steam_id":76561198863997808,"connected_time":1829000000000,"state":"active","ping":60},{"user_id":215,"name":"big hoops","steam_id":76561198004703799,"connected_time":1958000000000,"state":"active","ping":47},{"user_id":240,"name":"tallen","steam_id":76561198061708595,"connected_time":908000000000,"state":"active","ping":75},{"user_id":195,"name":"Max Andrew","steam_id":76561198158955194,"connected_time":3582000000000,"state":"active","ping":85},{"user_id":248,"name":"Tywhip","steam_id":76561199207545191,"connected_time":634000000000,"state":"active","ping":61},{"user_id":233,"name":"hellrunner","steam_id":76561198205309695,"connected_time":1485000000000,"state":"active","ping":76},{"user_id":234,"name":"lettuce at 58p","steam_id":76561199401283123,"connected_time":1376000000000,"state":"active","ping":67},{"user_id":224,"name":"darkwater","steam_id":76561197986978738,"connected_time":1723000000000,"state":"active","ping":59},{"user_id":231,"name":"Silent Person","steam_id":76561198107763537,"connected_time":1541000000000,"state":"active","ping":66},{"user_id":246,"name":"Syd","steam_id":76561198020515027,"connected_time":816000000000,"state":"active","ping":62},{"user_id":226,"name":"FoOzTV","steam_id":76561197998636728,"connected_time":1709000000000,"state":"active","ping":73}]},{"server_id":309,"name":"Uncletopia | Frankfurt | 4 | All Maps","name_short":"frk-4","host":"frk-1.de.uncletopia.com","port":27045,"enabled":true,"region":"eu","cc":"de","latitude":50.110924,"longitude":8.682127,"reserved":0,"last_update":"0001-01-01T00:00:00Z","name_a2s":"Uncletopia | Frankfurt | 4 | All Maps","protocol":17,"map":"cp_dustbowl","folder":"tf","game":"Team Fortress","app_id":440,"player_count":0,"max_players":24,"Bots":0,"server_type":"Dedicated","server_os":"Linux","password":true,"vac":true,"version":"7757534","steam_id":85568392924504275,"keywords":["cp","nocrits","nodmgspread","uncletopia"],"game_id":440,"stv_port":27046,"stv_name":"Uncletopia | Frankfurt | 4 | All Maps | STV","players":null},{"server_id":310,"name":"Uncletopia | Frankfurt | 5 | All Maps","name_short":"frk-5","host":"frk-1.de.uncletopia.com","port":27055,"enabled":true,"region":"eu","cc":"de","latitude":50.110924,"longitude":8.682127,"reserved":0,"last_update":"0001-01-01T00:00:00Z","name_a2s":"Uncletopia | Frankfurt | 5 | All Maps","protocol":17,"map":"koth_lakeside_final","folder":"tf","game":"Team Fortress","app_id":440,"player_count":0,"max_players":24,"Bots":0,"server_type":"Dedicated","server_os":"Linux","password":true,"vac":true,"version":"7757534","steam_id":85568392924504277,"keywords":["cp","nocrits","nodmgspread","uncletopia"],"game_id":440,"stv_port":27056,"stv_name":"Uncletopia | Frankfurt | 5 | All Maps | STV","players":null},{"server_id":311,"name":"Uncletopia | Frankfurt | 6 | All Maps","name_short":"frk-6","host":"frk-1.de.uncletopia.com","port":27065,"enabled":true,"region":"eu","cc":"de","latitude":50.110924,"longitude":8.682127,"reserved":0,"last_update":"0001-01-01T00:00:00Z","name_a2s":"Uncletopia | Frankfurt | 6 | All Maps","protocol":17,"map":"pl_frontier_final","folder":"tf","game":"Team Fortress","app_id":440,"player_count":24,"max_players":24,"Bots":0,"server_type":"Dedicated","server_os":"Linux","password":true,"vac":true,"version":"7757534","steam_id":85568392924504278,"keywords":["nocrits","nodmgspread","payload","uncletopia"],"game_id":440,"stv_port":27066,"stv_name":"Uncletopia | Frankfurt | 6 | All Maps | STV","players":[{"user_id":658,"name":"Sparky","steam_id":76561198036754195,"connected_time":1629000000000,"state":"active","ping":40},{"user_id":663,"name":"Tyzone‚ô•","steam_id":76561198024844539,"connected_time":1152000000000,"state":"active","ping":48},{"user_id":654,"name":"Piteras","steam_id":76561198858532207,"connected_time":1832000000000,"state":"active","ping":74},{"user_id":620,"name":"Drekad√≥ttir","steam_id":76561198119979169,"connected_time":4221000000000,"state":"active","ping":71},{"user_id":665,"name":"The Punch","steam_id":76561198212488780,"connected_time":923000000000,"state":"active","ping":58},{"user_id":675,"name":"epicgamerfb42","steam_id":76561198057046524,"connected_time":648000000000,"state":"active","ping":95},{"user_id":653,"name":"peter dangling","steam_id":76561198864327475,"connected_time":2514000000000,"state":"active","ping":46},{"user_id":667,"name":"FatalRyhme","steam_id":76561198018713483,"connected_time":873000000000,"state":"active","ping":83},{"user_id":647,"name":"Sketch gaming","steam_id":76561198863658864,"connected_time":2774000000000,"state":"active","ping":56},{"user_id":650,"name":"SlwoF√∏","steam_id":76561198049663931,"connected_time":2722000000000,"state":"active","ping":59},{"user_id":669,"name":"Matteo Besho","steam_id":76561199159657855,"connected_time":786000000000,"state":"active","ping":65},{"user_id":659,"name":"zccyqqq","steam_id":76561198358006442,"connected_time":1611000000000,"state":"active","ping":53},{"user_id":677,"name":"Mr.killer","steam_id":76561198290584189,"connected_time":557000000000,"state":"active","ping":95},{"user_id":680,"name":"Hann√º","steam_id":76561197969886128,"connected_time":452000000000,"state":"active","ping":70},{"user_id":614,"name":"Quuri_","steam_id":76561198155780752,"connected_time":4668000000000,"state":"active","ping":70},{"user_id":671,"name":"Wabbajack","steam_id":76561199147501514,"connected_time":728000000000,"state":"active","ping":65},{"user_id":672,"name":"War with everybody","steam_id":76561198274105878,"connected_time":727000000000,"state":"active","ping":81},{"user_id":678,"name":"ldshwt","steam_id":76561198090364357,"connected_time":544000000000,"state":"active","ping":45},{"user_id":682,"name":"limbicsystem","steam_id":76561198025612680,"connected_time":305000000000,"state":"active","ping":93},{"user_id":673,"name":"ASAP","steam_id":76561198322078500,"connected_time":706000000000,"state":"active","ping":109},{"user_id":557,"name":"Carrot Arc","steam_id":76561198164957006,"connected_time":8996000000000,"state":"active","ping":95},{"user_id":674,"name":"Matael","steam_id":76561198452200894,"connected_time":667000000000,"state":"active","ping":70},{"user_id":661,"name":"Mistress of the universe","steam_id":76561198115988477,"connected_time":1366000000000,"state":"active","ping":58},{"user_id":679,"name":"a dollop of bird","steam_id":76561198089003514,"connected_time":533000000000,"state":"active","ping":46}]},{"server_id":23,"name":"Uncletopia | Frankfurt | 7 | Stopwatch Beta","name_short":"frk-7","host":"frk-1.de.uncletopia.com","port":27075,"enabled":true,"region":"eu","cc":"de","latitude":50.110924,"longitude":8.682127,"reserved":0,"last_update":"0001-01-01T00:00:00Z","name_a2s":"Uncletopia | Frankfurt | 7 | Stopwatch Beta","protocol":17,"map":"workshop/koth_ramjam_rc1.ugc459778887","folder":"tf","game":"Team Fortress","app_id":440,"player_count":0,"max_players":24,"Bots":0,"server_type":"Dedicated","server_os":"Linux","password":true,"vac":true,"version":"7757534","steam_id":85568392924742827,"keywords":["cp","nocrits","nodmgspread","uncletopia"],"game_id":440,"stv_port":27076,"stv_name":"Uncletopia | Frankfurt | 7 | Stopwatch Beta | STV","players":null},{"server_id":24,"name":"Uncletopia | Frankfurt | 8 | Community","name_short":"frk-8","host":"frk-1.de.uncletopia.com","port":27085,"enabled":true,"region":"eu","cc":"de","latitude":50.110924,"longitude":8.682127,"reserved":0,"last_update":"0001-01-01T00:00:00Z","name_a2s":"Uncletopia | Frankfurt | 8 | Community","protocol":17,"map":"workshop/pl_boundary_final1.ugc456799153","folder":"tf","game":"Team Fortress","app_id":440,"player_count":23,"max_players":24,"Bots":0,"server_type":"Dedicated","server_os":"Linux","password":true,"vac":true,"version":"7757534","steam_id":85568392924742828,"keywords":["nocrits","nodmgspread","payload","uncletopia"],"game_id":440,"stv_port":27086,"stv_name":"Uncletopia | Frankfurt | 8 | Community | STV","players":[{"user_id":385,"name":"Rolloden","steam_id":76561198069414404,"connected_time":986000000000,"state":"active","ping":51},{"user_id":392,"name":"lynceus","steam_id":76561198131209426,"connected_time":557000000000,"state":"active","ping":60},{"user_id":386,"name":"Jonathan","steam_id":76561198087988880,"connected_time":945000000000,"state":"active","ping":50},{"user_id":373,"name":"Balls","steam_id":76561198086400484,"connected_time":2162000000000,"state":"active","ping":77},{"user_id":396,"name":"Scipionemiliano","steam_id":76561198027646559,"connected_time":451000000000,"state":"active","ping":145},{"user_id":388,"name":"Big Tits","steam_id":76561198071226377,"connected_time":699000000000,"state":"active","ping":73},{"user_id":389,"name":"ttk","steam_id":76561198094684065,"connected_time":663000000000,"state":"spawning","ping":111},{"user_id":374,"name":"Smith","steam_id":76561198132589784,"connected_time":2160000000000,"state":"spawning","ping":310},{"user_id":363,"name":"Qwaden","steam_id":76561198881784698,"connected_time":2637000000000,"state":"spawning","ping":139},{"user_id":307,"name":"Fat Pigeon","steam_id":76561198817940142,"connected_time":8037000000000,"state":"active","ping":47},{"user_id":399,"name":"78","steam_id":76561198208328357,"connected_time":52000000000,"state":"active","ping":80},{"user_id":325,"name":"Mayor Wank from Wanker Town","steam_id":76561197998253588,"connected_time":5574000000000,"state":"active","ping":45},{"user_id":398,"name":"cat (they/them)","steam_id":76561198416657815,"connected_time":176000000000,"state":"spawning","ping":305},{"user_id":348,"name":"Desuangle","steam_id":76561198110800599,"connected_time":3703000000000,"state":"spawning","ping":218},{"user_id":391,"name":"dd","steam_id":76561198059797692,"connected_time":564000000000,"state":"active","ping":45},{"user_id":400,"name":"Riceman","steam_id":76561198295132727,"connected_time":52000000000,"state":"spawning","ping":279},{"user_id":401,"name":"tiiyama","steam_id":76561198046196005,"connected_time":48000000000,"state":"active","ping":41},{"user_id":402,"name":"The Stupid Fucking Gamer","steam_id":76561198068213670,"connected_time":22000000000,"state":"spawning","ping":284},{"user_id":395,"name":"Sippie","steam_id":76561198130393388,"connected_time":548000000000,"state":"active","ping":62},{"user_id":397,"name":"Rezkey","steam_id":76561198206079048,"connected_time":326000000000,"state":"active","ping":49},{"user_id":354,"name":"Spotty Len","steam_id":76561198031277737,"connected_time":3620000000000,"state":"spawning","ping":282},{"user_id":375,"name":"Dahel","steam_id":76561198043147680,"connected_time":2120000000000,"state":"spawning","ping":117},{"user_id":381,"name":"PizzaPete123","steam_id":76561198089478290,"connected_time":1661000000000,"state":"active","ping":56}]},{"server_id":202,"name":"Uncletopia | Hong Kong | 1 | All Maps","name_short":"hgk-1","host":"hgk-1.hk.uncletopia.com","port":27015,"enabled":true,"region":"asia","cc":"hk","latitude":22.302711,"longitude":114.177216,"reserved":0,"last_update":"0001-01-01T00:00:00Z","name_a2s":"Uncletopia | Hong Kong | 1 | All Maps","protocol":17,"map":"koth_highpass","folder":"tf","game":"Team Fortress","app_id":440,"player_count":0,"max_players":24,"Bots":0,"server_type":"Dedicated","server_os":"Linux","password":true,"vac":true,"version":"7757534","steam_id":85568392924494504,"keywords":["cp","nocrits","nodmgspread","uncletopia"],"game_id":440,"stv_port":27016,"stv_name":"Uncletopia | Hong Kong | 1 | All Maps | STV","players":null},{"server_id":1,"name":"Uncletopia | Los Angeles | 1 | All Maps","name_short":"lax-1","host":"lax-1.us.uncletopia.com","port":27015,"enabled":true,"region":"us-west","cc":"us","latitude":33.94279,"longitude":-118.41004,"reserved":0,"last_update":"0001-01-01T00:00:00Z","name_a2s":"Uncletopia | Los Angeles | 1 | All Maps","protocol":17,"map":"pl_swiftwater_final1","folder":"tf","game":"Team Fortress","app_id":440,"player_count":23,"max_players":24,"Bots":0,"server_type":"Dedicated","server_os":"Linux","password":true,"vac":true,"version":"7757534","steam_id":85568392924469991,"keywords":["nocrits","nodmgspread","payload","uncletopia"],"game_id":440,"stv_port":27016,"stv_name":"Uncletopia | Los Angeles | 1 | All Maps | STV","players":[{"user_id":8,"name":"Nibotshooter","steam_id":76561199284825579,"connected_time":6792000000000,"state":"active","ping":74},{"user_id":45,"name":"rustyorion","steam_id":76561198439186347,"connected_time":2596000000000,"state":"active","ping":77},{"user_id":59,"name":"Addy \u003c3","steam_id":76561198045819723,"connected_time":1814000000000,"state":"active","ping":131},{"user_id":27,"name":"Mr.Pan","steam_id":76561198069030613,"connected_time":3840000000000,"state":"active","ping":91},{"user_id":71,"name":"Slumpbuster23","steam_id":76561198890029912,"connected_time":94000000000,"state":"active","ping":48},{"user_id":72,"name":"jawnymac","steam_id":76561198179529599,"connected_time":88000000000,"state":"active","ping":61},{"user_id":73,"name":"shake","steam_id":76561199064204750,"connected_time":51000000000,"state":"active","ping":118},{"user_id":54,"name":"Supreme Cumlord Supreme","steam_id":76561198026046132,"connected_time":2256000000000,"state":"active","ping":65},{"user_id":29,"name":"Sanic","steam_id":76561198083124962,"connected_time":3655000000000,"state":"active","ping":75},{"user_id":74,"name":"DiscoTraveler","steam_id":76561199240168088,"connected_time":50000000000,"state":"active","ping":97},{"user_id":65,"name":"Buswolley","steam_id":76561197995205571,"connected_time":1382000000000,"state":"active","ping":58},{"user_id":75,"name":"The Horselords and Animal Gods","steam_id":76561197975094050,"connected_time":43000000000,"state":"active","ping":52},{"user_id":36,"name":"[=3][canners]","steam_id":76561198103496593,"connected_time":3271000000000,"state":"active","ping":89},{"user_id":49,"name":"sentry turret","steam_id":76561198327057433,"connected_time":2397000000000,"state":"active","ping":126},{"user_id":58,"name":"Risky","steam_id":76561198231029328,"connected_time":2108000000000,"state":"active","ping":45},{"user_id":69,"name":"Engi-mort","steam_id":76561198335380968,"connected_time":425000000000,"state":"active","ping":64},{"user_id":42,"name":"internet","steam_id":76561197975080641,"connected_time":2846000000000,"state":"active","ping":50},{"user_id":63,"name":"M.L.JEW","steam_id":76561198997375055,"connected_time":1564000000000,"state":"active","ping":116},{"user_id":76,"name":"console noob  ¬Ø\\_(„ÉÑ)_/¬Ø","steam_id":76561199476977732,"connected_time":43000000000,"state":"active","ping":62},{"user_id":77,"name":"Leonzki","steam_id":76561198873471866,"connected_time":25000000000,"state":"active","ping":70},{"user_id":60,"name":"Eden","steam_id":76561198081284664,"connected_time":1813000000000,"state":"active","ping":46},{"user_id":79,"name":"chicken sandwich","steam_id":76561198206922028,"connected_time":13000000000,"state":"active","ping":52},{"user_id":61,"name":"Deborp","steam_id":76561198118868430,"connected_time":1641000000000,"state":"active","ping":119}]},{"server_id":112,"name":"Uncletopia | Los Angeles | 2 | All Maps","name_short":"lax-2","host":"lax-1.us.uncletopia.com","port":27025,"enabled":true,"region":"us-west","cc":"us","latitude":33.94279,"longitude":-118.41004,"reserved":0,"last_update":"0001-01-01T00:00:00Z","name_a2s":"Uncletopia | Los Angeles | 2 | All Maps","protocol":17,"map":"pl_snowycoast","folder":"tf","game":"Team Fortress","app_id":440,"player_count":0,"max_players":24,"Bots":0,"server_type":"Dedicated","server_os":"Linux","password":true,"vac":true,"version":"7757534","steam_id":85568392924469992,"keywords":["nocrits","nodmgspread","payload","uncletopia"],"game_id":440,"stv_port":27026,"stv_name":"Uncletopia | Los Angeles | 2 | All Maps | STV","players":null},{"server_id":324,"name":"Uncletopia | Los Angeles | 3 | All Maps","name_short":"lax-3","host":"lax-1.us.uncletopia.com","port":27035,"enabled":true,"region":"us-west","cc":"us","latitude":33.94279,"longitude":-118.41004,"reserved":0,"last_update":"0001-01-01T00:00:00Z","name_a2s":"Uncletopia | Los Angeles | 3 | All Maps","protocol":17,"map":"pl_barnblitz","folder":"tf","game":"Team Fortress","app_id":440,"player_count":0,"max_players":24,"Bots":0,"server_type":"Dedicated","server_os":"Linux","password":true,"vac":true,"version":"7757534","steam_id":85568392924510198,"keywords":["nocrits","nodmgspread","payload","uncletopia"],"game_id":440,"stv_port":27036,"stv_name":"Uncletopia | Los Angeles | 3 | All Maps | STV","players":null},{"server_id":25,"name":"Uncletopia | Los Angeles | 4 | Stopwatch Beta","name_short":"lax-4","host":"lax-1.us.uncletopia.com","port":27045,"enabled":true,"region":"us-west","cc":"us","latitude":33.94279,"longitude":-118.41004,"reserved":0,"last_update":"0001-01-01T00:00:00Z","name_a2s":"Uncletopia | Los Angeles | 4 | Stopwatch Beta","protocol":17,"map":"pl_swiftwater_final1","folder":"tf","game":"Team Fortress","app_id":440,"player_count":0,"max_players":24,"Bots":0,"server_type":"Dedicated","server_os":"Linux","password":true,"vac":true,"version":"7757534","steam_id":85568392924510199,"keywords":["nocrits","nodmgspread","payload","uncletopia"],"game_id":440,"stv_port":27046,"stv_name":"Uncletopia | Los Angeles | 4 | Stopwatch Beta | STV","players":null},{"server_id":11,"name":"Uncletopia | London | 1 | All Maps","name_short":"lon-1","host":"lon-1.uk.uncletopia.com","port":27015,"enabled":true,"region":"eu","cc":"gb","latitude":51.509865,"longitude":-0.118092,"reserved":0,"last_update":"0001-01-01T00:00:00Z","name_a2s":"Uncletopia | London | 1 | All Maps","protocol":17,"map":"pl_pier","folder":"tf","game":"Team Fortress","app_id":440,"player_count":20,"max_players":24,"Bots":0,"server_type":"Dedicated","server_os":"Linux","password":true,"vac":true,"version":"7757534","steam_id":85568392924367362,"keywords":["nocrits","nodmgspread","payload","uncletopia"],"game_id":440,"stv_port":27016,"stv_name":"Uncletopia | London | 1 | All Maps | STV","players":[{"user_id":368,"name":"Joseph Stalin","steam_id":76561198033199746,"connected_time":829000000000,"state":"active","ping":45},{"user_id":308,"name":"Antiparticle #SaveTF2","steam_id":76561197990545681,"connected_time":4417000000000,"state":"active","ping":53},{"user_id":323,"name":"S'all good, man","steam_id":76561198363882056,"connected_time":3408000000000,"state":"active","ping":40},{"user_id":305,"name":"2 Bugatti Richh","steam_id":76561198122416996,"connected_time":4465000000000,"state":"active","ping":45},{"user_id":365,"name":"YourNeighbourhoodHobo","steam_id":76561198072756392,"connected_time":1162000000000,"state":"active","ping":67},{"user_id":347,"name":"20BB Raxor","steam_id":76561198239927434,"connected_time":2127000000000,"state":"active","ping":90},{"user_id":245,"name":"Jofiah/TTV","steam_id":76561197977233962,"connected_time":7074000000000,"state":"active","ping":35},{"user_id":375,"name":"Kravos","steam_id":76561197986978275,"connected_time":167000000000,"state":"active","ping":51},{"user_id":355,"name":"Robbie","steam_id":76561198017504503,"connected_time":1463000000000,"state":"active","ping":42},{"user_id":352,"name":"Miiukade","steam_id":76561198089157860,"connected_time":1808000000000,"state":"active","ping":120},{"user_id":290,"name":"i deep fried my penis","steam_id":76561198034507015,"connected_time":5160000000000,"state":"active","ping":61},{"user_id":356,"name":"Hermitcrack","steam_id":76561198149216441,"connected_time":1456000000000,"state":"active","ping":75},{"user_id":376,"name":"Shovelhalfrusty","steam_id":76561198346447513,"connected_time":153000000000,"state":"active","ping":67},{"user_id":366,"name":"Nene Seal","steam_id":76561198139372671,"connected_time":1128000000000,"state":"active","ping":62},{"user_id":317,"name":"molly","steam_id":76561198029399151,"connected_time":3789000000000,"state":"active","ping":59},{"user_id":361,"name":"ArikMor","steam_id":76561199124472513,"connected_time":1257000000000,"state":"active","ping":121},{"user_id":363,"name":"If I top 3 my team sucks","steam_id":76561198147668373,"connected_time":1232000000000,"state":"active","ping":64},{"user_id":377,"name":"Alexandre","steam_id":76561198121784446,"connected_time":100000000000,"state":"active","ping":36},{"user_id":346,"name":"ani","steam_id":76561199031227535,"connected_time":2318000000000,"state":"active","ping":139},{"user_id":287,"name":"Shawty","steam_id":76561198158631465,"connected_time":5333000000000,"state":"active","ping":67}]},{"server_id":114,"name":"Uncletopia | London | 2 | All Maps","name_short":"lon-2","host":"lon-1.uk.uncletopia.com","port":27025,"enabled":true,"region":"eu","cc":"gb","latitude":51.509865,"longitude":-0.118092,"reserved":0,"last_update":"0001-01-01T00:00:00Z","name_a2s":"Uncletopia | London | 2 | All Maps","protocol":17,"map":"pl_snowycoast","folder":"tf","game":"Team Fortress","app_id":440,"player_count":24,"max_players":24,"Bots":0,"server_type":"Dedicated","server_os":"Linux","password":true,"vac":true,"version":"7757534","steam_id":85568392924470941,"keywords":["nocrits","nodmgspread","payload","uncletopia"],"game_id":440,"stv_port":27026,"stv_name":"Uncletopia | London | 2 | All Maps | STV","players":[{"user_id":617,"name":"not drunk","steam_id":76561199184873889,"connected_time":1531000000000,"state":"active","ping":64},{"user_id":643,"name":"Alox","steam_id":76561197991690863,"connected_time":182000000000,"state":"active","ping":72},{"user_id":614,"name":"omnibombulator","steam_id":76561198025858897,"connected_time":1621000000000,"state":"active","ping":47},{"user_id":644,"name":"iAmBack!\u003c3","steam_id":76561198004525276,"connected_time":166000000000,"state":"active","ping":86},{"user_id":636,"name":"quickfast","steam_id":76561199438900919,"connected_time":666000000000,"state":"active","ping":46},{"user_id":578,"name":"Johan","steam_id":76561199380849468,"connected_time":5129000000000,"state":"active","ping":62},{"user_id":613,"name":"The cost of living in the UK","steam_id":76561199000520747,"connected_time":1783000000000,"state":"active","ping":47},{"user_id":632,"name":"Cosmonaut","steam_id":76561198239514504,"connected_time":1052000000000,"state":"active","ping":69},{"user_id":645,"name":"--","steam_id":76561198062247888,"connected_time":85000000000,"state":"active","ping":58},{"user_id":621,"name":"The Bushman","steam_id":76561198152576682,"connected_time":1386000000000,"state":"active","ping":85},{"user_id":646,"name":"Siemens Desiro","steam_id":76561199203076508,"connected_time":84000000000,"state":"active","ping":74},{"user_id":627,"name":"Carrotcracker","steam_id":76561198034862396,"connected_time":1202000000000,"state":"active","ping":80},{"user_id":607,"name":"Dewotter","steam_id":76561198007653168,"connected_time":2341000000000,"state":"active","ping":54},{"user_id":640,"name":"Camo Leaf","steam_id":76561197999456575,"connected_time":466000000000,"state":"active","ping":45},{"user_id":624,"name":"B@yka","steam_id":76561198986736592,"connected_time":1311000000000,"state":"active","ping":61},{"user_id":638,"name":"Clitorina","steam_id":76561198077570815,"connected_time":622000000000,"state":"active","ping":45},{"user_id":634,"name":"Voks_","steam_id":76561198159687785,"connected_time":955000000000,"state":"active","ping":67},{"user_id":628,"name":"painting4","steam_id":76561198067554256,"connected_time":1173000000000,"state":"active","ping":50},{"user_id":626,"name":"eeeeee","steam_id":76561198017786875,"connected_time":1267000000000,"state":"active","ping":64},{"user_id":611,"name":"Have A Blessed Day","steam_id":76561198030956814,"connected_time":2196000000000,"state":"active","ping":70},{"user_id":647,"name":"Chuffo","steam_id":76561198220192517,"connected_time":79000000000,"state":"active","ping":61},{"user_id":648,"name":"Xtreme‚Ñ¢","steam_id":76561198050144913,"connected_time":70000000000,"state":"active","ping":76},{"user_id":639,"name":"‚ú™ Danny","steam_id":76561198104483241,"connected_time":618000000000,"state":"active","ping":53},{"user_id":606,"name":"nutlube","steam_id":76561198128831131,"connected_time":2351000000000,"state":"active","ping":70}]},{"server_id":320,"name":"Uncletopia | London | 3 | All Maps","name_short":"lon-3","host":"lon-1.uk.uncletopia.com","port":27035,"enabled":true,"region":"eu","cc":"gb","latitude":51.509865,"longitude":-0.118092,"reserved":0,"last_update":"0001-01-01T00:00:00Z","name_a2s":"Uncletopia | London | 3 | All Maps","protocol":17,"map":"koth_viaduct","folder":"tf","game":"Team Fortress","app_id":440,"player_count":0,"max_players":24,"Bots":0,"server_type":"Dedicated","server_os":"Linux","password":true,"vac":true,"version":"7757534","steam_id":85568392924510192,"keywords":["cp","nocrits","nodmgspread","uncletopia"],"game_id":440,"stv_port":27036,"stv_name":"Uncletopia | London | 3 | All Maps | STV","players":null},{"server_id":321,"name":"Uncletopia | London | 4 | All Maps","name_short":"lon-4","host":"lon-1.uk.uncletopia.com","port":27045,"enabled":true,"region":"eu","cc":"gb","latitude":51.509865,"longitude":-0.118092,"reserved":0,"last_update":"0001-01-01T00:00:00Z","name_a2s":"Uncletopia | London | 4 | All Maps","protocol":17,"map":"koth_cascade","folder":"tf","game":"Team Fortress","app_id":440,"player_count":8,"max_players":24,"Bots":0,"server_type":"Dedicated","server_os":"Linux","password":true,"vac":true,"version":"7757534","steam_id":85568392924510193,"keywords":["cp","nocrits","nodmgspread","uncletopia"],"game_id":440,"stv_port":27046,"stv_name":"Uncletopia | London | 4 | All Maps | STV","players":[{"user_id":43,"name":"i AM the medic gf","steam_id":76561198247284680,"connected_time":142000000000,"state":"active","ping":75},{"user_id":34,"name":"ran is running","steam_id":76561199443185667,"connected_time":1391000000000,"state":"active","ping":128},{"user_id":38,"name":"big butter and egg man","steam_id":76561198839985039,"connected_time":629000000000,"state":"active","ping":153},{"user_id":37,"name":"Georman Forge","steam_id":76561198256504605,"connected_time":657000000000,"state":"active","ping":48},{"user_id":39,"name":"crazy boi","steam_id":76561199122385456,"connected_time":542000000000,"state":"active","ping":51},{"user_id":40,"name":"coldwar121947","steam_id":76561199387219377,"connected_time":477000000000,"state":"active","ping":118},{"user_id":41,"name":"SpartanOne22","steam_id":76561199006361788,"connected_time":376000000000,"state":"active","ping":126},{"user_id":44,"name":"I AM DOT","steam_id":76561198354118090,"connected_time":139000000000,"state":"active","ping":78}]},{"server_id":21,"name":"Uncletopia | London | 5 | All Maps","name_short":"lon-5","host":"lon-1.uk.uncletopia.com","port":27055,"enabled":true,"region":"eu","cc":"gb","latitude":51.509865,"longitude":-0.118092,"reserved":0,"last_update":"0001-01-01T00:00:00Z","name_a2s":"Uncletopia | London | 5 | All Maps","protocol":17,"map":"cp_sunshine","folder":"tf","game":"Team Fortress","app_id":440,"player_count":24,"max_players":24,"Bots":0,"server_type":"Dedicated","server_os":"Linux","password":true,"vac":true,"version":"7757534","steam_id":85568392924742829,"keywords":["cp","nocrits","nodmgspread","uncletopia"],"game_id":440,"stv_port":27056,"stv_name":"Uncletopia | London | 5 | All Maps | STV","players":[{"user_id":107,"name":"Waltcha","steam_id":76561198007691468,"connected_time":11997000000000,"state":"active","ping":68},{"user_id":247,"name":"SHADOW WIZARD MONEY GANG","steam_id":76561198179324075,"connected_time":290000000000,"state":"active","ping":61},{"user_id":240,"name":"Kitsune","steam_id":76561198075160802,"connected_time":916000000000,"state":"active","ping":43},{"user_id":206,"name":"mcdonaldburger54@yahoo.com","steam_id":76561198846982793,"connected_time":3940000000000,"state":"active","ping":46},{"user_id":238,"name":"Eme","steam_id":76561198171619442,"connected_time":1068000000000,"state":"active","ping":99},{"user_id":228,"name":"Mi Manchi","steam_id":76561198171573129,"connected_time":1531000000000,"state":"active","ping":60},{"user_id":213,"name":"Just Navlis","steam_id":76561198090479609,"connected_time":3403000000000,"state":"active","ping":55},{"user_id":243,"name":"Charrky","steam_id":76561198054398642,"connected_time":590000000000,"state":"active","ping":60},{"user_id":242,"name":"heck","steam_id":76561198953767140,"connected_time":666000000000,"state":"active","ping":44},{"user_id":200,"name":"Vershal Smershal","steam_id":76561198116223995,"connected_time":5047000000000,"state":"active","ping":57},{"user_id":237,"name":"Old Hat","steam_id":76561197994673297,"connected_time":1250000000000,"state":"active","ping":60},{"user_id":170,"name":"Bobirulez","steam_id":76561198009125458,"connected_time":7508000000000,"state":"active","ping":75},{"user_id":207,"name":"player","steam_id":76561198054474684,"connected_time":3903000000000,"state":"active","ping":88},{"user_id":223,"name":"Nickbro101","steam_id":76561198044271692,"connected_time":2609000000000,"state":"active","ping":51},{"user_id":232,"name":"ducks","steam_id":76561198166148685,"connected_time":1434000000000,"state":"active","ping":27},{"user_id":251,"name":"Yrj√∂ Koskinen Yrj√∂-Koskinen","steam_id":76561198368181145,"connected_time":43000000000,"state":"active","ping":90},{"user_id":168,"name":"xavier","steam_id":76561198076494034,"connected_time":7760000000000,"state":"active","ping":47},{"user_id":233,"name":"subway vergil","steam_id":76561199110064166,"connected_time":1408000000000,"state":"active","ping":75},{"user_id":219,"name":"Diet Cocaine","steam_id":76561198237767154,"connected_time":3248000000000,"state":"active","ping":75},{"user_id":248,"name":"Hot._.Chocopops","steam_id":76561199025668594,"connected_time":277000000000,"state":"active","ping":91},{"user_id":222,"name":"Arturias","steam_id":76561198188720263,"connected_time":3186000000000,"state":"active","ping":58},{"user_id":250,"name":"ExcLorD","steam_id":76561198078104245,"connected_time":149000000000,"state":"active","ping":88},{"user_id":241,"name":"Saint","steam_id":76561198003296382,"connected_time":860000000000,"state":"active","ping":74},{"user_id":225,"name":"hananamanna","steam_id":76561198006570285,"connected_time":1885000000000,"state":"active","ping":114}]},{"server_id":22,"name":"Uncletopia | London | 6 | All Maps","name_short":"lon-6","host":"lon-1.uk.uncletopia.com","port":27065,"enabled":true,"region":"eu","cc":"gb","latitude":51.509865,"longitude":-0.118092,"reserved":0,"last_update":"0001-01-01T00:00:00Z","name_a2s":"Uncletopia | London | 6 | All Maps","protocol":17,"map":"koth_lakeside_final","folder":"tf","game":"Team Fortress","app_id":440,"player_count":24,"max_players":24,"Bots":0,"server_type":"Dedicated","server_os":"Linux","password":true,"vac":true,"version":"7757534","steam_id":85568392924742830,"keywords":["cp","nocrits","nodmgspread","uncletopia"],"game_id":440,"stv_port":27066,"stv_name":"Uncletopia | London | 6 | All Maps | STV","players":[{"user_id":12,"name":"Carrot","steam_id":76561198119340863,"connected_time":2476000000000,"state":"active","ping":32},{"user_id":13,"name":"abipinch","steam_id":76561199104348040,"connected_time":2467000000000,"state":"active","ping":68},{"user_id":14,"name":"olsolsols12","steam_id":76561198089444052,"connected_time":2466000000000,"state":"active","ping":66},{"user_id":15,"name":"mh","steam_id":76561198442932674,"connected_time":2461000000000,"state":"active","ping":53},{"user_id":21,"name":"quake 2 hater","steam_id":76561198101451654,"connected_time":2162000000000,"state":"active","ping":46},{"user_id":50,"name":"The TF2 Update IS REAL","steam_id":76561198173782017,"connected_time":281000000000,"state":"active","ping":64},{"user_id":34,"name":"m_yaw abuser","steam_id":76561198174510235,"connected_time":1383000000000,"state":"active","ping":50},{"user_id":43,"name":"‚û§ A H S O K A ‚û§","steam_id":76561198162074008,"connected_time":510000000000,"state":"active","ping":45},{"user_id":22,"name":"romaingallo","steam_id":76561198268112907,"connected_time":2056000000000,"state":"active","ping":74},{"user_id":27,"name":"Toast Nook","steam_id":76561199093949301,"connected_time":1840000000000,"state":"active","ping":85},{"user_id":28,"name":"I have aids","steam_id":76561198860347851,"connected_time":1681000000000,"state":"active","ping":126},{"user_id":25,"name":"lollyformolly","steam_id":76561199017868205,"connected_time":1999000000000,"state":"active","ping":50},{"user_id":37,"name":"HAXXEPOD","steam_id":76561198064440700,"connected_time":964000000000,"state":"active","ping":73},{"user_id":52,"name":"akciq ‚Åß‚Åßrespect","steam_id":76561198390963456,"connected_time":223000000000,"state":"active","ping":79},{"user_id":39,"name":"InsectKing","steam_id":76561199013519071,"connected_time":711000000000,"state":"active","ping":42},{"user_id":40,"name":"tanyathsus","steam_id":76561198089522447,"connected_time":697000000000,"state":"active","ping":63},{"user_id":42,"name":"Healslut Manwhore","steam_id":76561198114164702,"connected_time":550000000000,"state":"active","ping":74},{"user_id":44,"name":"The Lone Wanderer","steam_id":76561199041127565,"connected_time":477000000000,"state":"active","ping":43},{"user_id":45,"name":"Cobalt","steam_id":76561198326024250,"connected_time":469000000000,"state":"active","ping":45},{"user_id":46,"name":"Shepherd","steam_id":76561198367245948,"connected_time":468000000000,"state":"active","ping":48},{"user_id":53,"name":"Greencoffee","steam_id":76561198842090589,"connected_time":97000000000,"state":"active","ping":53},{"user_id":55,"name":"Braamklauw","steam_id":76561198283287697,"connected_time":79000000000,"state":"active","ping":64},{"user_id":51,"name":"Kjat","steam_id":76561198839433592,"connected_time":228000000000,"state":"active","ping":59},{"user_id":57,"name":"Big Benn","steam_id":76561199024168373,"connected_time":71000000000,"state":"active","ping":68}]},{"server_id":40,"name":"Uncletopia | London | 7 | No Payload","name_short":"lon-7","host":"lon-1.uk.uncletopia.com","port":27075,"enabled":true,"region":"eu","cc":"gb","latitude":51.509865,"longitude":-0.118092,"reserved":0,"last_update":"0001-01-01T00:00:00Z","name_a2s":"Uncletopia | London | 7 | No Payload","protocol":17,"map":"koth_lakeside_final","folder":"tf","game":"Team Fortress","app_id":440,"player_count":0,"max_players":24,"Bots":0,"server_type":"Dedicated","server_os":"Linux","password":true,"vac":true,"version":"7757534","steam_id":85568392924964314,"keywords":["cp","nocrits","nodmgspread","uncletopia"],"game_id":440,"stv_port":27076,"stv_name":"Uncletopia | London | 7 | No Payload | STV","players":null},{"server_id":41,"name":"Uncletopia | London | 8 | Community","name_short":"lon-8","host":"lon-1.uk.uncletopia.com","port":27085,"enabled":true,"region":"eu","cc":"gb","latitude":51.509865,"longitude":-0.118092,"reserved":0,"last_update":"0001-01-01T00:00:00Z","name_a2s":"Uncletopia | London | 8 | Community","protocol":17,"map":"workshop/pl_cashworks_final1.ugc2904065412","folder":"tf","game":"Team Fortress","app_id":440,"player_count":23,"max_players":24,"Bots":0,"server_type":"Dedicated","server_os":"Linux","password":true,"vac":true,"version":"7757534","steam_id":85568392924964315,"keywords":["nocrits","nodmgspread","payload","uncletopia"],"game_id":440,"stv_port":27086,"stv_name":"Uncletopia | London | 8 | Community | STV","players":[{"user_id":76,"name":"your favorite president","steam_id":76561198091969871,"connected_time":3316000000000,"state":"active","ping":76},{"user_id":103,"name":"smrk","steam_id":76561198066926098,"connected_time":1875000000000,"state":"active","ping":60},{"user_id":121,"name":"Yuzu","steam_id":76561198121694613,"connected_time":343000000000,"state":"active","ping":54},{"user_id":111,"name":"hedon/","steam_id":76561198249832770,"connected_time":748000000000,"state":"active","ping":46},{"user_id":107,"name":"ev1lboyo","steam_id":76561199199499453,"connected_time":1224000000000,"state":"active","ping":80},{"user_id":85,"name":"BeefHammer","steam_id":76561198078426223,"connected_time":2888000000000,"state":"active","ping":81},{"user_id":122,"name":"Mop","steam_id":76561198822725169,"connected_time":69000000000,"state":"active","ping":45},{"user_id":112,"name":"Holofightz Nene","steam_id":76561198226788392,"connected_time":695000000000,"state":"active","ping":59},{"user_id":35,"name":"Jered","steam_id":76561198834692136,"connected_time":6280000000000,"state":"active","ping":39},{"user_id":20,"name":"89384HDHSJDHU\u0026/","steam_id":76561198057833760,"connected_time":7711000000000,"state":"active","ping":87},{"user_id":74,"name":"Ork","steam_id":76561197968575924,"connected_time":3386000000000,"state":"active","ping":53},{"user_id":113,"name":"DrunkDriver31","steam_id":76561198046922727,"connected_time":687000000000,"state":"active","ping":78},{"user_id":106,"name":"Cirox","steam_id":76561198383142404,"connected_time":1533000000000,"state":"active","ping":91},{"user_id":46,"name":"godmodule","steam_id":76561198165995444,"connected_time":5907000000000,"state":"active","ping":78},{"user_id":114,"name":"GuSkand","steam_id":76561198043775605,"connected_time":680000000000,"state":"active","ping":97},{"user_id":116,"name":"PASTAMANIA!","steam_id":76561197967858558,"connected_time":601000000000,"state":"active","ping":48},{"user_id":117,"name":"Tyra","steam_id":76561198043739064,"connected_time":578000000000,"state":"active","ping":66},{"user_id":118,"name":"unknown","steam_id":76561198066452389,"connected_time":569000000000,"state":"active","ping":61},{"user_id":120,"name":"Raptor Factor","steam_id":76561198017174175,"connected_time":451000000000,"state":"active","ping":120},{"user_id":96,"name":"Jimmy","steam_id":76561198133680783,"connected_time":2495000000000,"state":"active","ping":84},{"user_id":68,"name":"Zireael","steam_id":76561198040657962,"connected_time":4073000000000,"state":"active","ping":84},{"user_id":119,"name":"Deadly","steam_id":76561198060387458,"connected_time":556000000000,"state":"active","ping":70},{"user_id":58,"name":"The Bread Bringer","steam_id":76561198264079743,"connected_time":4792000000000,"state":"active","ping":49}]},{"server_id":300,"name":"Uncletopia | Montr√©al | 1 | All Maps","name_short":"mtl-1","host":"mtl-1.ca.uncletopia.com","port":27015,"enabled":true,"region":"us-east","cc":"ca","latitude":45.50889,"longitude":-73.56167,"reserved":0,"last_update":"0001-01-01T00:00:00Z","name_a2s":"Uncletopia | Montr√©al | 1 | All Maps","protocol":17,"map":"pl_snowycoast","folder":"tf","game":"Team Fortress","app_id":440,"player_count":0,"max_players":24,"Bots":0,"server_type":"Dedicated","server_os":"Linux","password":true,"vac":true,"version":"7757534","steam_id":85568392924500087,"keywords":["nocrits","nodmgspread","payload","uncletopia"],"game_id":440,"stv_port":27016,"stv_name":"Uncletopia | Montr√©al | 1 | All Maps | STV","players":null},{"server_id":301,"name":"Uncletopia | Montr√©al | 2 | All Maps","name_short":"mtl-2","host":"mtl-1.ca.uncletopia.com","port":27025,"enabled":true,"region":"us-east","cc":"ca","latitude":45.50889,"longitude":-73.56167,"reserved":0,"last_update":"0001-01-01T00:00:00Z","name_a2s":"Uncletopia | Montr√©al | 2 | All Maps","protocol":17,"map":"cp_altitude","folder":"tf","game":"Team Fortress","app_id":440,"player_count":0,"max_players":24,"Bots":0,"server_type":"Dedicated","server_os":"Linux","password":true,"vac":true,"version":"7757534","steam_id":85568392924500088,"keywords":["cp","nocrits","nodmgspread","uncletopia"],"game_id":440,"stv_port":27026,"stv_name":"Uncletopia | Montr√©al | 2 | All Maps | STV","players":null},{"server_id":302,"name":"Uncletopia | Montr√©al | 3 | All Maps","name_short":"mtl-3","host":"mtl-1.ca.uncletopia.com","port":27035,"enabled":true,"region":"us-east","cc":"ca","latitude":45.50889,"longitude":-73.56167,"reserved":0,"last_update":"0001-01-01T00:00:00Z","name_a2s":"Uncletopia | Montr√©al | 3 | All Maps","protocol":17,"map":"pl_swiftwater_final1","folder":"tf","game":"Team Fortress","app_id":440,"player_count":0,"max_players":24,"Bots":0,"server_type":"Dedicated","server_os":"Linux","password":true,"vac":true,"version":"7757534","steam_id":85568392924500089,"keywords":["nocrits","nodmgspread","payload","uncletopia"],"game_id":440,"stv_port":27036,"stv_name":"Uncletopia | Montr√©al | 3 | All Maps | STV","players":null},{"server_id":303,"name":"Uncletopia | Montr√©al | 4 | No Payload","name_short":"mtl-4","host":"mtl-1.ca.uncletopia.com","port":27045,"enabled":true,"region":"us-east","cc":"ca","latitude":45.50889,"longitude":-73.56167,"reserved":0,"last_update":"0001-01-01T00:00:00Z","name_a2s":"Uncletopia | Montr√©al | 4 | No Payload","protocol":17,"map":"cp_mossrock","folder":"tf","game":"Team Fortress","app_id":440,"player_count":0,"max_players":24,"Bots":0,"server_type":"Dedicated","server_os":"Linux","password":true,"vac":true,"version":"7757534","steam_id":85568392924500090,"keywords":["cp","nocrits","nodmgspread","uncletopia"],"game_id":440,"stv_port":27046,"stv_name":"Uncletopia | Montr√©al | 4 | No Payload | STV","players":null},{"server_id":13,"name":"Uncletopia | New York City | 1 | All Maps","name_short":"nyc-1","host":"nyc-1.us.uncletopia.com","port":27015,"enabled":true,"region":"us-east","cc":"us","latitude":40.73061,"longitude":-73.93524,"reserved":0,"last_update":"0001-01-01T00:00:00Z","name_a2s":"Uncletopia | New York City | 1 | All Maps","protocol":17,"map":"pl_thundermountain","folder":"tf","game":"Team Fortress","app_id":440,"player_count":24,"max_players":24,"Bots":0,"server_type":"Dedicated","server_os":"Linux","password":true,"vac":true,"version":"7757534","steam_id":85568392924469993,"keywords":["nocrits","nodmgspread","payload","uncletopia"],"game_id":440,"stv_port":27016,"stv_name":"Uncletopia | New York City | 1 | All Maps | STV","players":[{"user_id":118,"name":"BerthaEartha","steam_id":76561198799428743,"connected_time":6291000000000,"state":"active","ping":50},{"user_id":177,"name":"FS Jorda","steam_id":76561198071421459,"connected_time":856000000000,"state":"active","ping":36},{"user_id":187,"name":"Cosmia","steam_id":76561198079662496,"connected_time":39000000000,"state":"active","ping":318},{"user_id":160,"name":"TerryGonnaTustle1973","steam_id":76561198171658214,"connected_time":2447000000000,"state":"active","ping":48},{"user_id":185,"name":"Carl, Good to see you","steam_id":76561198070574075,"connected_time":505000000000,"state":"active","ping":80},{"user_id":176,"name":"PeachFlavoredBleach","steam_id":76561198116226449,"connected_time":869000000000,"state":"active","ping":44},{"user_id":166,"name":"DizzyDigga","steam_id":76561198969677426,"connected_time":2193000000000,"state":"active","ping":57},{"user_id":151,"name":"Nemcat.Jr","steam_id":76561198079821706,"connected_time":2806000000000,"state":"active","ping":44},{"user_id":78,"name":"Dad 2","steam_id":76561198138546187,"connected_time":10122000000000,"state":"active","ping":60},{"user_id":167,"name":"Bill Carr","steam_id":76561198110033943,"connected_time":2178000000000,"state":"active","ping":109},{"user_id":179,"name":"Karrot","steam_id":76561198058970903,"connected_time":841000000000,"state":"active","ping":86},{"user_id":170,"name":"Argo","steam_id":76561198353725622,"connected_time":2054000000000,"state":"active","ping":61},{"user_id":171,"name":"RC-1207","steam_id":76561198135881084,"connected_time":2003000000000,"state":"active","ping":71},{"user_id":128,"name":"ttv/Muenstier","steam_id":76561198312153623,"connected_time":5422000000000,"state":"active","ping":93},{"user_id":180,"name":"Raizen","steam_id":76561199092445367,"connected_time":836000000000,"state":"active","ping":66},{"user_id":147,"name":"-BRH- Tangled up in Bluegrass","steam_id":76561197987181139,"connected_time":3462000000000,"state":"active","ping":88},{"user_id":183,"name":"Adreeh","steam_id":76561198158492390,"connected_time":693000000000,"state":"active","ping":82},{"user_id":175,"name":"CrimZone","steam_id":76561199117195674,"connected_time":1489000000000,"state":"active","ping":144},{"user_id":184,"name":"samwiserabbit","steam_id":76561198075114317,"connected_time":639000000000,"state":"active","ping":91},{"user_id":154,"name":"Yeast","steam_id":76561198964467530,"connected_time":2784000000000,"state":"active","ping":62},{"user_id":126,"name":"A Rhino with Coronavirus","steam_id":76561197999451366,"connected_time":5482000000000,"state":"active","ping":87},{"user_id":155,"name":"UEK","steam_id":76561198132903869,"connected_time":2781000000000,"state":"active","ping":73},{"user_id":173,"name":"roller","steam_id":76561198091233439,"connected_time":1643000000000,"state":"active","ping":77},{"user_id":144,"name":"bingle fantano 2","steam_id":76561197997139225,"connected_time":3550000000000,"state":"active","ping":50}]},{"server_id":14,"name":"Uncletopia | New York City | 2 | All Maps","name_short":"nyc-2","host":"nyc-1.us.uncletopia.com","port":27025,"enabled":true,"region":"us-east","cc":"us","latitude":40.73061,"longitude":-73.93524,"reserved":0,"last_update":"0001-01-01T00:00:00Z","name_a2s":"Uncletopia | New York City | 2 | All Maps","protocol":17,"map":"pl_badwater","folder":"tf","game":"Team Fortress","app_id":440,"player_count":24,"max_players":24,"Bots":0,"server_type":"Dedicated","server_os":"Linux","password":true,"vac":true,"version":"7757534","steam_id":85568392924469994,"keywords":["nocrits","nodmgspread","payload","uncletopia"],"game_id":440,"stv_port":27026,"stv_name":"Uncletopia | New York City | 2 | All Maps | STV","players":[{"user_id":363,"name":"Aaron","steam_id":76561198055514368,"connected_time":2511000000000,"state":"active","ping":45},{"user_id":331,"name":"Jamie(^_^)","steam_id":76561198835286379,"connected_time":4865000000000,"state":"active","ping":83},{"user_id":355,"name":"fazaness","steam_id":76561198851525394,"connected_time":2662000000000,"state":"active","ping":68},{"user_id":378,"name":"kaleb","steam_id":76561198997126286,"connected_time":168000000000,"state":"active","ping":71},{"user_id":373,"name":"Timothy Grunclebottoms","steam_id":76561198871450477,"connected_time":571000000000,"state":"active","ping":63},{"user_id":364,"name":"Chambersite","steam_id":76561198197022399,"connected_time":2303000000000,"state":"active","ping":170},{"user_id":311,"name":"man behind the slaughter (F2P)","steam_id":76561198854070384,"connected_time":5964000000000,"state":"active","ping":117},{"user_id":379,"name":"Dot.","steam_id":76561198149463984,"connected_time":141000000000,"state":"active","ping":58},{"user_id":374,"name":"Penjamin city","steam_id":76561198202216091,"connected_time":500000000000,"state":"active","ping":54},{"user_id":375,"name":"Cuntslinger","steam_id":76561198303948269,"connected_time":487000000000,"state":"active","ping":77},{"user_id":306,"name":"ArnoldGamingÔæ†Ÿ¥","steam_id":76561198040140247,"connected_time":6239000000000,"state":"active","ping":91},{"user_id":371,"name":"Valerie","steam_id":76561198243188782,"connected_time":631000000000,"state":"active","ping":64},{"user_id":376,"name":"Tallyden","steam_id":76561197998572962,"connected_time":487000000000,"state":"active","ping":79},{"user_id":365,"name":"Spirit","steam_id":76561199069322627,"connected_time":2051000000000,"state":"active","ping":66},{"user_id":314,"name":"nup noodle","steam_id":76561198101278181,"connected_time":5871000000000,"state":"active","ping":93},{"user_id":366,"name":"Mr. Dry Lips","steam_id":76561198028157625,"connected_time":1988000000000,"state":"active","ping":105},{"user_id":351,"name":"6t26j","steam_id":76561198278282836,"connected_time":2991000000000,"state":"active","ping":60},{"user_id":323,"name":"Drunken Bastard","steam_id":76561198131629233,"connected_time":5410000000000,"state":"active","ping":73},{"user_id":368,"name":"Two-Teste Tommy","steam_id":76561198064308936,"connected_time":1278000000000,"state":"active","ping":56},{"user_id":377,"name":"Bookman","steam_id":76561197993072125,"connected_time":371000000000,"state":"active","ping":58},{"user_id":362,"name":"Waffle Wannabe","steam_id":76561198064510650,"connected_time":2599000000000,"state":"active","ping":40},{"user_id":274,"name":"SEGNO","steam_id":76561198102780113,"connected_time":8462000000000,"state":"active","ping":90},{"user_id":271,"name":"Pussy Slambasket","steam_id":76561198093694322,"connected_time":8561000000000,"state":"active","ping":73},{"user_id":344,"name":"WACK","steam_id":76561198075605180,"connected_time":3461000000000,"state":"active","ping":58}]},{"server_id":15,"name":"Uncletopia | New York City | 3 | Stopwatch Beta","name_short":"nyc-3","host":"nyc-1.us.uncletopia.com","port":27035,"enabled":true,"region":"us-east","cc":"us","latitude":40.73061,"longitude":-73.93524,"reserved":0,"last_update":"0001-01-01T00:00:00Z","name_a2s":"Uncletopia | New York City | 3 | Stopwatch Beta","protocol":17,"map":"pl_upward","folder":"tf","game":"Team Fortress","app_id":440,"player_count":0,"max_players":24,"Bots":0,"server_type":"Dedicated","server_os":"Linux","password":true,"vac":true,"version":"7757534","steam_id":85568392924742820,"keywords":["nocrits","nodmgspread","payload","uncletopia"],"game_id":440,"stv_port":27036,"stv_name":"Uncletopia | New York City | 3 | Stopwatch Beta | STV","players":null},{"server_id":16,"name":"Uncletopia | New York City | 4 | Community","name_short":"nyc-4","host":"nyc-1.us.uncletopia.com","port":27045,"enabled":true,"region":"us-east","cc":"us","latitude":40.73061,"longitude":-73.93524,"reserved":0,"last_update":"0001-01-01T00:00:00Z","name_a2s":"Uncletopia | New York City | 4 | Community","protocol":17,"map":"pl_swiftwater_final1","folder":"tf","game":"Team Fortress","app_id":440,"player_count":0,"max_players":24,"Bots":0,"server_type":"Dedicated","server_os":"Linux","password":true,"vac":true,"version":"7757534","steam_id":85568392924742821,"keywords":["nocrits","nodmgspread","payload","uncletopia"],"game_id":440,"stv_port":27046,"stv_name":"Uncletopia | New York City | 4 | Community | STV","players":null},{"server_id":142,"name":"Uncletopia | S√£o Paulo | 1 | All Maps","name_short":"sao-1","host":"sao-1.br.uncletopia.com","port":27015,"enabled":true,"region":"sa","cc":"br","latitude":-23.533773,"longitude":-46.62529,"reserved":0,"last_update":"0001-01-01T00:00:00Z","name_a2s":"Uncletopia | S√£o Paulo | 1 | All Maps","protocol":17,"map":"koth_lakeside_final","folder":"tf","game":"Team Fortress","app_id":440,"player_count":1,"max_players":24,"Bots":0,"server_type":"Dedicated","server_os":"Linux","password":true,"vac":true,"version":"7757534","steam_id":85568392924469996,"keywords":["cp","nocrits","nodmgspread","uncletopia"],"game_id":440,"stv_port":27016,"stv_name":"Uncletopia | S√£o Paulo | 1 | All Maps | STV","players":[{"user_id":12,"name":"https://youtu.be/RvVdFXOFcjw","steam_id":76561198844048672,"connected_time":90000000000,"state":"active","ping":41}]},{"server_id":143,"name":"Uncletopia | S√£o Paulo | 2 | All Maps","name_short":"sao-2","host":"sao-2.br.uncletopia.com","port":27015,"enabled":true,"region":"sa","cc":"br","latitude":-23.533773,"longitude":-46.62529,"reserved":0,"last_update":"0001-01-01T00:00:00Z","name_a2s":"Uncletopia | S√£o Paulo | 2 | All Maps","protocol":17,"map":"pl_swiftwater_final1","folder":"tf","game":"Team Fortress","app_id":440,"player_count":0,"max_players":24,"Bots":0,"server_type":"Dedicated","server_os":"Linux","password":true,"vac":true,"version":"7757534","steam_id":85568392924485349,"keywords":["nocrits","nodmgspread","payload","uncletopia"],"game_id":440,"stv_port":27016,"stv_name":"Uncletopia | S√£o Paulo | 2 | All Maps | STV","players":null},{"server_id":7,"name":"Uncletopia | Seattle | 1 | All Maps","name_short":"sea-1","host":"sea-1.us.uncletopia.com","port":27015,"enabled":true,"region":"us-west","cc":"us","latitude":47.608013,"longitude":-122.33517,"reserved":0,"last_update":"0001-01-01T00:00:00Z","name_a2s":"Uncletopia | Seattle | 1 | All Maps","protocol":17,"map":"pl_snowycoast","folder":"tf","game":"Team Fortress","app_id":440,"player_count":24,"max_players":24,"Bots":0,"server_type":"Dedicated","server_os":"Linux","password":true,"vac":true,"version":"7757534","steam_id":85568392924469997,"keywords":["nocrits","nodmgspread","payload","uncletopia"],"game_id":440,"stv_port":27016,"stv_name":"Uncletopia | Seattle | 1 | All Maps | STV","players":[{"user_id":394,"name":"Fujiwara no Mokou","steam_id":76561198063315650,"connected_time":674000000000,"state":"active","ping":81},{"user_id":403,"name":"Tommy Provolone","steam_id":76561198170062377,"connected_time":136000000000,"state":"active","ping":75},{"user_id":391,"name":"Koffy","steam_id":76561198184386039,"connected_time":851000000000,"state":"active","ping":146},{"user_id":374,"name":"HighJingo","steam_id":76561198846814390,"connected_time":1243000000000,"state":"active","ping":101},{"user_id":401,"name":"13 INCH TGIRL SCHLONG","steam_id":76561198122059018,"connected_time":318000000000,"state":"active","ping":109},{"user_id":376,"name":"Uncle Ruckus","steam_id":76561198881999873,"connected_time":1188000000000,"state":"active","ping":60},{"user_id":396,"name":"mega","steam_id":76561198089520959,"connected_time":591000000000,"state":"active","ping":92},{"user_id":377,"name":"Pinto","steam_id":76561199105386998,"connected_time":1172000000000,"state":"active","ping":108},{"user_id":371,"name":"Warrior of christ","steam_id":76561199017754044,"connected_time":1365000000000,"state":"active","ping":60},{"user_id":305,"name":"TheCowledWiz","steam_id":76561198016735868,"connected_time":5609000000000,"state":"active","ping":48},{"user_id":392,"name":"Strikerbolt","steam_id":76561199095622897,"connected_time":759000000000,"state":"active","ping":95},{"user_id":386,"name":"‚ô• President Shitfart ‚ô•","steam_id":76561198141819053,"connected_time":971000000000,"state":"active","ping":70},{"user_id":399,"name":"SOBRII","steam_id":76561198077438484,"connected_time":472000000000,"state":"active","ping":65},{"user_id":359,"name":"Roloman11","steam_id":76561198308927283,"connected_time":2403000000000,"state":"active","ping":115},{"user_id":381,"name":"Neowudan","steam_id":76561198136850867,"connected_time":1101000000000,"state":"active","ping":102},{"user_id":379,"name":"Fajita Master","steam_id":76561198329150962,"connected_time":1113000000000,"state":"active","ping":81},{"user_id":395,"name":"PLak-PlaK","steam_id":76561198115688122,"connected_time":658000000000,"state":"active","ping":91},{"user_id":325,"name":"Cynicalrage #TF2center","steam_id":76561198085805532,"connected_time":4466000000000,"state":"active","ping":92},{"user_id":400,"name":"MentalFatigue","steam_id":76561198045499333,"connected_time":345000000000,"state":"active","ping":115},{"user_id":355,"name":"Queen Bee Remedy","steam_id":76561198088024854,"connected_time":2558000000000,"state":"active","ping":116},{"user_id":398,"name":"help","steam_id":76561199056338917,"connected_time":522000000000,"state":"active","ping":133},{"user_id":404,"name":"Ronnie McNutt","steam_id":76561198453543661,"connected_time":83000000000,"state":"active","ping":115},{"user_id":385,"name":"cirkuu","steam_id":76561198053465042,"connected_time":1015000000000,"state":"active","ping":106},{"user_id":327,"name":"Mani","steam_id":76561198139428711,"connected_time":4458000000000,"state":"active","ping":91}]},{"server_id":119,"name":"Uncletopia | Seattle | 2 | All Maps","name_short":"sea-2","host":"sea-1.us.uncletopia.com","port":27025,"enabled":true,"region":"us-west","cc":"us","latitude":47.608013,"longitude":-122.33517,"reserved":0,"last_update":"0001-01-01T00:00:00Z","name_a2s":"Uncletopia | Seattle | 2 | All Maps","protocol":17,"map":"koth_suijin","folder":"tf","game":"Team Fortress","app_id":440,"player_count":23,"max_players":24,"Bots":0,"server_type":"Dedicated","server_os":"Linux","password":true,"vac":true,"version":"7757534","steam_id":85568392924469998,"keywords":["cp","nocrits","nodmgspread","uncletopia"],"game_id":440,"stv_port":27026,"stv_name":"Uncletopia | Seattle | 2 | All Maps | STV","players":[{"user_id":111,"name":"Eugene Hinkle","steam_id":76561198424248616,"connected_time":3482000000000,"state":"active","ping":172},{"user_id":141,"name":"Taronser","steam_id":76561198069719410,"connected_time":766000000000,"state":"active","ping":126},{"user_id":120,"name":"skelter","steam_id":76561199228915146,"connected_time":2969000000000,"state":"active","ping":120},{"user_id":147,"name":"dreamybullxxx","steam_id":76561198415697906,"connected_time":169000000000,"state":"active","ping":120},{"user_id":148,"name":"Poptart From Mars","steam_id":76561197979930960,"connected_time":126000000000,"state":"active","ping":94},{"user_id":145,"name":"lucthememe","steam_id":76561198955568250,"connected_time":383000000000,"state":"active","ping":74},{"user_id":85,"name":"nfseskimo","steam_id":76561198078745666,"connected_time":4948000000000,"state":"active","ping":44},{"user_id":112,"name":"idiot","steam_id":76561198374828881,"connected_time":3401000000000,"state":"active","ping":113},{"user_id":127,"name":"Mr8bittripper","steam_id":76561198133894229,"connected_time":2378000000000,"state":"active","ping":42},{"user_id":144,"name":"reverie","steam_id":76561198168158637,"connected_time":616000000000,"state":"active","ping":78},{"user_id":142,"name":"lukamine","steam_id":76561198166827208,"connected_time":661000000000,"state":"active","ping":46},{"user_id":94,"name":"Birdman743","steam_id":76561198799636748,"connected_time":4571000000000,"state":"active","ping":65},{"user_id":149,"name":"THEREALMIKE","steam_id":76561198048161441,"connected_time":110000000000,"state":"active","ping":180},{"user_id":136,"name":"monke","steam_id":76561199122296580,"connected_time":1503000000000,"state":"active","ping":85},{"user_id":110,"name":"McLovin","steam_id":76561198114934503,"connected_time":3572000000000,"state":"active","ping":56},{"user_id":139,"name":"silly jester","steam_id":76561198079609974,"connected_time":1338000000000,"state":"active","ping":88},{"user_id":146,"name":"Acro Banwagon","steam_id":76561198092451804,"connected_time":381000000000,"state":"active","ping":119},{"user_id":82,"name":"sleepy","steam_id":76561198064149348,"connected_time":5088000000000,"state":"active","ping":75},{"user_id":133,"name":"Loashes","steam_id":76561198119608299,"connected_time":1925000000000,"state":"active","ping":89},{"user_id":125,"name":"Rooster Piss SLURPER","steam_id":76561199113197722,"connected_time":2652000000000,"state":"active","ping":92},{"user_id":135,"name":"Boyaredeen","steam_id":76561198880492636,"connected_time":1530000000000,"state":"active","ping":56},{"user_id":150,"name":"ZodiacThundaga","steam_id":76561199025117814,"connected_time":68000000000,"state":"active","ping":117},{"user_id":143,"name":"Bailster","steam_id":76561198091530428,"connected_time":656000000000,"state":"active","ping":92}]},{"server_id":406,"name":"Uncletopia | Seattle | 3 | Stopwatch Beta","name_short":"sea-3","host":"sea-1.us.uncletopia.com","port":27035,"enabled":true,"region":"us-west","cc":"us","latitude":47.608013,"longitude":-122.33517,"reserved":0,"last_update":"0001-01-01T00:00:00Z","name_a2s":"Uncletopia | Seattle | 3 | Stopwatch Beta","protocol":17,"map":"koth_lakeside_final","folder":"tf","game":"Team Fortress","app_id":440,"player_count":0,"max_players":24,"Bots":0,"server_type":"Dedicated","server_os":"Linux","password":true,"vac":true,"version":"7757534","steam_id":85568392924515217,"keywords":["cp","nocrits","nodmgspread","uncletopia"],"game_id":440,"stv_port":27036,"stv_name":"Uncletopia | Seattle | 3 | Stopwatch Beta | STV","players":null},{"server_id":17,"name":"Uncletopia | San Francisco | 1 | All Maps","name_short":"sfo-1","host":"sfo-1.us.uncletopia.com","port":27015,"enabled":true,"region":"us-west","cc":"us","latitude":37.77397,"longitude":-122.4313,"reserved":0,"last_update":"0001-01-01T00:00:00Z","name_a2s":"Uncletopia | San Francisco | 1 | All Maps","protocol":17,"map":"pl_badwater","folder":"tf","game":"Team Fortress","app_id":440,"player_count":0,"max_players":24,"Bots":0,"server_type":"Dedicated","server_os":"Linux","password":true,"vac":true,"version":"7757534","steam_id":85568392924469999,"keywords":["nocrits","nodmgspread","payload","uncletopia"],"game_id":440,"stv_port":27016,"stv_name":"Uncletopia | San Francisco | 1 | All Maps | STV","players":null},{"server_id":18,"name":"Uncletopia | San Francisco | 2 | All Maps","name_short":"sfo-2","host":"sfo-1.us.uncletopia.com","port":27025,"enabled":true,"region":"us-west","cc":"us","latitude":37.77397,"longitude":-122.4313,"reserved":0,"last_update":"0001-01-01T00:00:00Z","name_a2s":"Uncletopia | San Francisco | 2 | All Maps","protocol":17,"map":"koth_highpass","folder":"tf","game":"Team Fortress","app_id":440,"player_count":0,"max_players":24,"Bots":0,"server_type":"Dedicated","server_os":"Linux","password":true,"vac":true,"version":"7757534","steam_id":85568392924470000,"keywords":["cp","nocrits","nodmgspread","uncletopia"],"game_id":440,"stv_port":27026,"stv_name":"Uncletopia | San Francisco | 2 | All Maps | STV","players":null},{"server_id":19,"name":"Uncletopia | San Francisco | 3 | Stopwatch Beta","name_short":"sfo-3","host":"sfo-1.us.uncletopia.com","port":27035,"enabled":true,"region":"us-west","cc":"us","latitude":37.77397,"longitude":-122.4313,"reserved":0,"last_update":"0001-01-01T00:00:00Z","name_a2s":"Uncletopia | San Francisco | 3 | Stopwatch Beta","protocol":17,"map":"pl_borneo","folder":"tf","game":"Team Fortress","app_id":440,"player_count":0,"max_players":24,"Bots":0,"server_type":"Dedicated","server_os":"Linux","password":true,"vac":true,"version":"7757534","steam_id":85568392924742824,"keywords":["nocrits","nodmgspread","payload","uncletopia"],"game_id":440,"stv_port":27036,"stv_name":"Uncletopia | San Francisco | 3 | Stopwatch Beta | STV","players":null},{"server_id":20,"name":"Uncletopia | San Francisco | 4 | Community","name_short":"sfo-4","host":"sfo-1.us.uncletopia.com","port":27045,"enabled":true,"region":"us-west","cc":"us","latitude":37.77397,"longitude":-122.4313,"reserved":0,"last_update":"0001-01-01T00:00:00Z","name_a2s":"Uncletopia | San Francisco | 4 | Community","protocol":17,"map":"cp_altitude","folder":"tf","game":"Team Fortress","app_id":440,"player_count":0,"max_players":24,"Bots":0,"server_type":"Dedicated","server_os":"Linux","password":true,"vac":true,"version":"7757534","steam_id":85568392924742826,"keywords":["cp","nocrits","nodmgspread","uncletopia"],"game_id":440,"stv_port":27046,"stv_name":"Uncletopia | San Francisco | 4 | Community | STV","players":null},{"server_id":141,"name":"Uncletopia | Sydney | 1 | All Maps","name_short":"syd-1","host":"syd-1.au.uncletopia.com","port":27015,"enabled":true,"region":"au","cc":"au","latitude":-33.865143,"longitude":151.2099,"reserved":0,"last_update":"0001-01-01T00:00:00Z","name_a2s":"Uncletopia | Sydney | 1 | All Maps","protocol":17,"map":"koth_viaduct","folder":"tf","game":"Team Fortress","app_id":440,"player_count":0,"max_players":24,"Bots":0,"server_type":"Dedicated","server_os":"Linux","password":true,"vac":true,"version":"7757534","steam_id":85568392924470001,"keywords":["cp","nocrits","nodmgspread","uncletopia"],"game_id":440,"stv_port":27016,"stv_name":"Uncletopia | Sydney | 1 | All Maps | STV","players":null},{"server_id":123,"name":"Uncletopia | Sydney | 2 | All Maps","name_short":"syd-2","host":"syd-1.au.uncletopia.com","port":27025,"enabled":true,"region":"au","cc":"au","latitude":-33.865143,"longitude":151.2099,"reserved":0,"last_update":"0001-01-01T00:00:00Z","name_a2s":"Uncletopia | Sydney | 2 | All Maps","protocol":17,"map":"cp_process_final","folder":"tf","game":"Team Fortress","app_id":440,"player_count":0,"max_players":24,"Bots":0,"server_type":"Dedicated","server_os":"Linux","password":true,"vac":true,"version":"7757534","steam_id":85568392924470002,"keywords":["cp","nocrits","nodmgspread","uncletopia"],"game_id":440,"stv_port":27026,"stv_name":"Uncletopia | Sydney | 2 | All Maps | STV","players":null},{"server_id":395,"name":"Uncletopia | Sydney | 3 | All Maps","name_short":"syd-3","host":"syd-1.au.uncletopia.com","port":27035,"enabled":true,"region":"au","cc":"au","latitude":-33.865143,"longitude":151.2099,"reserved":0,"last_update":"0001-01-01T00:00:00Z","name_a2s":"Uncletopia | Sydney | 3 | All Maps","protocol":17,"map":"cp_sunshine","folder":"tf","game":"Team Fortress","app_id":440,"player_count":0,"max_players":24,"Bots":0,"server_type":"Dedicated","server_os":"Linux","password":true,"vac":true,"version":"7757534","steam_id":85568392925194467,"keywords":["cp","nocrits","nodmgspread","uncletopia"],"game_id":440,"stv_port":27036,"stv_name":"Uncletopia | Sydney | 3 | All Maps | STV","players":null},{"server_id":396,"name":"Uncletopia | Sydney | 4 | All Maps","name_short":"syd-4","host":"syd-1.au.uncletopia.com","port":27045,"enabled":true,"region":"au","cc":"au","latitude":-33.865143,"longitude":151.2099,"reserved":0,"last_update":"0001-01-01T00:00:00Z","name_a2s":"Uncletopia | Sydney | 4 | All Maps","protocol":17,"map":"koth_highpass","folder":"tf","game":"Team Fortress","app_id":440,"player_count":0,"max_players":24,"Bots":0,"server_type":"Dedicated","server_os":"Linux","password":true,"vac":true,"version":"7757534","steam_id":85568392925397958,"keywords":["cp","nocrits","nodmgspread","uncletopia"],"game_id":440,"stv_port":27046,"stv_name":"Uncletopia | Sydney | 4 | All Maps | STV","players":null},{"server_id":58,"name":"Uncletopia | Sydney | 5 | Stopwatch Beta","name_short":"syd-5","host":"syd-1.au.uncletopia.com","port":27055,"enabled":true,"region":"au","cc":"au","latitude":-33.865143,"longitude":151.2099,"reserved":0,"last_update":"0001-01-01T00:00:00Z","name_a2s":"Uncletopia | Sydney | 5 | Stopwatch Beta","protocol":17,"map":"koth_cascade","folder":"tf","game":"Team Fortress","app_id":440,"player_count":0,"max_players":24,"Bots":0,"server_type":"Dedicated","server_os":"Linux","password":true,"vac":true,"version":"7757534","steam_id":85568392925397959,"keywords":["cp","nocrits","nodmgspread","uncletopia"],"game_id":440,"stv_port":27056,"stv_name":"Uncletopia | Sydney | 5 | Stopwatch Beta | STV","players":null},{"server_id":59,"name":"Uncletopia | Sydney | 6 | Community","name_short":"syd-6","host":"syd-1.au.uncletopia.com","port":27065,"enabled":true,"region":"au","cc":"au","latitude":-33.865143,"longitude":151.2099,"reserved":0,"last_update":"0001-01-01T00:00:00Z","name_a2s":"Uncletopia | Sydney | 6 | Community","protocol":17,"map":"cp_snakewater_final1","folder":"tf","game":"Team Fortress","app_id":440,"player_count":0,"max_players":24,"Bots":0,"server_type":"Dedicated","server_os":"Linux","password":true,"vac":true,"version":"7757534","steam_id":85568392925397960,"keywords":["cp","nocrits","nodmgspread","uncletopia"],"game_id":440,"stv_port":27066,"stv_name":"Uncletopia | Sydney | 6 | Community | STV","players":null},{"server_id":49,"name":"Uncletopia | Warsaw | 1 | All Maps","name_short":"waw-1","host":"waw-1.pl.uncletopia.com","port":27015,"enabled":true,"region":"eu","cc":"pl","latitude":52.2297,"longitude":21.017532,"reserved":0,"last_update":"0001-01-01T00:00:00Z","name_a2s":"","protocol":0,"map":"","folder":"","game":"","app_id":0,"player_count":0,"max_players":0,"Bots":0,"server_type":"","server_os":"","password":false,"vac":false,"version":"","steam_id":0,"keywords":null,"game_id":0,"stv_port":0,"stv_name":"","players":null},{"server_id":50,"name":"Uncletopia | Warsaw | 2 | All Maps","name_short":"waw-2","host":"waw-1.pl.uncletopia.com","port":27025,"enabled":true,"region":"eu","cc":"pl","latitude":52.2297,"longitude":21.017532,"reserved":0,"last_update":"0001-01-01T00:00:00Z","name_a2s":"Uncletopia | Warsaw | 2 | All Maps","protocol":17,"map":"koth_viaduct","folder":"tf","game":"Team Fortress","app_id":440,"player_count":0,"max_players":24,"Bots":0,"server_type":"Dedicated","server_os":"Linux","password":true,"vac":true,"version":"7757534","steam_id":85568392925397851,"keywords":["cp","nocrits","nodmgspread","uncletopia"],"game_id":440,"stv_port":27026,"stv_name":"Uncletopia | Warsaw | 2 | All Maps | STV","players":null},{"server_id":51,"name":"Uncletopia | Warsaw | 3 | All Maps","name_short":"waw-3","host":"waw-1.pl.uncletopia.com","port":27035,"enabled":true,"region":"eu","cc":"pl","latitude":52.2297,"longitude":21.017532,"reserved":0,"last_update":"0001-01-01T00:00:00Z","name_a2s":"Uncletopia | Warsaw | 3 | All Maps","protocol":17,"map":"koth_lakeside_final","folder":"tf","game":"Team Fortress","app_id":440,"player_count":0,"max_players":24,"Bots":0,"server_type":"Dedicated","server_os":"Linux","password":true,"vac":true,"version":"7757534","steam_id":85568392925397852,"keywords":["cp","nocrits","nodmgspread","uncletopia"],"game_id":440,"stv_port":27036,"stv_name":"Uncletopia | Warsaw | 3 | All Maps | STV","players":null},{"server_id":52,"name":"Uncletopia | Warsaw | 4 | All Maps","name_short":"waw-4","host":"waw-1.pl.uncletopia.com","port":27045,"enabled":true,"region":"eu","cc":"pl","latitude":52.2297,"longitude":21.017532,"reserved":0,"last_update":"0001-01-01T00:00:00Z","name_a2s":"Uncletopia | Warsaw | 4 | All Maps","protocol":17,"map":"koth_lakeside_final","folder":"tf","game":"Team Fortress","app_id":440,"player_count":0,"max_players":24,"Bots":0,"server_type":"Dedicated","server_os":"Linux","password":true,"vac":true,"version":"7757534","steam_id":85568392925397853,"keywords":["cp","nocrits","nodmgspread","uncletopia"],"game_id":440,"stv_port":27046,"stv_name":"Uncletopia | Warsaw | 4 | All Maps | STV","players":null},{"server_id":53,"name":"Uncletopia | Warsaw | 5 | Stopwatch Beta","name_short":"waw-5","host":"waw-1.pl.uncletopia.com","port":27055,"enabled":true,"region":"eu","cc":"pl","latitude":52.2297,"longitude":21.017532,"reserved":0,"last_update":"0001-01-01T00:00:00Z","name_a2s":"Uncletopia | Warsaw | 5 | Stopwatch Beta","protocol":17,"map":"pl_borneo","folder":"tf","game":"Team Fortress","app_id":440,"player_count":0,"max_players":24,"Bots":0,"server_type":"Dedicated","server_os":"Linux","password":true,"vac":true,"version":"7757534","steam_id":85568392925397854,"keywords":["nocrits","nodmgspread","payload","uncletopia"],"game_id":440,"stv_port":27056,"stv_name":"Uncletopia | Warsaw | 5 | Stopwatch Beta | STV","players":null},{"server_id":54,"name":"Uncletopia | Warsaw | 6 | Community","name_short":"waw-6","host":"waw-1.pl.uncletopia.com","port":27065,"enabled":true,"region":"eu","cc":"pl","latitude":52.2297,"longitude":21.017532,"reserved":0,"last_update":"0001-01-01T00:00:00Z","name_a2s":"Uncletopia | Warsaw | 6 | Community","protocol":17,"map":"workshop/koth_kemptown_rc1.ugc767410655","folder":"tf","game":"Team Fortress","app_id":440,"player_count":0,"max_players":24,"Bots":0,"server_type":"Dedicated","server_os":"Linux","password":true,"vac":true,"version":"7757534","steam_id":85568392925397856,"keywords":["cp","nocrits","nodmgspread","uncletopia"],"game_id":440,"stv_port":27066,"stv_name":"Uncletopia | Warsaw | 6 | Community | STV","players":null}]}