{"status":true,"message":"","result":[{"server_id":9,"name":"Uncletopia | Atlanta | 1 | All Maps","name_short":"atl-1","host":"atl-1.us.uncletopia.com","port":27015,"enabled":true,"region":"us-east","cc":"us","latitude":33.753746,"longitude":-84.38633,"reserved":0,"last_update":"0001-01-01T00:00:00Z","name_a2s":"Uncletopia | Atlanta | 1 | All Maps","protocol":17,"map":"pl_snowycoast","folder":"tf","game":"Team Fortress","app_id":440,"player_count":24,"max_players":24,"Bots":0,"server_type":"Dedicated","server_os":"Linux","password":true,"vac":true,"version":"7882260","steam_id":85568392924469982,"keywords":["nocrits","nodmgspread","payload","uncletopia"],"game_id":440,"stv_port":27016,"stv_name":"Uncletopia | Atlanta | 1 | All Maps | STV","players":[{"user_id":230,"name":"jpuck","steam_id":76561198025018960,"connected_time":11044000000000,"state":"active","ping":56},{"user_id":358,"name":"You Don't Nomi.","steam_id":76561197969137836,"connected_time":1268000000000,"state":"active","ping":70},{"user_id":362,"name":"Johnny Lawrence #JohnnyMaxxing","steam_id":76561199367141671,"connected_time":1048000000000,"state":"active","ping":68},{"user_id":360,"name":"{FITH}‚Ñ¢ SmittyWun {FM}","steam_id":76561198079531938,"connected_time":1094000000000,"state":"active","ping":55},{"user_id":357,"name":"gabaghoulio","steam_id":76561198013650292,"connected_time":1282000000000,"state":"active","ping":91},{"user_id":367,"name":"Ping","steam_id":76561199206514106,"connected_time":579000000000,"state":"active","ping":75},{"user_id":279,"name":"Arkyfalke","steam_id":76561199026095784,"connected_time":5561000000000,"state":"active","ping":68},{"user_id":334,"name":"HARRY","steam_id":76561198842067238,"connected_time":2545000000000,"state":"active","ping":70},{"user_id":369,"name":"Reggie Thumpleton","steam_id":76561199223614399,"connected_time":431000000000,"state":"active","ping":62},{"user_id":325,"name":"Fiendss","steam_id":76561198026186354,"connected_time":2941000000000,"state":"active","ping":102},{"user_id":343,"name":"freekout27","steam_id":76561199176500590,"connected_time":2032000000000,"state":"active","ping":92},{"user_id":336,"name":"Big Mon","steam_id":76561198409907417,"connected_time":2493000000000,"state":"active","ping":115},{"user_id":352,"name":"tek4","steam_id":76561198047399339,"connected_time":1375000000000,"state":"active","ping":87},{"user_id":332,"name":"AdmiralCrunch","steam_id":76561198117444710,"connected_time":2659000000000,"state":"active","ping":46},{"user_id":364,"name":"atl1icyy","steam_id":76561198968001329,"connected_time":852000000000,"state":"active","ping":47},{"user_id":348,"name":"Crystron","steam_id":76561198880437428,"connected_time":1766000000000,"state":"active","ping":81},{"user_id":346,"name":"J O V A","steam_id":76561198090333536,"connected_time":1784000000000,"state":"active","ping":76},{"user_id":361,"name":"RollBox","steam_id":76561197997473474,"connected_time":1060000000000,"state":"active","ping":88},{"user_id":365,"name":"Raptortastic","steam_id":76561198105613110,"connected_time":676000000000,"state":"active","ping":75},{"user_id":354,"name":"i dig in the trash","steam_id":76561198277163301,"connected_time":1317000000000,"state":"active","ping":88},{"user_id":366,"name":"headphones","steam_id":76561198448484894,"connected_time":611000000000,"state":"active","ping":63},{"user_id":253,"name":"tux","steam_id":76561198167746330,"connected_time":8205000000000,"state":"active","ping":57},{"user_id":288,"name":"lukiepills","steam_id":76561199020587077,"connected_time":4069000000000,"state":"active","ping":68},{"user_id":363,"name":"Franz","steam_id":76561198041929745,"connected_time":1025000000000,"state":"active","ping":115}]},{"server_id":104,"name":"Uncletopia | Atlanta | 2 | All Maps","name_short":"atl-2","host":"atl-1.us.uncletopia.com","port":27025,"enabled":true,"region":"us-east","cc":"us","latitude":33.753746,"longitude":-84.38633,"reserved":0,"last_update":"0001-01-01T00:00:00Z","name_a2s":"Uncletopia | Atlanta | 2 | All Maps","protocol":17,"map":"pl_badwater","folder":"tf","game":"Team Fortress","app_id":440,"player_count":24,"max_players":24,"Bots":0,"server_type":"Dedicated","server_os":"Linux","password":true,"vac":true,"version":"7882260","steam_id":85568392924469983,"keywords":["nocrits","nodmgspread","payload","uncletopia"],"game_id":440,"stv_port":27026,"stv_name":"Uncletopia | Atlanta | 2 | All Maps | STV","players":[{"user_id":251,"name":"Smittywerbenjager-manjenson","steam_id":76561198067060742,"connected_time":220000000000,"state":"active","ping":75},{"user_id":222,"name":"Ozi Tea","steam_id":76561199278187678,"connected_time":2054000000000,"state":"active","ping":83},{"user_id":137,"name":"[Reece]","steam_id":76561198076404892,"connected_time":9253000000000,"state":"active","ping":58},{"user_id":257,"name":"the guard","steam_id":76561198140030446,"connected_time":62000000000,"state":"active","ping":61},{"user_id":239,"name":"Cruisin'","steam_id":76561199245457119,"connected_time":1539000000000,"state":"active","ping":78},{"user_id":238,"name":"ericgoodheart","steam_id":76561198871056612,"connected_time":1557000000000,"state":"active","ping":85},{"user_id":169,"name":"FancyBones","steam_id":76561198180198885,"connected_time":6445000000000,"state":"active","ping":71},{"user_id":226,"name":"Lusty","steam_id":76561198446378419,"connected_time":2018000000000,"state":"active","ping":68},{"user_id":252,"name":"@man","steam_id":76561198068324749,"connected_time":190000000000,"state":"active","ping":69},{"user_id":233,"name":"slowcore propaganda","steam_id":76561198354473513,"connected_time":1775000000000,"state":"active","ping":63},{"user_id":154,"name":"chiswola","steam_id":76561198046920142,"connected_time":8075000000000,"state":"active","ping":128},{"user_id":253,"name":"hashmap","steam_id":76561198043794014,"connected_time":166000000000,"state":"active","ping":65},{"user_id":208,"name":"scarymanfunnynipples","steam_id":76561198057149957,"connected_time":4066000000000,"state":"active","ping":69},{"user_id":254,"name":"Ivan Ivanich Ivanisky","steam_id":76561198030992243,"connected_time":142000000000,"state":"active","ping":72},{"user_id":220,"name":"ThreatLvl 9 (she/her)","steam_id":76561198079410533,"connected_time":2075000000000,"state":"active","ping":73},{"user_id":237,"name":"bladees saddest, realest verse","steam_id":76561198098099826,"connected_time":1580000000000,"state":"active","ping":106},{"user_id":245,"name":"Wumbologist","steam_id":76561198188729514,"connected_time":807000000000,"state":"active","ping":48},{"user_id":235,"name":"Roberto Del Fuego","steam_id":76561198043458554,"connected_time":1650000000000,"state":"active","ping":72},{"user_id":255,"name":"cass","steam_id":76561198074502046,"connected_time":138000000000,"state":"active","ping":60},{"user_id":248,"name":"aiming with drawing tablet","steam_id":76561198397662124,"connected_time":493000000000,"state":"active","ping":96},{"user_id":231,"name":"‚ù§Niko_‚ù§","steam_id":76561198136323319,"connected_time":1999000000000,"state":"active","ping":70},{"user_id":210,"name":"PUPPY MONKEY BABY","steam_id":76561198068885410,"connected_time":4034000000000,"state":"active","ping":74},{"user_id":232,"name":"Atlas_Lifestyle","steam_id":76561199144528454,"connected_time":1868000000000,"state":"active","ping":79},{"user_id":256,"name":"LITCH","steam_id":76561198033075871,"connected_time":135000000000,"state":"active","ping":111}]},{"server_id":400,"name":"Uncletopia | Atlanta | 3 | Community","name_short":"atl-3","host":"atl-1.us.uncletopia.com","port":27035,"enabled":true,"region":"us-east","cc":"us","latitude":33.753746,"longitude":-84.38633,"reserved":0,"last_update":"0001-01-01T00:00:00Z","name_a2s":"Uncletopia | Atlanta | 3 | Community","protocol":17,"map":"workshop/pl_cactuscanyon_redux_final2.ugc2579644293","folder":"tf","game":"Team Fortress","app_id":440,"player_count":22,"max_players":24,"Bots":0,"server_type":"Dedicated","server_os":"Linux","password":true,"vac":true,"version":"7882260","steam_id":85568392924515187,"keywords":["nocrits","nodmgspread","payload","uncletopia"],"game_id":440,"stv_port":27036,"stv_name":"Uncletopia | Atlanta | 3 | Community | STV","players":[{"user_id":56,"name":"intek","steam_id":76561198052705291,"connected_time":1442000000000,"state":"active","ping":91},{"user_id":58,"name":"Spookypeanut626","steam_id":76561198997002246,"connected_time":1298000000000,"state":"active","ping":62},{"user_id":63,"name":"how do i girl???","steam_id":76561198050290565,"connected_time":1096000000000,"state":"active","ping":55},{"user_id":25,"name":"Lord Theodore XIII","steam_id":76561198085842797,"connected_time":2797000000000,"state":"active","ping":72},{"user_id":28,"name":"sassy loli","steam_id":76561198402316065,"connected_time":2286000000000,"state":"active","ping":90},{"user_id":83,"name":"Sunshine","steam_id":76561198885528098,"connected_time":65000000000,"state":"active","ping":75},{"user_id":74,"name":"raiden, squeeze my hog","steam_id":76561198138221795,"connected_time":591000000000,"state":"active","ping":92},{"user_id":31,"name":"illegible","steam_id":76561197980774848,"connected_time":2261000000000,"state":"active","ping":60},{"user_id":32,"name":"trev","steam_id":76561198372593596,"connected_time":2175000000000,"state":"active","ping":112},{"user_id":84,"name":"mu","steam_id":76561197997530228,"connected_time":45000000000,"state":"active","ping":117},{"user_id":61,"name":"Recursive Gamer","steam_id":76561198042102952,"connected_time":1226000000000,"state":"active","ping":88},{"user_id":80,"name":"YUNG LOAF","steam_id":76561198237338018,"connected_time":240000000000,"state":"active","ping":82},{"user_id":72,"name":"Clockwick","steam_id":76561198047292719,"connected_time":740000000000,"state":"active","ping":46},{"user_id":77,"name":"Rin \"Hindwing\" Redtail","steam_id":76561199074865638,"connected_time":441000000000,"state":"active","ping":62},{"user_id":40,"name":"Derri√®re Mar√©cageux","steam_id":76561198013111370,"connected_time":2010000000000,"state":"active","ping":76},{"user_id":85,"name":"fifafunnies@hotmail.com","steam_id":76561198103908668,"connected_time":38000000000,"state":"active","ping":165},{"user_id":68,"name":"Carpicious","steam_id":76561198426619665,"connected_time":960000000000,"state":"active","ping":98},{"user_id":46,"name":"Dipdoof","steam_id":76561198077634776,"connected_time":1830000000000,"state":"active","ping":99},{"user_id":48,"name":"Syfun","steam_id":76561198042734428,"connected_time":1815000000000,"state":"active","ping":68},{"user_id":67,"name":"‚ô• catra dummy ‚ô•","steam_id":76561198080909140,"connected_time":980000000000,"state":"active","ping":74},{"user_id":76,"name":"Acro Banwagon","steam_id":76561198092451804,"connected_time":501000000000,"state":"active","ping":78},{"user_id":79,"name":"Squiliam Fancyson","steam_id":76561199029458936,"connected_time":317000000000,"state":"active","ping":67}]},{"server_id":401,"name":"Uncletopia | Atlanta | 4 | No Payload","name_short":"atl-4","host":"atl-1.us.uncletopia.com","port":27045,"enabled":true,"region":"us-east","cc":"us","latitude":33.753746,"longitude":-84.38633,"reserved":0,"last_update":"0001-01-01T00:00:00Z","name_a2s":"","protocol":0,"map":"","folder":"","game":"","app_id":0,"player_count":0,"max_players":0,"Bots":0,"server_type":"","server_os":"","password":false,"vac":false,"version":"","steam_id":0,"keywords":null,"game_id":0,"stv_port":0,"stv_name":"","players":null},{"server_id":2,"name":"Uncletopia | Chicago | 1 | All Maps","name_short":"chi-1","host":"chi-1.us.uncletopia.com","port":27015,"enabled":true,"region":"us-central","cc":"us","latitude":41.881832,"longitude":-87.62318,"reserved":0,"last_update":"0001-01-01T00:00:00Z","name_a2s":"Uncletopia | Chicago | 1 | All Maps","protocol":17,"map":"pl_upward","folder":"tf","game":"Team Fortress","app_id":440,"player_count":24,"max_players":24,"Bots":0,"server_type":"Dedicated","server_os":"Linux","password":true,"vac":true,"version":"7882260","steam_id":85568392924469984,"keywords":["nocrits","nodmgspread","payload","uncletopia"],"game_id":440,"stv_port":27016,"stv_name":"Uncletopia | Chicago | 1 | All Maps | STV","players":[{"user_id":473,"name":"daithy","steam_id":76561198168295777,"connected_time":274000000000,"state":"active","ping":110},{"user_id":397,"name":"0","steam_id":76561198046055673,"connected_time":6606000000000,"state":"active","ping":74},{"user_id":460,"name":"Griddy #Hateologist","steam_id":76561199100342013,"connected_time":1191000000000,"state":"active","ping":91},{"user_id":467,"name":"BNTF","steam_id":76561198062740087,"connected_time":850000000000,"state":"active","ping":75},{"user_id":427,"name":"SOGGY DOGGY","steam_id":76561199158847498,"connected_time":3619000000000,"state":"active","ping":104},{"user_id":464,"name":"bereddored1","steam_id":76561198847597725,"connected_time":1032000000000,"state":"active","ping":63},{"user_id":439,"name":"brea?","steam_id":76561198025130409,"connected_time":3319000000000,"state":"active","ping":80},{"user_id":471,"name":"chloe when she","steam_id":76561198128537564,"connected_time":337000000000,"state":"active","ping":48},{"user_id":461,"name":"THE CUMEST LORD","steam_id":76561198061412592,"connected_time":1133000000000,"state":"active","ping":69},{"user_id":451,"name":"geeWIZ","steam_id":76561198067909242,"connected_time":2119000000000,"state":"active","ping":72},{"user_id":331,"name":"Pocket Snipers","steam_id":76561198207987376,"connected_time":12470000000000,"state":"active","ping":60},{"user_id":349,"name":"richard clock","steam_id":76561198048455671,"connected_time":10705000000000,"state":"active","ping":60},{"user_id":445,"name":"99RM","steam_id":76561198107382571,"connected_time":2538000000000,"state":"active","ping":128},{"user_id":447,"name":"indi","steam_id":76561198045917538,"connected_time":2367000000000,"state":"active","ping":46},{"user_id":468,"name":"chesterwnimitz","steam_id":76561198062664377,"connected_time":767000000000,"state":"active","ping":82},{"user_id":456,"name":"vv","steam_id":76561198134813102,"connected_time":1320000000000,"state":"active","ping":60},{"user_id":457,"name":"kyle","steam_id":76561198099970097,"connected_time":1245000000000,"state":"active","ping":75},{"user_id":459,"name":"[DATS‚û°] Sugar Meowth","steam_id":76561197995251793,"connected_time":1197000000000,"state":"active","ping":90},{"user_id":472,"name":"kermitcreeper(ZAZA)","steam_id":76561199222829972,"connected_time":308000000000,"state":"active","ping":54},{"user_id":424,"name":"Bottom Trans Cowgirl","steam_id":76561198304239680,"connected_time":3762000000000,"state":"active","ping":84},{"user_id":433,"name":"Blazing Hyena","steam_id":76561199121852680,"connected_time":3594000000000,"state":"active","ping":103},{"user_id":440,"name":"Secret Derg","steam_id":76561198065005979,"connected_time":3046000000000,"state":"active","ping":89},{"user_id":469,"name":"Gnarly Shark Bite","steam_id":76561198004058342,"connected_time":680000000000,"state":"active","ping":77},{"user_id":334,"name":"Lia_Rein","steam_id":76561198151569597,"connected_time":12127000000000,"state":"active","ping":173}]},{"server_id":106,"name":"Uncletopia | Chicago | 2 | All Maps","name_short":"chi-2","host":"chi-1.us.uncletopia.com","port":27025,"enabled":true,"region":"us-central","cc":"us","latitude":41.881832,"longitude":-87.62318,"reserved":0,"last_update":"0001-01-01T00:00:00Z","name_a2s":"Uncletopia | Chicago | 2 | All Maps","protocol":17,"map":"pl_upward","folder":"tf","game":"Team Fortress","app_id":440,"player_count":25,"max_players":24,"Bots":0,"server_type":"Dedicated","server_os":"Linux","password":true,"vac":true,"version":"7882260","steam_id":85568392924469985,"keywords":["nocrits","nodmgspread","payload","uncletopia"],"game_id":440,"stv_port":27026,"stv_name":"Uncletopia | Chicago | 2 | All Maps | STV","players":[{"user_id":297,"name":"kablong","steam_id":76561199094392047,"connected_time":66000000000,"state":"active","ping":81},{"user_id":298,"name":"Joseph","steam_id":76561198848031955,"connected_time":42000000000,"state":"active","ping":37},{"user_id":206,"name":"Gildedire","steam_id":76561198063959574,"connected_time":5287000000000,"state":"active","ping":74},{"user_id":274,"name":"Samitch","steam_id":76561198038247982,"connected_time":1799000000000,"state":"active","ping":53},{"user_id":266,"name":"I Have A Name","steam_id":76561198011699246,"connected_time":2133000000000,"state":"active","ping":90},{"user_id":299,"name":"minx","steam_id":76561198075551260,"connected_time":35000000000,"state":"active","ping":157},{"user_id":194,"name":"Peepster","steam_id":76561198297854733,"connected_time":5542000000000,"state":"active","ping":66},{"user_id":247,"name":"The Poop Dealer","steam_id":76561198141198352,"connected_time":3489000000000,"state":"active","ping":45},{"user_id":275,"name":"zaza rizzington","steam_id":76561199187337967,"connected_time":1463000000000,"state":"active","ping":58},{"user_id":300,"name":"thepokeyen","steam_id":76561198236847572,"connected_time":33000000000,"state":"spawning","ping":54},{"user_id":289,"name":"Mohammed","steam_id":76561198448718642,"connected_time":440000000000,"state":"active","ping":61},{"user_id":301,"name":"ryghehn","steam_id":76561198195359229,"connected_time":26000000000,"state":"active","ping":89},{"user_id":280,"name":"smittann","steam_id":76561198299570650,"connected_time":955000000000,"state":"active","ping":84},{"user_id":302,"name":"Sniper","steam_id":76561199482262282,"connected_time":17000000000,"state":"active","ping":89},{"user_id":303,"name":"reymundo","steam_id":76561197989412830,"connected_time":15000000000,"state":"spawning","ping":104},{"user_id":278,"name":"Rukks","steam_id":76561197993918954,"connected_time":1134000000000,"state":"active","ping":90},{"user_id":284,"name":"Vapeinhand","steam_id":76561198134439943,"connected_time":729000000000,"state":"active","ping":56},{"user_id":264,"name":"scrotal recall","steam_id":76561198135945598,"connected_time":2592000000000,"state":"active","ping":80},{"user_id":304,"name":"Doctor Fudge","steam_id":76561198008119266,"connected_time":12000000000,"state":"active","ping":63},{"user_id":277,"name":"Colonel Chikara","steam_id":76561198010021087,"connected_time":1372000000000,"state":"active","ping":85},{"user_id":285,"name":"Joe","steam_id":76561199389283507,"connected_time":642000000000,"state":"active","ping":68},{"user_id":279,"name":"Xx_PR3TTY_R4VE_G!R1_xX","steam_id":76561199059016425,"connected_time":1079000000000,"state":"active","ping":56},{"user_id":296,"name":"Engineer Gaming","steam_id":76561198840761529,"connected_time":116000000000,"state":"active","ping":60},{"user_id":305,"name":"the perpetrator","steam_id":76561198111975583,"connected_time":1000000000,"state":"spawning","ping":55},{"user_id":252,"name":"Meh","steam_id":76561198078187920,"connected_time":3421000000000,"state":"active","ping":83}]},{"server_id":402,"name":"Uncletopia | Chicago | 3 | All Maps","name_short":"chi-3","host":"chi-1.us.uncletopia.com","port":27035,"enabled":true,"region":"us-central","cc":"us","latitude":41.881832,"longitude":-87.62318,"reserved":0,"last_update":"0001-01-01T00:00:00Z","name_a2s":"Uncletopia | Chicago | 3 | All Maps","protocol":17,"map":"pl_barnblitz","folder":"tf","game":"Team Fortress","app_id":440,"player_count":18,"max_players":24,"Bots":0,"server_type":"Dedicated","server_os":"Linux","password":true,"vac":true,"version":"7882260","steam_id":85568392924515191,"keywords":["nocrits","nodmgspread","payload","uncletopia"],"game_id":440,"stv_port":27036,"stv_name":"Uncletopia | Chicago | 3 | All Maps | STV","players":[{"user_id":566,"name":"EggaBacon","steam_id":76561198987353518,"connected_time":742000000000,"state":"active","ping":56},{"user_id":558,"name":"Lord TriM","steam_id":76561198048332533,"connected_time":1214000000000,"state":"active","ping":56},{"user_id":569,"name":"some cringe guy","steam_id":76561198104086771,"connected_time":286000000000,"state":"active","ping":93},{"user_id":553,"name":"gamingGengar602","steam_id":76561199453140907,"connected_time":1491000000000,"state":"active","ping":55},{"user_id":572,"name":"DunkaKino","steam_id":76561198035502594,"connected_time":63000000000,"state":"active","ping":74},{"user_id":488,"name":"tacofever","steam_id":76561198010966507,"connected_time":6248000000000,"state":"active","ping":92},{"user_id":532,"name":"Sneetch [sRb]","steam_id":76561197996693506,"connected_time":3283000000000,"state":"active","ping":85},{"user_id":536,"name":"RiverEgg","steam_id":76561198888913405,"connected_time":2048000000000,"state":"active","ping":55},{"user_id":508,"name":"God","steam_id":76561198131089513,"connected_time":4635000000000,"state":"active","ping":45},{"user_id":537,"name":"Cool Cool Mountain","steam_id":76561199004839490,"connected_time":2036000000000,"state":"active","ping":67},{"user_id":533,"name":"Big J","steam_id":76561199189855696,"connected_time":3274000000000,"state":"active","ping":81},{"user_id":535,"name":"Mr.Silver","steam_id":76561198156382508,"connected_time":2399000000000,"state":"active","ping":55},{"user_id":555,"name":"aleph LFT","steam_id":76561197978531382,"connected_time":1421000000000,"state":"active","ping":67},{"user_id":507,"name":"ArnoldGamingÔæ†Ÿ¥","steam_id":76561198040140247,"connected_time":4960000000000,"state":"active","ping":87},{"user_id":571,"name":"Drew","steam_id":76561198093943227,"connected_time":88000000000,"state":"active","ping":53},{"user_id":542,"name":"Yoloisnotded","steam_id":76561198995043589,"connected_time":1859000000000,"state":"active","ping":88},{"user_id":559,"name":"looloopaa","steam_id":76561198048179242,"connected_time":1085000000000,"state":"active","ping":57},{"user_id":540,"name":"Wert","steam_id":76561198368345693,"connected_time":1924000000000,"state":"active","ping":64}]},{"server_id":403,"name":"Uncletopia | Chicago | 4 | All Maps","name_short":"chi-4","host":"chi-1.us.uncletopia.com","port":27045,"enabled":true,"region":"us-central","cc":"us","latitude":41.881832,"longitude":-87.62318,"reserved":0,"last_update":"0001-01-01T00:00:00Z","name_a2s":"Uncletopia | Chicago | 4 | All Maps","protocol":17,"map":"koth_cascade","folder":"tf","game":"Team Fortress","app_id":440,"player_count":24,"max_players":24,"Bots":0,"server_type":"Dedicated","server_os":"Linux","password":true,"vac":true,"version":"7882260","steam_id":85568392924515193,"keywords":["cp","nocrits","nodmgspread","uncletopia"],"game_id":440,"stv_port":27046,"stv_name":"Uncletopia | Chicago | 4 | All Maps | STV","players":[{"user_id":386,"name":"s m o o f","steam_id":76561197975849691,"connected_time":3660000000000,"state":"active","ping":74},{"user_id":394,"name":"HeavyMettleDick","steam_id":76561198001925087,"connected_time":3261000000000,"state":"active","ping":74},{"user_id":387,"name":"Necronoxide","steam_id":76561197997856321,"connected_time":3655000000000,"state":"active","ping":92},{"user_id":424,"name":"reallyfriendly","steam_id":76561197996819313,"connected_time":473000000000,"state":"active","ping":70},{"user_id":391,"name":"igotmail","steam_id":76561198070631899,"connected_time":3355000000000,"state":"active","ping":66},{"user_id":384,"name":"crashymicsplody","steam_id":76561198213916765,"connected_time":4076000000000,"state":"active","ping":66},{"user_id":376,"name":"[El Fail] MR.BadassMCLee","steam_id":76561198043787818,"connected_time":4364000000000,"state":"active","ping":117},{"user_id":414,"name":"Sigma Mentality","steam_id":76561198045753316,"connected_time":1527000000000,"state":"active","ping":107},{"user_id":407,"name":"Gummie","steam_id":76561198807069433,"connected_time":2069000000000,"state":"active","ping":89},{"user_id":411,"name":"CEOlifestyle","steam_id":76561198025747866,"connected_time":1768000000000,"state":"active","ping":93},{"user_id":377,"name":"Crazy Insane Proboscis Monkey","steam_id":76561198061011176,"connected_time":4364000000000,"state":"active","ping":87},{"user_id":427,"name":"Cosmic Torgue","steam_id":76561198828724945,"connected_time":173000000000,"state":"active","ping":82},{"user_id":260,"name":"I might","steam_id":76561198121256258,"connected_time":11336000000000,"state":"active","ping":66},{"user_id":428,"name":"Take the L","steam_id":76561198379223875,"connected_time":80000000000,"state":"active","ping":63},{"user_id":403,"name":"acurlyquote","steam_id":76561198110033420,"connected_time":2449000000000,"state":"active","ping":68},{"user_id":425,"name":"frank","steam_id":76561198137777483,"connected_time":386000000000,"state":"active","ping":60},{"user_id":309,"name":"Bobato Chaps","steam_id":76561198065103552,"connected_time":8436000000000,"state":"active","ping":46},{"user_id":418,"name":"taky0n","steam_id":76561198103759716,"connected_time":1075000000000,"state":"active","ping":72},{"user_id":412,"name":"A Normal Twig","steam_id":76561198398305224,"connected_time":1741000000000,"state":"active","ping":85},{"user_id":413,"name":"glittersatan","steam_id":76561198018458668,"connected_time":1712000000000,"state":"active","ping":86},{"user_id":417,"name":"Corbe","steam_id":76561198353893927,"connected_time":1114000000000,"state":"active","ping":41},{"user_id":429,"name":"a literal pigeon","steam_id":76561198136409356,"connected_time":71000000000,"state":"active","ping":70},{"user_id":426,"name":"BatJet","steam_id":76561198147738441,"connected_time":237000000000,"state":"active","ping":106},{"user_id":409,"name":"P‚ô•is‚ô•n","steam_id":76561198140584050,"connected_time":1838000000000,"state":"active","ping":74}]},{"server_id":36,"name":"Uncletopia | Chicago | 5 | All Maps","name_short":"chi-5","host":"chi-2.us.uncletopia.com","port":27015,"enabled":true,"region":"us-central","cc":"us","latitude":41.881832,"longitude":-87.62318,"reserved":0,"last_update":"0001-01-01T00:00:00Z","name_a2s":"Uncletopia | Chicago | 5 | All Maps","protocol":17,"map":"koth_viaduct","folder":"tf","game":"Team Fortress","app_id":440,"player_count":18,"max_players":24,"Bots":0,"server_type":"Dedicated","server_os":"Linux","password":true,"vac":true,"version":"7882260","steam_id":85568392924866362,"keywords":["cp","nocrits","nodmgspread","uncletopia"],"game_id":440,"stv_port":27016,"stv_name":"Uncletopia | Chicago | 5 | All Maps | STV","players":[{"user_id":472,"name":"Riandox","steam_id":76561198130577326,"connected_time":208000000000,"state":"active","ping":62},{"user_id":453,"name":"kramer","steam_id":76561198117761965,"connected_time":874000000000,"state":"active","ping":67},{"user_id":454,"name":"Penny #girl","steam_id":76561198144281771,"connected_time":861000000000,"state":"active","ping":63},{"user_id":354,"name":"Kurt Biscuitmaker","steam_id":76561198331701823,"connected_time":5092000000000,"state":"active","ping":80},{"user_id":467,"name":"Kedata","steam_id":76561198047750050,"connected_time":320000000000,"state":"active","ping":44},{"user_id":455,"name":"Trox","steam_id":76561198263581464,"connected_time":811000000000,"state":"active","ping":90},{"user_id":458,"name":"Toast","steam_id":76561198401995265,"connected_time":666000000000,"state":"active","ping":53},{"user_id":305,"name":"PerliousFalcon","steam_id":76561198124801907,"connected_time":7993000000000,"state":"active","ping":100},{"user_id":459,"name":"Phone","steam_id":76561198334357092,"connected_time":638000000000,"state":"active","ping":63},{"user_id":441,"name":"Deltaco","steam_id":76561198094572694,"connected_time":1736000000000,"state":"active","ping":108},{"user_id":449,"name":"CinnamonBoy","steam_id":76561198882330338,"connected_time":898000000000,"state":"active","ping":75},{"user_id":475,"name":"|WS| Don't_Taze_Me_Bro","steam_id":76561198043289495,"connected_time":14000000000,"state":"spawning","ping":84},{"user_id":463,"name":"pizza hut enjoyer","steam_id":76561198126358045,"connected_time":550000000000,"state":"active","ping":69},{"user_id":450,"name":"trashbro","steam_id":76561199417993197,"connected_time":897000000000,"state":"active","ping":103},{"user_id":464,"name":"derdds","steam_id":76561198034339940,"connected_time":475000000000,"state":"active","ping":59},{"user_id":465,"name":"J1407B","steam_id":76561199003447981,"connected_time":445000000000,"state":"active","ping":82},{"user_id":469,"name":"Punished Jeff (Drain Messiah)","steam_id":76561198304252584,"connected_time":242000000000,"state":"active","ping":90},{"user_id":471,"name":"CR4YCR4Y","steam_id":76561198009310297,"connected_time":220000000000,"state":"active","ping":70}]},{"server_id":37,"name":"Uncletopia | Chicago | 6 | All Maps","name_short":"chi-6","host":"chi-2.us.uncletopia.com","port":27025,"enabled":true,"region":"us-central","cc":"us","latitude":41.881832,"longitude":-87.62318,"reserved":0,"last_update":"0001-01-01T00:00:00Z","name_a2s":"Uncletopia | Chicago | 6 | All Maps","protocol":17,"map":"cp_yukon_final","folder":"tf","game":"Team Fortress","app_id":440,"player_count":20,"max_players":24,"Bots":0,"server_type":"Dedicated","server_os":"Linux","password":true,"vac":true,"version":"7882260","steam_id":85568392924866363,"keywords":["cp","nocrits","nodmgspread","uncletopia"],"game_id":440,"stv_port":27026,"stv_name":"Uncletopia | Chicago | 6 | All Maps | STV","players":[{"user_id":166,"name":"darkjustin54","steam_id":76561198060056280,"connected_time":1576000000000,"state":"active","ping":56},{"user_id":167,"name":"RefriedToast","steam_id":76561198166187853,"connected_time":1549000000000,"state":"active","ping":85},{"user_id":91,"name":"responds with haha","steam_id":76561198073269122,"connected_time":7276000000000,"state":"active","ping":60},{"user_id":156,"name":"Ze_√úber_Nerd","steam_id":76561198091148675,"connected_time":2664000000000,"state":"active","ping":74},{"user_id":155,"name":"Rukh","steam_id":76561197999361315,"connected_time":2731000000000,"state":"active","ping":101},{"user_id":178,"name":"Alice in Rubberland","steam_id":76561198087328346,"connected_time":208000000000,"state":"active","ping":45},{"user_id":130,"name":"dansal","steam_id":76561197997042510,"connected_time":3770000000000,"state":"active","ping":82},{"user_id":179,"name":"Grilled Jizo","steam_id":76561199250875340,"connected_time":160000000000,"state":"active","ping":78},{"user_id":180,"name":"be nice i only have 115 hours","steam_id":76561199227557263,"connected_time":102000000000,"state":"active","ping":94},{"user_id":169,"name":"Jade Greenleaf","steam_id":76561198304845413,"connected_time":1534000000000,"state":"active","ping":176},{"user_id":160,"name":"gamergod38","steam_id":76561198821637622,"connected_time":2594000000000,"state":"active","ping":60},{"user_id":175,"name":"Battle Cry","steam_id":76561198068385204,"connected_time":608000000000,"state":"active","ping":49},{"user_id":129,"name":"wokky bin laddn","steam_id":76561198265200834,"connected_time":3862000000000,"state":"active","ping":81},{"user_id":170,"name":"-|Kappin'|- ExplosiveDiahrea","steam_id":76561198017045020,"connected_time":1512000000000,"state":"active","ping":70},{"user_id":145,"name":"jstn","steam_id":76561198845283665,"connected_time":3115000000000,"state":"active","ping":73},{"user_id":171,"name":"-|Kappin'|- Kilbo Fraggins‚Ñ¢","steam_id":76561197994725498,"connected_time":1505000000000,"state":"active","ping":70},{"user_id":172,"name":"Venk","steam_id":76561198251131422,"connected_time":1484000000000,"state":"active","ping":69},{"user_id":105,"name":"seldom","steam_id":76561198166193756,"connected_time":6264000000000,"state":"active","ping":59},{"user_id":148,"name":"FINNERTY2018","steam_id":76561198829848794,"connected_time":3085000000000,"state":"active","ping":149},{"user_id":173,"name":"nemesis","steam_id":76561198115050507,"connected_time":1459000000000,"state":"active","ping":67}]},{"server_id":38,"name":"Uncletopia | Chicago | 7 | Stopwatch Beta","name_short":"chi-7","host":"chi-2.us.uncletopia.com","port":27035,"enabled":true,"region":"us-central","cc":"us","latitude":41.881832,"longitude":-87.62318,"reserved":0,"last_update":"0001-01-01T00:00:00Z","name_a2s":"Uncletopia | Chicago | 7 | Stopwatch Beta","protocol":17,"map":"workshop/koth_ashville_final.ugc2130459942","folder":"tf","game":"Team Fortress","app_id":440,"player_count":0,"max_players":24,"Bots":0,"server_type":"Dedicated","server_os":"Linux","password":true,"vac":true,"version":"7882260","steam_id":85568392924866364,"keywords":["cp","nocrits","nodmgspread","uncletopia"],"game_id":440,"stv_port":27036,"stv_name":"Uncletopia | Chicago | 7 | Stopwatch Beta | STV","players":null},{"server_id":39,"name":"Uncletopia | Chicago | 8 | Community","name_short":"chi-8","host":"chi-2.us.uncletopia.com","port":27045,"enabled":true,"region":"us-central","cc":"us","latitude":41.881832,"longitude":-87.62318,"reserved":0,"last_update":"0001-01-01T00:00:00Z","name_a2s":"Uncletopia | Chicago | 8 | Community","protocol":17,"map":"workshop/pl_fifthcurve_rc1.ugc648227046","folder":"tf","game":"Team Fortress","app_id":440,"player_count":18,"max_players":24,"Bots":0,"server_type":"Dedicated","server_os":"Linux","password":true,"vac":true,"version":"7882260","steam_id":85568392924866365,"keywords":["nocrits","nodmgspread","payload","uncletopia"],"game_id":440,"stv_port":27046,"stv_name":"Uncletopia | Chicago | 8 | Community | STV","players":[{"user_id":393,"name":"Shadow WIZARD MoneyGang","steam_id":76561197986051713,"connected_time":76000000000,"state":"active","ping":73},{"user_id":394,"name":"I bet he couldn't beat Goku","steam_id":76561198030291655,"connected_time":55000000000,"state":"active","ping":53},{"user_id":370,"name":"superad1","steam_id":76561198067001129,"connected_time":1871000000000,"state":"active","ping":61},{"user_id":384,"name":"Hindmost","steam_id":76561199081837220,"connected_time":1311000000000,"state":"active","ping":86},{"user_id":381,"name":"Thequirka","steam_id":76561198968058652,"connected_time":1408000000000,"state":"active","ping":92},{"user_id":330,"name":"Junko","steam_id":76561198146089003,"connected_time":4141000000000,"state":"active","ping":45},{"user_id":388,"name":"CrescendoFuri","steam_id":76561198115904902,"connected_time":746000000000,"state":"active","ping":68},{"user_id":336,"name":"Reisen Udongein Inaba","steam_id":76561198051082314,"connected_time":3993000000000,"state":"active","ping":101},{"user_id":364,"name":"Aeonspassed","steam_id":76561198014016451,"connected_time":2340000000000,"state":"active","ping":50},{"user_id":338,"name":"Sabag3D","steam_id":76561198094402240,"connected_time":3886000000000,"state":"active","ping":103},{"user_id":372,"name":"Rhino Beetle","steam_id":76561198830083719,"connected_time":1748000000000,"state":"active","ping":79},{"user_id":339,"name":"The Chosen One","steam_id":76561199046984627,"connected_time":3871000000000,"state":"active","ping":83},{"user_id":391,"name":"Nobongo","steam_id":76561198137957455,"connected_time":211000000000,"state":"active","ping":62},{"user_id":373,"name":"mrnotsogudguy","steam_id":76561199289893241,"connected_time":1725000000000,"state":"active","ping":89},{"user_id":358,"name":"MDD","steam_id":76561197998850659,"connected_time":2573000000000,"state":"active","ping":84},{"user_id":386,"name":"‚ù§[CandySwirl]‚ù§","steam_id":76561198817361963,"connected_time":1243000000000,"state":"active","ping":106},{"user_id":387,"name":"mEch114","steam_id":76561198236936060,"connected_time":1034000000000,"state":"active","ping":60},{"user_id":390,"name":"Gangrene","steam_id":76561198093362668,"connected_time":649000000000,"state":"active","ping":72}]},{"server_id":8,"name":"Uncletopia | Dallas | 1 | All Maps","name_short":"dal-1","host":"dal-1.us.uncletopia.com","port":27015,"enabled":true,"region":"us-central","cc":"us","latitude":32.779167,"longitude":-96.80889,"reserved":0,"last_update":"0001-01-01T00:00:00Z","name_a2s":"Uncletopia | Dallas | 1 | All Maps","protocol":17,"map":"cp_vanguard","folder":"tf","game":"Team Fortress","app_id":440,"player_count":24,"max_players":24,"Bots":0,"server_type":"Dedicated","server_os":"Linux","password":true,"vac":true,"version":"7882260","steam_id":85568392924469986,"keywords":["cp","nocrits","nodmgspread","uncletopia"],"game_id":440,"stv_port":27016,"stv_name":"Uncletopia | Dallas | 1 | All Maps | STV","players":[{"user_id":398,"name":"Nugakku","steam_id":76561198082346219,"connected_time":5225000000000,"state":"active","ping":63},{"user_id":441,"name":"Bigfoot ate my ass","steam_id":76561198071605190,"connected_time":633000000000,"state":"active","ping":76},{"user_id":338,"name":"J.G. Klaus","steam_id":76561198001111196,"connected_time":7658000000000,"state":"active","ping":55},{"user_id":445,"name":"awesome","steam_id":76561198248656836,"connected_time":244000000000,"state":"active","ping":83},{"user_id":378,"name":"Chief Diggery K.","steam_id":76561198066629137,"connected_time":5815000000000,"state":"active","ping":78},{"user_id":422,"name":"Connorses","steam_id":76561198045971681,"connected_time":1693000000000,"state":"active","ping":87},{"user_id":376,"name":"Optimore","steam_id":76561198047662990,"connected_time":5835000000000,"state":"active","ping":73},{"user_id":429,"name":"Bogey","steam_id":76561198096227944,"connected_time":1124000000000,"state":"active","ping":44},{"user_id":435,"name":"MFSHROOM","steam_id":76561198305836153,"connected_time":758000000000,"state":"active","ping":71},{"user_id":438,"name":"BobBarian","steam_id":76561198114659699,"connected_time":718000000000,"state":"active","ping":75},{"user_id":425,"name":"K2f","steam_id":76561198049600563,"connected_time":1619000000000,"state":"active","ping":77},{"user_id":395,"name":"BrendenMad","steam_id":76561198031250581,"connected_time":5380000000000,"state":"active","ping":62},{"user_id":393,"name":"Apollo","steam_id":76561198162364702,"connected_time":5402000000000,"state":"active","ping":90},{"user_id":446,"name":"oog","steam_id":76561199371685870,"connected_time":87000000000,"state":"active","ping":88},{"user_id":430,"name":"‚âÉ","steam_id":76561198157393205,"connected_time":1054000000000,"state":"active","ping":76},{"user_id":431,"name":"angel \u003c3","steam_id":76561198159850954,"connected_time":947000000000,"state":"active","ping":59},{"user_id":442,"name":"Teutiaplus","steam_id":76561198880943359,"connected_time":599000000000,"state":"active","ping":58},{"user_id":426,"name":"strawberry shortcock","steam_id":76561198032040831,"connected_time":1611000000000,"state":"active","ping":100},{"user_id":443,"name":"TheAsianMeatball","steam_id":76561198336926133,"connected_time":421000000000,"state":"active","ping":64},{"user_id":433,"name":"webaline","steam_id":76561199052450127,"connected_time":856000000000,"state":"active","ping":77},{"user_id":399,"name":"TechnoBear2099","steam_id":76561198238863596,"connected_time":5145000000000,"state":"active","ping":45},{"user_id":436,"name":"A Straw","steam_id":76561199367935846,"connected_time":754000000000,"state":"active","ping":69},{"user_id":394,"name":"iaPK","steam_id":76561198056618642,"connected_time":5401000000000,"state":"active","ping":55},{"user_id":391,"name":"Dr_Riddler","steam_id":76561198139493285,"connected_time":5476000000000,"state":"active","ping":91}]},{"server_id":108,"name":"Uncletopia | Dallas | 2 | All Maps","name_short":"dal-2","host":"dal-1.us.uncletopia.com","port":27025,"enabled":true,"region":"us-central","cc":"us","latitude":32.779167,"longitude":-96.80889,"reserved":0,"last_update":"0001-01-01T00:00:00Z","name_a2s":"Uncletopia | Dallas | 2 | All Maps","protocol":17,"map":"pl_barnblitz","folder":"tf","game":"Team Fortress","app_id":440,"player_count":25,"max_players":24,"Bots":0,"server_type":"Dedicated","server_os":"Linux","password":true,"vac":true,"version":"7882260","steam_id":85568392924469988,"keywords":["nocrits","nodmgspread","payload","uncletopia"],"game_id":440,"stv_port":27026,"stv_name":"Uncletopia | Dallas | 2 | All Maps | STV","players":[{"user_id":311,"name":"cactus eater","steam_id":76561199107499844,"connected_time":809000000000,"state":"active","ping":92},{"user_id":296,"name":"Unlock The Shock (She/They)","steam_id":76561198823616667,"connected_time":2755000000000,"state":"active","ping":57},{"user_id":252,"name":"Elena Manetta","steam_id":76561197998344054,"connected_time":6079000000000,"state":"active","ping":74},{"user_id":324,"name":"Beelthazus","steam_id":76561198127783432,"connected_time":142000000000,"state":"active","ping":76},{"user_id":227,"name":"bolainassr0","steam_id":76561199079078845,"connected_time":8108000000000,"state":"active","ping":93},{"user_id":314,"name":"mushroom taco","steam_id":76561198097554694,"connected_time":752000000000,"state":"active","ping":45},{"user_id":306,"name":"Superman123389","steam_id":76561198267472539,"connected_time":1255000000000,"state":"active","ping":83},{"user_id":307,"name":"Who Am I?","steam_id":76561198098141967,"connected_time":1166000000000,"state":"active","ping":79},{"user_id":290,"name":"pel","steam_id":76561198021224745,"connected_time":4085000000000,"state":"active","ping":77},{"user_id":309,"name":"Angel_Bonnie","steam_id":76561199229447760,"connected_time":1037000000000,"state":"active","ping":95},{"user_id":294,"name":"Cofi","steam_id":76561199026721822,"connected_time":3019000000000,"state":"active","ping":91},{"user_id":322,"name":"Data","steam_id":76561198147917933,"connected_time":215000000000,"state":"active","ping":88},{"user_id":255,"name":"minty","steam_id":76561198096347625,"connected_time":6025000000000,"state":"active","ping":76},{"user_id":321,"name":"Mem","steam_id":76561198170391715,"connected_time":229000000000,"state":"active","ping":70},{"user_id":325,"name":"westward (was/were)","steam_id":76561198805512350,"connected_time":137000000000,"state":"active","ping":108},{"user_id":329,"name":"PJ","steam_id":76561198102322542,"connected_time":41000000000,"state":"active","ping":55},{"user_id":327,"name":"MoldyCoffee936","steam_id":76561198099061153,"connected_time":80000000000,"state":"active","ping":72},{"user_id":315,"name":"HAT-WEARING‚Ñ¢ Maggot Gamer Cat","steam_id":76561197973992705,"connected_time":730000000000,"state":"active","ping":96},{"user_id":295,"name":"ilady","steam_id":76561198139802458,"connected_time":2864000000000,"state":"active","ping":91},{"user_id":317,"name":"Jrock","steam_id":76561198045715996,"connected_time":510000000000,"state":"active","ping":112},{"user_id":300,"name":"Ranger","steam_id":76561198829369360,"connected_time":2479000000000,"state":"active","ping":85},{"user_id":308,"name":"portal2trollin","steam_id":76561198046869828,"connected_time":1103000000000,"state":"active","ping":80},{"user_id":328,"name":"Yosh","steam_id":76561198027078899,"connected_time":69000000000,"state":"active","ping":75},{"user_id":330,"name":"Hero Smasher","steam_id":76561198150681669,"connected_time":13000000000,"state":"spawning","ping":89},{"user_id":264,"name":"Cat","steam_id":76561198191887141,"connected_time":5743000000000,"state":"active","ping":105}]},{"server_id":5,"name":"Uncletopia | Frankfurt | 1 | All Maps","name_short":"frk-1","host":"frk-1.de.uncletopia.com","port":27015,"enabled":true,"region":"eu","cc":"de","latitude":50.110924,"longitude":8.682127,"reserved":0,"last_update":"0001-01-01T00:00:00Z","name_a2s":"Uncletopia | Frankfurt | 1 | All Maps","protocol":17,"map":"koth_viaduct","folder":"tf","game":"Team Fortress","app_id":440,"player_count":4,"max_players":24,"Bots":0,"server_type":"Dedicated","server_os":"Linux","password":true,"vac":true,"version":"7882260","steam_id":85568392924469989,"keywords":["cp","nocrits","nodmgspread","uncletopia"],"game_id":440,"stv_port":27016,"stv_name":"Uncletopia | Frankfurt | 1 | All Maps | STV","players":[{"user_id":772,"name":"Hawkmoth","steam_id":76561198336952198,"connected_time":34000000000,"state":"spawning","ping":70},{"user_id":771,"name":"SconeysVT","steam_id":76561198124870622,"connected_time":112000000000,"state":"active","ping":92},{"user_id":765,"name":"iDUARD","steam_id":76561198853362966,"connected_time":2323000000000,"state":"active","ping":71},{"user_id":766,"name":"Kjat","steam_id":76561198839433592,"connected_time":2222000000000,"state":"active","ping":44}]},{"server_id":110,"name":"Uncletopia | Frankfurt | 2 | All Maps","name_short":"frk-2","host":"frk-1.de.uncletopia.com","port":27025,"enabled":true,"region":"eu","cc":"de","latitude":50.110924,"longitude":8.682127,"reserved":0,"last_update":"0001-01-01T00:00:00Z","name_a2s":"Uncletopia | Frankfurt | 2 | All Maps","protocol":17,"map":"koth_highpass","folder":"tf","game":"Team Fortress","app_id":440,"player_count":0,"max_players":24,"Bots":0,"server_type":"Dedicated","server_os":"Linux","password":true,"vac":true,"version":"7882260","steam_id":85568392924469990,"keywords":["cp","nocrits","nodmgspread","uncletopia"],"game_id":440,"stv_port":27026,"stv_name":"Uncletopia | Frankfurt | 2 | All Maps | STV","players":null},{"server_id":308,"name":"Uncletopia | Frankfurt | 3 | All Maps","name_short":"frk-3","host":"frk-1.de.uncletopia.com","port":27035,"enabled":true,"region":"eu","cc":"de","latitude":50.110924,"longitude":8.682127,"reserved":0,"last_update":"0001-01-01T00:00:00Z","name_a2s":"Uncletopia | Frankfurt | 3 | All Maps","protocol":17,"map":"pl_barnblitz","folder":"tf","game":"Team Fortress","app_id":440,"player_count":0,"max_players":24,"Bots":0,"server_type":"Dedicated","server_os":"Linux","password":true,"vac":true,"version":"7882260","steam_id":85568392924504274,"keywords":["nocrits","nodmgspread","payload","uncletopia"],"game_id":440,"stv_port":27036,"stv_name":"Uncletopia | Frankfurt | 3 | All Maps | STV","players":null},{"server_id":309,"name":"Uncletopia | Frankfurt | 4 | All Maps","name_short":"frk-4","host":"frk-1.de.uncletopia.com","port":27045,"enabled":true,"region":"eu","cc":"de","latitude":50.110924,"longitude":8.682127,"reserved":0,"last_update":"0001-01-01T00:00:00Z","name_a2s":"Uncletopia | Frankfurt | 4 | All Maps","protocol":17,"map":"koth_highpass","folder":"tf","game":"Team Fortress","app_id":440,"player_count":23,"max_players":24,"Bots":0,"server_type":"Dedicated","server_os":"Linux","password":true,"vac":true,"version":"7882260","steam_id":85568392924504275,"keywords":["cp","nocrits","nodmgspread","uncletopia"],"game_id":440,"stv_port":27046,"stv_name":"Uncletopia | Frankfurt | 4 | All Maps | STV","players":[{"user_id":200,"name":"SPAJRACX","steam_id":76561199112345084,"connected_time":337000000000,"state":"active","ping":54},{"user_id":176,"name":"Little Satan","steam_id":76561198083614760,"connected_time":2112000000000,"state":"active","ping":77},{"user_id":185,"name":"LarsInABox","steam_id":76561198028329262,"connected_time":1441000000000,"state":"active","ping":72},{"user_id":186,"name":"üå≠ 0mger #YNWA","steam_id":76561198053615827,"connected_time":1405000000000,"state":"active","ping":74},{"user_id":124,"name":"pootis","steam_id":76561199477874283,"connected_time":5344000000000,"state":"active","ping":71},{"user_id":159,"name":"üå≠ HugeE #YNWA","steam_id":76561198245495152,"connected_time":3051000000000,"state":"active","ping":69},{"user_id":171,"name":"Sofia v. Boergersatt","steam_id":76561197968530671,"connected_time":2695000000000,"state":"active","ping":45},{"user_id":202,"name":"kotamine","steam_id":76561198068907991,"connected_time":186000000000,"state":"active","ping":68},{"user_id":97,"name":"Anri Okita's Massive Milkers","steam_id":76561199186352720,"connected_time":6973000000000,"state":"active","ping":74},{"user_id":131,"name":"oriano","steam_id":76561198099916327,"connected_time":4996000000000,"state":"active","ping":64},{"user_id":181,"name":"JunkJen","steam_id":76561198017223402,"connected_time":1684000000000,"state":"active","ping":69},{"user_id":167,"name":"üå≠ Arentrir #YNWA","steam_id":76561198334126785,"connected_time":2985000000000,"state":"active","ping":74},{"user_id":180,"name":"skatie","steam_id":76561198169487380,"connected_time":1764000000000,"state":"active","ping":72},{"user_id":184,"name":"Pestdoktor","steam_id":76561198058159271,"connected_time":1484000000000,"state":"active","ping":65},{"user_id":115,"name":"Mooodyboi.‚ô•","steam_id":76561198132577404,"connected_time":6354000000000,"state":"active","ping":62},{"user_id":177,"name":"footass","steam_id":76561198321785662,"connected_time":2107000000000,"state":"active","ping":83},{"user_id":197,"name":"zak","steam_id":76561197998895428,"connected_time":473000000000,"state":"active","ping":62},{"user_id":198,"name":"goon boy","steam_id":76561198927527338,"connected_time":461000000000,"state":"active","ping":71},{"user_id":187,"name":"t3l3fon1","steam_id":76561199252129777,"connected_time":1361000000000,"state":"active","ping":78},{"user_id":193,"name":"swallowed 10 pennies please hel","steam_id":76561198055816412,"connected_time":741000000000,"state":"active","ping":61},{"user_id":194,"name":"limitates","steam_id":76561198362229620,"connected_time":675000000000,"state":"active","ping":52},{"user_id":134,"name":"Garold","steam_id":76561198429658370,"connected_time":4866000000000,"state":"active","ping":120},{"user_id":182,"name":"üÉî Nugg1t(she/they)","steam_id":76561198065652251,"connected_time":1596000000000,"state":"active","ping":45}]},{"server_id":310,"name":"Uncletopia | Frankfurt | 5 | All Maps","name_short":"frk-5","host":"frk-1.de.uncletopia.com","port":27055,"enabled":true,"region":"eu","cc":"de","latitude":50.110924,"longitude":8.682127,"reserved":0,"last_update":"0001-01-01T00:00:00Z","name_a2s":"Uncletopia | Frankfurt | 5 | All Maps","protocol":17,"map":"cp_mountainlab","folder":"tf","game":"Team Fortress","app_id":440,"player_count":0,"max_players":24,"Bots":0,"server_type":"Dedicated","server_os":"Linux","password":true,"vac":true,"version":"7882260","steam_id":85568392924504277,"keywords":["cp","nocrits","nodmgspread","uncletopia"],"game_id":440,"stv_port":27056,"stv_name":"Uncletopia | Frankfurt | 5 | All Maps | STV","players":null},{"server_id":311,"name":"Uncletopia | Frankfurt | 6 | All Maps","name_short":"frk-6","host":"frk-1.de.uncletopia.com","port":27065,"enabled":true,"region":"eu","cc":"de","latitude":50.110924,"longitude":8.682127,"reserved":0,"last_update":"0001-01-01T00:00:00Z","name_a2s":"Uncletopia | Frankfurt | 6 | All Maps","protocol":17,"map":"koth_lakeside_final","folder":"tf","game":"Team Fortress","app_id":440,"player_count":2,"max_players":24,"Bots":0,"server_type":"Dedicated","server_os":"Linux","password":true,"vac":true,"version":"7882260","steam_id":85568392924504278,"keywords":["cp","nocrits","nodmgspread","uncletopia"],"game_id":440,"stv_port":27066,"stv_name":"Uncletopia | Frankfurt | 6 | All Maps | STV","players":[{"user_id":126,"name":"Tox","steam_id":76561199204054991,"connected_time":2135000000000,"state":"active","ping":92},{"user_id":127,"name":"ADLAR","steam_id":76561199120919784,"connected_time":2114000000000,"state":"active","ping":83}]},{"server_id":23,"name":"Uncletopia | Frankfurt | 7 | Stopwatch Beta","name_short":"frk-7","host":"frk-1.de.uncletopia.com","port":27075,"enabled":true,"region":"eu","cc":"de","latitude":50.110924,"longitude":8.682127,"reserved":0,"last_update":"0001-01-01T00:00:00Z","name_a2s":"Uncletopia | Frankfurt | 7 | Stopwatch Beta","protocol":17,"map":"workshop/pl_summercoast_rc8e.ugc1761528829","folder":"tf","game":"Team Fortress","app_id":440,"player_count":0,"max_players":24,"Bots":0,"server_type":"Dedicated","server_os":"Linux","password":true,"vac":true,"version":"7882260","steam_id":85568392924742827,"keywords":["nocrits","nodmgspread","payload","uncletopia"],"game_id":440,"stv_port":27076,"stv_name":"Uncletopia | Frankfurt | 7 | Stopwatch Beta | STV","players":null},{"server_id":24,"name":"Uncletopia | Frankfurt | 8 | Community","name_short":"frk-8","host":"frk-1.de.uncletopia.com","port":27085,"enabled":true,"region":"eu","cc":"de","latitude":50.110924,"longitude":8.682127,"reserved":0,"last_update":"0001-01-01T00:00:00Z","name_a2s":"Uncletopia | Frankfurt | 8 | Community","protocol":17,"map":"workshop/cp_villa_b19.ugc2113052569","folder":"tf","game":"Team Fortress","app_id":440,"player_count":7,"max_players":24,"Bots":0,"server_type":"Dedicated","server_os":"Linux","password":true,"vac":true,"version":"7882260","steam_id":85568392924742828,"keywords":["cp","nocrits","nodmgspread","uncletopia"],"game_id":440,"stv_port":27086,"stv_name":"Uncletopia | Frankfurt | 8 | Community | STV","players":[{"user_id":410,"name":"Tegnerud","steam_id":76561198214185612,"connected_time":134000000000,"state":"active","ping":73},{"user_id":409,"name":"Chicken pot pie","steam_id":76561198084997090,"connected_time":230000000000,"state":"active","ping":51},{"user_id":342,"name":"medicinal man","steam_id":76561198202668788,"connected_time":6708000000000,"state":"active","ping":60},{"user_id":285,"name":"TylowStar","steam_id":76561198357107806,"connected_time":10212000000000,"state":"active","ping":74},{"user_id":400,"name":"Chucky.","steam_id":76561197969361063,"connected_time":1113000000000,"state":"active","ping":80},{"user_id":404,"name":"yum‡πá","steam_id":76561198350053321,"connected_time":776000000000,"state":"active","ping":49},{"user_id":386,"name":"SulPhuck","steam_id":76561198177752871,"connected_time":2278000000000,"state":"active","ping":66}]},{"server_id":202,"name":"Uncletopia | Hong Kong | 1 | All Maps","name_short":"hgk-1","host":"hgk-1.hk.uncletopia.com","port":27015,"enabled":true,"region":"asia","cc":"hk","latitude":22.302711,"longitude":114.177216,"reserved":0,"last_update":"0001-01-01T00:00:00Z","name_a2s":"Uncletopia | Hong Kong | 1 | All Maps","protocol":17,"map":"koth_nucleus","folder":"tf","game":"Team Fortress","app_id":440,"player_count":0,"max_players":24,"Bots":0,"server_type":"Dedicated","server_os":"Linux","password":true,"vac":true,"version":"7882260","steam_id":85568392924494504,"keywords":["cp","nocrits","nodmgspread","uncletopia"],"game_id":440,"stv_port":27016,"stv_name":"Uncletopia | Hong Kong | 1 | All Maps | STV","players":null},{"server_id":1,"name":"Uncletopia | Los Angeles | 1 | All Maps","name_short":"lax-1","host":"lax-1.us.uncletopia.com","port":27015,"enabled":true,"region":"us-west","cc":"us","latitude":33.94279,"longitude":-118.41004,"reserved":0,"last_update":"0001-01-01T00:00:00Z","name_a2s":"Uncletopia | Los Angeles | 1 | All Maps","protocol":17,"map":"pl_barnblitz","folder":"tf","game":"Team Fortress","app_id":440,"player_count":24,"max_players":24,"Bots":0,"server_type":"Dedicated","server_os":"Linux","password":true,"vac":true,"version":"7882260","steam_id":85568392924469991,"keywords":["nocrits","nodmgspread","payload","uncletopia"],"game_id":440,"stv_port":27016,"stv_name":"Uncletopia | Los Angeles | 1 | All Maps | STV","players":[{"user_id":348,"name":"mechanicvirus","steam_id":76561198038161480,"connected_time":223000000000,"state":"active","ping":55},{"user_id":300,"name":"danielarmvt","steam_id":76561198799723201,"connected_time":4364000000000,"state":"active","ping":104},{"user_id":347,"name":"flamingdorit0s","steam_id":76561198869206247,"connected_time":250000000000,"state":"active","ping":122},{"user_id":329,"name":"LAN!!K^","steam_id":76561199229169363,"connected_time":1798000000000,"state":"active","ping":109},{"user_id":351,"name":"[chef] iron","steam_id":76561197970888616,"connected_time":201000000000,"state":"active","ping":90},{"user_id":330,"name":"EleventhGoose","steam_id":76561198912390211,"connected_time":1766000000000,"state":"active","ping":66},{"user_id":317,"name":"SpringIvan","steam_id":76561199133179509,"connected_time":2972000000000,"state":"active","ping":51},{"user_id":320,"name":"jayzak24","steam_id":76561198354267509,"connected_time":2261000000000,"state":"active","ping":53},{"user_id":337,"name":"SuperLuigi747","steam_id":76561198277398464,"connected_time":1635000000000,"state":"active","ping":67},{"user_id":350,"name":"Foobert","steam_id":76561199229577594,"connected_time":217000000000,"state":"active","ping":52},{"user_id":344,"name":"Harold","steam_id":76561198057317770,"connected_time":844000000000,"state":"active","ping":51},{"user_id":312,"name":"FI LO","steam_id":76561198976530881,"connected_time":3524000000000,"state":"active","ping":34},{"user_id":352,"name":"H0rr0rH0g","steam_id":76561199389376127,"connected_time":196000000000,"state":"active","ping":90},{"user_id":307,"name":"radino","steam_id":76561198003182237,"connected_time":3919000000000,"state":"active","ping":66},{"user_id":296,"name":"Sirphantom","steam_id":76561198125415432,"connected_time":4696000000000,"state":"active","ping":66},{"user_id":339,"name":"j3ku","steam_id":76561199091577314,"connected_time":1407000000000,"state":"active","ping":71},{"user_id":353,"name":"momus","steam_id":76561198966979196,"connected_time":191000000000,"state":"active","ping":52},{"user_id":354,"name":"Landlord","steam_id":76561198987913057,"connected_time":188000000000,"state":"active","ping":63},{"user_id":356,"name":"jacix3 [gay wolfgirl]{she/it}","steam_id":76561198205004165,"connected_time":163000000000,"state":"active","ping":85},{"user_id":326,"name":"spherewithahat","steam_id":76561199122192660,"connected_time":1843000000000,"state":"active","ping":119},{"user_id":342,"name":"Xenoleith","steam_id":76561198993250002,"connected_time":983000000000,"state":"active","ping":72},{"user_id":340,"name":"Kingofthem","steam_id":76561198866197308,"connected_time":1334000000000,"state":"active","ping":66},{"user_id":355,"name":"silver","steam_id":76561199020503397,"connected_time":172000000000,"state":"active","ping":52},{"user_id":341,"name":"i love bachira","steam_id":76561198260613699,"connected_time":1005000000000,"state":"active","ping":59}]},{"server_id":112,"name":"Uncletopia | Los Angeles | 2 | All Maps","name_short":"lax-2","host":"lax-1.us.uncletopia.com","port":27025,"enabled":true,"region":"us-west","cc":"us","latitude":33.94279,"longitude":-118.41004,"reserved":0,"last_update":"0001-01-01T00:00:00Z","name_a2s":"Uncletopia | Los Angeles | 2 | All Maps","protocol":17,"map":"pl_borneo","folder":"tf","game":"Team Fortress","app_id":440,"player_count":24,"max_players":24,"Bots":0,"server_type":"Dedicated","server_os":"Linux","password":true,"vac":true,"version":"7882260","steam_id":85568392924469992,"keywords":["nocrits","nodmgspread","payload","uncletopia"],"game_id":440,"stv_port":27026,"stv_name":"Uncletopia | Los Angeles | 2 | All Maps | STV","players":[{"user_id":263,"name":"DEQUAVIS","steam_id":76561198843060075,"connected_time":939000000000,"state":"active","ping":49},{"user_id":277,"name":"Prototype1642","steam_id":76561199304113982,"connected_time":456000000000,"state":"active","ping":78},{"user_id":256,"name":"Wendall555","steam_id":76561198985637603,"connected_time":1124000000000,"state":"active","ping":47},{"user_id":267,"name":"Radon","steam_id":76561198294035077,"connected_time":901000000000,"state":"active","ping":111},{"user_id":272,"name":"Bubblegum Bitch","steam_id":76561198043307965,"connected_time":709000000000,"state":"active","ping":61},{"user_id":261,"name":"DoubleX2000","steam_id":76561198164134387,"connected_time":977000000000,"state":"active","ping":85},{"user_id":280,"name":"luigineer tf2 (real)","steam_id":76561198864531992,"connected_time":53000000000,"state":"spawning","ping":81},{"user_id":275,"name":"JoySlip","steam_id":76561198269476149,"connected_time":537000000000,"state":"active","ping":48},{"user_id":257,"name":"Cave Dweller","steam_id":76561198374825685,"connected_time":1011000000000,"state":"active","ping":72},{"user_id":248,"name":"Amateur Glaswegian","steam_id":76561198030851956,"connected_time":2121000000000,"state":"active","ping":74},{"user_id":236,"name":"james may","steam_id":76561198043857339,"connected_time":2823000000000,"state":"active","ping":54},{"user_id":278,"name":"Breadsticks With Marinara","steam_id":76561199403337011,"connected_time":359000000000,"state":"active","ping":89},{"user_id":265,"name":"CHIKN","steam_id":76561198277792665,"connected_time":925000000000,"state":"active","ping":47},{"user_id":266,"name":"‚ñ≥","steam_id":76561198060642242,"connected_time":921000000000,"state":"active","ping":113},{"user_id":259,"name":"yummy","steam_id":76561198193457726,"connected_time":996000000000,"state":"active","ping":46},{"user_id":281,"name":"a chicken","steam_id":76561198313121580,"connected_time":22000000000,"state":"active","ping":57},{"user_id":232,"name":"Hashbrowncow","steam_id":76561198272021902,"connected_time":2938000000000,"state":"active","ping":52},{"user_id":268,"name":"cornealvase9152","steam_id":76561198851958868,"connected_time":893000000000,"state":"active","ping":51},{"user_id":233,"name":"Acto","steam_id":76561198043025164,"connected_time":2918000000000,"state":"active","ping":85},{"user_id":269,"name":"Mickmissi√≥n","steam_id":76561199133527421,"connected_time":892000000000,"state":"active","ping":64},{"user_id":270,"name":"wlfgng","steam_id":76561198316639499,"connected_time":859000000000,"state":"active","ping":50},{"user_id":276,"name":"ShadowKun","steam_id":76561199134735740,"connected_time":517000000000,"state":"active","ping":86},{"user_id":271,"name":"Young Sandwich","steam_id":76561198180908482,"connected_time":844000000000,"state":"active","ping":157},{"user_id":235,"name":"Floaty","steam_id":76561198100029503,"connected_time":2903000000000,"state":"active","ping":83}]},{"server_id":324,"name":"Uncletopia | Los Angeles | 3 | All Maps","name_short":"lax-3","host":"lax-1.us.uncletopia.com","port":27035,"enabled":true,"region":"us-west","cc":"us","latitude":33.94279,"longitude":-118.41004,"reserved":0,"last_update":"0001-01-01T00:00:00Z","name_a2s":"Uncletopia | Los Angeles | 3 | All Maps","protocol":17,"map":"pl_goldrush","folder":"tf","game":"Team Fortress","app_id":440,"player_count":24,"max_players":24,"Bots":0,"server_type":"Dedicated","server_os":"Linux","password":true,"vac":true,"version":"7882260","steam_id":85568392924510198,"keywords":["nocrits","nodmgspread","payload","uncletopia"],"game_id":440,"stv_port":27036,"stv_name":"Uncletopia | Los Angeles | 3 | All Maps | STV","players":[{"user_id":234,"name":"Rhutebeer","steam_id":76561198018302761,"connected_time":1334000000000,"state":"active","ping":114},{"user_id":225,"name":"Surfing Garchomp","steam_id":76561199107236884,"connected_time":1552000000000,"state":"active","ping":95},{"user_id":243,"name":"vvichael","steam_id":76561198238148528,"connected_time":781000000000,"state":"active","ping":117},{"user_id":237,"name":"Bounce","steam_id":76561198252177154,"connected_time":1032000000000,"state":"active","ping":91},{"user_id":255,"name":"merkury731","steam_id":76561198110565430,"connected_time":333000000000,"state":"active","ping":113},{"user_id":246,"name":"Orbinki","steam_id":76561198978589618,"connected_time":677000000000,"state":"active","ping":56},{"user_id":253,"name":"Koyota","steam_id":76561198069878114,"connected_time":426000000000,"state":"active","ping":70},{"user_id":240,"name":"Walla","steam_id":76561198103379757,"connected_time":900000000000,"state":"active","ping":95},{"user_id":247,"name":"Stiffy Magnum","steam_id":76561198000036722,"connected_time":675000000000,"state":"active","ping":96},{"user_id":227,"name":"Monkenoob","steam_id":76561198838761930,"connected_time":1524000000000,"state":"active","ping":110},{"user_id":258,"name":"TON 618","steam_id":76561198799230499,"connected_time":240000000000,"state":"active","ping":98},{"user_id":228,"name":"Grizzakk","steam_id":76561198115821923,"connected_time":1503000000000,"state":"active","ping":85},{"user_id":259,"name":"Buswolley","steam_id":76561197995205571,"connected_time":229000000000,"state":"active","ping":60},{"user_id":256,"name":"challen","steam_id":76561197961277967,"connected_time":313000000000,"state":"active","ping":76},{"user_id":233,"name":"w1ppy","steam_id":76561198324695896,"connected_time":1426000000000,"state":"active","ping":78},{"user_id":229,"name":"jooce","steam_id":76561198325093063,"connected_time":1495000000000,"state":"active","ping":86},{"user_id":221,"name":"DistantJragon","steam_id":76561198117563641,"connected_time":2289000000000,"state":"active","ping":100},{"user_id":260,"name":"scripy","steam_id":76561199267237541,"connected_time":149000000000,"state":"active","ping":132},{"user_id":250,"name":"Starfruit66","steam_id":76561198069917277,"connected_time":590000000000,"state":"active","ping":50},{"user_id":231,"name":"Sex Mobile","steam_id":76561198272085516,"connected_time":1483000000000,"state":"active","ping":105},{"user_id":251,"name":"Sovereign","steam_id":76561198223959572,"connected_time":564000000000,"state":"active","ping":91},{"user_id":218,"name":"Insignificant Hegemon","steam_id":76561198004355907,"connected_time":2401000000000,"state":"active","ping":129},{"user_id":194,"name":"demo gaming!","steam_id":76561198397708640,"connected_time":3697000000000,"state":"active","ping":31},{"user_id":191,"name":"Dooku","steam_id":76561198216958508,"connected_time":3778000000000,"state":"active","ping":53}]},{"server_id":25,"name":"Uncletopia | Los Angeles | 4 | Stopwatch Beta","name_short":"lax-4","host":"lax-1.us.uncletopia.com","port":27045,"enabled":true,"region":"us-west","cc":"us","latitude":33.94279,"longitude":-118.41004,"reserved":0,"last_update":"0001-01-01T00:00:00Z","name_a2s":"Uncletopia | Los Angeles | 4 | Stopwatch Beta","protocol":17,"map":"workshop/pl_barnblitz_pro7.ugc582280235","folder":"tf","game":"Team Fortress","app_id":440,"player_count":0,"max_players":24,"Bots":0,"server_type":"Dedicated","server_os":"Linux","password":true,"vac":true,"version":"7882260","steam_id":85568392924510199,"keywords":["nocrits","nodmgspread","payload","uncletopia"],"game_id":440,"stv_port":27046,"stv_name":"Uncletopia | Los Angeles | 4 | Stopwatch Beta | STV","players":null},{"server_id":11,"name":"Uncletopia | London | 1 | All Maps","name_short":"lon-1","host":"lon-1.uk.uncletopia.com","port":27015,"enabled":true,"region":"eu","cc":"gb","latitude":51.509865,"longitude":-0.118092,"reserved":0,"last_update":"0001-01-01T00:00:00Z","name_a2s":"Uncletopia | London | 1 | All Maps","protocol":17,"map":"plr_bananabay","folder":"tf","game":"Team Fortress","app_id":440,"player_count":19,"max_players":24,"Bots":0,"server_type":"Dedicated","server_os":"Linux","password":true,"vac":true,"version":"7882260","steam_id":85568392924367362,"keywords":["nocrits","nodmgspread","payload","uncletopia"],"game_id":440,"stv_port":27016,"stv_name":"Uncletopia | London | 1 | All Maps | STV","players":[{"user_id":494,"name":"Hive","steam_id":76561199480966681,"connected_time":1461000000000,"state":"active","ping":73},{"user_id":503,"name":"doopsuiker","steam_id":76561198025916703,"connected_time":760000000000,"state":"active","ping":87},{"user_id":517,"name":"Skinny101","steam_id":76561197985599360,"connected_time":13000000000,"state":"spawning","ping":40},{"user_id":507,"name":"beefus","steam_id":76561198056990481,"connected_time":553000000000,"state":"active","ping":69},{"user_id":515,"name":"Providence","steam_id":76561198003920270,"connected_time":183000000000,"state":"active","ping":70},{"user_id":501,"name":"hoovy gaming","steam_id":76561199230153761,"connected_time":855000000000,"state":"active","ping":61},{"user_id":455,"name":"teddy","steam_id":76561198007436837,"connected_time":4360000000000,"state":"active","ping":38},{"user_id":488,"name":"JOHN GAMING (#1 gunspy)","steam_id":76561199085822219,"connected_time":2007000000000,"state":"active","ping":90},{"user_id":509,"name":"Ed g :lD","steam_id":76561198061665267,"connected_time":476000000000,"state":"active","ping":39},{"user_id":511,"name":"fieldbox","steam_id":76561198101893112,"connected_time":423000000000,"state":"active","ping":47},{"user_id":493,"name":"Cirox","steam_id":76561198383142404,"connected_time":1594000000000,"state":"active","ping":85},{"user_id":401,"name":"tea girl","steam_id":76561198068054530,"connected_time":8061000000000,"state":"active","ping":85},{"user_id":485,"name":"Purps","steam_id":76561198053886680,"connected_time":2403000000000,"state":"active","ping":41},{"user_id":497,"name":"negro chui defoncer","steam_id":76561198031325797,"connected_time":1073000000000,"state":"active","ping":45},{"user_id":412,"name":"Stigurna","steam_id":76561198063906822,"connected_time":7086000000000,"state":"active","ping":94},{"user_id":500,"name":"OMGEngineer","steam_id":76561198025807151,"connected_time":877000000000,"state":"active","ping":89},{"user_id":484,"name":"Aaron","steam_id":76561197990046953,"connected_time":2430000000000,"state":"active","ping":43},{"user_id":482,"name":"Themoonisacheese","steam_id":76561198025594173,"connected_time":2650000000000,"state":"active","ping":44},{"user_id":478,"name":"Hoff","steam_id":76561198026537318,"connected_time":2902000000000,"state":"active","ping":36}]},{"server_id":114,"name":"Uncletopia | London | 2 | All Maps","name_short":"lon-2","host":"lon-1.uk.uncletopia.com","port":27025,"enabled":true,"region":"eu","cc":"gb","latitude":51.509865,"longitude":-0.118092,"reserved":0,"last_update":"0001-01-01T00:00:00Z","name_a2s":"Uncletopia | London | 2 | All Maps","protocol":17,"map":"pl_badwater","folder":"tf","game":"Team Fortress","app_id":440,"player_count":24,"max_players":24,"Bots":0,"server_type":"Dedicated","server_os":"Linux","password":true,"vac":true,"version":"7882260","steam_id":85568392924470941,"keywords":["nocrits","nodmgspread","payload","uncletopia"],"game_id":440,"stv_port":27026,"stv_name":"Uncletopia | London | 2 | All Maps | STV","players":[{"user_id":852,"name":"Frank","steam_id":76561198086672774,"connected_time":6658000000000,"state":"active","ping":51},{"user_id":892,"name":"sora :3","steam_id":76561198096547662,"connected_time":4113000000000,"state":"active","ping":49},{"user_id":927,"name":"MEDIC GAMING BOI","steam_id":76561198303608388,"connected_time":475000000000,"state":"active","ping":134},{"user_id":915,"name":"Bill Carr","steam_id":76561198110033943,"connected_time":1103000000000,"state":"active","ping":34},{"user_id":894,"name":"dn4k","steam_id":76561199221755690,"connected_time":3748000000000,"state":"active","ping":88},{"user_id":907,"name":"boywife","steam_id":76561198397931520,"connected_time":2299000000000,"state":"active","ping":73},{"user_id":925,"name":"ToTenLis","steam_id":76561198168581334,"connected_time":632000000000,"state":"active","ping":96},{"user_id":900,"name":"REN","steam_id":76561198000596385,"connected_time":2798000000000,"state":"active","ping":86},{"user_id":918,"name":"shooer! :D \u003e\u003c(((¬∫\u003e","steam_id":76561198110531281,"connected_time":952000000000,"state":"active","ping":72},{"user_id":859,"name":"Mr_Pulse_","steam_id":76561198095001602,"connected_time":6282000000000,"state":"active","ping":107},{"user_id":919,"name":"_NeonDead_","steam_id":76561198236984392,"connected_time":911000000000,"state":"active","ping":74},{"user_id":930,"name":"Suspicious Viktor","steam_id":76561198136496249,"connected_time":180000000000,"state":"active","ping":64},{"user_id":929,"name":"Ecy","steam_id":76561198110756682,"connected_time":214000000000,"state":"active","ping":45},{"user_id":914,"name":"cinny","steam_id":76561198832112629,"connected_time":1134000000000,"state":"active","ping":83},{"user_id":920,"name":"dd","steam_id":76561198257836694,"connected_time":905000000000,"state":"active","ping":45},{"user_id":928,"name":"vehicle guy","steam_id":76561198860065033,"connected_time":411000000000,"state":"active","ping":51},{"user_id":876,"name":"Stayprone","steam_id":76561197963491785,"connected_time":5358000000000,"state":"active","ping":60},{"user_id":898,"name":"Volcyy","steam_id":76561198063979124,"connected_time":3335000000000,"state":"active","ping":47},{"user_id":921,"name":"KeTlEr","steam_id":76561198100957443,"connected_time":901000000000,"state":"active","ping":76},{"user_id":904,"name":"eon","steam_id":76561197971360276,"connected_time":2344000000000,"state":"active","ping":75},{"user_id":889,"name":"Dirty Joe","steam_id":76561198142418870,"connected_time":4503000000000,"state":"active","ping":45},{"user_id":911,"name":"beebo","steam_id":76561199120277007,"connected_time":1703000000000,"state":"active","ping":70},{"user_id":913,"name":"xiiski","steam_id":76561198152387747,"connected_time":1289000000000,"state":"active","ping":99},{"user_id":924,"name":"OFF","steam_id":76561199066495477,"connected_time":839000000000,"state":"active","ping":75}]},{"server_id":320,"name":"Uncletopia | London | 3 | All Maps","name_short":"lon-3","host":"lon-1.uk.uncletopia.com","port":27035,"enabled":true,"region":"eu","cc":"gb","latitude":51.509865,"longitude":-0.118092,"reserved":0,"last_update":"0001-01-01T00:00:00Z","name_a2s":"Uncletopia | London | 3 | All Maps","protocol":17,"map":"pl_frontier_final","folder":"tf","game":"Team Fortress","app_id":440,"player_count":24,"max_players":24,"Bots":0,"server_type":"Dedicated","server_os":"Linux","password":true,"vac":true,"version":"7882260","steam_id":85568392924510192,"keywords":["nocrits","nodmgspread","payload","uncletopia"],"game_id":440,"stv_port":27036,"stv_name":"Uncletopia | London | 3 | All Maps | STV","players":[{"user_id":668,"name":"Oblivious","steam_id":76561198058570705,"connected_time":3912000000000,"state":"active","ping":79},{"user_id":723,"name":"Mortiis","steam_id":76561198000795072,"connected_time":476000000000,"state":"active","ping":62},{"user_id":712,"name":"FilipeLuk","steam_id":76561198150675438,"connected_time":2306000000000,"state":"active","ping":70},{"user_id":704,"name":"Bodeine Brazy","steam_id":76561198122181176,"connected_time":2515000000000,"state":"active","ping":45},{"user_id":702,"name":"Lario","steam_id":76561199194109193,"connected_time":2534000000000,"state":"active","ping":58},{"user_id":713,"name":"‚ô• trixy ‚ô•","steam_id":76561199474154775,"connected_time":2296000000000,"state":"active","ping":56},{"user_id":672,"name":"Creature from the piss drawer","steam_id":76561198055949151,"connected_time":3803000000000,"state":"active","ping":44},{"user_id":714,"name":"St√ºmpy","steam_id":76561198255904077,"connected_time":2062000000000,"state":"active","ping":68},{"user_id":707,"name":"ToxyTero","steam_id":76561198413359724,"connected_time":2452000000000,"state":"active","ping":81},{"user_id":724,"name":"phantASSm","steam_id":76561199480942903,"connected_time":392000000000,"state":"active","ping":73},{"user_id":696,"name":"WATANG!","steam_id":76561198040478926,"connected_time":2719000000000,"state":"active","ping":74},{"user_id":633,"name":"svantezch","steam_id":76561198373831657,"connected_time":4670000000000,"state":"active","ping":75},{"user_id":720,"name":"(wm) Das Fleisch","steam_id":76561198001250715,"connected_time":754000000000,"state":"active","ping":59},{"user_id":697,"name":"Mommy (Official)","steam_id":76561198060638325,"connected_time":2703000000000,"state":"active","ping":47},{"user_id":728,"name":"I am NOT in your walls...","steam_id":76561198347336086,"connected_time":129000000000,"state":"active","ping":134},{"user_id":717,"name":"Meadawn","steam_id":76561198069136500,"connected_time":1129000000000,"state":"active","ping":66},{"user_id":721,"name":"CumbustiblePunda","steam_id":76561197974274677,"connected_time":682000000000,"state":"active","ping":60},{"user_id":563,"name":"Voks_","steam_id":76561198159687785,"connected_time":7618000000000,"state":"active","ping":75},{"user_id":710,"name":"arcSolver","steam_id":76561198212013944,"connected_time":2385000000000,"state":"active","ping":56},{"user_id":576,"name":"ufomaster1111111","steam_id":76561198837347666,"connected_time":6398000000000,"state":"active","ping":65},{"user_id":698,"name":"Mommy (Most Officialest)","steam_id":76561198208740557,"connected_time":2689000000000,"state":"active","ping":62},{"user_id":727,"name":"DragonLord","steam_id":76561198074279225,"connected_time":166000000000,"state":"active","ping":49},{"user_id":635,"name":"Sheikh Mahmood Shaaban","steam_id":76561198985288329,"connected_time":4637000000000,"state":"active","ping":51},{"user_id":726,"name":"Woman (Real)","steam_id":76561199151823932,"connected_time":198000000000,"state":"active","ping":88}]},{"server_id":321,"name":"Uncletopia | London | 4 | All Maps","name_short":"lon-4","host":"lon-1.uk.uncletopia.com","port":27045,"enabled":true,"region":"eu","cc":"gb","latitude":51.509865,"longitude":-0.118092,"reserved":0,"last_update":"0001-01-01T00:00:00Z","name_a2s":"Uncletopia | London | 4 | All Maps","protocol":17,"map":"pl_upward","folder":"tf","game":"Team Fortress","app_id":440,"player_count":23,"max_players":24,"Bots":0,"server_type":"Dedicated","server_os":"Linux","password":true,"vac":true,"version":"7882260","steam_id":85568392924510193,"keywords":["nocrits","nodmgspread","payload","uncletopia"],"game_id":440,"stv_port":27046,"stv_name":"Uncletopia | London | 4 | All Maps | STV","players":[{"user_id":436,"name":"Big They/Them is watching YOU","steam_id":76561198307598168,"connected_time":2894000000000,"state":"active","ping":61},{"user_id":462,"name":"rummy","steam_id":76561197997573379,"connected_time":1694000000000,"state":"active","ping":42},{"user_id":499,"name":"Mi Manchi","steam_id":76561198171573129,"connected_time":308000000000,"state":"active","ping":60},{"user_id":489,"name":"Bajas","steam_id":76561198179339326,"connected_time":679000000000,"state":"active","ping":76},{"user_id":500,"name":"Juiceydough","steam_id":76561197997323419,"connected_time":220000000000,"state":"active","ping":85},{"user_id":469,"name":"Glenn Quagmire","steam_id":76561199348527880,"connected_time":1289000000000,"state":"active","ping":100},{"user_id":491,"name":"owlsie","steam_id":76561198094883280,"connected_time":546000000000,"state":"active","ping":64},{"user_id":480,"name":"Charles Darwin","steam_id":76561197973496139,"connected_time":1057000000000,"state":"active","ping":68},{"user_id":481,"name":"Dr Ludwig","steam_id":76561198426522902,"connected_time":1046000000000,"state":"active","ping":54},{"user_id":503,"name":"ShadowHawky","steam_id":76561198163775303,"connected_time":127000000000,"state":"active","ping":127},{"user_id":443,"name":"Bartis","steam_id":76561198119512221,"connected_time":2646000000000,"state":"active","ping":145},{"user_id":501,"name":"pabbott123110","steam_id":76561199231739796,"connected_time":162000000000,"state":"active","ping":158},{"user_id":472,"name":"Sta≈Ñczyk","steam_id":76561197998906563,"connected_time":1274000000000,"state":"active","ping":44},{"user_id":448,"name":"Ixsus\u003c3","steam_id":76561198094756869,"connected_time":2611000000000,"state":"active","ping":63},{"user_id":474,"name":"Ross from F.R.I.E.N.D.S.","steam_id":76561198008511665,"connected_time":1261000000000,"state":"active","ping":52},{"user_id":504,"name":"Thobias18","steam_id":76561198232561380,"connected_time":58000000000,"state":"active","ping":77},{"user_id":466,"name":"Boil em mash em","steam_id":76561198026508026,"connected_time":1629000000000,"state":"active","ping":58},{"user_id":505,"name":"Pipp Petals2014","steam_id":76561198147668373,"connected_time":58000000000,"state":"active","ping":68},{"user_id":498,"name":"Milk","steam_id":76561198125876588,"connected_time":353000000000,"state":"active","ping":45},{"user_id":422,"name":"The Subway Scientist","steam_id":76561198193757646,"connected_time":4444000000000,"state":"active","ping":46},{"user_id":452,"name":"Gordon","steam_id":76561198303652059,"connected_time":2567000000000,"state":"active","ping":87},{"user_id":453,"name":"Jaques Tits","steam_id":76561198073001219,"connected_time":2553000000000,"state":"active","ping":116},{"user_id":428,"name":"bob ross","steam_id":76561198344588858,"connected_time":3624000000000,"state":"active","ping":114}]},{"server_id":21,"name":"Uncletopia | London | 5 | All Maps","name_short":"lon-5","host":"lon-1.uk.uncletopia.com","port":27055,"enabled":true,"region":"eu","cc":"gb","latitude":51.509865,"longitude":-0.118092,"reserved":0,"last_update":"0001-01-01T00:00:00Z","name_a2s":"Uncletopia | London | 5 | All Maps","protocol":17,"map":"pl_barnblitz","folder":"tf","game":"Team Fortress","app_id":440,"player_count":23,"max_players":24,"Bots":0,"server_type":"Dedicated","server_os":"Linux","password":true,"vac":true,"version":"7882260","steam_id":85568392924742829,"keywords":["nocrits","nodmgspread","payload","uncletopia"],"game_id":440,"stv_port":27056,"stv_name":"Uncletopia | London | 5 | All Maps | STV","players":[{"user_id":703,"name":"Lyncurion","steam_id":76561199260022725,"connected_time":4898000000000,"state":"active","ping":84},{"user_id":647,"name":"eeeeee","steam_id":76561198017786875,"connected_time":8238000000000,"state":"active","ping":64},{"user_id":733,"name":"Joel!","steam_id":76561198155422742,"connected_time":1202000000000,"state":"active","ping":63},{"user_id":653,"name":"Carrotcracker","steam_id":76561198034862396,"connected_time":8148000000000,"state":"active","ping":82},{"user_id":710,"name":"TheBeardedM1G","steam_id":76561198040208946,"connected_time":4500000000000,"state":"active","ping":45},{"user_id":754,"name":"Circular","steam_id":76561198001536710,"connected_time":338000000000,"state":"active","ping":45},{"user_id":705,"name":"Penis Contortionist","steam_id":76561198073663784,"connected_time":4775000000000,"state":"active","ping":33},{"user_id":741,"name":"3L","steam_id":76561198007208996,"connected_time":937000000000,"state":"active","ping":51},{"user_id":636,"name":"AftiksPL","steam_id":76561198875182686,"connected_time":9140000000000,"state":"active","ping":101},{"user_id":746,"name":"astigmatic","steam_id":76561199103959197,"connected_time":782000000000,"state":"active","ping":98},{"user_id":756,"name":"tracey stacks","steam_id":76561198885581544,"connected_time":132000000000,"state":"active","ping":77},{"user_id":748,"name":"STiNGHAN","steam_id":76561198023989090,"connected_time":704000000000,"state":"active","ping":92},{"user_id":708,"name":"nyanezt","steam_id":76561198253734265,"connected_time":4599000000000,"state":"active","ping":95},{"user_id":729,"name":"Raine","steam_id":76561198098860903,"connected_time":2282000000000,"state":"active","ping":59},{"user_id":753,"name":"BELIEVE THE MACHINE","steam_id":76561198027033926,"connected_time":409000000000,"state":"active","ping":54},{"user_id":742,"name":"Cosmetic brain","steam_id":76561198055936410,"connected_time":932000000000,"state":"active","ping":82},{"user_id":732,"name":"Qwertuss","steam_id":76561198026305366,"connected_time":1789000000000,"state":"active","ping":62},{"user_id":749,"name":"Lennox","steam_id":76561198069063554,"connected_time":666000000000,"state":"active","ping":60},{"user_id":743,"name":"Bambi","steam_id":76561198166972711,"connected_time":914000000000,"state":"active","ping":50},{"user_id":745,"name":"Flint","steam_id":76561197995920776,"connected_time":869000000000,"state":"active","ping":45},{"user_id":751,"name":"Bread","steam_id":76561198145232617,"connected_time":587000000000,"state":"active","ping":45},{"user_id":750,"name":"PlacebO.-","steam_id":76561197973577950,"connected_time":640000000000,"state":"active","ping":65},{"user_id":752,"name":"Vytuzas","steam_id":76561198012868436,"connected_time":458000000000,"state":"active","ping":72}]},{"server_id":22,"name":"Uncletopia | London | 6 | All Maps","name_short":"lon-6","host":"lon-1.uk.uncletopia.com","port":27065,"enabled":true,"region":"eu","cc":"gb","latitude":51.509865,"longitude":-0.118092,"reserved":0,"last_update":"0001-01-01T00:00:00Z","name_a2s":"Uncletopia | London | 6 | All Maps","protocol":17,"map":"pl_upward","folder":"tf","game":"Team Fortress","app_id":440,"player_count":25,"max_players":24,"Bots":0,"server_type":"Dedicated","server_os":"Linux","password":true,"vac":true,"version":"7882260","steam_id":85568392924742830,"keywords":["nocrits","nodmgspread","payload","uncletopia"],"game_id":440,"stv_port":27066,"stv_name":"Uncletopia | London | 6 | All Maps | STV","players":[{"user_id":740,"name":"xKralTR","steam_id":76561198810670279,"connected_time":1934000000000,"state":"active","ping":131},{"user_id":757,"name":"Mr.O #deletesniper","steam_id":76561198039567498,"connected_time":1169000000000,"state":"active","ping":51},{"user_id":758,"name":"holykyckling","steam_id":76561198040661615,"connected_time":1159000000000,"state":"active","ping":76},{"user_id":745,"name":"volkiano","steam_id":76561198319802031,"connected_time":1690000000000,"state":"active","ping":55},{"user_id":746,"name":"laser","steam_id":76561198036030697,"connected_time":1652000000000,"state":"active","ping":72},{"user_id":789,"name":"Œ© Original Œ©","steam_id":76561198048038191,"connected_time":902000000000,"state":"active","ping":70},{"user_id":721,"name":"koira","steam_id":76561197996199669,"connected_time":2194000000000,"state":"active","ping":90},{"user_id":728,"name":"meriones","steam_id":76561198034234373,"connected_time":2137000000000,"state":"active","ping":40},{"user_id":722,"name":"cropping","steam_id":76561198026586456,"connected_time":2187000000000,"state":"active","ping":54},{"user_id":806,"name":"csnipery","steam_id":76561199435280050,"connected_time":45000000000,"state":"active","ping":67},{"user_id":723,"name":"Rizz","steam_id":76561198192135953,"connected_time":2180000000000,"state":"active","ping":82},{"user_id":805,"name":"‚ô•ImWithMilk","steam_id":76561198269577569,"connected_time":130000000000,"state":"active","ping":52},{"user_id":748,"name":"Kiif","steam_id":76561198175271494,"connected_time":1563000000000,"state":"active","ping":89},{"user_id":725,"name":"Tea","steam_id":76561198061580505,"connected_time":2160000000000,"state":"active","ping":55},{"user_id":749,"name":"Bonca","steam_id":76561198137503531,"connected_time":1536000000000,"state":"active","ping":75},{"user_id":731,"name":"Jeetach","steam_id":76561199062437546,"connected_time":2110000000000,"state":"active","ping":58},{"user_id":751,"name":"Davey","steam_id":76561198256879107,"connected_time":1511000000000,"state":"active","ping":73},{"user_id":689,"name":"MILKY","steam_id":76561199261620682,"connected_time":4153000000000,"state":"active","ping":66},{"user_id":742,"name":"d","steam_id":76561198042710298,"connected_time":1806000000000,"state":"active","ping":45},{"user_id":733,"name":"fregaropa","steam_id":76561198150806166,"connected_time":2072000000000,"state":"active","ping":84},{"user_id":808,"name":"Hyppy ja liipasin pohjaan :D","steam_id":76561198080669698,"connected_time":16000000000,"state":"spawning","ping":115},{"user_id":744,"name":"lark","steam_id":76561198091724522,"connected_time":1709000000000,"state":"active","ping":59},{"user_id":752,"name":"Steen","steam_id":76561198122992510,"connected_time":1479000000000,"state":"active","ping":45},{"user_id":764,"name":"klaus","steam_id":76561198150394201,"connected_time":1096000000000,"state":"active","ping":87},{"user_id":809,"name":"lofimonkeyjazz","steam_id":76561198117059662,"connected_time":12000000000,"state":"spawning","ping":91}]},{"server_id":40,"name":"Uncletopia | London | 7 | No Payload","name_short":"lon-7","host":"lon-1.uk.uncletopia.com","port":27075,"enabled":true,"region":"eu","cc":"gb","latitude":51.509865,"longitude":-0.118092,"reserved":0,"last_update":"0001-01-01T00:00:00Z","name_a2s":"Uncletopia | London | 7 | No Payload","protocol":17,"map":"cp_5gorge","folder":"tf","game":"Team Fortress","app_id":440,"player_count":9,"max_players":24,"Bots":0,"server_type":"Dedicated","server_os":"Linux","password":true,"vac":true,"version":"7882260","steam_id":85568392924964314,"keywords":["cp","nocrits","nodmgspread","uncletopia"],"game_id":440,"stv_port":27076,"stv_name":"Uncletopia | London | 7 | No Payload | STV","players":[{"user_id":550,"name":"GREEP","steam_id":76561199443547191,"connected_time":2014000000000,"state":"active","ping":50},{"user_id":564,"name":"Concorde","steam_id":76561199141714627,"connected_time":575000000000,"state":"active","ping":69},{"user_id":563,"name":"yes","steam_id":76561197977461320,"connected_time":772000000000,"state":"active","ping":67},{"user_id":497,"name":"Bobo","steam_id":76561198052308399,"connected_time":6368000000000,"state":"active","ping":68},{"user_id":552,"name":"MagicA","steam_id":76561198454494204,"connected_time":1959000000000,"state":"active","ping":58},{"user_id":561,"name":"Falling Apples","steam_id":76561198122762346,"connected_time":1114000000000,"state":"active","ping":49},{"user_id":398,"name":"ThatGamingKiwi","steam_id":76561199170522237,"connected_time":15326000000000,"state":"active","ping":143},{"user_id":352,"name":"M2rtRa","steam_id":76561198111036466,"connected_time":17396000000000,"state":"active","ping":72},{"user_id":535,"name":"Valfezant","steam_id":76561199063983797,"connected_time":3766000000000,"state":"active","ping":79}]},{"server_id":41,"name":"Uncletopia | London | 8 | Community","name_short":"lon-8","host":"lon-1.uk.uncletopia.com","port":27085,"enabled":true,"region":"eu","cc":"gb","latitude":51.509865,"longitude":-0.118092,"reserved":0,"last_update":"0001-01-01T00:00:00Z","name_a2s":"Uncletopia | London | 8 | Community","protocol":17,"map":"workshop/koth_trenchfoot_b1a.ugc731436616","folder":"tf","game":"Team Fortress","app_id":440,"player_count":0,"max_players":24,"Bots":0,"server_type":"Dedicated","server_os":"Linux","password":true,"vac":true,"version":"7882260","steam_id":85568392924964315,"keywords":["cp","nocrits","nodmgspread","uncletopia"],"game_id":440,"stv_port":27086,"stv_name":"Uncletopia | London | 8 | Community | STV","players":null},{"server_id":300,"name":"Uncletopia | Montr√©al | 1 | All Maps","name_short":"mtl-1","host":"mtl-1.ca.uncletopia.com","port":27015,"enabled":true,"region":"us-east","cc":"ca","latitude":45.50889,"longitude":-73.56167,"reserved":0,"last_update":"0001-01-01T00:00:00Z","name_a2s":"Uncletopia | Montr√©al | 1 | All Maps","protocol":17,"map":"pl_thundermountain","folder":"tf","game":"Team Fortress","app_id":440,"player_count":24,"max_players":24,"Bots":0,"server_type":"Dedicated","server_os":"Linux","password":true,"vac":true,"version":"7882260","steam_id":85568392924500087,"keywords":["nocrits","nodmgspread","payload","uncletopia"],"game_id":440,"stv_port":27016,"stv_name":"Uncletopia | Montr√©al | 1 | All Maps | STV","players":[{"user_id":140,"name":"CrazyKermitRubes","steam_id":76561198009065204,"connected_time":923000000000,"state":"active","ping":66},{"user_id":150,"name":"Atlas (Skylar)","steam_id":76561198041531774,"connected_time":2000000000,"state":"spawning","ping":52},{"user_id":145,"name":"noel","steam_id":76561198128280883,"connected_time":414000000000,"state":"active","ping":60},{"user_id":137,"name":"BluCoffee","steam_id":76561198214995967,"connected_time":1105000000000,"state":"active","ping":42},{"user_id":95,"name":"TheGuyWhoPlays","steam_id":76561198277363002,"connected_time":5333000000000,"state":"active","ping":59},{"user_id":99,"name":"IAmAProfesonal","steam_id":76561199171858953,"connected_time":4565000000000,"state":"active","ping":44},{"user_id":149,"name":"Fuzzy Toast","steam_id":76561198028067781,"connected_time":98000000000,"state":"active","ping":50},{"user_id":144,"name":"I Like Cheese","steam_id":76561198006265659,"connected_time":598000000000,"state":"active","ping":64},{"user_id":123,"name":"ApertureCity","steam_id":76561198004153607,"connected_time":1993000000000,"state":"active","ping":84},{"user_id":147,"name":"RyInc","steam_id":76561198874261643,"connected_time":177000000000,"state":"active","ping":40},{"user_id":80,"name":"Cat in Your Backyard","steam_id":76561197979078330,"connected_time":6360000000000,"state":"active","ping":56},{"user_id":132,"name":"Sea","steam_id":76561198243583152,"connected_time":1533000000000,"state":"active","ping":83},{"user_id":88,"name":"Sodemo","steam_id":76561198074987146,"connected_time":5903000000000,"state":"active","ping":69},{"user_id":138,"name":"Cheesemelt","steam_id":76561198008221847,"connected_time":1092000000000,"state":"active","ping":40},{"user_id":148,"name":"alex","steam_id":76561198095203229,"connected_time":169000000000,"state":"active","ping":60},{"user_id":141,"name":"BoneHeadTRex","steam_id":76561199438411250,"connected_time":919000000000,"state":"active","ping":110},{"user_id":84,"name":"HOOPLA","steam_id":76561198993451858,"connected_time":6278000000000,"state":"active","ping":61},{"user_id":49,"name":"Blueberry The Fox","steam_id":76561198311460784,"connected_time":8642000000000,"state":"active","ping":72},{"user_id":53,"name":"Viriditaz","steam_id":76561198255457461,"connected_time":8512000000000,"state":"active","ping":68},{"user_id":139,"name":"Erik The Guy","steam_id":76561199105401037,"connected_time":997000000000,"state":"active","ping":71},{"user_id":120,"name":"Gamba","steam_id":76561198069264650,"connected_time":2860000000000,"state":"active","ping":74},{"user_id":135,"name":"DagyDin","steam_id":76561199212257554,"connected_time":1454000000000,"state":"active","ping":82},{"user_id":142,"name":"lesio","steam_id":76561198064249174,"connected_time":836000000000,"state":"active","ping":80},{"user_id":143,"name":"FunTimeDaisy01","steam_id":76561198448258755,"connected_time":822000000000,"state":"active","ping":81}]},{"server_id":301,"name":"Uncletopia | Montr√©al | 2 | All Maps","name_short":"mtl-2","host":"mtl-1.ca.uncletopia.com","port":27025,"enabled":true,"region":"us-east","cc":"ca","latitude":45.50889,"longitude":-73.56167,"reserved":0,"last_update":"0001-01-01T00:00:00Z","name_a2s":"Uncletopia | Montr√©al | 2 | All Maps","protocol":17,"map":"cp_gorge","folder":"tf","game":"Team Fortress","app_id":440,"player_count":18,"max_players":24,"Bots":0,"server_type":"Dedicated","server_os":"Linux","password":true,"vac":true,"version":"7882260","steam_id":85568392924500088,"keywords":["cp","nocrits","nodmgspread","uncletopia"],"game_id":440,"stv_port":27026,"stv_name":"Uncletopia | Montr√©al | 2 | All Maps | STV","players":[{"user_id":4,"name":"comet","steam_id":76561198149217841,"connected_time":6663000000000,"state":"active","ping":110},{"user_id":5,"name":"Kirb","steam_id":76561198042133789,"connected_time":6618000000000,"state":"active","ping":66},{"user_id":6,"name":"bARWARS","steam_id":76561198179873103,"connected_time":6570000000000,"state":"active","ping":145},{"user_id":7,"name":"Nr","steam_id":76561198156798850,"connected_time":6458000000000,"state":"active","ping":79},{"user_id":69,"name":"DiegoHgamer YT","steam_id":76561199177674710,"connected_time":62000000000,"state":"active","ping":115},{"user_id":68,"name":"Lesbian Chungus","steam_id":76561198055964295,"connected_time":314000000000,"state":"active","ping":49},{"user_id":15,"name":"Fashion","steam_id":76561198056788026,"connected_time":3401000000000,"state":"active","ping":70},{"user_id":16,"name":"PizzariaDelPepperino","steam_id":76561198107925910,"connected_time":3237000000000,"state":"active","ping":142},{"user_id":54,"name":"Bats","steam_id":76561198098784424,"connected_time":931000000000,"state":"active","ping":64},{"user_id":55,"name":"Frank the Tank","steam_id":76561198014574925,"connected_time":894000000000,"state":"active","ping":72},{"user_id":56,"name":"Matt","steam_id":76561198008108521,"connected_time":886000000000,"state":"active","ping":60},{"user_id":57,"name":"motherfucker 2.0","steam_id":76561198141189209,"connected_time":870000000000,"state":"active","ping":71},{"user_id":25,"name":"Streamline","steam_id":76561198031098638,"connected_time":2787000000000,"state":"active","ping":104},{"user_id":58,"name":"Diarrhea Gaming","steam_id":76561198090589784,"connected_time":839000000000,"state":"active","ping":77},{"user_id":60,"name":"oph","steam_id":76561198130182991,"connected_time":791000000000,"state":"active","ping":70},{"user_id":44,"name":"Cooldude95","steam_id":76561198881847928,"connected_time":1910000000000,"state":"active","ping":79},{"user_id":62,"name":"jolo","steam_id":76561198042831480,"connected_time":741000000000,"state":"active","ping":62},{"user_id":63,"name":"Bread Zoo","steam_id":76561198013732450,"connected_time":716000000000,"state":"active","ping":73}]},{"server_id":302,"name":"Uncletopia | Montr√©al | 3 | All Maps","name_short":"mtl-3","host":"mtl-1.ca.uncletopia.com","port":27035,"enabled":true,"region":"us-east","cc":"ca","latitude":45.50889,"longitude":-73.56167,"reserved":0,"last_update":"0001-01-01T00:00:00Z","name_a2s":"Uncletopia | Montr√©al | 3 | All Maps","protocol":17,"map":"pl_barnblitz","folder":"tf","game":"Team Fortress","app_id":440,"player_count":0,"max_players":24,"Bots":0,"server_type":"Dedicated","server_os":"Linux","password":true,"vac":true,"version":"7882260","steam_id":85568392924500089,"keywords":["nocrits","nodmgspread","payload","uncletopia"],"game_id":440,"stv_port":27036,"stv_name":"Uncletopia | Montr√©al | 3 | All Maps | STV","players":null},{"server_id":303,"name":"Uncletopia | Montr√©al | 4 | No Payload","name_short":"mtl-4","host":"mtl-1.ca.uncletopia.com","port":27045,"enabled":true,"region":"us-east","cc":"ca","latitude":45.50889,"longitude":-73.56167,"reserved":0,"last_update":"0001-01-01T00:00:00Z","name_a2s":"Uncletopia | Montr√©al | 4 | No Payload","protocol":17,"map":"koth_harvest_final","folder":"tf","game":"Team Fortress","app_id":440,"player_count":0,"max_players":24,"Bots":0,"server_type":"Dedicated","server_os":"Linux","password":true,"vac":true,"version":"7882260","steam_id":85568392924500090,"keywords":["cp","nocrits","nodmgspread","uncletopia"],"game_id":440,"stv_port":27046,"stv_name":"Uncletopia | Montr√©al | 4 | No Payload | STV","players":null},{"server_id":13,"name":"Uncletopia | New York City | 1 | All Maps","name_short":"nyc-1","host":"nyc-1.us.uncletopia.com","port":27015,"enabled":true,"region":"us-east","cc":"us","latitude":40.73061,"longitude":-73.93524,"reserved":0,"last_update":"0001-01-01T00:00:00Z","name_a2s":"Uncletopia | New York City | 1 | All Maps","protocol":17,"map":"cp_process_final","folder":"tf","game":"Team Fortress","app_id":440,"player_count":24,"max_players":24,"Bots":0,"server_type":"Dedicated","server_os":"Linux","password":true,"vac":true,"version":"7882260","steam_id":85568392924469993,"keywords":["cp","nocrits","nodmgspread","uncletopia"],"game_id":440,"stv_port":27016,"stv_name":"Uncletopia | New York City | 1 | All Maps | STV","players":[{"user_id":441,"name":"Zetelica","steam_id":76561199005527389,"connected_time":326000000000,"state":"active","ping":139},{"user_id":439,"name":"darrenrichardson.ohva","steam_id":76561198427938861,"connected_time":376000000000,"state":"active","ping":79},{"user_id":414,"name":"carrot cake","steam_id":76561198055174915,"connected_time":1670000000000,"state":"active","ping":75},{"user_id":429,"name":"Juan Pablo Gonzalez 2023","steam_id":76561199197961413,"connected_time":762000000000,"state":"active","ping":39},{"user_id":426,"name":"The Crungo","steam_id":76561199141492981,"connected_time":822000000000,"state":"active","ping":40},{"user_id":444,"name":"LukeLeal","steam_id":76561198049822995,"connected_time":143000000000,"state":"active","ping":153},{"user_id":430,"name":"Muffin","steam_id":76561199156302434,"connected_time":611000000000,"state":"active","ping":64},{"user_id":431,"name":"Benis Gonzalez","steam_id":76561198799391259,"connected_time":583000000000,"state":"active","ping":135},{"user_id":432,"name":"Sgt. Satire","steam_id":76561198104193483,"connected_time":572000000000,"state":"active","ping":136},{"user_id":443,"name":"HowdyYall","steam_id":76561199013768033,"connected_time":165000000000,"state":"active","ping":73},{"user_id":422,"name":"Caustic","steam_id":76561198004802198,"connected_time":1228000000000,"state":"active","ping":45},{"user_id":376,"name":"GanZ","steam_id":76561199378883538,"connected_time":6037000000000,"state":"active","ping":68},{"user_id":433,"name":"Bee","steam_id":76561198074681324,"connected_time":564000000000,"state":"active","ping":45},{"user_id":408,"name":"M249 | Spectre","steam_id":76561198118334485,"connected_time":2235000000000,"state":"active","ping":56},{"user_id":392,"name":"evnobev","steam_id":76561198038966462,"connected_time":4068000000000,"state":"active","ping":44},{"user_id":424,"name":"Junkfish","steam_id":76561199168630846,"connected_time":1181000000000,"state":"active","ping":62},{"user_id":440,"name":"jarby","steam_id":76561198130689358,"connected_time":329000000000,"state":"active","ping":45},{"user_id":442,"name":"St. Michael","steam_id":76561198037611052,"connected_time":250000000000,"state":"active","ping":86},{"user_id":404,"name":"IlikeChowMien","steam_id":76561199466131782,"connected_time":2285000000000,"state":"active","ping":66},{"user_id":435,"name":"MoonMan","steam_id":76561198196754081,"connected_time":536000000000,"state":"active","ping":46},{"user_id":419,"name":"Chhaam","steam_id":76561198058508132,"connected_time":1271000000000,"state":"active","ping":45},{"user_id":437,"name":"go touch keyboard","steam_id":76561198197388678,"connected_time":504000000000,"state":"active","ping":74},{"user_id":438,"name":"epicgameslauncherplaer878","steam_id":76561198360279519,"connected_time":489000000000,"state":"active","ping":166},{"user_id":416,"name":"Waffle Wannabe","steam_id":76561198064510650,"connected_time":1329000000000,"state":"active","ping":54}]},{"server_id":14,"name":"Uncletopia | New York City | 2 | All Maps","name_short":"nyc-2","host":"nyc-1.us.uncletopia.com","port":27025,"enabled":true,"region":"us-east","cc":"us","latitude":40.73061,"longitude":-73.93524,"reserved":0,"last_update":"0001-01-01T00:00:00Z","name_a2s":"Uncletopia | New York City | 2 | All Maps","protocol":17,"map":"cp_steel","folder":"tf","game":"Team Fortress","app_id":440,"player_count":24,"max_players":24,"Bots":0,"server_type":"Dedicated","server_os":"Linux","password":true,"vac":true,"version":"7882260","steam_id":85568392924469994,"keywords":["cp","nocrits","nodmgspread","uncletopia"],"game_id":440,"stv_port":27026,"stv_name":"Uncletopia | New York City | 2 | All Maps | STV","players":[{"user_id":381,"name":"glue sniffer","steam_id":76561198044689778,"connected_time":1381000000000,"state":"active","ping":47},{"user_id":370,"name":"TDR","steam_id":76561198093243434,"connected_time":2920000000000,"state":"active","ping":71},{"user_id":383,"name":"An Elite from Halo CE","steam_id":76561197990581760,"connected_time":1295000000000,"state":"active","ping":54},{"user_id":394,"name":"Scuff1e","steam_id":76561198272995728,"connected_time":197000000000,"state":"active","ping":91},{"user_id":389,"name":"Neocherry","steam_id":76561198137036962,"connected_time":505000000000,"state":"active","ping":103},{"user_id":379,"name":"Petty and Cheap","steam_id":76561199039249396,"connected_time":2278000000000,"state":"active","ping":90},{"user_id":297,"name":"Gentoo Linux Gaming","steam_id":76561197999657118,"connected_time":7961000000000,"state":"active","ping":63},{"user_id":386,"name":"AlmondMilk","steam_id":76561198151229725,"connected_time":596000000000,"state":"active","ping":44},{"user_id":226,"name":"emilee (evil)","steam_id":76561198061455664,"connected_time":13375000000000,"state":"active","ping":45},{"user_id":387,"name":"DarkWolf","steam_id":76561198392222947,"connected_time":530000000000,"state":"active","ping":99},{"user_id":388,"name":"cavelife","steam_id":76561198091369097,"connected_time":516000000000,"state":"active","ping":56},{"user_id":349,"name":"Emperor Dankatine","steam_id":76561198044741086,"connected_time":4301000000000,"state":"active","ping":104},{"user_id":397,"name":"Flashtasm","steam_id":76561198026635660,"connected_time":85000000000,"state":"active","ping":74},{"user_id":398,"name":"Mavvy","steam_id":76561198254444762,"connected_time":39000000000,"state":"active","ping":110},{"user_id":399,"name":"I crash into ice cream trucks","steam_id":76561198078565975,"connected_time":29000000000,"state":"active","ping":48},{"user_id":351,"name":"austintacious","steam_id":76561198054118061,"connected_time":3999000000000,"state":"active","ping":72},{"user_id":327,"name":"shploopie","steam_id":76561198264289810,"connected_time":6611000000000,"state":"active","ping":68},{"user_id":375,"name":"Dragoninventor (He/Him)","steam_id":76561198956224948,"connected_time":2798000000000,"state":"active","ping":105},{"user_id":392,"name":"Kevos","steam_id":76561199106972662,"connected_time":392000000000,"state":"active","ping":58},{"user_id":378,"name":"meat glasses","steam_id":76561198046742645,"connected_time":2377000000000,"state":"active","ping":59},{"user_id":393,"name":"Person","steam_id":76561198093244204,"connected_time":352000000000,"state":"active","ping":62},{"user_id":396,"name":"saib","steam_id":76561198966980576,"connected_time":154000000000,"state":"active","ping":45},{"user_id":380,"name":"Ian","steam_id":76561199078852180,"connected_time":1396000000000,"state":"active","ping":57},{"user_id":362,"name":"BallofBandages","steam_id":76561198089817918,"connected_time":3383000000000,"state":"active","ping":59}]},{"server_id":15,"name":"Uncletopia | New York City | 3 | Stopwatch Beta","name_short":"nyc-3","host":"nyc-1.us.uncletopia.com","port":27035,"enabled":true,"region":"us-east","cc":"us","latitude":40.73061,"longitude":-73.93524,"reserved":0,"last_update":"0001-01-01T00:00:00Z","name_a2s":"Uncletopia | New York City | 3 | Stopwatch Beta","protocol":17,"map":"workshop/koth_bagel_rc6.ugc2514036946","folder":"tf","game":"Team Fortress","app_id":440,"player_count":0,"max_players":24,"Bots":0,"server_type":"Dedicated","server_os":"Linux","password":true,"vac":true,"version":"7882260","steam_id":85568392924742820,"keywords":["cp","nocrits","nodmgspread","uncletopia"],"game_id":440,"stv_port":27036,"stv_name":"Uncletopia | New York City | 3 | Stopwatch Beta | STV","players":null},{"server_id":16,"name":"Uncletopia | New York City | 4 | Community","name_short":"nyc-4","host":"nyc-1.us.uncletopia.com","port":27045,"enabled":true,"region":"us-east","cc":"us","latitude":40.73061,"longitude":-73.93524,"reserved":0,"last_update":"0001-01-01T00:00:00Z","name_a2s":"Uncletopia | New York City | 4 | Community","protocol":17,"map":"workshop/cp_villa_b19.ugc2113052569","folder":"tf","game":"Team Fortress","app_id":440,"player_count":19,"max_players":24,"Bots":0,"server_type":"Dedicated","server_os":"Linux","password":true,"vac":true,"version":"7882260","steam_id":85568392924742821,"keywords":["cp","nocrits","nodmgspread","uncletopia"],"game_id":440,"stv_port":27046,"stv_name":"Uncletopia | New York City | 4 | Community | STV","players":[{"user_id":159,"name":"Potato Zilla","steam_id":76561199220230400,"connected_time":308000000000,"state":"active","ping":75},{"user_id":131,"name":"gavin","steam_id":76561199207796074,"connected_time":1535000000000,"state":"active","ping":45},{"user_id":140,"name":"gorf?","steam_id":76561198142286417,"connected_time":1364000000000,"state":"active","ping":102},{"user_id":163,"name":"Un-Destroyer","steam_id":76561199441945270,"connected_time":275000000000,"state":"active","ping":82},{"user_id":150,"name":"SAD2005","steam_id":76561198856925416,"connected_time":667000000000,"state":"active","ping":103},{"user_id":167,"name":"Seico Bass","steam_id":76561198123498500,"connected_time":113000000000,"state":"active","ping":102},{"user_id":168,"name":"bear","steam_id":76561198313696546,"connected_time":111000000000,"state":"active","ping":308},{"user_id":95,"name":"Penis but it rhymes with Venice","steam_id":76561197986420836,"connected_time":5154000000000,"state":"active","ping":56},{"user_id":132,"name":"drdoofus123","steam_id":76561198016826181,"connected_time":1474000000000,"state":"active","ping":67},{"user_id":153,"name":"The Sheriff","steam_id":76561198930201233,"connected_time":441000000000,"state":"active","ping":95},{"user_id":166,"name":"Bilgecrank","steam_id":76561197967191751,"connected_time":175000000000,"state":"active","ping":103},{"user_id":135,"name":"TheCaberMagnet","steam_id":76561198796383697,"connected_time":1435000000000,"state":"active","ping":57},{"user_id":158,"name":"Rx Auntie","steam_id":76561198051618393,"connected_time":315000000000,"state":"active","ping":43},{"user_id":148,"name":"LaggyDude7","steam_id":76561198124813666,"connected_time":840000000000,"state":"active","ping":53},{"user_id":141,"name":"F_L Ken","steam_id":76561198233988068,"connected_time":1298000000000,"state":"spawning","ping":196},{"user_id":164,"name":"Petman1325","steam_id":76561198024355663,"connected_time":271000000000,"state":"active","ping":62},{"user_id":146,"name":"carson","steam_id":76561199083451324,"connected_time":1074000000000,"state":"active","ping":51},{"user_id":161,"name":"all_classics","steam_id":76561198012738913,"connected_time":290000000000,"state":"active","ping":67},{"user_id":165,"name":"e√¶a","steam_id":76561199215762871,"connected_time":265000000000,"state":"active","ping":63}]},{"server_id":142,"name":"Uncletopia | S√£o Paulo | 1 | All Maps","name_short":"sao-1","host":"sao-1.br.uncletopia.com","port":27015,"enabled":true,"region":"sa","cc":"br","latitude":-23.533773,"longitude":-46.62529,"reserved":0,"last_update":"0001-01-01T00:00:00Z","name_a2s":"Uncletopia | S√£o Paulo | 1 | All Maps","protocol":17,"map":"koth_lakeside_final","folder":"tf","game":"Team Fortress","app_id":440,"player_count":0,"max_players":24,"Bots":0,"server_type":"Dedicated","server_os":"Linux","password":true,"vac":true,"version":"7882260","steam_id":85568392924469996,"keywords":["cp","nocrits","nodmgspread","uncletopia"],"game_id":440,"stv_port":27016,"stv_name":"Uncletopia | S√£o Paulo | 1 | All Maps | STV","players":null},{"server_id":143,"name":"Uncletopia | S√£o Paulo | 2 | All Maps","name_short":"sao-2","host":"sao-2.br.uncletopia.com","port":27015,"enabled":true,"region":"sa","cc":"br","latitude":-23.533773,"longitude":-46.62529,"reserved":0,"last_update":"0001-01-01T00:00:00Z","name_a2s":"Uncletopia | S√£o Paulo | 2 | All Maps","protocol":17,"map":"koth_harvest_final","folder":"tf","game":"Team Fortress","app_id":440,"player_count":20,"max_players":24,"Bots":0,"server_type":"Dedicated","server_os":"Linux","password":true,"vac":true,"version":"7882260","steam_id":85568392924485349,"keywords":["cp","nocrits","nodmgspread","uncletopia"],"game_id":440,"stv_port":27016,"stv_name":"Uncletopia | S√£o Paulo | 2 | All Maps | STV","players":[{"user_id":237,"name":"Torna-te S√°bio.","steam_id":76561198078377030,"connected_time":183000000000,"state":"active","ping":108},{"user_id":238,"name":"milharal","steam_id":76561198890779423,"connected_time":177000000000,"state":"active","ping":31},{"user_id":182,"name":"Rex2.0","steam_id":76561198217672824,"connected_time":3338000000000,"state":"active","ping":48},{"user_id":211,"name":"HeadShotGamerBR","steam_id":76561198116856702,"connected_time":1524000000000,"state":"active","ping":76},{"user_id":169,"name":"vitor7993","steam_id":76561198435768174,"connected_time":4144000000000,"state":"active","ping":46},{"user_id":196,"name":"Nikolotro","steam_id":76561198232133128,"connected_time":2416000000000,"state":"active","ping":92},{"user_id":224,"name":"Stalin","steam_id":76561198073356694,"connected_time":860000000000,"state":"active","ping":65},{"user_id":175,"name":"Polar","steam_id":76561198888597586,"connected_time":3830000000000,"state":"active","ping":78},{"user_id":130,"name":"zeiccia","steam_id":76561198316688969,"connected_time":6814000000000,"state":"active","ping":58},{"user_id":223,"name":"Filthcomet","steam_id":76561199439861484,"connected_time":945000000000,"state":"active","ping":70},{"user_id":232,"name":"brg","steam_id":76561198049993814,"connected_time":461000000000,"state":"active","ping":60},{"user_id":159,"name":"eDot","steam_id":76561199076298530,"connected_time":4783000000000,"state":"active","ping":49},{"user_id":235,"name":"nukejuice","steam_id":76561199097985584,"connected_time":332000000000,"state":"active","ping":182},{"user_id":233,"name":"Mental_bread","steam_id":76561198113843987,"connected_time":421000000000,"state":"active","ping":63},{"user_id":240,"name":"Bellesi","steam_id":76561198056750369,"connected_time":96000000000,"state":"active","ping":55},{"user_id":241,"name":"Grunt420","steam_id":76561199407313140,"connected_time":72000000000,"state":"active","ping":133},{"user_id":214,"name":"URSS","steam_id":76561198950413602,"connected_time":1469000000000,"state":"active","ping":44},{"user_id":242,"name":"H√©rcules","steam_id":76561199017999458,"connected_time":11000000000,"state":"spawning","ping":78},{"user_id":216,"name":"nolem","steam_id":76561199080817141,"connected_time":1398000000000,"state":"active","ping":77},{"user_id":217,"name":"Carnip","steam_id":76561198130005329,"connected_time":1339000000000,"state":"active","ping":46}]},{"server_id":7,"name":"Uncletopia | Seattle | 1 | All Maps","name_short":"sea-1","host":"sea-1.us.uncletopia.com","port":27015,"enabled":true,"region":"us-west","cc":"us","latitude":47.608013,"longitude":-122.33517,"reserved":0,"last_update":"0001-01-01T00:00:00Z","name_a2s":"Uncletopia | Seattle | 1 | All Maps","protocol":17,"map":"cp_steel","folder":"tf","game":"Team Fortress","app_id":440,"player_count":24,"max_players":24,"Bots":0,"server_type":"Dedicated","server_os":"Linux","password":true,"vac":true,"version":"7882260","steam_id":85568392924469997,"keywords":["cp","nocrits","nodmgspread","uncletopia"],"game_id":440,"stv_port":27016,"stv_name":"Uncletopia | Seattle | 1 | All Maps | STV","players":[{"user_id":421,"name":"Willy Wonker","steam_id":76561198082944789,"connected_time":1056000000000,"state":"active","ping":75},{"user_id":409,"name":"teh mummy","steam_id":76561198044123636,"connected_time":2161000000000,"state":"active","ping":69},{"user_id":433,"name":"emissions_master","steam_id":76561198870649125,"connected_time":55000000000,"state":"active","ping":86},{"user_id":429,"name":"The Super Mario Bros. Movie","steam_id":76561198871692156,"connected_time":718000000000,"state":"active","ping":46},{"user_id":430,"name":"makeshift_burrito","steam_id":76561198042510825,"connected_time":502000000000,"state":"active","ping":69},{"user_id":380,"name":"Keamy","steam_id":76561199471434875,"connected_time":3818000000000,"state":"active","ping":44},{"user_id":247,"name":"soup","steam_id":76561198043209046,"connected_time":12123000000000,"state":"active","ping":83},{"user_id":414,"name":"forest (girldick)","steam_id":76561198157960257,"connected_time":1796000000000,"state":"active","ping":37},{"user_id":308,"name":"MegumiTame","steam_id":76561198450280686,"connected_time":8741000000000,"state":"active","ping":47},{"user_id":423,"name":"jayeskae","steam_id":76561198144220801,"connected_time":1010000000000,"state":"active","ping":46},{"user_id":432,"name":"Depths","steam_id":76561198343435310,"connected_time":149000000000,"state":"active","ping":85},{"user_id":420,"name":"Boyaredeen","steam_id":76561198880492636,"connected_time":1264000000000,"state":"active","ping":51},{"user_id":387,"name":"toes","steam_id":76561198221151676,"connected_time":2890000000000,"state":"active","ping":52},{"user_id":415,"name":"Dimple #TF2Center","steam_id":76561198980324190,"connected_time":1447000000000,"state":"active","ping":73},{"user_id":419,"name":"dimpled","steam_id":76561197983120236,"connected_time":1327000000000,"state":"active","ping":57},{"user_id":412,"name":"array","steam_id":76561198280409646,"connected_time":2043000000000,"state":"active","ping":65},{"user_id":334,"name":"Flesh Eating Turtle","steam_id":76561198116742139,"connected_time":6783000000000,"state":"active","ping":48},{"user_id":426,"name":"HaphazardHazel","steam_id":76561198316812693,"connected_time":804000000000,"state":"active","ping":135},{"user_id":337,"name":"DMAFGreatoverlordSchikonmaster","steam_id":76561198123510618,"connected_time":6608000000000,"state":"active","ping":62},{"user_id":431,"name":"Yakts","steam_id":76561198115044159,"connected_time":457000000000,"state":"active","ping":46},{"user_id":398,"name":"Hirochi","steam_id":76561198850339384,"connected_time":2671000000000,"state":"active","ping":90},{"user_id":384,"name":"Fh","steam_id":76561198000903511,"connected_time":3477000000000,"state":"active","ping":61},{"user_id":378,"name":"Sumtingwong","steam_id":76561198154503584,"connected_time":4227000000000,"state":"active","ping":71},{"user_id":406,"name":"Themasterman75","steam_id":76561199385573293,"connected_time":2388000000000,"state":"active","ping":72}]},{"server_id":119,"name":"Uncletopia | Seattle | 2 | All Maps","name_short":"sea-2","host":"sea-1.us.uncletopia.com","port":27025,"enabled":true,"region":"us-west","cc":"us","latitude":47.608013,"longitude":-122.33517,"reserved":0,"last_update":"0001-01-01T00:00:00Z","name_a2s":"Uncletopia | Seattle | 2 | All Maps","protocol":17,"map":"koth_badlands","folder":"tf","game":"Team Fortress","app_id":440,"player_count":24,"max_players":24,"Bots":0,"server_type":"Dedicated","server_os":"Linux","password":true,"vac":true,"version":"7882260","steam_id":85568392924469998,"keywords":["cp","nocrits","nodmgspread","uncletopia"],"game_id":440,"stv_port":27026,"stv_name":"Uncletopia | Seattle | 2 | All Maps | STV","players":[{"user_id":256,"name":"Swampdonkey","steam_id":76561197998832682,"connected_time":1296000000000,"state":"active","ping":57},{"user_id":265,"name":"F2P gamer","steam_id":76561199285688642,"connected_time":386000000000,"state":"active","ping":46},{"user_id":270,"name":"[Bandit]","steam_id":76561197986919852,"connected_time":130000000000,"state":"active","ping":48},{"user_id":243,"name":"FiddyFoMike","steam_id":76561198057072581,"connected_time":2748000000000,"state":"active","ping":60},{"user_id":165,"name":"Dunkle","steam_id":76561198041903573,"connected_time":8932000000000,"state":"active","ping":39},{"user_id":216,"name":"Finnedorb","steam_id":76561199057066957,"connected_time":4592000000000,"state":"active","ping":101},{"user_id":221,"name":"reiidaya","steam_id":76561198325306660,"connected_time":4347000000000,"state":"active","ping":54},{"user_id":258,"name":"J","steam_id":76561198207881077,"connected_time":999000000000,"state":"active","ping":70},{"user_id":257,"name":"Akira (they/them)","steam_id":76561198294601519,"connected_time":1147000000000,"state":"active","ping":37},{"user_id":260,"name":"shy guy","steam_id":76561198151246059,"connected_time":950000000000,"state":"active","ping":62},{"user_id":266,"name":"scuffed+","steam_id":76561198375321244,"connected_time":342000000000,"state":"active","ping":96},{"user_id":272,"name":"QPU Allignment","steam_id":76561198041286321,"connected_time":15000000000,"state":"active","ping":49},{"user_id":263,"name":"Kanade","steam_id":76561198088665810,"connected_time":455000000000,"state":"active","ping":74},{"user_id":261,"name":"Grill Skills","steam_id":76561198053575147,"connected_time":808000000000,"state":"active","ping":68},{"user_id":233,"name":"TripleHelix","steam_id":76561198175400991,"connected_time":3465000000000,"state":"active","ping":73},{"user_id":267,"name":"ttvCompressDong","steam_id":76561198018950826,"connected_time":339000000000,"state":"active","ping":63},{"user_id":262,"name":"2fort goblin","steam_id":76561199122059102,"connected_time":467000000000,"state":"active","ping":82},{"user_id":268,"name":"‚ô• t.tvthedittoguy ‚ô•","steam_id":76561199013129784,"connected_time":332000000000,"state":"active","ping":105},{"user_id":246,"name":"dougrocks421","steam_id":76561198165063918,"connected_time":2433000000000,"state":"active","ping":38},{"user_id":269,"name":"Vincent Van Bro","steam_id":76561197966919802,"connected_time":313000000000,"state":"active","ping":56},{"user_id":251,"name":"Sweatpants","steam_id":76561198097188001,"connected_time":2164000000000,"state":"active","ping":65},{"user_id":271,"name":"Fachedin","steam_id":76561198041850415,"connected_time":125000000000,"state":"active","ping":69},{"user_id":252,"name":"Shmebulock","steam_id":76561198046941925,"connected_time":2147000000000,"state":"active","ping":109},{"user_id":242,"name":"Shamrock Shake Oct.10.2020 @8pm","steam_id":76561198833313201,"connected_time":2818000000000,"state":"active","ping":91}]},{"server_id":406,"name":"Uncletopia | Seattle | 3 | Stopwatch Beta","name_short":"sea-3","host":"sea-1.us.uncletopia.com","port":27035,"enabled":true,"region":"us-west","cc":"us","latitude":47.608013,"longitude":-122.33517,"reserved":0,"last_update":"0001-01-01T00:00:00Z","name_a2s":"Uncletopia | Seattle | 3 | Stopwatch Beta","protocol":17,"map":"workshop/koth_ashville_final.ugc2130459942","folder":"tf","game":"Team Fortress","app_id":440,"player_count":0,"max_players":24,"Bots":0,"server_type":"Dedicated","server_os":"Linux","password":true,"vac":true,"version":"7882260","steam_id":85568392924515217,"keywords":["cp","nocrits","nodmgspread","uncletopia"],"game_id":440,"stv_port":27036,"stv_name":"Uncletopia | Seattle | 3 | Stopwatch Beta | STV","players":null},{"server_id":17,"name":"Uncletopia | San Francisco | 1 | All Maps","name_short":"sfo-1","host":"sfo-1.us.uncletopia.com","port":27015,"enabled":true,"region":"us-west","cc":"us","latitude":37.77397,"longitude":-122.4313,"reserved":0,"last_update":"0001-01-01T00:00:00Z","name_a2s":"Uncletopia | San Francisco | 1 | All Maps","protocol":17,"map":"cp_process_final","folder":"tf","game":"Team Fortress","app_id":440,"player_count":0,"max_players":24,"Bots":0,"server_type":"Dedicated","server_os":"Linux","password":true,"vac":true,"version":"7757534","steam_id":85568392924469999,"keywords":["cp","nocrits","nodmgspread","uncletopia"],"game_id":440,"stv_port":27016,"stv_name":"Uncletopia | San Francisco | 1 | All Maps | STV","players":null},{"server_id":18,"name":"Uncletopia | San Francisco | 2 | All Maps","name_short":"sfo-2","host":"sfo-1.us.uncletopia.com","port":27025,"enabled":true,"region":"us-west","cc":"us","latitude":37.77397,"longitude":-122.4313,"reserved":0,"last_update":"0001-01-01T00:00:00Z","name_a2s":"Uncletopia | San Francisco | 2 | All Maps","protocol":17,"map":"koth_highpass","folder":"tf","game":"Team Fortress","app_id":440,"player_count":0,"max_players":24,"Bots":0,"server_type":"Dedicated","server_os":"Linux","password":true,"vac":true,"version":"7757534","steam_id":85568392924470000,"keywords":["cp","nocrits","nodmgspread","uncletopia"],"game_id":440,"stv_port":27026,"stv_name":"Uncletopia | San Francisco | 2 | All Maps | STV","players":null},{"server_id":19,"name":"Uncletopia | San Francisco | 3 | Stopwatch Beta","name_short":"sfo-3","host":"sfo-1.us.uncletopia.com","port":27035,"enabled":true,"region":"us-west","cc":"us","latitude":37.77397,"longitude":-122.4313,"reserved":0,"last_update":"0001-01-01T00:00:00Z","name_a2s":"Uncletopia | San Francisco | 3 | Stopwatch Beta","protocol":17,"map":"koth_lakeside_final","folder":"tf","game":"Team Fortress","app_id":440,"player_count":0,"max_players":24,"Bots":0,"server_type":"Dedicated","server_os":"Linux","password":true,"vac":true,"version":"7757534","steam_id":85568392924742824,"keywords":["cp","nocrits","nodmgspread","uncletopia"],"game_id":440,"stv_port":27036,"stv_name":"Uncletopia | San Francisco | 3 | Stopwatch Beta | STV","players":null},{"server_id":20,"name":"Uncletopia | San Francisco | 4 | Community","name_short":"sfo-4","host":"sfo-1.us.uncletopia.com","port":27045,"enabled":true,"region":"us-west","cc":"us","latitude":37.77397,"longitude":-122.4313,"reserved":0,"last_update":"0001-01-01T00:00:00Z","name_a2s":"Uncletopia | San Francisco | 4 | Community","protocol":17,"map":"cp_altitude","folder":"tf","game":"Team Fortress","app_id":440,"player_count":0,"max_players":24,"Bots":0,"server_type":"Dedicated","server_os":"Linux","password":true,"vac":true,"version":"7757534","steam_id":85568392924742826,"keywords":["cp","nocrits","nodmgspread","uncletopia"],"game_id":440,"stv_port":27046,"stv_name":"Uncletopia | San Francisco | 4 | Community | STV","players":null},{"server_id":141,"name":"Uncletopia | Sydney | 1 | All Maps","name_short":"syd-1","host":"syd-1.au.uncletopia.com","port":27015,"enabled":true,"region":"au","cc":"au","latitude":-33.865143,"longitude":151.2099,"reserved":0,"last_update":"0001-01-01T00:00:00Z","name_a2s":"Uncletopia | Sydney | 1 | All Maps","protocol":17,"map":"koth_highpass","folder":"tf","game":"Team Fortress","app_id":440,"player_count":0,"max_players":24,"Bots":0,"server_type":"Dedicated","server_os":"Linux","password":true,"vac":true,"version":"7882260","steam_id":85568392924470001,"keywords":["cp","nocrits","nodmgspread","uncletopia"],"game_id":440,"stv_port":27016,"stv_name":"Uncletopia | Sydney | 1 | All Maps | STV","players":null},{"server_id":123,"name":"Uncletopia | Sydney | 2 | All Maps","name_short":"syd-2","host":"syd-1.au.uncletopia.com","port":27025,"enabled":true,"region":"au","cc":"au","latitude":-33.865143,"longitude":151.2099,"reserved":0,"last_update":"0001-01-01T00:00:00Z","name_a2s":"Uncletopia | Sydney | 2 | All Maps","protocol":17,"map":"pl_barnblitz","folder":"tf","game":"Team Fortress","app_id":440,"player_count":0,"max_players":24,"Bots":0,"server_type":"Dedicated","server_os":"Linux","password":true,"vac":true,"version":"7882260","steam_id":85568392924470002,"keywords":["nocrits","nodmgspread","payload","uncletopia"],"game_id":440,"stv_port":27026,"stv_name":"Uncletopia | Sydney | 2 | All Maps | STV","players":null},{"server_id":395,"name":"Uncletopia | Sydney | 3 | All Maps","name_short":"syd-3","host":"syd-1.au.uncletopia.com","port":27035,"enabled":true,"region":"au","cc":"au","latitude":-33.865143,"longitude":151.2099,"reserved":0,"last_update":"0001-01-01T00:00:00Z","name_a2s":"Uncletopia | Sydney | 3 | All Maps","protocol":17,"map":"pl_badwater","folder":"tf","game":"Team Fortress","app_id":440,"player_count":0,"max_players":24,"Bots":0,"server_type":"Dedicated","server_os":"Linux","password":true,"vac":true,"version":"7882260","steam_id":85568392925194467,"keywords":["nocrits","nodmgspread","payload","uncletopia"],"game_id":440,"stv_port":27036,"stv_name":"Uncletopia | Sydney | 3 | All Maps | STV","players":null},{"server_id":396,"name":"Uncletopia | Sydney | 4 | All Maps","name_short":"syd-4","host":"syd-1.au.uncletopia.com","port":27045,"enabled":true,"region":"au","cc":"au","latitude":-33.865143,"longitude":151.2099,"reserved":0,"last_update":"0001-01-01T00:00:00Z","name_a2s":"Uncletopia | Sydney | 4 | All Maps","protocol":17,"map":"cp_dustbowl","folder":"tf","game":"Team Fortress","app_id":440,"player_count":0,"max_players":24,"Bots":0,"server_type":"Dedicated","server_os":"Linux","password":true,"vac":true,"version":"7882260","steam_id":85568392925397958,"keywords":["cp","nocrits","nodmgspread","uncletopia"],"game_id":440,"stv_port":27046,"stv_name":"Uncletopia | Sydney | 4 | All Maps | STV","players":null},{"server_id":58,"name":"Uncletopia | Sydney | 5 | Stopwatch Beta","name_short":"syd-5","host":"syd-1.au.uncletopia.com","port":27055,"enabled":true,"region":"au","cc":"au","latitude":-33.865143,"longitude":151.2099,"reserved":0,"last_update":"0001-01-01T00:00:00Z","name_a2s":"Uncletopia | Sydney | 5 | Stopwatch Beta","protocol":17,"map":"cp_snakewater_final1","folder":"tf","game":"Team Fortress","app_id":440,"player_count":0,"max_players":24,"Bots":0,"server_type":"Dedicated","server_os":"Linux","password":true,"vac":true,"version":"7882260","steam_id":85568392925397959,"keywords":["cp","nocrits","nodmgspread","uncletopia"],"game_id":440,"stv_port":27056,"stv_name":"Uncletopia | Sydney | 5 | Stopwatch Beta | STV","players":null},{"server_id":59,"name":"Uncletopia | Sydney | 6 | Community","name_short":"syd-6","host":"syd-1.au.uncletopia.com","port":27065,"enabled":true,"region":"au","cc":"au","latitude":-33.865143,"longitude":151.2099,"reserved":0,"last_update":"0001-01-01T00:00:00Z","name_a2s":"Uncletopia | Sydney | 6 | Community","protocol":17,"map":"pl_snowycoast","folder":"tf","game":"Team Fortress","app_id":440,"player_count":0,"max_players":24,"Bots":0,"server_type":"Dedicated","server_os":"Linux","password":true,"vac":true,"version":"7882260","steam_id":85568392925397960,"keywords":["nocrits","nodmgspread","payload","uncletopia"],"game_id":440,"stv_port":27066,"stv_name":"Uncletopia | Sydney | 6 | Community | STV","players":null},{"server_id":49,"name":"Uncletopia | Warsaw | 1 | All Maps","name_short":"waw-1","host":"waw-1.pl.uncletopia.com","port":27015,"enabled":true,"region":"eu","cc":"pl","latitude":52.2297,"longitude":21.017532,"reserved":0,"last_update":"0001-01-01T00:00:00Z","name_a2s":"","protocol":0,"map":"","folder":"","game":"","app_id":0,"player_count":0,"max_players":0,"Bots":0,"server_type":"","server_os":"","password":false,"vac":false,"version":"","steam_id":0,"keywords":null,"game_id":0,"stv_port":0,"stv_name":"","players":null},{"server_id":50,"name":"Uncletopia | Warsaw | 2 | All Maps","name_short":"waw-2","host":"waw-1.pl.uncletopia.com","port":27025,"enabled":true,"region":"eu","cc":"pl","latitude":52.2297,"longitude":21.017532,"reserved":0,"last_update":"0001-01-01T00:00:00Z","name_a2s":"Uncletopia | Warsaw | 2 | All Maps","protocol":17,"map":"koth_cascade","folder":"tf","game":"Team Fortress","app_id":440,"player_count":0,"max_players":24,"Bots":0,"server_type":"Dedicated","server_os":"Linux","password":true,"vac":true,"version":"7882260","steam_id":85568392925397851,"keywords":["cp","nocrits","nodmgspread","uncletopia"],"game_id":440,"stv_port":27026,"stv_name":"Uncletopia | Warsaw | 2 | All Maps | STV","players":null},{"server_id":51,"name":"Uncletopia | Warsaw | 3 | All Maps","name_short":"waw-3","host":"waw-1.pl.uncletopia.com","port":27035,"enabled":true,"region":"eu","cc":"pl","latitude":52.2297,"longitude":21.017532,"reserved":0,"last_update":"0001-01-01T00:00:00Z","name_a2s":"Uncletopia | Warsaw | 3 | All Maps","protocol":17,"map":"pl_frontier_final","folder":"tf","game":"Team Fortress","app_id":440,"player_count":0,"max_players":24,"Bots":0,"server_type":"Dedicated","server_os":"Linux","password":true,"vac":true,"version":"7882260","steam_id":85568392925397852,"keywords":["nocrits","nodmgspread","payload","uncletopia"],"game_id":440,"stv_port":27036,"stv_name":"Uncletopia | Warsaw | 3 | All Maps | STV","players":null},{"server_id":52,"name":"Uncletopia | Warsaw | 4 | All Maps","name_short":"waw-4","host":"waw-1.pl.uncletopia.com","port":27045,"enabled":true,"region":"eu","cc":"pl","latitude":52.2297,"longitude":21.017532,"reserved":0,"last_update":"0001-01-01T00:00:00Z","name_a2s":"Uncletopia | Warsaw | 4 | All Maps","protocol":17,"map":"pl_frontier_final","folder":"tf","game":"Team Fortress","app_id":440,"player_count":0,"max_players":24,"Bots":0,"server_type":"Dedicated","server_os":"Linux","password":true,"vac":true,"version":"7882260","steam_id":85568392925397853,"keywords":["nocrits","nodmgspread","payload","uncletopia"],"game_id":440,"stv_port":27046,"stv_name":"Uncletopia | Warsaw | 4 | All Maps | STV","players":null},{"server_id":53,"name":"Uncletopia | Warsaw | 5 | Stopwatch Beta","name_short":"waw-5","host":"waw-1.pl.uncletopia.com","port":27055,"enabled":true,"region":"eu","cc":"pl","latitude":52.2297,"longitude":21.017532,"reserved":0,"last_update":"0001-01-01T00:00:00Z","name_a2s":"Uncletopia | Warsaw | 5 | Stopwatch Beta","protocol":17,"map":"workshop/koth_bagel_rc6.ugc2514036946","folder":"tf","game":"Team Fortress","app_id":440,"player_count":0,"max_players":24,"Bots":0,"server_type":"Dedicated","server_os":"Linux","password":true,"vac":true,"version":"7882260","steam_id":85568392925397854,"keywords":["cp","nocrits","nodmgspread","uncletopia"],"game_id":440,"stv_port":27056,"stv_name":"Uncletopia | Warsaw | 5 | Stopwatch Beta | STV","players":null},{"server_id":54,"name":"Uncletopia | Warsaw | 6 | Community","name_short":"waw-6","host":"waw-1.pl.uncletopia.com","port":27065,"enabled":true,"region":"eu","cc":"pl","latitude":52.2297,"longitude":21.017532,"reserved":0,"last_update":"0001-01-01T00:00:00Z","name_a2s":"Uncletopia | Warsaw | 6 | Community","protocol":17,"map":"workshop/koth_bagel_rc6.ugc2514036946","folder":"tf","game":"Team Fortress","app_id":440,"player_count":0,"max_players":24,"Bots":0,"server_type":"Dedicated","server_os":"Linux","password":true,"vac":true,"version":"7882260","steam_id":85568392925397856,"keywords":["cp","nocrits","nodmgspread","uncletopia"],"game_id":440,"stv_port":27066,"stv_name":"Uncletopia | Warsaw | 6 | Community | STV","players":null}]}