{"status":true,"message":"","result":[{"server_id":9,"name":"Uncletopia | Atlanta | 1 | All Maps","name_short":"atl-1","host":"atl-1.us.uncletopia.com","port":27015,"enabled":true,"region":"us-east","cc":"us","latitude":33.753746,"longitude":-84.38633,"reserved":0,"last_update":"0001-01-01T00:00:00Z","name_a2s":"Uncletopia | Atlanta | 1 | All Maps","protocol":17,"map":"pl_swiftwater_final1","folder":"tf","game":"Team Fortress","app_id":440,"player_count":24,"max_players":24,"Bots":0,"server_type":"Dedicated","server_os":"Linux","password":true,"vac":true,"version":"7757534","steam_id":85568392924469982,"keywords":["nocrits","nodmgspread","payload","uncletopia"],"game_id":440,"stv_port":27016,"stv_name":"Uncletopia | Atlanta | 1 | All Maps | STV","players":[{"user_id":956,"name":"Ixcarsis","steam_id":76561198880674783,"connected_time":7185000000000,"state":"active","ping":46},{"user_id":1050,"name":"Hoganator","steam_id":76561198972647595,"connected_time":362000000000,"state":"active","ping":72},{"user_id":1011,"name":"Crackhead2121216","steam_id":76561198991754527,"connected_time":2673000000000,"state":"active","ping":83},{"user_id":1039,"name":"spats","steam_id":76561198186402167,"connected_time":659000000000,"state":"active","ping":77},{"user_id":1033,"name":"lil hog","steam_id":76561199230929836,"connected_time":980000000000,"state":"active","ping":76},{"user_id":1051,"name":"lil schizo","steam_id":76561198077902438,"connected_time":352000000000,"state":"active","ping":54},{"user_id":1058,"name":"Duncle Frazzle","steam_id":76561198145596626,"connected_time":277000000000,"state":"active","ping":117},{"user_id":1052,"name":"Neverender","steam_id":76561199050174626,"connected_time":337000000000,"state":"active","ping":78},{"user_id":1054,"name":"pigswill","steam_id":76561197999081865,"connected_time":305000000000,"state":"active","ping":82},{"user_id":1055,"name":"check your balls","steam_id":76561198968527989,"connected_time":301000000000,"state":"active","ping":155},{"user_id":1056,"name":"JiggleCakes","steam_id":76561199005649151,"connected_time":293000000000,"state":"active","ping":101},{"user_id":1037,"name":"[Janitor] SuperFlexMan","steam_id":76561198075382445,"connected_time":774000000000,"state":"active","ping":64},{"user_id":1026,"name":"The jesus guy (FRNK)","steam_id":76561198237997622,"connected_time":1923000000000,"state":"active","ping":171},{"user_id":1031,"name":"BIG HOG","steam_id":76561198079923652,"connected_time":1140000000000,"state":"active","ping":73},{"user_id":1057,"name":"Pensive Clown Noises","steam_id":76561198010708247,"connected_time":288000000000,"state":"active","ping":72},{"user_id":1040,"name":"limeade","steam_id":76561198274220687,"connected_time":654000000000,"state":"active","ping":74},{"user_id":1043,"name":"Brendan","steam_id":76561198041079914,"connected_time":593000000000,"state":"active","ping":70},{"user_id":1044,"name":"JimboSlice","steam_id":76561199225336634,"connected_time":589000000000,"state":"active","ping":75},{"user_id":1059,"name":"e","steam_id":76561198137759797,"connected_time":206000000000,"state":"active","ping":113},{"user_id":1047,"name":"Speedy","steam_id":76561198080761661,"connected_time":391000000000,"state":"active","ping":84},{"user_id":1060,"name":"spoon","steam_id":76561198927517471,"connected_time":177000000000,"state":"active","ping":58},{"user_id":1009,"name":"Minininjin","steam_id":76561198231288168,"connected_time":2974000000000,"state":"active","ping":56},{"user_id":1062,"name":"|AG| Level","steam_id":76561198063633592,"connected_time":77000000000,"state":"active","ping":73},{"user_id":1049,"name":"Wolfe","steam_id":76561197997350470,"connected_time":385000000000,"state":"active","ping":56}]},{"server_id":400,"name":"Uncletopia | Atlanta | 3 | Community","name_short":"atl-3","host":"atl-1.us.uncletopia.com","port":27035,"enabled":true,"region":"us-east","cc":"us","latitude":33.753746,"longitude":-84.38633,"reserved":0,"last_update":"0001-01-01T00:00:00Z","name_a2s":"Uncletopia | Atlanta | 3 | Community","protocol":17,"map":"workshop/koth_ramjam_rc1.ugc459778887","folder":"tf","game":"Team Fortress","app_id":440,"player_count":0,"max_players":24,"Bots":0,"server_type":"Dedicated","server_os":"Linux","password":true,"vac":true,"version":"7757534","steam_id":85568392924515187,"keywords":["cp","nocrits","nodmgspread","uncletopia"],"game_id":440,"stv_port":27036,"stv_name":"Uncletopia | Atlanta | 3 | Community | STV","players":null},{"server_id":401,"name":"Uncletopia | Atlanta | 4 | No Payload","name_short":"atl-4","host":"atl-1.us.uncletopia.com","port":27045,"enabled":true,"region":"us-east","cc":"us","latitude":33.753746,"longitude":-84.38633,"reserved":0,"last_update":"0001-01-01T00:00:00Z","name_a2s":"","protocol":0,"map":"","folder":"","game":"","app_id":0,"player_count":0,"max_players":0,"Bots":0,"server_type":"","server_os":"","password":false,"vac":false,"version":"","steam_id":0,"keywords":null,"game_id":0,"stv_port":0,"stv_name":"","players":null},{"server_id":2,"name":"Uncletopia | Chicago | 1 | All Maps","name_short":"chi-1","host":"chi-1.us.uncletopia.com","port":27015,"enabled":true,"region":"us-central","cc":"us","latitude":41.881832,"longitude":-87.62318,"reserved":0,"last_update":"0001-01-01T00:00:00Z","name_a2s":"Uncletopia | Chicago | 1 | All Maps","protocol":17,"map":"pl_barnblitz","folder":"tf","game":"Team Fortress","app_id":440,"player_count":24,"max_players":24,"Bots":0,"server_type":"Dedicated","server_os":"Linux","password":true,"vac":true,"version":"7757534","steam_id":85568392924469984,"keywords":["nocrits","nodmgspread","payload","uncletopia"],"game_id":440,"stv_port":27016,"stv_name":"Uncletopia | Chicago | 1 | All Maps | STV","players":[{"user_id":955,"name":"SIGMA [BS]","steam_id":76561197962604879,"connected_time":1508000000000,"state":"active","ping":64},{"user_id":971,"name":"Potato Skills","steam_id":76561197974468653,"connected_time":759000000000,"state":"active","ping":59},{"user_id":968,"name":"Gibus Man","steam_id":76561198257241062,"connected_time":1018000000000,"state":"active","ping":108},{"user_id":976,"name":"sweet little cherbee","steam_id":76561199014143410,"connected_time":647000000000,"state":"active","ping":114},{"user_id":977,"name":"Cookie_Crab","steam_id":76561198088116479,"connected_time":630000000000,"state":"active","ping":67},{"user_id":978,"name":"MatchMatch","steam_id":76561198048925904,"connected_time":609000000000,"state":"active","ping":109},{"user_id":970,"name":"samuel d james","steam_id":76561197994824176,"connected_time":813000000000,"state":"active","ping":166},{"user_id":979,"name":"floofy","steam_id":76561198389769098,"connected_time":546000000000,"state":"active","ping":93},{"user_id":980,"name":"flamingcookies","steam_id":76561198280864779,"connected_time":545000000000,"state":"active","ping":60},{"user_id":943,"name":"Anderred","steam_id":76561198149983847,"connected_time":2594000000000,"state":"active","ping":81},{"user_id":945,"name":"arachnakat","steam_id":76561198986095433,"connected_time":2495000000000,"state":"active","ping":73},{"user_id":916,"name":"Glass Joe","steam_id":76561198317365741,"connected_time":5210000000000,"state":"active","ping":65},{"user_id":927,"name":"Ryuujin","steam_id":76561198000897946,"connected_time":4914000000000,"state":"active","ping":110},{"user_id":967,"name":"The Rat ‚öï","steam_id":76561198006571338,"connected_time":1104000000000,"state":"active","ping":47},{"user_id":918,"name":"The Deders","steam_id":76561198002639950,"connected_time":5075000000000,"state":"active","ping":72},{"user_id":966,"name":"Mush","steam_id":76561198393461065,"connected_time":1164000000000,"state":"active","ping":76},{"user_id":952,"name":"homestuck","steam_id":76561198085042338,"connected_time":1896000000000,"state":"active","ping":115},{"user_id":972,"name":"Wheat","steam_id":76561198106270789,"connected_time":753000000000,"state":"active","ping":61},{"user_id":922,"name":"ovenfresh01","steam_id":76561199086062124,"connected_time":5043000000000,"state":"active","ping":79},{"user_id":926,"name":"Bobbycoolpop","steam_id":76561198186392674,"connected_time":4969000000000,"state":"active","ping":86},{"user_id":981,"name":"johnathan","steam_id":76561198866363114,"connected_time":509000000000,"state":"active","ping":45},{"user_id":960,"name":"Infinitytacos","steam_id":76561198884260211,"connected_time":1363000000000,"state":"active","ping":50},{"user_id":964,"name":"Bing Soy","steam_id":76561199091381775,"connected_time":1258000000000,"state":"active","ping":117},{"user_id":835,"name":"Ademar","steam_id":76561199391802581,"connected_time":11586000000000,"state":"active","ping":55}]},{"server_id":106,"name":"Uncletopia | Chicago | 2 | All Maps","name_short":"chi-2","host":"chi-1.us.uncletopia.com","port":27025,"enabled":true,"region":"us-central","cc":"us","latitude":41.881832,"longitude":-87.62318,"reserved":0,"last_update":"0001-01-01T00:00:00Z","name_a2s":"Uncletopia | Chicago | 2 | All Maps","protocol":17,"map":"pl_snowycoast","folder":"tf","game":"Team Fortress","app_id":440,"player_count":0,"max_players":24,"Bots":0,"server_type":"Dedicated","server_os":"Linux","password":true,"vac":true,"version":"7757534","steam_id":85568392924469985,"keywords":["nocrits","nodmgspread","payload","uncletopia"],"game_id":440,"stv_port":27026,"stv_name":"Uncletopia | Chicago | 2 | All Maps | STV","players":null},{"server_id":402,"name":"Uncletopia | Chicago | 3 | All Maps","name_short":"chi-3","host":"chi-1.us.uncletopia.com","port":27035,"enabled":true,"region":"us-central","cc":"us","latitude":41.881832,"longitude":-87.62318,"reserved":0,"last_update":"0001-01-01T00:00:00Z","name_a2s":"Uncletopia | Chicago | 3 | All Maps","protocol":17,"map":"pl_pier","folder":"tf","game":"Team Fortress","app_id":440,"player_count":24,"max_players":24,"Bots":0,"server_type":"Dedicated","server_os":"Linux","password":true,"vac":true,"version":"7757534","steam_id":85568392924515191,"keywords":["nocrits","nodmgspread","payload","uncletopia"],"game_id":440,"stv_port":27036,"stv_name":"Uncletopia | Chicago | 3 | All Maps | STV","players":[{"user_id":511,"name":"NormalUser","steam_id":76561199025374371,"connected_time":374000000000,"state":"active","ping":177},{"user_id":506,"name":"Sevice","steam_id":76561198108904001,"connected_time":696000000000,"state":"active","ping":61},{"user_id":512,"name":"Mengle","steam_id":76561198001953684,"connected_time":351000000000,"state":"active","ping":62},{"user_id":486,"name":"Azby_","steam_id":76561198230307016,"connected_time":1782000000000,"state":"active","ping":114},{"user_id":489,"name":"sneaky bear","steam_id":76561198080119534,"connected_time":1751000000000,"state":"active","ping":120},{"user_id":513,"name":"Toasty","steam_id":76561199033000719,"connected_time":333000000000,"state":"active","ping":109},{"user_id":492,"name":"Isaacord","steam_id":76561198070259559,"connected_time":1726000000000,"state":"active","ping":145},{"user_id":491,"name":"Kujo","steam_id":76561198342579745,"connected_time":1741000000000,"state":"active","ping":121},{"user_id":507,"name":"I can't heal","steam_id":76561198039763676,"connected_time":693000000000,"state":"active","ping":65},{"user_id":494,"name":"Potassium!","steam_id":76561199082921723,"connected_time":1693000000000,"state":"active","ping":117},{"user_id":514,"name":"The Foolish Samurai","steam_id":76561198094494945,"connected_time":302000000000,"state":"active","ping":107},{"user_id":515,"name":"M17","steam_id":76561198124771378,"connected_time":299000000000,"state":"active","ping":61},{"user_id":516,"name":"JanPinyon610","steam_id":76561199238454799,"connected_time":255000000000,"state":"active","ping":100},{"user_id":517,"name":"One Shot and A Miss","steam_id":76561198124269698,"connected_time":240000000000,"state":"active","ping":62},{"user_id":518,"name":"TheGlassPistol","steam_id":76561199383149833,"connected_time":160000000000,"state":"active","ping":120},{"user_id":504,"name":"I am The Spy","steam_id":76561198067131857,"connected_time":1235000000000,"state":"active","ping":71},{"user_id":478,"name":"Goblin Mode","steam_id":76561198064870076,"connected_time":2509000000000,"state":"active","ping":91},{"user_id":479,"name":"Javis","steam_id":76561198204163123,"connected_time":2385000000000,"state":"active","ping":62},{"user_id":465,"name":"Miltynine","steam_id":76561198085520594,"connected_time":3236000000000,"state":"active","ping":58},{"user_id":519,"name":"evan_is_sauce","steam_id":76561199086802383,"connected_time":133000000000,"state":"active","ping":109},{"user_id":520,"name":"barivox","steam_id":76561197971846498,"connected_time":133000000000,"state":"active","ping":45},{"user_id":499,"name":"Yune","steam_id":76561198039324447,"connected_time":1598000000000,"state":"active","ping":98},{"user_id":521,"name":"Raubvogel","steam_id":76561198880698750,"connected_time":116000000000,"state":"active","ping":90},{"user_id":522,"name":"urine trouble","steam_id":76561199013266640,"connected_time":85000000000,"state":"active","ping":92}]},{"server_id":403,"name":"Uncletopia | Chicago | 4 | All Maps","name_short":"chi-4","host":"chi-1.us.uncletopia.com","port":27045,"enabled":true,"region":"us-central","cc":"us","latitude":41.881832,"longitude":-87.62318,"reserved":0,"last_update":"0001-01-01T00:00:00Z","name_a2s":"Uncletopia | Chicago | 4 | All Maps","protocol":17,"map":"ctf_2fort","folder":"tf","game":"Team Fortress","app_id":440,"player_count":15,"max_players":24,"Bots":0,"server_type":"Dedicated","server_os":"Linux","password":true,"vac":true,"version":"7757534","steam_id":85568392924515193,"keywords":["ctf","nocrits","nodmgspread","uncletopia"],"game_id":440,"stv_port":27046,"stv_name":"Uncletopia | Chicago | 4 | All Maps | STV","players":[{"user_id":609,"name":"kametro4","steam_id":76561198835430429,"connected_time":697000000000,"state":"active","ping":76},{"user_id":526,"name":"Nerdin4Life","steam_id":76561198138417387,"connected_time":6272000000000,"state":"active","ping":104},{"user_id":556,"name":"roast pig with apple in mouth","steam_id":76561198051353647,"connected_time":4053000000000,"state":"active","ping":58},{"user_id":604,"name":"Bello Italiano","steam_id":76561198141376721,"connected_time":1109000000000,"state":"active","ping":92},{"user_id":608,"name":"Vapeinhand","steam_id":76561198134439943,"connected_time":811000000000,"state":"active","ping":62},{"user_id":552,"name":"deepmeta","steam_id":76561199053600691,"connected_time":4154000000000,"state":"active","ping":61},{"user_id":494,"name":"SkyShu","steam_id":76561198084848054,"connected_time":8183000000000,"state":"active","ping":63},{"user_id":528,"name":"junki","steam_id":76561198353456379,"connected_time":6239000000000,"state":"active","ping":69},{"user_id":600,"name":"Chaspen","steam_id":76561198098269939,"connected_time":1500000000000,"state":"active","ping":74},{"user_id":554,"name":"Kyrisuu","steam_id":76561198362711064,"connected_time":4082000000000,"state":"active","ping":63},{"user_id":603,"name":"Titar Industries","steam_id":76561198143078476,"connected_time":1320000000000,"state":"active","ping":66},{"user_id":590,"name":"Livi","steam_id":76561198080211750,"connected_time":2084000000000,"state":"active","ping":113},{"user_id":591,"name":"LewdLuna","steam_id":76561199475884430,"connected_time":2028000000000,"state":"active","ping":139},{"user_id":592,"name":"Westlyroots","steam_id":76561198170431198,"connected_time":2027000000000,"state":"active","ping":60},{"user_id":593,"name":"Chaffy2125","steam_id":76561198232839260,"connected_time":2016000000000,"state":"active","ping":129}]},{"server_id":36,"name":"Uncletopia | Chicago | 5 | All Maps","name_short":"chi-5","host":"chi-2.us.uncletopia.com","port":27015,"enabled":true,"region":"us-central","cc":"us","latitude":41.881832,"longitude":-87.62318,"reserved":0,"last_update":"0001-01-01T00:00:00Z","name_a2s":"Uncletopia | Chicago | 5 | All Maps","protocol":17,"map":"pl_swiftwater_final1","folder":"tf","game":"Team Fortress","app_id":440,"player_count":24,"max_players":24,"Bots":0,"server_type":"Dedicated","server_os":"Linux","password":true,"vac":true,"version":"7757534","steam_id":85568392924866362,"keywords":["nocrits","nodmgspread","payload","uncletopia"],"game_id":440,"stv_port":27016,"stv_name":"Uncletopia | Chicago | 5 | All Maps | STV","players":[{"user_id":685,"name":"honked off the bobo","steam_id":76561198123287268,"connected_time":3006000000000,"state":"active","ping":46},{"user_id":675,"name":"Born to shit, Forced to wipe","steam_id":76561198137880777,"connected_time":4575000000000,"state":"active","ping":86},{"user_id":701,"name":"fice","steam_id":76561198860361610,"connected_time":1613000000000,"state":"active","ping":69},{"user_id":716,"name":"Ended","steam_id":76561198112214021,"connected_time":443000000000,"state":"active","ping":112},{"user_id":711,"name":"Zin","steam_id":76561198079763004,"connected_time":1180000000000,"state":"active","ping":72},{"user_id":698,"name":"Grand Wizard Autismo","steam_id":76561198069834979,"connected_time":2217000000000,"state":"active","ping":64},{"user_id":686,"name":"TGPupps","steam_id":76561198281201914,"connected_time":2883000000000,"state":"active","ping":145},{"user_id":495,"name":"Lore","steam_id":76561198098407538,"connected_time":14623000000000,"state":"active","ping":45},{"user_id":703,"name":"Thrackzog","steam_id":76561198183203745,"connected_time":1556000000000,"state":"active","ping":55},{"user_id":695,"name":"exotic fishes","steam_id":76561199046490785,"connected_time":2328000000000,"state":"active","ping":80},{"user_id":715,"name":"Hell's Reindeer","steam_id":76561198065310364,"connected_time":482000000000,"state":"active","ping":48},{"user_id":719,"name":"Animal Slices","steam_id":76561198137545511,"connected_time":112000000000,"state":"active","ping":60},{"user_id":630,"name":"xFactr","steam_id":76561198129007422,"connected_time":7277000000000,"state":"active","ping":59},{"user_id":712,"name":"rad","steam_id":76561198413125750,"connected_time":1074000000000,"state":"active","ping":65},{"user_id":704,"name":"Menthol Cop","steam_id":76561198179817985,"connected_time":1547000000000,"state":"active","ping":80},{"user_id":705,"name":"xMystic_Fire","steam_id":76561198189961543,"connected_time":1540000000000,"state":"active","ping":76},{"user_id":696,"name":"Michaelpc1","steam_id":76561198088365519,"connected_time":2265000000000,"state":"active","ping":76},{"user_id":713,"name":"A Shiny Meat Bicycle","steam_id":76561198358757709,"connected_time":753000000000,"state":"active","ping":96},{"user_id":694,"name":"dipp","steam_id":76561198395577807,"connected_time":2633000000000,"state":"active","ping":57},{"user_id":707,"name":"demoknight tf2","steam_id":76561198070393998,"connected_time":1480000000000,"state":"active","ping":59},{"user_id":708,"name":"Susiety","steam_id":76561198182294378,"connected_time":1464000000000,"state":"active","ping":122},{"user_id":690,"name":"Blitz","steam_id":76561198055758741,"connected_time":2755000000000,"state":"active","ping":65},{"user_id":718,"name":"roo the observer","steam_id":76561198120684348,"connected_time":316000000000,"state":"active","ping":60},{"user_id":693,"name":"NovaSc6ut","steam_id":76561198277163301,"connected_time":2716000000000,"state":"active","ping":74}]},{"server_id":37,"name":"Uncletopia | Chicago | 6 | All Maps","name_short":"chi-6","host":"chi-2.us.uncletopia.com","port":27025,"enabled":true,"region":"us-central","cc":"us","latitude":41.881832,"longitude":-87.62318,"reserved":0,"last_update":"0001-01-01T00:00:00Z","name_a2s":"Uncletopia | Chicago | 6 | All Maps","protocol":17,"map":"pl_snowycoast","folder":"tf","game":"Team Fortress","app_id":440,"player_count":0,"max_players":24,"Bots":0,"server_type":"Dedicated","server_os":"Linux","password":true,"vac":true,"version":"7757534","steam_id":85568392924866363,"keywords":["nocrits","nodmgspread","payload","uncletopia"],"game_id":440,"stv_port":27026,"stv_name":"Uncletopia | Chicago | 6 | All Maps | STV","players":null},{"server_id":38,"name":"Uncletopia | Chicago | 7 | Stopwatch Beta","name_short":"chi-7","host":"chi-2.us.uncletopia.com","port":27035,"enabled":true,"region":"us-central","cc":"us","latitude":41.881832,"longitude":-87.62318,"reserved":0,"last_update":"0001-01-01T00:00:00Z","name_a2s":"Uncletopia | Chicago | 7 | Stopwatch Beta","protocol":17,"map":"koth_viaduct","folder":"tf","game":"Team Fortress","app_id":440,"player_count":0,"max_players":24,"Bots":0,"server_type":"Dedicated","server_os":"Linux","password":true,"vac":true,"version":"7757534","steam_id":85568392924866364,"keywords":["cp","nocrits","nodmgspread","uncletopia"],"game_id":440,"stv_port":27036,"stv_name":"Uncletopia | Chicago | 7 | Stopwatch Beta | STV","players":null},{"server_id":39,"name":"Uncletopia | Chicago | 8 | Community","name_short":"chi-8","host":"chi-2.us.uncletopia.com","port":27045,"enabled":true,"region":"us-central","cc":"us","latitude":41.881832,"longitude":-87.62318,"reserved":0,"last_update":"0001-01-01T00:00:00Z","name_a2s":"Uncletopia | Chicago | 8 | Community","protocol":17,"map":"workshop/koth_ramjam_rc1.ugc459778887","folder":"tf","game":"Team Fortress","app_id":440,"player_count":0,"max_players":24,"Bots":0,"server_type":"Dedicated","server_os":"Linux","password":true,"vac":true,"version":"7757534","steam_id":85568392924866365,"keywords":["cp","nocrits","nodmgspread","uncletopia"],"game_id":440,"stv_port":27046,"stv_name":"Uncletopia | Chicago | 8 | Community | STV","players":null},{"server_id":8,"name":"Uncletopia | Dallas | 1 | All Maps","name_short":"dal-1","host":"dal-1.us.uncletopia.com","port":27015,"enabled":true,"region":"us-central","cc":"us","latitude":32.779167,"longitude":-96.80889,"reserved":0,"last_update":"0001-01-01T00:00:00Z","name_a2s":"Uncletopia | Dallas | 1 | All Maps","protocol":17,"map":"cp_altitude","folder":"tf","game":"Team Fortress","app_id":440,"player_count":24,"max_players":24,"Bots":0,"server_type":"Dedicated","server_os":"Linux","password":true,"vac":true,"version":"7757534","steam_id":85568392924469986,"keywords":["cp","nocrits","nodmgspread","uncletopia"],"game_id":440,"stv_port":27016,"stv_name":"Uncletopia | Dallas | 1 | All Maps | STV","players":[{"user_id":646,"name":"TF3 Medic gaming","steam_id":76561199053687718,"connected_time":1737000000000,"state":"active","ping":113},{"user_id":645,"name":"Blade Noir","steam_id":76561198091690109,"connected_time":1859000000000,"state":"active","ping":76},{"user_id":660,"name":"Xxjuan.gonzales2008xX","steam_id":76561198101971132,"connected_time":854000000000,"state":"active","ping":61},{"user_id":672,"name":"Quietsharp","steam_id":76561198277968438,"connected_time":348000000000,"state":"active","ping":89},{"user_id":661,"name":"Stoic","steam_id":76561199052783151,"connected_time":769000000000,"state":"active","ping":108},{"user_id":662,"name":"CH4$EWarZ","steam_id":76561199079567267,"connected_time":748000000000,"state":"active","ping":124},{"user_id":626,"name":"Saulen","steam_id":76561198150726407,"connected_time":3526000000000,"state":"active","ping":61},{"user_id":663,"name":"Tempster","steam_id":76561199090084259,"connected_time":745000000000,"state":"active","ping":72},{"user_id":670,"name":"Son of Slop","steam_id":76561198042816721,"connected_time":365000000000,"state":"active","ping":89},{"user_id":650,"name":"üå∏MelWormüå∏","steam_id":76561198084145814,"connected_time":1493000000000,"state":"active","ping":67},{"user_id":664,"name":"oxygenic_rex","steam_id":76561199128584535,"connected_time":740000000000,"state":"active","ping":106},{"user_id":607,"name":"Quiver Cakes ._.","steam_id":76561198243155576,"connected_time":5051000000000,"state":"active","ping":76},{"user_id":648,"name":"Kirbothebrony","steam_id":76561198971911330,"connected_time":1511000000000,"state":"active","ping":71},{"user_id":639,"name":"DoorhingeMan","steam_id":76561198872501684,"connected_time":2334000000000,"state":"active","ping":102},{"user_id":673,"name":"crypt","steam_id":76561198280142450,"connected_time":146000000000,"state":"active","ping":47},{"user_id":671,"name":"Kronk","steam_id":76561198063092125,"connected_time":353000000000,"state":"active","ping":93},{"user_id":652,"name":"cmdpnt","steam_id":76561198136441803,"connected_time":1458000000000,"state":"active","ping":108},{"user_id":619,"name":"Locomotive","steam_id":76561199152926930,"connected_time":4810000000000,"state":"active","ping":71},{"user_id":653,"name":"momb","steam_id":76561198142234038,"connected_time":1445000000000,"state":"active","ping":91},{"user_id":636,"name":"jimmyfnaf173822yay","steam_id":76561198311446636,"connected_time":2617000000000,"state":"active","ping":75},{"user_id":658,"name":"_cza","steam_id":76561198079793576,"connected_time":1023000000000,"state":"active","ping":108},{"user_id":634,"name":"Darentmotion","steam_id":76561198161628971,"connected_time":2810000000000,"state":"active","ping":77},{"user_id":667,"name":"Phae","steam_id":76561199059193389,"connected_time":710000000000,"state":"active","ping":90},{"user_id":627,"name":"Koiba","steam_id":76561198114470376,"connected_time":3506000000000,"state":"active","ping":96}]},{"server_id":108,"name":"Uncletopia | Dallas | 2 | All Maps","name_short":"dal-2","host":"dal-1.us.uncletopia.com","port":27025,"enabled":true,"region":"us-central","cc":"us","latitude":32.779167,"longitude":-96.80889,"reserved":0,"last_update":"0001-01-01T00:00:00Z","name_a2s":"Uncletopia | Dallas | 2 | All Maps","protocol":17,"map":"cp_dustbowl","folder":"tf","game":"Team Fortress","app_id":440,"player_count":20,"max_players":24,"Bots":0,"server_type":"Dedicated","server_os":"Linux","password":true,"vac":true,"version":"7757534","steam_id":85568392924469988,"keywords":["cp","nocrits","nodmgspread","uncletopia"],"game_id":440,"stv_port":27026,"stv_name":"Uncletopia | Dallas | 2 | All Maps | STV","players":[{"user_id":622,"name":"StarManMatt","steam_id":76561198125513574,"connected_time":59000000000,"state":"active","ping":91},{"user_id":609,"name":"moist","steam_id":76561197986487487,"connected_time":545000000000,"state":"active","ping":74},{"user_id":512,"name":"Hamee333","steam_id":76561199388127663,"connected_time":8085000000000,"state":"active","ping":97},{"user_id":612,"name":"üåßÔ∏èüåßÔ∏èüåßÔ∏èüåßÔ∏è\ufffd\ufffd\ufffd","steam_id":76561197990824492,"connected_time":360000000000,"state":"active","ping":69},{"user_id":613,"name":"Zho Biden","steam_id":76561198079224101,"connected_time":357000000000,"state":"active","ping":61},{"user_id":590,"name":"Madrox Who?","steam_id":76561197988859134,"connected_time":2540000000000,"state":"active","ping":90},{"user_id":616,"name":"landogg","steam_id":76561198049000586,"connected_time":323000000000,"state":"active","ping":61},{"user_id":618,"name":"banan team fortes","steam_id":76561199073621650,"connected_time":232000000000,"state":"active","ping":84},{"user_id":497,"name":"Forklift Certified Cat Girl","steam_id":76561198072555204,"connected_time":8538000000000,"state":"active","ping":73},{"user_id":615,"name":"John","steam_id":76561199124365886,"connected_time":336000000000,"state":"active","ping":73},{"user_id":562,"name":"errant","steam_id":76561197961758410,"connected_time":4390000000000,"state":"active","ping":33},{"user_id":617,"name":"Spring Beans","steam_id":76561197978546259,"connected_time":293000000000,"state":"active","ping":31},{"user_id":578,"name":"town.midi","steam_id":76561198059041027,"connected_time":3287000000000,"state":"active","ping":107},{"user_id":619,"name":"Nukalaunch","steam_id":76561199255653942,"connected_time":225000000000,"state":"active","ping":101},{"user_id":620,"name":"sergeant Adderall","steam_id":76561199010296481,"connected_time":199000000000,"state":"active","ping":102},{"user_id":606,"name":"Lezabel","steam_id":76561198970753261,"connected_time":743000000000,"state":"active","ping":69},{"user_id":596,"name":"bolainassr0","steam_id":76561199079078845,"connected_time":1416000000000,"state":"active","ping":105},{"user_id":621,"name":"DeviledEgg","steam_id":76561198318797339,"connected_time":198000000000,"state":"active","ping":62},{"user_id":598,"name":"Kelmer","steam_id":76561198272075572,"connected_time":1242000000000,"state":"active","ping":97},{"user_id":591,"name":"Ashe Nthlei","steam_id":76561198080667277,"connected_time":1712000000000,"state":"active","ping":75}]},{"server_id":5,"name":"Uncletopia | Frankfurt | 1 | All Maps","name_short":"frk-1","host":"frk-1.de.uncletopia.com","port":27015,"enabled":true,"region":"eu","cc":"de","latitude":50.110924,"longitude":8.682127,"reserved":0,"last_update":"0001-01-01T00:00:00Z","name_a2s":"Uncletopia | Frankfurt | 1 | All Maps","protocol":17,"map":"pl_badwater","folder":"tf","game":"Team Fortress","app_id":440,"player_count":0,"max_players":24,"Bots":0,"server_type":"Dedicated","server_os":"Linux","password":true,"vac":true,"version":"7757534","steam_id":85568392924469989,"keywords":["nocrits","nodmgspread","payload","uncletopia"],"game_id":440,"stv_port":27016,"stv_name":"Uncletopia | Frankfurt | 1 | All Maps | STV","players":null},{"server_id":110,"name":"Uncletopia | Frankfurt | 2 | All Maps","name_short":"frk-2","host":"frk-1.de.uncletopia.com","port":27025,"enabled":true,"region":"eu","cc":"de","latitude":50.110924,"longitude":8.682127,"reserved":0,"last_update":"0001-01-01T00:00:00Z","name_a2s":"Uncletopia | Frankfurt | 2 | All Maps","protocol":17,"map":"cp_altitude","folder":"tf","game":"Team Fortress","app_id":440,"player_count":0,"max_players":24,"Bots":0,"server_type":"Dedicated","server_os":"Linux","password":true,"vac":true,"version":"7757534","steam_id":85568392924469990,"keywords":["cp","nocrits","nodmgspread","uncletopia"],"game_id":440,"stv_port":27026,"stv_name":"Uncletopia | Frankfurt | 2 | All Maps | STV","players":null},{"server_id":308,"name":"Uncletopia | Frankfurt | 3 | All Maps","name_short":"frk-3","host":"frk-1.de.uncletopia.com","port":27035,"enabled":true,"region":"eu","cc":"de","latitude":50.110924,"longitude":8.682127,"reserved":0,"last_update":"0001-01-01T00:00:00Z","name_a2s":"Uncletopia | Frankfurt | 3 | All Maps","protocol":17,"map":"pl_borneo","folder":"tf","game":"Team Fortress","app_id":440,"player_count":0,"max_players":24,"Bots":0,"server_type":"Dedicated","server_os":"Linux","password":true,"vac":true,"version":"7757534","steam_id":85568392924504274,"keywords":["nocrits","nodmgspread","payload","uncletopia"],"game_id":440,"stv_port":27036,"stv_name":"Uncletopia | Frankfurt | 3 | All Maps | STV","players":null},{"server_id":309,"name":"Uncletopia | Frankfurt | 4 | All Maps","name_short":"frk-4","host":"frk-1.de.uncletopia.com","port":27045,"enabled":true,"region":"eu","cc":"de","latitude":50.110924,"longitude":8.682127,"reserved":0,"last_update":"0001-01-01T00:00:00Z","name_a2s":"Uncletopia | Frankfurt | 4 | All Maps","protocol":17,"map":"pl_pier","folder":"tf","game":"Team Fortress","app_id":440,"player_count":0,"max_players":24,"Bots":0,"server_type":"Dedicated","server_os":"Linux","password":true,"vac":true,"version":"7757534","steam_id":85568392924504275,"keywords":["nocrits","nodmgspread","payload","uncletopia"],"game_id":440,"stv_port":27046,"stv_name":"Uncletopia | Frankfurt | 4 | All Maps | STV","players":null},{"server_id":310,"name":"Uncletopia | Frankfurt | 5 | All Maps","name_short":"frk-5","host":"frk-1.de.uncletopia.com","port":27055,"enabled":true,"region":"eu","cc":"de","latitude":50.110924,"longitude":8.682127,"reserved":0,"last_update":"0001-01-01T00:00:00Z","name_a2s":"Uncletopia | Frankfurt | 5 | All Maps","protocol":17,"map":"cp_altitude","folder":"tf","game":"Team Fortress","app_id":440,"player_count":0,"max_players":24,"Bots":0,"server_type":"Dedicated","server_os":"Linux","password":true,"vac":true,"version":"7757534","steam_id":85568392924504277,"keywords":["cp","nocrits","nodmgspread","uncletopia"],"game_id":440,"stv_port":27056,"stv_name":"Uncletopia | Frankfurt | 5 | All Maps | STV","players":null},{"server_id":311,"name":"Uncletopia | Frankfurt | 6 | All Maps","name_short":"frk-6","host":"frk-1.de.uncletopia.com","port":27065,"enabled":true,"region":"eu","cc":"de","latitude":50.110924,"longitude":8.682127,"reserved":0,"last_update":"0001-01-01T00:00:00Z","name_a2s":"Uncletopia | Frankfurt | 6 | All Maps","protocol":17,"map":"pl_barnblitz","folder":"tf","game":"Team Fortress","app_id":440,"player_count":0,"max_players":24,"Bots":0,"server_type":"Dedicated","server_os":"Linux","password":true,"vac":true,"version":"7757534","steam_id":85568392924504278,"keywords":["nocrits","nodmgspread","payload","uncletopia"],"game_id":440,"stv_port":27066,"stv_name":"Uncletopia | Frankfurt | 6 | All Maps | STV","players":null},{"server_id":23,"name":"Uncletopia | Frankfurt | 7 | Stopwatch Beta","name_short":"frk-7","host":"frk-1.de.uncletopia.com","port":27075,"enabled":true,"region":"eu","cc":"de","latitude":50.110924,"longitude":8.682127,"reserved":0,"last_update":"0001-01-01T00:00:00Z","name_a2s":"Uncletopia | Frankfurt | 7 | Stopwatch Beta","protocol":17,"map":"pl_borneo","folder":"tf","game":"Team Fortress","app_id":440,"player_count":0,"max_players":24,"Bots":0,"server_type":"Dedicated","server_os":"Linux","password":true,"vac":true,"version":"7757534","steam_id":85568392924742827,"keywords":["nocrits","nodmgspread","payload","uncletopia"],"game_id":440,"stv_port":27076,"stv_name":"Uncletopia | Frankfurt | 7 | Stopwatch Beta | STV","players":null},{"server_id":24,"name":"Uncletopia | Frankfurt | 8 | Community","name_short":"frk-8","host":"frk-1.de.uncletopia.com","port":27085,"enabled":true,"region":"eu","cc":"de","latitude":50.110924,"longitude":8.682127,"reserved":0,"last_update":"0001-01-01T00:00:00Z","name_a2s":"Uncletopia | Frankfurt | 8 | Community","protocol":17,"map":"koth_viaduct","folder":"tf","game":"Team Fortress","app_id":440,"player_count":0,"max_players":24,"Bots":0,"server_type":"Dedicated","server_os":"Linux","password":true,"vac":true,"version":"7757534","steam_id":85568392924742828,"keywords":["cp","nocrits","nodmgspread","uncletopia"],"game_id":440,"stv_port":27086,"stv_name":"Uncletopia | Frankfurt | 8 | Community | STV","players":null},{"server_id":202,"name":"Uncletopia | Hong Kong | 1 | All Maps","name_short":"hgk-1","host":"hgk-1.hk.uncletopia.com","port":27015,"enabled":true,"region":"asia","cc":"hk","latitude":22.302711,"longitude":114.177216,"reserved":0,"last_update":"0001-01-01T00:00:00Z","name_a2s":"Uncletopia | Hong Kong | 1 | All Maps","protocol":17,"map":"pl_borneo","folder":"tf","game":"Team Fortress","app_id":440,"player_count":24,"max_players":24,"Bots":0,"server_type":"Dedicated","server_os":"Linux","password":true,"vac":true,"version":"7757534","steam_id":85568392924494504,"keywords":["nocrits","nodmgspread","payload","uncletopia"],"game_id":440,"stv_port":27016,"stv_name":"Uncletopia | Hong Kong | 1 | All Maps | STV","players":[{"user_id":167,"name":"+1","steam_id":76561198363823577,"connected_time":667000000000,"state":"active","ping":92},{"user_id":156,"name":"odyssey","steam_id":76561199443938682,"connected_time":1513000000000,"state":"active","ping":75},{"user_id":143,"name":"Milk‚ù§ (First Scope Enjoyer)","steam_id":76561198163911560,"connected_time":3380000000000,"state":"active","ping":133},{"user_id":174,"name":"Memolitons Dan","steam_id":76561198164274411,"connected_time":46000000000,"state":"active","ping":191},{"user_id":25,"name":"spinach (old mouse)","steam_id":76561198042539541,"connected_time":11087000000000,"state":"active","ping":99},{"user_id":72,"name":"Michael Scott","steam_id":76561198023082794,"connected_time":6283000000000,"state":"active","ping":49},{"user_id":159,"name":"Cod0fDuty","steam_id":76561198958062892,"connected_time":1493000000000,"state":"active","ping":42},{"user_id":173,"name":"Vortex Artemisio","steam_id":76561198833527091,"connected_time":332000000000,"state":"active","ping":96},{"user_id":31,"name":"vintage","steam_id":76561198230213828,"connected_time":10406000000000,"state":"active","ping":61},{"user_id":149,"name":"Miku831","steam_id":76561198162232044,"connected_time":2854000000000,"state":"active","ping":54},{"user_id":142,"name":"spagsauce","steam_id":76561198999511239,"connected_time":3412000000000,"state":"active","ping":64},{"user_id":111,"name":"Buttman","steam_id":76561198044693388,"connected_time":5042000000000,"state":"active","ping":54},{"user_id":56,"name":"Bertengkar","steam_id":76561198213031155,"connected_time":9177000000000,"state":"active","ping":101},{"user_id":160,"name":"Stupid B","steam_id":76561198131423270,"connected_time":1490000000000,"state":"active","ping":93},{"user_id":161,"name":"Light Rainbow","steam_id":76561198118966673,"connected_time":1489000000000,"state":"active","ping":75},{"user_id":155,"name":"tiden2000","steam_id":76561198092969425,"connected_time":1522000000000,"state":"active","ping":121},{"user_id":157,"name":"bmbmbm","steam_id":76561198413116920,"connected_time":1513000000000,"state":"active","ping":104},{"user_id":148,"name":"SunShine","steam_id":76561198323642446,"connected_time":3026000000000,"state":"active","ping":115},{"user_id":60,"name":"anemoia","steam_id":76561198074339034,"connected_time":8732000000000,"state":"active","ping":74},{"user_id":165,"name":"Puddin","steam_id":76561198140052918,"connected_time":776000000000,"state":"active","ping":97},{"user_id":118,"name":"water tastes good","steam_id":76561199375947670,"connected_time":4481000000000,"state":"active","ping":80},{"user_id":170,"name":"corpse_cadaver","steam_id":76561199225360457,"connected_time":596000000000,"state":"active","ping":80},{"user_id":158,"name":"omsssssm","steam_id":76561198320532821,"connected_time":1513000000000,"state":"active","ping":69},{"user_id":75,"name":"3wfFbdrjEze5d2G","steam_id":76561198435900451,"connected_time":6226000000000,"state":"active","ping":166}]},{"server_id":1,"name":"Uncletopia | Los Angeles | 1 | All Maps","name_short":"lax-1","host":"lax-1.us.uncletopia.com","port":27015,"enabled":true,"region":"us-west","cc":"us","latitude":33.94279,"longitude":-118.41004,"reserved":0,"last_update":"0001-01-01T00:00:00Z","name_a2s":"Uncletopia | Los Angeles | 1 | All Maps","protocol":17,"map":"pl_pier","folder":"tf","game":"Team Fortress","app_id":440,"player_count":24,"max_players":24,"Bots":0,"server_type":"Dedicated","server_os":"Linux","password":true,"vac":true,"version":"7757534","steam_id":85568392924469991,"keywords":["nocrits","nodmgspread","payload","uncletopia"],"game_id":440,"stv_port":27016,"stv_name":"Uncletopia | Los Angeles | 1 | All Maps | STV","players":[{"user_id":141,"name":"TheCongaGuy","steam_id":76561198212445095,"connected_time":1398000000000,"state":"active","ping":92},{"user_id":142,"name":"NoJo","steam_id":76561198253582329,"connected_time":1352000000000,"state":"active","ping":90},{"user_id":143,"name":"KaptainLarge","steam_id":76561198851530922,"connected_time":1337000000000,"state":"active","ping":91},{"user_id":144,"name":"CameronTheGuy","steam_id":76561199405699494,"connected_time":1325000000000,"state":"active","ping":104},{"user_id":145,"name":"FIVE9","steam_id":76561199193096567,"connected_time":1319000000000,"state":"active","ping":92},{"user_id":146,"name":"tacofever","steam_id":76561198010966507,"connected_time":1192000000000,"state":"active","ping":50},{"user_id":147,"name":"gorse","steam_id":76561199046574121,"connected_time":1184000000000,"state":"active","ping":59},{"user_id":148,"name":"ribbonborn","steam_id":76561198001195423,"connected_time":1120000000000,"state":"active","ping":92},{"user_id":149,"name":"peppy","steam_id":76561198361818082,"connected_time":1099000000000,"state":"active","ping":101},{"user_id":150,"name":"LuigiRed","steam_id":76561198230578712,"connected_time":1079000000000,"state":"active","ping":41},{"user_id":151,"name":"[Colorbomb]","steam_id":76561198006316527,"connected_time":1065000000000,"state":"active","ping":58},{"user_id":152,"name":"Schnitz","steam_id":76561198265484253,"connected_time":1009000000000,"state":"active","ping":56},{"user_id":153,"name":"Tech Deck","steam_id":76561199070437675,"connected_time":1000000000000,"state":"active","ping":57},{"user_id":154,"name":"intek","steam_id":76561198052705291,"connected_time":933000000000,"state":"active","ping":78},{"user_id":155,"name":"jcq","steam_id":76561198342480009,"connected_time":923000000000,"state":"active","ping":57},{"user_id":171,"name":"SuaveFrenchman","steam_id":76561198043762683,"connected_time":52000000000,"state":"active","ping":55},{"user_id":169,"name":"Ronin.","steam_id":76561198800028107,"connected_time":109000000000,"state":"active","ping":106},{"user_id":158,"name":"FROYO b4nny","steam_id":76561197970669109,"connected_time":847000000000,"state":"active","ping":48},{"user_id":160,"name":"Lucki","steam_id":76561198149140645,"connected_time":795000000000,"state":"active","ping":102},{"user_id":161,"name":"VidzCMC","steam_id":76561198848142973,"connected_time":756000000000,"state":"active","ping":110},{"user_id":170,"name":"faye","steam_id":76561198254541066,"connected_time":65000000000,"state":"active","ping":46},{"user_id":167,"name":"nyoah","steam_id":76561198834915248,"connected_time":595000000000,"state":"active","ping":56},{"user_id":164,"name":"Maniacal Rage","steam_id":76561197970758925,"connected_time":670000000000,"state":"active","ping":57},{"user_id":166,"name":"Five","steam_id":76561198026640473,"connected_time":649000000000,"state":"active","ping":60}]},{"server_id":112,"name":"Uncletopia | Los Angeles | 2 | All Maps","name_short":"lax-2","host":"lax-1.us.uncletopia.com","port":27025,"enabled":true,"region":"us-west","cc":"us","latitude":33.94279,"longitude":-118.41004,"reserved":0,"last_update":"0001-01-01T00:00:00Z","name_a2s":"Uncletopia | Los Angeles | 2 | All Maps","protocol":17,"map":"pl_upward","folder":"tf","game":"Team Fortress","app_id":440,"player_count":22,"max_players":24,"Bots":0,"server_type":"Dedicated","server_os":"Linux","password":true,"vac":true,"version":"7757534","steam_id":85568392924469992,"keywords":["nocrits","nodmgspread","payload","uncletopia"],"game_id":440,"stv_port":27026,"stv_name":"Uncletopia | Los Angeles | 2 | All Maps | STV","players":[{"user_id":912,"name":"Ben Ben","steam_id":76561198307247913,"connected_time":16000000000,"state":"active","ping":49},{"user_id":907,"name":"eaglefeather911","steam_id":76561198339309826,"connected_time":226000000000,"state":"active","ping":84},{"user_id":873,"name":"goofy gus","steam_id":76561198234581744,"connected_time":3568000000000,"state":"active","ping":74},{"user_id":874,"name":"PinguEnjoyer6","steam_id":76561199186723516,"connected_time":3527000000000,"state":"active","ping":60},{"user_id":900,"name":"mojoe","steam_id":76561198019571194,"connected_time":2090000000000,"state":"active","ping":45},{"user_id":904,"name":"P.I.Staker","steam_id":76561198087096559,"connected_time":1370000000000,"state":"active","ping":75},{"user_id":882,"name":"M4 Sherman","steam_id":76561198126990820,"connected_time":3112000000000,"state":"active","ping":101},{"user_id":886,"name":"Flamin' Hot‚Ñ¢ Limon Cheetos‚Ñ¢","steam_id":76561198157033594,"connected_time":3028000000000,"state":"active","ping":58},{"user_id":895,"name":"TheDogeIsReal","steam_id":76561199331300024,"connected_time":2635000000000,"state":"active","ping":87},{"user_id":910,"name":"Kenshi „Ç±„É≥„Ç∑","steam_id":76561199054651443,"connected_time":82000000000,"state":"active","ping":101},{"user_id":883,"name":"tie dye die guy","steam_id":76561198049845337,"connected_time":3103000000000,"state":"active","ping":58},{"user_id":887,"name":"le fishe","steam_id":76561198195689961,"connected_time":2999000000000,"state":"active","ping":68},{"user_id":905,"name":"Lustitarious","steam_id":76561198118188360,"connected_time":1324000000000,"state":"active","ping":57},{"user_id":908,"name":"OG Mando","steam_id":76561198799439774,"connected_time":225000000000,"state":"active","ping":43},{"user_id":850,"name":"MrMeister","steam_id":76561198307194213,"connected_time":5793000000000,"state":"active","ping":83},{"user_id":888,"name":"FriskyDemon","steam_id":76561198043684646,"connected_time":2963000000000,"state":"active","ping":72},{"user_id":889,"name":"party chip","steam_id":76561198277153335,"connected_time":2957000000000,"state":"active","ping":50},{"user_id":913,"name":"I'm So Fucking Cool","steam_id":76561198098418071,"connected_time":12000000000,"state":"active","ping":102},{"user_id":897,"name":"jenny possum","steam_id":76561198062879460,"connected_time":2444000000000,"state":"active","ping":68},{"user_id":869,"name":"Axelfreeze14","steam_id":76561198436383913,"connected_time":3629000000000,"state":"active","ping":49},{"user_id":898,"name":"everythingrhymeswithorange","steam_id":76561198010306193,"connected_time":2424000000000,"state":"active","ping":70},{"user_id":848,"name":"rmbl","steam_id":76561198150137369,"connected_time":6160000000000,"state":"active","ping":45}]},{"server_id":324,"name":"Uncletopia | Los Angeles | 3 | All Maps","name_short":"lax-3","host":"lax-1.us.uncletopia.com","port":27035,"enabled":true,"region":"us-west","cc":"us","latitude":33.94279,"longitude":-118.41004,"reserved":0,"last_update":"0001-01-01T00:00:00Z","name_a2s":"Uncletopia | Los Angeles | 3 | All Maps","protocol":17,"map":"pl_badwater","folder":"tf","game":"Team Fortress","app_id":440,"player_count":22,"max_players":24,"Bots":0,"server_type":"Dedicated","server_os":"Linux","password":true,"vac":true,"version":"7757534","steam_id":85568392924510198,"keywords":["nocrits","nodmgspread","payload","uncletopia"],"game_id":440,"stv_port":27036,"stv_name":"Uncletopia | Los Angeles | 3 | All Maps | STV","players":[{"user_id":181,"name":"KINMEKKI","steam_id":76561198066617702,"connected_time":2028000000000,"state":"active","ping":89},{"user_id":171,"name":"Altruisticailuridae","steam_id":76561198335295596,"connected_time":2762000000000,"state":"active","ping":58},{"user_id":150,"name":"hakken","steam_id":76561199102391736,"connected_time":3602000000000,"state":"active","ping":47},{"user_id":207,"name":"\u003e:3","steam_id":76561198068586634,"connected_time":17000000000,"state":"active","ping":105},{"user_id":190,"name":"Bimbli","steam_id":76561198058948629,"connected_time":827000000000,"state":"active","ping":99},{"user_id":202,"name":"[Bandit]","steam_id":76561197986919852,"connected_time":246000000000,"state":"active","ping":81},{"user_id":208,"name":"Official-PSASD","steam_id":76561198441104546,"connected_time":7000000000,"state":"spawning","ping":215},{"user_id":183,"name":"Snaggletooth","steam_id":76561198043784995,"connected_time":1715000000000,"state":"active","ping":73},{"user_id":200,"name":"bean drinker","steam_id":76561198044004639,"connected_time":309000000000,"state":"active","ping":84},{"user_id":199,"name":"Nat the kat","steam_id":76561198144338191,"connected_time":447000000000,"state":"active","ping":56},{"user_id":203,"name":"Hakuyer","steam_id":76561198098618247,"connected_time":154000000000,"state":"active","ping":75},{"user_id":168,"name":"10 rule","steam_id":76561198125261443,"connected_time":2994000000000,"state":"active","ping":84},{"user_id":191,"name":"00","steam_id":76561198041700636,"connected_time":822000000000,"state":"active","ping":45},{"user_id":195,"name":"downpour","steam_id":76561198107784011,"connected_time":652000000000,"state":"active","ping":79},{"user_id":149,"name":"werolat","steam_id":76561197960544784,"connected_time":3611000000000,"state":"active","ping":67},{"user_id":126,"name":"ghostglitch","steam_id":76561197991608573,"connected_time":5631000000000,"state":"active","ping":62},{"user_id":204,"name":"Starkiller","steam_id":76561198101643120,"connected_time":115000000000,"state":"active","ping":96},{"user_id":176,"name":"wait no stop dont do that","steam_id":76561199117157198,"connected_time":2600000000000,"state":"active","ping":70},{"user_id":197,"name":"Matte :)","steam_id":76561198070631073,"connected_time":603000000000,"state":"active","ping":60},{"user_id":198,"name":"dzcreeper","steam_id":76561198072250723,"connected_time":506000000000,"state":"active","ping":83},{"user_id":169,"name":"wesker can hit it tbh","steam_id":76561197968351430,"connected_time":2987000000000,"state":"active","ping":45},{"user_id":206,"name":"vOMIT BOY","steam_id":76561198167279375,"connected_time":112000000000,"state":"active","ping":60}]},{"server_id":25,"name":"Uncletopia | Los Angeles | 4 | Stopwatch Beta","name_short":"lax-4","host":"lax-1.us.uncletopia.com","port":27045,"enabled":true,"region":"us-west","cc":"us","latitude":33.94279,"longitude":-118.41004,"reserved":0,"last_update":"0001-01-01T00:00:00Z","name_a2s":"Uncletopia | Los Angeles | 4 | Stopwatch Beta","protocol":17,"map":"pl_borneo","folder":"tf","game":"Team Fortress","app_id":440,"player_count":0,"max_players":24,"Bots":0,"server_type":"Dedicated","server_os":"Linux","password":true,"vac":true,"version":"7757534","steam_id":85568392924510199,"keywords":["nocrits","nodmgspread","payload","uncletopia"],"game_id":440,"stv_port":27046,"stv_name":"Uncletopia | Los Angeles | 4 | Stopwatch Beta | STV","players":null},{"server_id":11,"name":"Uncletopia | London | 1 | All Maps","name_short":"lon-1","host":"lon-1.uk.uncletopia.com","port":27015,"enabled":true,"region":"eu","cc":"gb","latitude":51.509865,"longitude":-0.118092,"reserved":0,"last_update":"0001-01-01T00:00:00Z","name_a2s":"Uncletopia | London | 1 | All Maps","protocol":17,"map":"cp_altitude","folder":"tf","game":"Team Fortress","app_id":440,"player_count":0,"max_players":24,"Bots":0,"server_type":"Dedicated","server_os":"Linux","password":true,"vac":true,"version":"7757534","steam_id":85568392924367362,"keywords":["cp","nocrits","nodmgspread","uncletopia"],"game_id":440,"stv_port":27016,"stv_name":"Uncletopia | London | 1 | All Maps | STV","players":null},{"server_id":114,"name":"Uncletopia | London | 2 | All Maps","name_short":"lon-2","host":"lon-1.uk.uncletopia.com","port":27025,"enabled":true,"region":"eu","cc":"gb","latitude":51.509865,"longitude":-0.118092,"reserved":0,"last_update":"0001-01-01T00:00:00Z","name_a2s":"Uncletopia | London | 2 | All Maps","protocol":17,"map":"pl_pier","folder":"tf","game":"Team Fortress","app_id":440,"player_count":0,"max_players":24,"Bots":0,"server_type":"Dedicated","server_os":"Linux","password":true,"vac":true,"version":"7757534","steam_id":85568392924470941,"keywords":["nocrits","nodmgspread","payload","uncletopia"],"game_id":440,"stv_port":27026,"stv_name":"Uncletopia | London | 2 | All Maps | STV","players":null},{"server_id":320,"name":"Uncletopia | London | 3 | All Maps","name_short":"lon-3","host":"lon-1.uk.uncletopia.com","port":27035,"enabled":true,"region":"eu","cc":"gb","latitude":51.509865,"longitude":-0.118092,"reserved":0,"last_update":"0001-01-01T00:00:00Z","name_a2s":"Uncletopia | London | 3 | All Maps","protocol":17,"map":"cp_mountainlab","folder":"tf","game":"Team Fortress","app_id":440,"player_count":24,"max_players":24,"Bots":0,"server_type":"Dedicated","server_os":"Linux","password":true,"vac":true,"version":"7757534","steam_id":85568392924510192,"keywords":["cp","nocrits","nodmgspread","uncletopia"],"game_id":440,"stv_port":27036,"stv_name":"Uncletopia | London | 3 | All Maps | STV","players":[{"user_id":62,"name":"bigfutacock56","steam_id":76561198835619904,"connected_time":1948000000000,"state":"active","ping":117},{"user_id":39,"name":"ciliorkun18","steam_id":76561198228942500,"connected_time":4112000000000,"state":"active","ping":90},{"user_id":17,"name":"Qbus","steam_id":76561198091449593,"connected_time":5411000000000,"state":"active","ping":69},{"user_id":84,"name":"GIBus_Scout30","steam_id":76561199272782484,"connected_time":96000000000,"state":"active","ping":68},{"user_id":72,"name":"Harribo","steam_id":76561197993650688,"connected_time":1187000000000,"state":"active","ping":53},{"user_id":51,"name":"stun","steam_id":76561198276681691,"connected_time":3162000000000,"state":"active","ping":46},{"user_id":85,"name":"DavidManCZ","steam_id":76561198139778896,"connected_time":16000000000,"state":"active","ping":70},{"user_id":66,"name":"Panda","steam_id":76561198176342325,"connected_time":1606000000000,"state":"active","ping":86},{"user_id":65,"name":"tindy","steam_id":76561198064581209,"connected_time":1718000000000,"state":"active","ping":92},{"user_id":76,"name":"darK","steam_id":76561198360287593,"connected_time":479000000000,"state":"active","ping":110},{"user_id":64,"name":"hora","steam_id":76561198404470526,"connected_time":1827000000000,"state":"active","ping":91},{"user_id":81,"name":"delta man","steam_id":76561198204491245,"connected_time":272000000000,"state":"active","ping":144},{"user_id":27,"name":"ImD7omYx","steam_id":76561198984164114,"connected_time":4575000000000,"state":"active","ping":119},{"user_id":33,"name":"realamigomoath","steam_id":76561199091018683,"connected_time":4500000000000,"state":"active","ping":159},{"user_id":67,"name":"thekoolest88","steam_id":76561199022415672,"connected_time":1603000000000,"state":"active","ping":136},{"user_id":30,"name":"Shynii","steam_id":76561198194682105,"connected_time":4525000000000,"state":"active","ping":60},{"user_id":83,"name":"wide appreciator","steam_id":76561198083286511,"connected_time":139000000000,"state":"active","ping":46},{"user_id":78,"name":"LiterallyRyanGosling","steam_id":76561199017856691,"connected_time":466000000000,"state":"active","ping":55},{"user_id":80,"name":"minn","steam_id":76561198099101232,"connected_time":338000000000,"state":"active","ping":47},{"user_id":47,"name":"femboy gaming :3","steam_id":76561199044267454,"connected_time":3685000000000,"state":"active","ping":65},{"user_id":77,"name":"Hat-Wearing Mann #savetf2","steam_id":76561198048816757,"connected_time":478000000000,"state":"active","ping":107},{"user_id":68,"name":"Qxillum","steam_id":76561198037201297,"connected_time":1603000000000,"state":"active","ping":54},{"user_id":73,"name":"fried","steam_id":76561198307522022,"connected_time":1115000000000,"state":"active","ping":46},{"user_id":75,"name":"glyph","steam_id":76561197980736364,"connected_time":544000000000,"state":"active","ping":77}]},{"server_id":321,"name":"Uncletopia | London | 4 | All Maps","name_short":"lon-4","host":"lon-1.uk.uncletopia.com","port":27045,"enabled":true,"region":"eu","cc":"gb","latitude":51.509865,"longitude":-0.118092,"reserved":0,"last_update":"0001-01-01T00:00:00Z","name_a2s":"Uncletopia | London | 4 | All Maps","protocol":17,"map":"pl_barnblitz","folder":"tf","game":"Team Fortress","app_id":440,"player_count":0,"max_players":24,"Bots":0,"server_type":"Dedicated","server_os":"Linux","password":true,"vac":true,"version":"7757534","steam_id":85568392924510193,"keywords":["nocrits","nodmgspread","payload","uncletopia"],"game_id":440,"stv_port":27046,"stv_name":"Uncletopia | London | 4 | All Maps | STV","players":null},{"server_id":21,"name":"Uncletopia | London | 5 | All Maps","name_short":"lon-5","host":"lon-1.uk.uncletopia.com","port":27055,"enabled":true,"region":"eu","cc":"gb","latitude":51.509865,"longitude":-0.118092,"reserved":0,"last_update":"0001-01-01T00:00:00Z","name_a2s":"Uncletopia | London | 5 | All Maps","protocol":17,"map":"pl_pier","folder":"tf","game":"Team Fortress","app_id":440,"player_count":0,"max_players":24,"Bots":0,"server_type":"Dedicated","server_os":"Linux","password":true,"vac":true,"version":"7757534","steam_id":85568392924742829,"keywords":["nocrits","nodmgspread","payload","uncletopia"],"game_id":440,"stv_port":27056,"stv_name":"Uncletopia | London | 5 | All Maps | STV","players":null},{"server_id":22,"name":"Uncletopia | London | 6 | All Maps","name_short":"lon-6","host":"lon-1.uk.uncletopia.com","port":27065,"enabled":true,"region":"eu","cc":"gb","latitude":51.509865,"longitude":-0.118092,"reserved":0,"last_update":"0001-01-01T00:00:00Z","name_a2s":"Uncletopia | London | 6 | All Maps","protocol":17,"map":"pl_pier","folder":"tf","game":"Team Fortress","app_id":440,"player_count":0,"max_players":24,"Bots":0,"server_type":"Dedicated","server_os":"Linux","password":true,"vac":true,"version":"7757534","steam_id":85568392924742830,"keywords":["nocrits","nodmgspread","payload","uncletopia"],"game_id":440,"stv_port":27066,"stv_name":"Uncletopia | London | 6 | All Maps | STV","players":null},{"server_id":40,"name":"Uncletopia | London | 7 | No Payload","name_short":"lon-7","host":"lon-1.uk.uncletopia.com","port":27075,"enabled":true,"region":"eu","cc":"gb","latitude":51.509865,"longitude":-0.118092,"reserved":0,"last_update":"0001-01-01T00:00:00Z","name_a2s":"Uncletopia | London | 7 | No Payload","protocol":17,"map":"koth_highpass","folder":"tf","game":"Team Fortress","app_id":440,"player_count":0,"max_players":24,"Bots":0,"server_type":"Dedicated","server_os":"Linux","password":true,"vac":true,"version":"7757534","steam_id":85568392924964314,"keywords":["cp","nocrits","nodmgspread","uncletopia"],"game_id":440,"stv_port":27076,"stv_name":"Uncletopia | London | 7 | No Payload | STV","players":null},{"server_id":41,"name":"Uncletopia | London | 8 | Community","name_short":"lon-8","host":"lon-1.uk.uncletopia.com","port":27085,"enabled":true,"region":"eu","cc":"gb","latitude":51.509865,"longitude":-0.118092,"reserved":0,"last_update":"0001-01-01T00:00:00Z","name_a2s":"Uncletopia | London | 8 | Community","protocol":17,"map":"cp_altitude","folder":"tf","game":"Team Fortress","app_id":440,"player_count":0,"max_players":24,"Bots":0,"server_type":"Dedicated","server_os":"Linux","password":true,"vac":true,"version":"7757534","steam_id":85568392924964315,"keywords":["cp","nocrits","nodmgspread","uncletopia"],"game_id":440,"stv_port":27086,"stv_name":"Uncletopia | London | 8 | Community | STV","players":null},{"server_id":300,"name":"Uncletopia | Montr√©al | 1 | All Maps","name_short":"mtl-1","host":"mtl-1.ca.uncletopia.com","port":27015,"enabled":true,"region":"us-east","cc":"ca","latitude":45.50889,"longitude":-73.56167,"reserved":0,"last_update":"0001-01-01T00:00:00Z","name_a2s":"Uncletopia | Montr√©al | 1 | All Maps","protocol":17,"map":"koth_cascade","folder":"tf","game":"Team Fortress","app_id":440,"player_count":0,"max_players":24,"Bots":0,"server_type":"Dedicated","server_os":"Linux","password":true,"vac":true,"version":"7757534","steam_id":85568392924500087,"keywords":["cp","nocrits","nodmgspread","uncletopia"],"game_id":440,"stv_port":27016,"stv_name":"Uncletopia | Montr√©al | 1 | All Maps | STV","players":null},{"server_id":301,"name":"Uncletopia | Montr√©al | 2 | All Maps","name_short":"mtl-2","host":"mtl-1.ca.uncletopia.com","port":27025,"enabled":true,"region":"us-east","cc":"ca","latitude":45.50889,"longitude":-73.56167,"reserved":0,"last_update":"0001-01-01T00:00:00Z","name_a2s":"Uncletopia | Montr√©al | 2 | All Maps","protocol":17,"map":"cp_snakewater_final1","folder":"tf","game":"Team Fortress","app_id":440,"player_count":0,"max_players":24,"Bots":0,"server_type":"Dedicated","server_os":"Linux","password":true,"vac":true,"version":"7757534","steam_id":85568392924500088,"keywords":["cp","nocrits","nodmgspread","uncletopia"],"game_id":440,"stv_port":27026,"stv_name":"Uncletopia | Montr√©al | 2 | All Maps | STV","players":null},{"server_id":302,"name":"Uncletopia | Montr√©al | 3 | All Maps","name_short":"mtl-3","host":"mtl-1.ca.uncletopia.com","port":27035,"enabled":true,"region":"us-east","cc":"ca","latitude":45.50889,"longitude":-73.56167,"reserved":0,"last_update":"0001-01-01T00:00:00Z","name_a2s":"Uncletopia | Montr√©al | 3 | All Maps","protocol":17,"map":"cp_process_final","folder":"tf","game":"Team Fortress","app_id":440,"player_count":0,"max_players":24,"Bots":0,"server_type":"Dedicated","server_os":"Linux","password":true,"vac":true,"version":"7757534","steam_id":85568392924500089,"keywords":["cp","nocrits","nodmgspread","uncletopia"],"game_id":440,"stv_port":27036,"stv_name":"Uncletopia | Montr√©al | 3 | All Maps | STV","players":null},{"server_id":303,"name":"Uncletopia | Montr√©al | 4 | No Payload","name_short":"mtl-4","host":"mtl-1.ca.uncletopia.com","port":27045,"enabled":true,"region":"us-east","cc":"ca","latitude":45.50889,"longitude":-73.56167,"reserved":0,"last_update":"0001-01-01T00:00:00Z","name_a2s":"Uncletopia | Montr√©al | 4 | No Payload","protocol":17,"map":"plr_pipeline","folder":"tf","game":"Team Fortress","app_id":440,"player_count":0,"max_players":24,"Bots":0,"server_type":"Dedicated","server_os":"Linux","password":true,"vac":true,"version":"7757534","steam_id":85568392924500090,"keywords":["nocrits","nodmgspread","payload","uncletopia"],"game_id":440,"stv_port":27046,"stv_name":"Uncletopia | Montr√©al | 4 | No Payload | STV","players":null},{"server_id":13,"name":"Uncletopia | New York City | 1 | All Maps","name_short":"nyc-1","host":"nyc-1.us.uncletopia.com","port":27015,"enabled":true,"region":"us-east","cc":"us","latitude":40.73061,"longitude":-73.93524,"reserved":0,"last_update":"0001-01-01T00:00:00Z","name_a2s":"Uncletopia | New York City | 1 | All Maps","protocol":17,"map":"cp_well","folder":"tf","game":"Team Fortress","app_id":440,"player_count":0,"max_players":24,"Bots":0,"server_type":"Dedicated","server_os":"Linux","password":true,"vac":true,"version":"7757534","steam_id":85568392924469993,"keywords":["cp","nocrits","nodmgspread","uncletopia"],"game_id":440,"stv_port":27016,"stv_name":"Uncletopia | New York City | 1 | All Maps | STV","players":null},{"server_id":14,"name":"Uncletopia | New York City | 2 | All Maps","name_short":"nyc-2","host":"nyc-1.us.uncletopia.com","port":27025,"enabled":true,"region":"us-east","cc":"us","latitude":40.73061,"longitude":-73.93524,"reserved":0,"last_update":"0001-01-01T00:00:00Z","name_a2s":"Uncletopia | New York City | 2 | All Maps","protocol":17,"map":"pl_badwater","folder":"tf","game":"Team Fortress","app_id":440,"player_count":4,"max_players":24,"Bots":0,"server_type":"Dedicated","server_os":"Linux","password":true,"vac":true,"version":"7757534","steam_id":85568392924469994,"keywords":["nocrits","nodmgspread","payload","uncletopia"],"game_id":440,"stv_port":27026,"stv_name":"Uncletopia | New York City | 2 | All Maps | STV","players":[{"user_id":849,"name":"loco503","steam_id":76561198827495121,"connected_time":659000000000,"state":"active","ping":119},{"user_id":850,"name":"Radagato","steam_id":76561198238859416,"connected_time":617000000000,"state":"active","ping":127},{"user_id":851,"name":"ZaneLiven","steam_id":76561199018959185,"connected_time":563000000000,"state":"active","ping":105},{"user_id":853,"name":"cinnabunn90","steam_id":76561199243451181,"connected_time":375000000000,"state":"active","ping":848}]},{"server_id":15,"name":"Uncletopia | New York City | 3 | Stopwatch Beta","name_short":"nyc-3","host":"nyc-1.us.uncletopia.com","port":27035,"enabled":true,"region":"us-east","cc":"us","latitude":40.73061,"longitude":-73.93524,"reserved":0,"last_update":"0001-01-01T00:00:00Z","name_a2s":"Uncletopia | New York City | 3 | Stopwatch Beta","protocol":17,"map":"cp_process_final","folder":"tf","game":"Team Fortress","app_id":440,"player_count":0,"max_players":24,"Bots":0,"server_type":"Dedicated","server_os":"Linux","password":true,"vac":true,"version":"7757534","steam_id":85568392924742820,"keywords":["cp","nocrits","nodmgspread","uncletopia"],"game_id":440,"stv_port":27036,"stv_name":"Uncletopia | New York City | 3 | Stopwatch Beta | STV","players":null},{"server_id":16,"name":"Uncletopia | New York City | 4 | Community","name_short":"nyc-4","host":"nyc-1.us.uncletopia.com","port":27045,"enabled":true,"region":"us-east","cc":"us","latitude":40.73061,"longitude":-73.93524,"reserved":0,"last_update":"0001-01-01T00:00:00Z","name_a2s":"Uncletopia | New York City | 4 | Community","protocol":17,"map":"workshop/koth_bagel_rc6.ugc2514036946","folder":"tf","game":"Team Fortress","app_id":440,"player_count":0,"max_players":24,"Bots":0,"server_type":"Dedicated","server_os":"Linux","password":true,"vac":true,"version":"7757534","steam_id":85568392924742821,"keywords":["cp","nocrits","nodmgspread","uncletopia"],"game_id":440,"stv_port":27046,"stv_name":"Uncletopia | New York City | 4 | Community | STV","players":null},{"server_id":142,"name":"Uncletopia | S√£o Paulo | 1 | All Maps","name_short":"sao-1","host":"sao-1.br.uncletopia.com","port":27015,"enabled":true,"region":"sa","cc":"br","latitude":-23.533773,"longitude":-46.62529,"reserved":0,"last_update":"0001-01-01T00:00:00Z","name_a2s":"Uncletopia | S√£o Paulo | 1 | All Maps","protocol":17,"map":"pl_barnblitz","folder":"tf","game":"Team Fortress","app_id":440,"player_count":0,"max_players":24,"Bots":0,"server_type":"Dedicated","server_os":"Linux","password":true,"vac":true,"version":"7757534","steam_id":85568392924469996,"keywords":["nocrits","nodmgspread","payload","uncletopia"],"game_id":440,"stv_port":27016,"stv_name":"Uncletopia | S√£o Paulo | 1 | All Maps | STV","players":null},{"server_id":143,"name":"Uncletopia | S√£o Paulo | 2 | All Maps","name_short":"sao-2","host":"sao-2.br.uncletopia.com","port":27015,"enabled":true,"region":"sa","cc":"br","latitude":-23.533773,"longitude":-46.62529,"reserved":0,"last_update":"0001-01-01T00:00:00Z","name_a2s":"Uncletopia | S√£o Paulo | 2 | All Maps","protocol":17,"map":"pl_frontier_final","folder":"tf","game":"Team Fortress","app_id":440,"player_count":0,"max_players":24,"Bots":0,"server_type":"Dedicated","server_os":"Linux","password":true,"vac":true,"version":"7757534","steam_id":85568392924485349,"keywords":["nocrits","nodmgspread","payload","uncletopia"],"game_id":440,"stv_port":27016,"stv_name":"Uncletopia | S√£o Paulo | 2 | All Maps | STV","players":null},{"server_id":7,"name":"Uncletopia | Seattle | 1 | All Maps","name_short":"sea-1","host":"sea-1.us.uncletopia.com","port":27015,"enabled":true,"region":"us-west","cc":"us","latitude":47.608013,"longitude":-122.33517,"reserved":0,"last_update":"0001-01-01T00:00:00Z","name_a2s":"Uncletopia | Seattle | 1 | All Maps","protocol":17,"map":"pl_swiftwater_final1","folder":"tf","game":"Team Fortress","app_id":440,"player_count":23,"max_players":24,"Bots":0,"server_type":"Dedicated","server_os":"Linux","password":true,"vac":true,"version":"7757534","steam_id":85568392924469997,"keywords":["nocrits","nodmgspread","payload","uncletopia"],"game_id":440,"stv_port":27016,"stv_name":"Uncletopia | Seattle | 1 | All Maps | STV","players":[{"user_id":552,"name":"Dr. Karl, the AUS Science Guy","steam_id":76561198031278747,"connected_time":2190000000000,"state":"active","ping":44},{"user_id":555,"name":"Google","steam_id":76561198857237473,"connected_time":1953000000000,"state":"active","ping":45},{"user_id":578,"name":"Ayayahuasca","steam_id":76561199002906056,"connected_time":134000000000,"state":"active","ping":47},{"user_id":542,"name":"flowstate","steam_id":76561198095480838,"connected_time":3945000000000,"state":"active","ping":45},{"user_id":550,"name":"Jade","steam_id":76561198092408457,"connected_time":2520000000000,"state":"active","ping":47},{"user_id":520,"name":"Arsonist Goose","steam_id":76561198147441830,"connected_time":5072000000000,"state":"active","ping":74},{"user_id":570,"name":"Peppy","steam_id":76561198866629645,"connected_time":1025000000000,"state":"active","ping":102},{"user_id":548,"name":"Gary, 40, soul sucking 9-5","steam_id":76561198073812888,"connected_time":3439000000000,"state":"active","ping":46},{"user_id":541,"name":"sora","steam_id":76561198094256973,"connected_time":3998000000000,"state":"active","ping":67},{"user_id":571,"name":"uUwUu","steam_id":76561198117452650,"connected_time":1006000000000,"state":"active","ping":66},{"user_id":519,"name":"soup","steam_id":76561198043209046,"connected_time":5077000000000,"state":"active","ping":78},{"user_id":560,"name":"1 gram","steam_id":76561198133552526,"connected_time":1560000000000,"state":"active","ping":78},{"user_id":531,"name":"Thanks Ants","steam_id":76561197966221018,"connected_time":4452000000000,"state":"active","ping":55},{"user_id":561,"name":"High Cotton","steam_id":76561197998894854,"connected_time":1518000000000,"state":"active","ping":143},{"user_id":504,"name":"Cheezbeargur","steam_id":76561198164702899,"connected_time":7206000000000,"state":"active","ping":64},{"user_id":576,"name":"MyMonkeyBaby","steam_id":76561198046896670,"connected_time":359000000000,"state":"active","ping":55},{"user_id":577,"name":"Pah-Wraith Gul Dukat","steam_id":76561198033918106,"connected_time":250000000000,"state":"active","ping":86},{"user_id":549,"name":"Attrition","steam_id":76561197969881916,"connected_time":2557000000000,"state":"active","ping":45},{"user_id":567,"name":"Keamy","steam_id":76561199471434875,"connected_time":1188000000000,"state":"active","ping":40},{"user_id":579,"name":"hotdog every meal","steam_id":76561198392514273,"connected_time":118000000000,"state":"active","ping":59},{"user_id":580,"name":"lotus","steam_id":76561198057510009,"connected_time":89000000000,"state":"active","ping":78},{"user_id":573,"name":"nescoceo","steam_id":76561198040801160,"connected_time":967000000000,"state":"active","ping":75},{"user_id":575,"name":"Orange Toaster","steam_id":76561198013397599,"connected_time":860000000000,"state":"active","ping":91}]},{"server_id":119,"name":"Uncletopia | Seattle | 2 | All Maps","name_short":"sea-2","host":"sea-1.us.uncletopia.com","port":27025,"enabled":true,"region":"us-west","cc":"us","latitude":47.608013,"longitude":-122.33517,"reserved":0,"last_update":"0001-01-01T00:00:00Z","name_a2s":"Uncletopia | Seattle | 2 | All Maps","protocol":17,"map":"cp_dustbowl","folder":"tf","game":"Team Fortress","app_id":440,"player_count":24,"max_players":24,"Bots":0,"server_type":"Dedicated","server_os":"Linux","password":true,"vac":true,"version":"7757534","steam_id":85568392924469998,"keywords":["cp","nocrits","nodmgspread","uncletopia"],"game_id":440,"stv_port":27026,"stv_name":"Uncletopia | Seattle | 2 | All Maps | STV","players":[{"user_id":766,"name":"Creature","steam_id":76561198194585781,"connected_time":363000000000,"state":"active","ping":83},{"user_id":746,"name":"THICCBEEF GRANDPA","steam_id":76561197993550572,"connected_time":1737000000000,"state":"active","ping":113},{"user_id":749,"name":"ShpookaDooka","steam_id":76561198126837126,"connected_time":1425000000000,"state":"active","ping":75},{"user_id":769,"name":"slim jim","steam_id":76561198049103241,"connected_time":176000000000,"state":"active","ping":112},{"user_id":762,"name":"JustForKicks96","steam_id":76561198055486814,"connected_time":439000000000,"state":"active","ping":50},{"user_id":763,"name":"help","steam_id":76561198044689625,"connected_time":428000000000,"state":"active","ping":54},{"user_id":751,"name":"Neo Kojiro","steam_id":76561198000967076,"connected_time":1238000000000,"state":"active","ping":137},{"user_id":758,"name":"Ben_meistro","steam_id":76561198876356862,"connected_time":1020000000000,"state":"active","ping":98},{"user_id":725,"name":"Sacrificial Wormy","steam_id":76561198054539200,"connected_time":2827000000000,"state":"active","ping":56},{"user_id":764,"name":"AnarchyPaladin","steam_id":76561198066635428,"connected_time":385000000000,"state":"active","ping":76},{"user_id":770,"name":"Licensed Rizzicist","steam_id":76561199019693549,"connected_time":20000000000,"state":"spawning","ping":29},{"user_id":737,"name":"Howoriginal","steam_id":76561197993701184,"connected_time":1964000000000,"state":"active","ping":120},{"user_id":767,"name":"Lunk Alarm","steam_id":76561198055480452,"connected_time":355000000000,"state":"active","ping":67},{"user_id":761,"name":"Lil Urge","steam_id":76561198162207470,"connected_time":456000000000,"state":"active","ping":60},{"user_id":638,"name":"Moth","steam_id":76561198170253694,"connected_time":9791000000000,"state":"active","ping":65},{"user_id":768,"name":"Poppet","steam_id":76561198012301951,"connected_time":335000000000,"state":"active","ping":119},{"user_id":739,"name":"The Demented Dr. Pussy","steam_id":76561198047557533,"connected_time":1957000000000,"state":"active","ping":132},{"user_id":760,"name":"S Q U I S H E  T H A T  C A T","steam_id":76561198293865429,"connected_time":595000000000,"state":"active","ping":43},{"user_id":756,"name":"Ryanel","steam_id":76561198053075898,"connected_time":1168000000000,"state":"active","ping":80},{"user_id":754,"name":"Fungi valengine","steam_id":76561199134580478,"connected_time":1207000000000,"state":"active","ping":86},{"user_id":741,"name":"Strikerbolt","steam_id":76561199095622897,"connected_time":1858000000000,"state":"active","ping":93},{"user_id":724,"name":"Lapis","steam_id":76561198095034966,"connected_time":2856000000000,"state":"active","ping":124},{"user_id":743,"name":"Zebulon Pike","steam_id":76561198025719753,"connected_time":1797000000000,"state":"active","ping":38},{"user_id":757,"name":"PeptobismolCorndog","steam_id":76561198080072237,"connected_time":1168000000000,"state":"active","ping":104}]},{"server_id":406,"name":"Uncletopia | Seattle | 3 | Stopwatch Beta","name_short":"sea-3","host":"sea-1.us.uncletopia.com","port":27035,"enabled":true,"region":"us-west","cc":"us","latitude":47.608013,"longitude":-122.33517,"reserved":0,"last_update":"0001-01-01T00:00:00Z","name_a2s":"Uncletopia | Seattle | 3 | Stopwatch Beta","protocol":17,"map":"workshop/koth_product_final.ugc454272353","folder":"tf","game":"Team Fortress","app_id":440,"player_count":2,"max_players":24,"Bots":0,"server_type":"Dedicated","server_os":"Linux","password":true,"vac":true,"version":"7757534","steam_id":85568392924515217,"keywords":["cp","nocrits","nodmgspread","uncletopia"],"game_id":440,"stv_port":27036,"stv_name":"Uncletopia | Seattle | 3 | Stopwatch Beta | STV","players":[{"user_id":128,"name":"–Ω–µ–¥–æ–ø–µ—Ä–µ–ø–∏–ª","steam_id":76561199132170268,"connected_time":363000000000,"state":"active","ping":55},{"user_id":129,"name":"Pyrolimited","steam_id":76561198195455657,"connected_time":296000000000,"state":"active","ping":45}]},{"server_id":17,"name":"Uncletopia | San Francisco | 1 | All Maps","name_short":"sfo-1","host":"sfo-1.us.uncletopia.com","port":27015,"enabled":true,"region":"us-west","cc":"us","latitude":37.77397,"longitude":-122.4313,"reserved":0,"last_update":"0001-01-01T00:00:00Z","name_a2s":"Uncletopia | San Francisco | 1 | All Maps","protocol":17,"map":"pl_frontier_final","folder":"tf","game":"Team Fortress","app_id":440,"player_count":24,"max_players":24,"Bots":0,"server_type":"Dedicated","server_os":"Linux","password":true,"vac":true,"version":"7757534","steam_id":85568392924469999,"keywords":["nocrits","nodmgspread","payload","uncletopia"],"game_id":440,"stv_port":27016,"stv_name":"Uncletopia | San Francisco | 1 | All Maps | STV","players":[{"user_id":624,"name":"BLOCKHEAD04","steam_id":76561198808224331,"connected_time":2233000000000,"state":"active","ping":103},{"user_id":550,"name":"Blank_Sicon","steam_id":76561198887041407,"connected_time":7818000000000,"state":"active","ping":84},{"user_id":634,"name":"QUEASYWHALE","steam_id":76561199107482851,"connected_time":488000000000,"state":"active","ping":83},{"user_id":629,"name":"p9 delight","steam_id":76561197980280272,"connected_time":1726000000000,"state":"active","ping":63},{"user_id":569,"name":"WolfMan","steam_id":76561198068681658,"connected_time":6554000000000,"state":"active","ping":73},{"user_id":547,"name":"the penis act of 1996","steam_id":76561198073269122,"connected_time":8100000000000,"state":"active","ping":119},{"user_id":610,"name":"Mr. Comrade","steam_id":76561198155667562,"connected_time":2700000000000,"state":"active","ping":54},{"user_id":611,"name":"JJunkit the First","steam_id":76561198024595354,"connected_time":2688000000000,"state":"active","ping":60},{"user_id":627,"name":"BBL Sponsor","steam_id":76561199093733603,"connected_time":2010000000000,"state":"active","ping":61},{"user_id":592,"name":"Flyingcat9000","steam_id":76561198179561797,"connected_time":4238000000000,"state":"active","ping":33},{"user_id":632,"name":"donutdagger","steam_id":76561199203048300,"connected_time":1303000000000,"state":"active","ping":72},{"user_id":539,"name":"Jimmy","steam_id":76561198857959855,"connected_time":8375000000000,"state":"active","ping":52},{"user_id":630,"name":"13chag janitor","steam_id":76561198058617608,"connected_time":1387000000000,"state":"active","ping":61},{"user_id":631,"name":"Fractured_Mango","steam_id":76561199013113268,"connected_time":1336000000000,"state":"active","ping":93},{"user_id":619,"name":"Rond Gong The Dong Machine","steam_id":76561198283349215,"connected_time":2345000000000,"state":"active","ping":97},{"user_id":620,"name":"pmstr","steam_id":76561198039366409,"connected_time":2344000000000,"state":"active","ping":62},{"user_id":633,"name":"Pez","steam_id":76561199197778137,"connected_time":1298000000000,"state":"active","ping":74},{"user_id":548,"name":"Melody","steam_id":76561198407789232,"connected_time":8031000000000,"state":"active","ping":78},{"user_id":635,"name":"Akkawi","steam_id":76561198203159952,"connected_time":479000000000,"state":"active","ping":55},{"user_id":529,"name":"esports professional","steam_id":76561198169755734,"connected_time":9430000000000,"state":"active","ping":47},{"user_id":613,"name":"Ace_Bitter","steam_id":76561199446349147,"connected_time":2622000000000,"state":"active","ping":73},{"user_id":573,"name":"Leonardo Doujinshi","steam_id":76561198073531273,"connected_time":6415000000000,"state":"active","ping":54},{"user_id":616,"name":"squash","steam_id":76561198150281353,"connected_time":2531000000000,"state":"active","ping":78},{"user_id":492,"name":"p9 jorts FULL of pilk","steam_id":76561199041179985,"connected_time":13168000000000,"state":"active","ping":82}]},{"server_id":18,"name":"Uncletopia | San Francisco | 2 | All Maps","name_short":"sfo-2","host":"sfo-1.us.uncletopia.com","port":27025,"enabled":true,"region":"us-west","cc":"us","latitude":37.77397,"longitude":-122.4313,"reserved":0,"last_update":"0001-01-01T00:00:00Z","name_a2s":"Uncletopia | San Francisco | 2 | All Maps","protocol":17,"map":"pl_rumford_event","folder":"tf","game":"Team Fortress","app_id":440,"player_count":23,"max_players":24,"Bots":0,"server_type":"Dedicated","server_os":"Linux","password":true,"vac":true,"version":"7757534","steam_id":85568392924470000,"keywords":["nocrits","nodmgspread","payload","uncletopia"],"game_id":440,"stv_port":27026,"stv_name":"Uncletopia | San Francisco | 2 | All Maps | STV","players":[{"user_id":281,"name":"Trips","steam_id":76561198054581597,"connected_time":352000000000,"state":"active","ping":47},{"user_id":250,"name":"Mada","steam_id":76561198112635823,"connected_time":2057000000000,"state":"active","ping":62},{"user_id":232,"name":"Durazorn","steam_id":76561198096327396,"connected_time":3311000000000,"state":"active","ping":111},{"user_id":243,"name":"Jack from Jack in The Box","steam_id":76561199083594971,"connected_time":2633000000000,"state":"active","ping":61},{"user_id":230,"name":"Nova Academy of Salmon Action","steam_id":76561198021842526,"connected_time":3483000000000,"state":"active","ping":58},{"user_id":262,"name":"Opiee05","steam_id":76561198213181016,"connected_time":1657000000000,"state":"active","ping":55},{"user_id":279,"name":"Thorngot","steam_id":76561198398094468,"connected_time":449000000000,"state":"active","ping":61},{"user_id":263,"name":"dead moth in your lamp","steam_id":76561198069190432,"connected_time":1592000000000,"state":"active","ping":119},{"user_id":271,"name":"squinzi","steam_id":76561198086520846,"connected_time":730000000000,"state":"active","ping":62},{"user_id":282,"name":"goop","steam_id":76561198204169516,"connected_time":153000000000,"state":"active","ping":68},{"user_id":265,"name":"laggy mcstab","steam_id":76561198106379962,"connected_time":1349000000000,"state":"active","ping":80},{"user_id":253,"name":"Fanout","steam_id":76561198075619480,"connected_time":1988000000000,"state":"active","ping":60},{"user_id":159,"name":"kaede","steam_id":76561198345528370,"connected_time":11663000000000,"state":"active","ping":38},{"user_id":283,"name":"Vlone","steam_id":76561199119064542,"connected_time":31000000000,"state":"spawning","ping":48},{"user_id":257,"name":"RagingRoosevelt","steam_id":76561197985483153,"connected_time":1872000000000,"state":"active","ping":61},{"user_id":273,"name":"Karma's Camera","steam_id":76561198059385185,"connected_time":713000000000,"state":"active","ping":114},{"user_id":274,"name":"Reagent","steam_id":76561198039663113,"connected_time":658000000000,"state":"active","ping":47},{"user_id":268,"name":"Brando","steam_id":76561198078306678,"connected_time":1211000000000,"state":"active","ping":71},{"user_id":256,"name":"Jeffy Epstein","steam_id":76561198053832401,"connected_time":1902000000000,"state":"active","ping":73},{"user_id":277,"name":"Chap","steam_id":76561198294226443,"connected_time":528000000000,"state":"active","ping":74},{"user_id":278,"name":"\"Gay Panic\"","steam_id":76561198132531594,"connected_time":514000000000,"state":"active","ping":74},{"user_id":258,"name":"Major_Pippy","steam_id":76561198004482878,"connected_time":1867000000000,"state":"active","ping":72},{"user_id":280,"name":"the cheeseler","steam_id":76561198121139811,"connected_time":445000000000,"state":"active","ping":112}]},{"server_id":19,"name":"Uncletopia | San Francisco | 3 | Stopwatch Beta","name_short":"sfo-3","host":"sfo-1.us.uncletopia.com","port":27035,"enabled":true,"region":"us-west","cc":"us","latitude":37.77397,"longitude":-122.4313,"reserved":0,"last_update":"0001-01-01T00:00:00Z","name_a2s":"Uncletopia | San Francisco | 3 | Stopwatch Beta","protocol":17,"map":"workshop/koth_ramjam_rc1.ugc459778887","folder":"tf","game":"Team Fortress","app_id":440,"player_count":0,"max_players":24,"Bots":0,"server_type":"Dedicated","server_os":"Linux","password":true,"vac":true,"version":"7757534","steam_id":85568392924742824,"keywords":["cp","nocrits","nodmgspread","uncletopia"],"game_id":440,"stv_port":27036,"stv_name":"Uncletopia | San Francisco | 3 | Stopwatch Beta | STV","players":null},{"server_id":20,"name":"Uncletopia | San Francisco | 4 | Community","name_short":"sfo-4","host":"sfo-1.us.uncletopia.com","port":27045,"enabled":true,"region":"us-west","cc":"us","latitude":37.77397,"longitude":-122.4313,"reserved":0,"last_update":"0001-01-01T00:00:00Z","name_a2s":"Uncletopia | San Francisco | 4 | Community","protocol":17,"map":"workshop/koth_slaughter_rc1.ugc1712845210","folder":"tf","game":"Team Fortress","app_id":440,"player_count":0,"max_players":24,"Bots":0,"server_type":"Dedicated","server_os":"Linux","password":true,"vac":true,"version":"7757534","steam_id":85568392924742826,"keywords":["cp","nocrits","nodmgspread","uncletopia"],"game_id":440,"stv_port":27046,"stv_name":"Uncletopia | San Francisco | 4 | Community | STV","players":null},{"server_id":141,"name":"Uncletopia | Sydney | 1 | All Maps","name_short":"syd-1","host":"syd-1.au.uncletopia.com","port":27015,"enabled":true,"region":"au","cc":"au","latitude":-33.865143,"longitude":151.2099,"reserved":0,"last_update":"0001-01-01T00:00:00Z","name_a2s":"Uncletopia | Sydney | 1 | All Maps","protocol":17,"map":"pl_barnblitz","folder":"tf","game":"Team Fortress","app_id":440,"player_count":21,"max_players":24,"Bots":0,"server_type":"Dedicated","server_os":"Linux","password":true,"vac":true,"version":"7757534","steam_id":85568392924470001,"keywords":["nocrits","nodmgspread","payload","uncletopia"],"game_id":440,"stv_port":27016,"stv_name":"Uncletopia | Sydney | 1 | All Maps | STV","players":[{"user_id":440,"name":"wombraidre","steam_id":76561199375834537,"connected_time":4092000000000,"state":"active","ping":130},{"user_id":470,"name":"jrg","steam_id":76561197997362731,"connected_time":973000000000,"state":"active","ping":46},{"user_id":469,"name":"gato","steam_id":76561198066726621,"connected_time":1199000000000,"state":"active","ping":45},{"user_id":475,"name":"Flakey","steam_id":76561198021618682,"connected_time":66000000000,"state":"active","ping":54},{"user_id":468,"name":"FoddyFogHorn","steam_id":76561198145223811,"connected_time":1273000000000,"state":"spawning","ping":61},{"user_id":466,"name":"natopotato.co","steam_id":76561198958059883,"connected_time":2057000000000,"state":"active","ping":71},{"user_id":458,"name":"‚úªF—èostbite","steam_id":76561198035353612,"connected_time":2669000000000,"state":"active","ping":70},{"user_id":464,"name":"helpme","steam_id":76561199473258522,"connected_time":2334000000000,"state":"active","ping":56},{"user_id":444,"name":"Monad (Trans-Girl Arc)","steam_id":76561198895999428,"connected_time":3798000000000,"state":"active","ping":49},{"user_id":460,"name":"Glaistig Uaine","steam_id":76561198056798610,"connected_time":2543000000000,"state":"active","ping":84},{"user_id":479,"name":"sav","steam_id":76561198058760041,"connected_time":52000000000,"state":"active","ping":91},{"user_id":455,"name":"CheeseFlag126","steam_id":76561199262769917,"connected_time":2981000000000,"state":"active","ping":60},{"user_id":467,"name":"Grant Macdonald","steam_id":76561197989416672,"connected_time":1948000000000,"state":"active","ping":72},{"user_id":454,"name":"zore","steam_id":76561198016233021,"connected_time":3011000000000,"state":"active","ping":58},{"user_id":480,"name":"BruceWillis235","steam_id":76561198884324029,"connected_time":39000000000,"state":"active","ping":91},{"user_id":474,"name":"bleacj","steam_id":76561198854614195,"connected_time":768000000000,"state":"active","ping":81},{"user_id":473,"name":"soupy","steam_id":76561198073734936,"connected_time":793000000000,"state":"active","ping":90},{"user_id":477,"name":"Joy in A Box","steam_id":76561198156820753,"connected_time":64000000000,"state":"active","ping":163},{"user_id":478,"name":"EpicGuy4227","steam_id":76561198094132328,"connected_time":63000000000,"state":"active","ping":62},{"user_id":447,"name":"michael","steam_id":76561198052848358,"connected_time":3609000000000,"state":"active","ping":60},{"user_id":457,"name":"Ashes","steam_id":76561198105820742,"connected_time":2854000000000,"state":"active","ping":73}]},{"server_id":123,"name":"Uncletopia | Sydney | 2 | All Maps","name_short":"syd-2","host":"syd-1.au.uncletopia.com","port":27025,"enabled":true,"region":"au","cc":"au","latitude":-33.865143,"longitude":151.2099,"reserved":0,"last_update":"0001-01-01T00:00:00Z","name_a2s":"Uncletopia | Sydney | 2 | All Maps","protocol":17,"map":"cp_altitude","folder":"tf","game":"Team Fortress","app_id":440,"player_count":2,"max_players":24,"Bots":0,"server_type":"Dedicated","server_os":"Linux","password":true,"vac":true,"version":"7757534","steam_id":85568392924470002,"keywords":["cp","nocrits","nodmgspread","uncletopia"],"game_id":440,"stv_port":27026,"stv_name":"Uncletopia | Sydney | 2 | All Maps | STV","players":[{"user_id":100,"name":"royalCRAZYman98","steam_id":76561199062977658,"connected_time":140000000000,"state":"active","ping":58},{"user_id":101,"name":"DIY Miracle","steam_id":76561198046228152,"connected_time":127000000000,"state":"active","ping":57}]},{"server_id":395,"name":"Uncletopia | Sydney | 3 | All Maps","name_short":"syd-3","host":"syd-1.au.uncletopia.com","port":27035,"enabled":true,"region":"au","cc":"au","latitude":-33.865143,"longitude":151.2099,"reserved":0,"last_update":"0001-01-01T00:00:00Z","name_a2s":"Uncletopia | Sydney | 3 | All Maps","protocol":17,"map":"koth_lakeside_final","folder":"tf","game":"Team Fortress","app_id":440,"player_count":0,"max_players":24,"Bots":0,"server_type":"Dedicated","server_os":"Linux","password":true,"vac":true,"version":"7757534","steam_id":85568392925194467,"keywords":["cp","nocrits","nodmgspread","uncletopia"],"game_id":440,"stv_port":27036,"stv_name":"Uncletopia | Sydney | 3 | All Maps | STV","players":null},{"server_id":396,"name":"Uncletopia | Sydney | 4 | All Maps","name_short":"syd-4","host":"syd-1.au.uncletopia.com","port":27045,"enabled":true,"region":"au","cc":"au","latitude":-33.865143,"longitude":151.2099,"reserved":0,"last_update":"0001-01-01T00:00:00Z","name_a2s":"Uncletopia | Sydney | 4 | All Maps","protocol":17,"map":"koth_lakeside_final","folder":"tf","game":"Team Fortress","app_id":440,"player_count":0,"max_players":24,"Bots":0,"server_type":"Dedicated","server_os":"Linux","password":true,"vac":true,"version":"7757534","steam_id":85568392925397958,"keywords":["cp","nocrits","nodmgspread","uncletopia"],"game_id":440,"stv_port":27046,"stv_name":"Uncletopia | Sydney | 4 | All Maps | STV","players":null},{"server_id":58,"name":"Uncletopia | Sydney | 5 | Stopwatch Beta","name_short":"syd-5","host":"syd-1.au.uncletopia.com","port":27055,"enabled":true,"region":"au","cc":"au","latitude":-33.865143,"longitude":151.2099,"reserved":0,"last_update":"0001-01-01T00:00:00Z","name_a2s":"Uncletopia | Sydney | 5 | Stopwatch Beta","protocol":17,"map":"koth_cascade","folder":"tf","game":"Team Fortress","app_id":440,"player_count":0,"max_players":24,"Bots":0,"server_type":"Dedicated","server_os":"Linux","password":true,"vac":true,"version":"7757534","steam_id":85568392925397959,"keywords":["cp","nocrits","nodmgspread","uncletopia"],"game_id":440,"stv_port":27056,"stv_name":"Uncletopia | Sydney | 5 | Stopwatch Beta | STV","players":null},{"server_id":59,"name":"Uncletopia | Sydney | 6 | Community","name_short":"syd-6","host":"syd-1.au.uncletopia.com","port":27065,"enabled":true,"region":"au","cc":"au","latitude":-33.865143,"longitude":151.2099,"reserved":0,"last_update":"0001-01-01T00:00:00Z","name_a2s":"Uncletopia | Sydney | 6 | Community","protocol":17,"map":"workshop/koth_kemptown_rc1.ugc767410655","folder":"tf","game":"Team Fortress","app_id":440,"player_count":0,"max_players":24,"Bots":0,"server_type":"Dedicated","server_os":"Linux","password":true,"vac":true,"version":"7757534","steam_id":85568392925397960,"keywords":["cp","nocrits","nodmgspread","uncletopia"],"game_id":440,"stv_port":27066,"stv_name":"Uncletopia | Sydney | 6 | Community | STV","players":null},{"server_id":49,"name":"Uncletopia | Warsaw | 1 | All Maps","name_short":"waw-1","host":"waw-1.pl.uncletopia.com","port":27015,"enabled":true,"region":"eu","cc":"pl","latitude":52.2297,"longitude":21.017532,"reserved":0,"last_update":"0001-01-01T00:00:00Z","name_a2s":"","protocol":0,"map":"","folder":"","game":"","app_id":0,"player_count":0,"max_players":0,"Bots":0,"server_type":"","server_os":"","password":false,"vac":false,"version":"","steam_id":0,"keywords":null,"game_id":0,"stv_port":0,"stv_name":"","players":null},{"server_id":50,"name":"Uncletopia | Warsaw | 2 | All Maps","name_short":"waw-2","host":"waw-1.pl.uncletopia.com","port":27025,"enabled":true,"region":"eu","cc":"pl","latitude":52.2297,"longitude":21.017532,"reserved":0,"last_update":"0001-01-01T00:00:00Z","name_a2s":"Uncletopia | Warsaw | 2 | All Maps","protocol":17,"map":"pl_frontier_final","folder":"tf","game":"Team Fortress","app_id":440,"player_count":0,"max_players":24,"Bots":0,"server_type":"Dedicated","server_os":"Linux","password":true,"vac":true,"version":"7757534","steam_id":85568392925397851,"keywords":["nocrits","nodmgspread","payload","uncletopia"],"game_id":440,"stv_port":27026,"stv_name":"Uncletopia | Warsaw | 2 | All Maps | STV","players":null},{"server_id":51,"name":"Uncletopia | Warsaw | 3 | All Maps","name_short":"waw-3","host":"waw-1.pl.uncletopia.com","port":27035,"enabled":true,"region":"eu","cc":"pl","latitude":52.2297,"longitude":21.017532,"reserved":0,"last_update":"0001-01-01T00:00:00Z","name_a2s":"Uncletopia | Warsaw | 3 | All Maps","protocol":17,"map":"pl_barnblitz","folder":"tf","game":"Team Fortress","app_id":440,"player_count":0,"max_players":24,"Bots":0,"server_type":"Dedicated","server_os":"Linux","password":true,"vac":true,"version":"7757534","steam_id":85568392925397852,"keywords":["nocrits","nodmgspread","payload","uncletopia"],"game_id":440,"stv_port":27036,"stv_name":"Uncletopia | Warsaw | 3 | All Maps | STV","players":null},{"server_id":52,"name":"Uncletopia | Warsaw | 4 | All Maps","name_short":"waw-4","host":"waw-1.pl.uncletopia.com","port":27045,"enabled":true,"region":"eu","cc":"pl","latitude":52.2297,"longitude":21.017532,"reserved":0,"last_update":"0001-01-01T00:00:00Z","name_a2s":"Uncletopia | Warsaw | 4 | All Maps","protocol":17,"map":"cp_altitude","folder":"tf","game":"Team Fortress","app_id":440,"player_count":0,"max_players":24,"Bots":0,"server_type":"Dedicated","server_os":"Linux","password":true,"vac":true,"version":"7757534","steam_id":85568392925397853,"keywords":["cp","nocrits","nodmgspread","uncletopia"],"game_id":440,"stv_port":27046,"stv_name":"Uncletopia | Warsaw | 4 | All Maps | STV","players":null},{"server_id":53,"name":"Uncletopia | Warsaw | 5 | Stopwatch Beta","name_short":"waw-5","host":"waw-1.pl.uncletopia.com","port":27055,"enabled":true,"region":"eu","cc":"pl","latitude":52.2297,"longitude":21.017532,"reserved":0,"last_update":"0001-01-01T00:00:00Z","name_a2s":"Uncletopia | Warsaw | 5 | Stopwatch Beta","protocol":17,"map":"pl_pier","folder":"tf","game":"Team Fortress","app_id":440,"player_count":0,"max_players":24,"Bots":0,"server_type":"Dedicated","server_os":"Linux","password":true,"vac":true,"version":"7757534","steam_id":85568392925397854,"keywords":["nocrits","nodmgspread","payload","uncletopia"],"game_id":440,"stv_port":27056,"stv_name":"Uncletopia | Warsaw | 5 | Stopwatch Beta | STV","players":null},{"server_id":54,"name":"Uncletopia | Warsaw | 6 | Community","name_short":"waw-6","host":"waw-1.pl.uncletopia.com","port":27065,"enabled":true,"region":"eu","cc":"pl","latitude":52.2297,"longitude":21.017532,"reserved":0,"last_update":"0001-01-01T00:00:00Z","name_a2s":"Uncletopia | Warsaw | 6 | Community","protocol":17,"map":"koth_highpass","folder":"tf","game":"Team Fortress","app_id":440,"player_count":0,"max_players":24,"Bots":0,"server_type":"Dedicated","server_os":"Linux","password":true,"vac":true,"version":"7757534","steam_id":85568392925397856,"keywords":["cp","nocrits","nodmgspread","uncletopia"],"game_id":440,"stv_port":27066,"stv_name":"Uncletopia | Warsaw | 6 | Community | STV","players":null}]}