{"status":true,"message":"","result":[{"server_id":9,"name":"Uncletopia | Atlanta | 1 | All Maps","name_short":"atl-1","host":"atl-1.us.uncletopia.com","port":27015,"enabled":true,"region":"us-east","cc":"us","latitude":33.753746,"longitude":-84.38633,"reserved":0,"last_update":"0001-01-01T00:00:00Z","name_a2s":"Uncletopia | Atlanta | 1 | All Maps","protocol":17,"map":"pl_pier","folder":"tf","game":"Team Fortress","app_id":440,"player_count":0,"max_players":24,"Bots":0,"server_type":"Dedicated","server_os":"Linux","password":true,"vac":true,"version":"7882260","steam_id":85568392924469982,"keywords":["nocrits","nodmgspread","payload","uncletopia"],"game_id":440,"stv_port":27016,"stv_name":"Uncletopia | Atlanta | 1 | All Maps | STV","players":null},{"server_id":104,"name":"Uncletopia | Atlanta | 2 | All Maps","name_short":"atl-2","host":"atl-1.us.uncletopia.com","port":27025,"enabled":true,"region":"us-east","cc":"us","latitude":33.753746,"longitude":-84.38633,"reserved":0,"last_update":"0001-01-01T00:00:00Z","name_a2s":"Uncletopia | Atlanta | 2 | All Maps","protocol":17,"map":"koth_viaduct","folder":"tf","game":"Team Fortress","app_id":440,"player_count":0,"max_players":24,"Bots":0,"server_type":"Dedicated","server_os":"Linux","password":true,"vac":true,"version":"7882260","steam_id":85568392924469983,"keywords":["cp","nocrits","nodmgspread","uncletopia"],"game_id":440,"stv_port":27026,"stv_name":"Uncletopia | Atlanta | 2 | All Maps | STV","players":null},{"server_id":400,"name":"Uncletopia | Atlanta | 3 | Community","name_short":"atl-3","host":"atl-1.us.uncletopia.com","port":27035,"enabled":true,"region":"us-east","cc":"us","latitude":33.753746,"longitude":-84.38633,"reserved":0,"last_update":"0001-01-01T00:00:00Z","name_a2s":"Uncletopia | Atlanta | 3 | Community","protocol":17,"map":"workshop/cp_sulfur_rc2.ugc619869471","folder":"tf","game":"Team Fortress","app_id":440,"player_count":0,"max_players":24,"Bots":0,"server_type":"Dedicated","server_os":"Linux","password":true,"vac":true,"version":"7882260","steam_id":85568392924515187,"keywords":["cp","nocrits","nodmgspread","uncletopia"],"game_id":440,"stv_port":27036,"stv_name":"Uncletopia | Atlanta | 3 | Community | STV","players":null},{"server_id":401,"name":"Uncletopia | Atlanta | 4 | No Payload","name_short":"atl-4","host":"atl-1.us.uncletopia.com","port":27045,"enabled":true,"region":"us-east","cc":"us","latitude":33.753746,"longitude":-84.38633,"reserved":0,"last_update":"0001-01-01T00:00:00Z","name_a2s":"","protocol":0,"map":"","folder":"","game":"","app_id":0,"player_count":0,"max_players":0,"Bots":0,"server_type":"","server_os":"","password":false,"vac":false,"version":"","steam_id":0,"keywords":null,"game_id":0,"stv_port":0,"stv_name":"","players":null},{"server_id":2,"name":"Uncletopia | Chicago | 1 | All Maps","name_short":"chi-1","host":"chi-1.us.uncletopia.com","port":27015,"enabled":true,"region":"us-central","cc":"us","latitude":41.881832,"longitude":-87.62318,"reserved":0,"last_update":"0001-01-01T00:00:00Z","name_a2s":"Uncletopia | Chicago | 1 | All Maps","protocol":17,"map":"cp_process_final","folder":"tf","game":"Team Fortress","app_id":440,"player_count":24,"max_players":24,"Bots":0,"server_type":"Dedicated","server_os":"Linux","password":true,"vac":true,"version":"7882260","steam_id":85568392924469984,"keywords":["cp","nocrits","nodmgspread","uncletopia"],"game_id":440,"stv_port":27016,"stv_name":"Uncletopia | Chicago | 1 | All Maps | STV","players":[{"user_id":746,"name":"trying left viewmodel","steam_id":76561199480548883,"connected_time":5130000000000,"state":"active","ping":62},{"user_id":788,"name":"STILLZ","steam_id":76561198131892406,"connected_time":1009000000000,"state":"active","ping":77},{"user_id":777,"name":"Tots","steam_id":76561198027485007,"connected_time":2147000000000,"state":"active","ping":60},{"user_id":785,"name":"seldom","steam_id":76561198166193756,"connected_time":1090000000000,"state":"active","ping":59},{"user_id":789,"name":"HappyPurple","steam_id":76561198114782270,"connected_time":587000000000,"state":"active","ping":90},{"user_id":779,"name":"Tyco","steam_id":76561197978414167,"connected_time":1438000000000,"state":"active","ping":72},{"user_id":743,"name":"teafalopi","steam_id":76561198406252824,"connected_time":5162000000000,"state":"active","ping":106},{"user_id":672,"name":"Mank","steam_id":76561198189421005,"connected_time":11065000000000,"state":"active","ping":50},{"user_id":737,"name":"Rya‚ò∫","steam_id":76561198370128860,"connected_time":5425000000000,"state":"active","ping":75},{"user_id":771,"name":"kree","steam_id":76561197979960008,"connected_time":3654000000000,"state":"active","ping":50},{"user_id":696,"name":"kaputon","steam_id":76561198146299782,"connected_time":9618000000000,"state":"active","ping":60},{"user_id":773,"name":"Uncle Dad","steam_id":76561198058073652,"connected_time":3280000000000,"state":"active","ping":74},{"user_id":753,"name":"derdds","steam_id":76561198034339940,"connected_time":4936000000000,"state":"active","ping":58},{"user_id":790,"name":"brian eno","steam_id":76561198109901138,"connected_time":520000000000,"state":"active","ping":74},{"user_id":791,"name":"isaac_intes","steam_id":76561198327295317,"connected_time":506000000000,"state":"active","ping":190},{"user_id":781,"name":"harlowng","steam_id":76561198060542928,"connected_time":1413000000000,"state":"active","ping":98},{"user_id":786,"name":"GROOVYROOM","steam_id":76561199153684166,"connected_time":1042000000000,"state":"active","ping":50},{"user_id":766,"name":"quirked up white girl","steam_id":76561198069407799,"connected_time":4108000000000,"state":"active","ping":72},{"user_id":787,"name":"Persona404","steam_id":76561198109635077,"connected_time":1038000000000,"state":"active","ping":83},{"user_id":776,"name":"Mint Jelly","steam_id":76561197991286751,"connected_time":2997000000000,"state":"active","ping":48},{"user_id":751,"name":"l√ºh me da granky","steam_id":76561198056186750,"connected_time":4971000000000,"state":"active","ping":57},{"user_id":752,"name":"CC","steam_id":76561198071226149,"connected_time":4951000000000,"state":"active","ping":85},{"user_id":792,"name":"Swiifty","steam_id":76561198148262643,"connected_time":212000000000,"state":"active","ping":103},{"user_id":793,"name":"s2000","steam_id":76561198012414439,"connected_time":21000000000,"state":"active","ping":78}]},{"server_id":106,"name":"Uncletopia | Chicago | 2 | All Maps","name_short":"chi-2","host":"chi-1.us.uncletopia.com","port":27025,"enabled":true,"region":"us-central","cc":"us","latitude":41.881832,"longitude":-87.62318,"reserved":0,"last_update":"0001-01-01T00:00:00Z","name_a2s":"Uncletopia | Chicago | 2 | All Maps","protocol":17,"map":"ctf_sawmill","folder":"tf","game":"Team Fortress","app_id":440,"player_count":5,"max_players":24,"Bots":0,"server_type":"Dedicated","server_os":"Linux","password":true,"vac":true,"version":"7882260","steam_id":85568392924469985,"keywords":["ctf","nocrits","nodmgspread","uncletopia"],"game_id":440,"stv_port":27026,"stv_name":"Uncletopia | Chicago | 2 | All Maps | STV","players":[{"user_id":756,"name":"ultra lox","steam_id":76561199427318825,"connected_time":2430000000000,"state":"active","ping":263},{"user_id":766,"name":"come to butthead","steam_id":76561198020322241,"connected_time":324000000000,"state":"active","ping":68},{"user_id":767,"name":"wsg","steam_id":76561197967761806,"connected_time":313000000000,"state":"active","ping":160},{"user_id":751,"name":"Jaxout","steam_id":76561198126194361,"connected_time":3406000000000,"state":"active","ping":87},{"user_id":748,"name":"Gustavo Fring","steam_id":76561198132807405,"connected_time":3496000000000,"state":"active","ping":91}]},{"server_id":402,"name":"Uncletopia | Chicago | 3 | All Maps","name_short":"chi-3","host":"chi-1.us.uncletopia.com","port":27035,"enabled":true,"region":"us-central","cc":"us","latitude":41.881832,"longitude":-87.62318,"reserved":0,"last_update":"0001-01-01T00:00:00Z","name_a2s":"Uncletopia | Chicago | 3 | All Maps","protocol":17,"map":"pl_barnblitz","folder":"tf","game":"Team Fortress","app_id":440,"player_count":0,"max_players":24,"Bots":0,"server_type":"Dedicated","server_os":"Linux","password":true,"vac":true,"version":"7882260","steam_id":85568392924515191,"keywords":["nocrits","nodmgspread","payload","uncletopia"],"game_id":440,"stv_port":27036,"stv_name":"Uncletopia | Chicago | 3 | All Maps | STV","players":null},{"server_id":403,"name":"Uncletopia | Chicago | 4 | All Maps","name_short":"chi-4","host":"chi-1.us.uncletopia.com","port":27045,"enabled":true,"region":"us-central","cc":"us","latitude":41.881832,"longitude":-87.62318,"reserved":0,"last_update":"0001-01-01T00:00:00Z","name_a2s":"Uncletopia | Chicago | 4 | All Maps","protocol":17,"map":"pl_badwater","folder":"tf","game":"Team Fortress","app_id":440,"player_count":24,"max_players":24,"Bots":0,"server_type":"Dedicated","server_os":"Linux","password":true,"vac":true,"version":"7882260","steam_id":85568392924515193,"keywords":["nocrits","nodmgspread","payload","uncletopia"],"game_id":440,"stv_port":27046,"stv_name":"Uncletopia | Chicago | 4 | All Maps | STV","players":[{"user_id":581,"name":"Mafa47","steam_id":76561198311339643,"connected_time":881000000000,"state":"active","ping":70},{"user_id":590,"name":"exa*‚ú©‚Äß‚ÇäÀö","steam_id":76561198044511912,"connected_time":466000000000,"state":"active","ping":90},{"user_id":592,"name":"spxcy","steam_id":76561198080296853,"connected_time":177000000000,"state":"active","ping":159},{"user_id":566,"name":"playguy carter","steam_id":76561198080679337,"connected_time":2642000000000,"state":"active","ping":57},{"user_id":576,"name":"Norman","steam_id":76561198154715990,"connected_time":2217000000000,"state":"active","ping":94},{"user_id":567,"name":"Switch","steam_id":76561197982035284,"connected_time":2636000000000,"state":"active","ping":92},{"user_id":538,"name":"Rock Collector","steam_id":76561198131467867,"connected_time":4486000000000,"state":"active","ping":80},{"user_id":565,"name":"skinnard","steam_id":76561198084201779,"connected_time":2711000000000,"state":"active","ping":61},{"user_id":583,"name":"We believe in you!","steam_id":76561198219252313,"connected_time":851000000000,"state":"active","ping":62},{"user_id":563,"name":"Provocator","steam_id":76561197961830410,"connected_time":2916000000000,"state":"active","ping":74},{"user_id":554,"name":"just call me joe","steam_id":76561198043911582,"connected_time":3711000000000,"state":"active","ping":60},{"user_id":584,"name":"souljaboytellem.com","steam_id":76561198111975583,"connected_time":827000000000,"state":"active","ping":75},{"user_id":578,"name":"ASS THROTTLE VAPORIZE","steam_id":76561198132954196,"connected_time":1708000000000,"state":"active","ping":84},{"user_id":577,"name":"aaaaaaaaaaaaaaaa","steam_id":76561199064236413,"connected_time":1746000000000,"state":"active","ping":105},{"user_id":585,"name":"Float","steam_id":76561198101933311,"connected_time":807000000000,"state":"active","ping":76},{"user_id":586,"name":"mashallah","steam_id":76561198075111427,"connected_time":727000000000,"state":"active","ping":76},{"user_id":587,"name":"NoSignal","steam_id":76561198094723903,"connected_time":689000000000,"state":"active","ping":62},{"user_id":588,"name":"SirVlad","steam_id":76561198047358142,"connected_time":688000000000,"state":"active","ping":106},{"user_id":522,"name":"we're so back","steam_id":76561198058485742,"connected_time":5356000000000,"state":"active","ping":60},{"user_id":569,"name":"Menachem","steam_id":76561198041226420,"connected_time":2583000000000,"state":"active","ping":48},{"user_id":570,"name":"¬∏,√∏¬§¬∫¬∞¬∞","steam_id":76561198126358045,"connected_time":2525000000000,"state":"active","ping":62},{"user_id":562,"name":"cakgamin","steam_id":76561199088909749,"connected_time":3460000000000,"state":"active","ping":65},{"user_id":589,"name":"twitch.tv/kegaman_","steam_id":76561198043632775,"connected_time":487000000000,"state":"active","ping":102},{"user_id":574,"name":"Sc0rpionKILL3R","steam_id":76561198263271697,"connected_time":2283000000000,"state":"active","ping":45}]},{"server_id":36,"name":"Uncletopia | Chicago | 5 | All Maps","name_short":"chi-5","host":"chi-2.us.uncletopia.com","port":27015,"enabled":true,"region":"us-central","cc":"us","latitude":41.881832,"longitude":-87.62318,"reserved":0,"last_update":"0001-01-01T00:00:00Z","name_a2s":"Uncletopia | Chicago | 5 | All Maps","protocol":17,"map":"pl_upward","folder":"tf","game":"Team Fortress","app_id":440,"player_count":23,"max_players":24,"Bots":0,"server_type":"Dedicated","server_os":"Linux","password":true,"vac":true,"version":"7882260","steam_id":85568392924866362,"keywords":["nocrits","nodmgspread","payload","uncletopia"],"game_id":440,"stv_port":27016,"stv_name":"Uncletopia | Chicago | 5 | All Maps | STV","players":[{"user_id":782,"name":"lil hog","steam_id":76561199230929836,"connected_time":920000000000,"state":"active","ping":48},{"user_id":722,"name":"eish","steam_id":76561198089463603,"connected_time":5496000000000,"state":"active","ping":130},{"user_id":780,"name":"Scrux","steam_id":76561198129763115,"connected_time":1230000000000,"state":"active","ping":102},{"user_id":717,"name":"üü†","steam_id":76561198018213050,"connected_time":5774000000000,"state":"active","ping":45},{"user_id":770,"name":"Mitsubishi Materials","steam_id":76561198151871198,"connected_time":1366000000000,"state":"active","ping":58},{"user_id":766,"name":"Lift_","steam_id":76561198863467430,"connected_time":1543000000000,"state":"active","ping":63},{"user_id":773,"name":"Zee‚ù§","steam_id":76561198274550638,"connected_time":1328000000000,"state":"active","ping":60},{"user_id":771,"name":"Flex Pexico","steam_id":76561198041838930,"connected_time":1357000000000,"state":"active","ping":67},{"user_id":768,"name":"Trey","steam_id":76561198110024593,"connected_time":1482000000000,"state":"active","ping":86},{"user_id":750,"name":"zee","steam_id":76561197994492154,"connected_time":3312000000000,"state":"active","ping":170},{"user_id":714,"name":"basil","steam_id":76561198075758026,"connected_time":5804000000000,"state":"active","ping":86},{"user_id":774,"name":"stupid haver","steam_id":76561198044443985,"connected_time":1325000000000,"state":"active","ping":82},{"user_id":715,"name":"corpse","steam_id":76561198108938632,"connected_time":5802000000000,"state":"active","ping":44},{"user_id":783,"name":"BIG E","steam_id":76561199370453781,"connected_time":904000000000,"state":"active","ping":86},{"user_id":767,"name":"35 years without a footjob...","steam_id":76561198799299193,"connected_time":1539000000000,"state":"active","ping":89},{"user_id":785,"name":"KING KONG","steam_id":76561198927517471,"connected_time":552000000000,"state":"active","ping":79},{"user_id":756,"name":"nabla","steam_id":76561198066923067,"connected_time":2871000000000,"state":"active","ping":60},{"user_id":751,"name":"CAR DOOR","steam_id":76561198055283295,"connected_time":3228000000000,"state":"active","ping":155},{"user_id":754,"name":".-.. --- ...- . / -.-- --- ..-","steam_id":76561198002483206,"connected_time":2960000000000,"state":"active","ping":61},{"user_id":725,"name":"Lemon Drop","steam_id":76561198023684559,"connected_time":4879000000000,"state":"active","ping":60},{"user_id":779,"name":"Rumi_killer","steam_id":76561198077439866,"connected_time":1264000000000,"state":"active","ping":95},{"user_id":781,"name":"Ace Attorney","steam_id":76561198133011705,"connected_time":1112000000000,"state":"active","ping":57},{"user_id":787,"name":"Dzhoshua","steam_id":76561198071915251,"connected_time":174000000000,"state":"active","ping":68}]},{"server_id":37,"name":"Uncletopia | Chicago | 6 | All Maps","name_short":"chi-6","host":"chi-2.us.uncletopia.com","port":27025,"enabled":true,"region":"us-central","cc":"us","latitude":41.881832,"longitude":-87.62318,"reserved":0,"last_update":"0001-01-01T00:00:00Z","name_a2s":"Uncletopia | Chicago | 6 | All Maps","protocol":17,"map":"pl_pier","folder":"tf","game":"Team Fortress","app_id":440,"player_count":0,"max_players":24,"Bots":0,"server_type":"Dedicated","server_os":"Linux","password":true,"vac":true,"version":"7882260","steam_id":85568392924866363,"keywords":["nocrits","nodmgspread","payload","uncletopia"],"game_id":440,"stv_port":27026,"stv_name":"Uncletopia | Chicago | 6 | All Maps | STV","players":null},{"server_id":38,"name":"Uncletopia | Chicago | 7 | Stopwatch Beta","name_short":"chi-7","host":"chi-2.us.uncletopia.com","port":27035,"enabled":true,"region":"us-central","cc":"us","latitude":41.881832,"longitude":-87.62318,"reserved":0,"last_update":"0001-01-01T00:00:00Z","name_a2s":"Uncletopia | Chicago | 7 | Stopwatch Beta","protocol":17,"map":"workshop/pl_vigil_rc9.ugc1266210012","folder":"tf","game":"Team Fortress","app_id":440,"player_count":0,"max_players":24,"Bots":0,"server_type":"Dedicated","server_os":"Linux","password":true,"vac":true,"version":"7882260","steam_id":85568392924866364,"keywords":["nocrits","nodmgspread","payload","uncletopia"],"game_id":440,"stv_port":27036,"stv_name":"Uncletopia | Chicago | 7 | Stopwatch Beta | STV","players":null},{"server_id":39,"name":"Uncletopia | Chicago | 8 | Community","name_short":"chi-8","host":"chi-2.us.uncletopia.com","port":27045,"enabled":true,"region":"us-central","cc":"us","latitude":41.881832,"longitude":-87.62318,"reserved":0,"last_update":"0001-01-01T00:00:00Z","name_a2s":"Uncletopia | Chicago | 8 | Community","protocol":17,"map":"workshop/cp_indulge.ugc528106646","folder":"tf","game":"Team Fortress","app_id":440,"player_count":0,"max_players":24,"Bots":0,"server_type":"Dedicated","server_os":"Linux","password":true,"vac":true,"version":"7882260","steam_id":85568392924866365,"keywords":["cp","nocrits","nodmgspread","uncletopia"],"game_id":440,"stv_port":27046,"stv_name":"Uncletopia | Chicago | 8 | Community | STV","players":null},{"server_id":8,"name":"Uncletopia | Dallas | 1 | All Maps","name_short":"dal-1","host":"dal-1.us.uncletopia.com","port":27015,"enabled":true,"region":"us-central","cc":"us","latitude":32.779167,"longitude":-96.80889,"reserved":0,"last_update":"0001-01-01T00:00:00Z","name_a2s":"Uncletopia | Dallas | 1 | All Maps","protocol":17,"map":"ctf_doublecross","folder":"tf","game":"Team Fortress","app_id":440,"player_count":24,"max_players":24,"Bots":0,"server_type":"Dedicated","server_os":"Linux","password":true,"vac":true,"version":"7882260","steam_id":85568392924469986,"keywords":["ctf","nocrits","nodmgspread","uncletopia"],"game_id":440,"stv_port":27016,"stv_name":"Uncletopia | Dallas | 1 | All Maps | STV","players":[{"user_id":779,"name":"Mando","steam_id":76561198139662905,"connected_time":3244000000000,"state":"active","ping":149},{"user_id":802,"name":"Stoofy","steam_id":76561198280750328,"connected_time":957000000000,"state":"active","ping":105},{"user_id":784,"name":"Fantastic","steam_id":76561198079088978,"connected_time":2849000000000,"state":"active","ping":57},{"user_id":787,"name":"hatsune miku‚ô°","steam_id":76561199445009981,"connected_time":2778000000000,"state":"active","ping":100},{"user_id":782,"name":"lil boogie","steam_id":76561198064059721,"connected_time":3011000000000,"state":"active","ping":101},{"user_id":751,"name":"Burny Sanders","steam_id":76561197961879048,"connected_time":5350000000000,"state":"active","ping":45},{"user_id":763,"name":"shoxidizer","steam_id":76561198981983698,"connected_time":4777000000000,"state":"active","ping":89},{"user_id":792,"name":"chikin.sauce","steam_id":76561198042464635,"connected_time":2718000000000,"state":"active","ping":61},{"user_id":733,"name":"M0D9","steam_id":76561198853063547,"connected_time":6229000000000,"state":"active","ping":85},{"user_id":783,"name":"Piunr","steam_id":76561198045703891,"connected_time":2979000000000,"state":"active","ping":87},{"user_id":814,"name":"ShadowWasUhOh","steam_id":76561198400361935,"connected_time":263000000000,"state":"active","ping":75},{"user_id":795,"name":"MonkeyNobody","steam_id":76561199451266605,"connected_time":2192000000000,"state":"active","ping":85},{"user_id":800,"name":"A Straw","steam_id":76561199367935846,"connected_time":1119000000000,"state":"active","ping":76},{"user_id":785,"name":"YeshieSirYesSir","steam_id":76561198080214214,"connected_time":2846000000000,"state":"active","ping":61},{"user_id":768,"name":"IZISOO","steam_id":76561198970380577,"connected_time":4721000000000,"state":"active","ping":69},{"user_id":735,"name":"LobsterPot","steam_id":76561198072225973,"connected_time":6206000000000,"state":"active","ping":73},{"user_id":811,"name":"BuncusBeffer","steam_id":76561198285936616,"connected_time":568000000000,"state":"active","ping":95},{"user_id":804,"name":"captainspatklz","steam_id":76561198432167270,"connected_time":914000000000,"state":"active","ping":70},{"user_id":808,"name":"PootisPowHAHA","steam_id":76561199023536209,"connected_time":701000000000,"state":"active","ping":87},{"user_id":772,"name":"Belloq","steam_id":76561198060279052,"connected_time":4135000000000,"state":"active","ping":89},{"user_id":810,"name":"Madeline (She/Her)","steam_id":76561198336551859,"connected_time":620000000000,"state":"active","ping":74},{"user_id":812,"name":"OminousNoises","steam_id":76561198263320321,"connected_time":565000000000,"state":"active","ping":130},{"user_id":813,"name":"Cpl Coomer","steam_id":76561199143310951,"connected_time":550000000000,"state":"active","ping":85},{"user_id":771,"name":"bass mongrel","steam_id":76561198081123470,"connected_time":4680000000000,"state":"active","ping":51}]},{"server_id":108,"name":"Uncletopia | Dallas | 2 | All Maps","name_short":"dal-2","host":"dal-1.us.uncletopia.com","port":27025,"enabled":true,"region":"us-central","cc":"us","latitude":32.779167,"longitude":-96.80889,"reserved":0,"last_update":"0001-01-01T00:00:00Z","name_a2s":"Uncletopia | Dallas | 2 | All Maps","protocol":17,"map":"pl_barnblitz","folder":"tf","game":"Team Fortress","app_id":440,"player_count":24,"max_players":24,"Bots":0,"server_type":"Dedicated","server_os":"Linux","password":true,"vac":true,"version":"7882260","steam_id":85568392924469988,"keywords":["nocrits","nodmgspread","payload","uncletopia"],"game_id":440,"stv_port":27026,"stv_name":"Uncletopia | Dallas | 2 | All Maps | STV","players":[{"user_id":940,"name":"GIGAHAXX","steam_id":76561197993714726,"connected_time":1809000000000,"state":"active","ping":61},{"user_id":942,"name":"cinnamon","steam_id":76561198142109937,"connected_time":1385000000000,"state":"active","ping":61},{"user_id":957,"name":"JonBoy","steam_id":76561198082052480,"connected_time":66000000000,"state":"spawning","ping":106},{"user_id":943,"name":"Anomic","steam_id":76561198044000414,"connected_time":1197000000000,"state":"active","ping":124},{"user_id":944,"name":"pipes","steam_id":76561198067262024,"connected_time":1191000000000,"state":"active","ping":78},{"user_id":951,"name":"JadEDU","steam_id":76561198170648674,"connected_time":838000000000,"state":"active","ping":63},{"user_id":936,"name":"Jellojiggler","steam_id":76561198094320477,"connected_time":2508000000000,"state":"active","ping":48},{"user_id":954,"name":"CoziestGlobe","steam_id":76561198199237735,"connected_time":190000000000,"state":"active","ping":84},{"user_id":947,"name":"Acolyte of Goatse","steam_id":76561198046526036,"connected_time":962000000000,"state":"active","ping":75},{"user_id":894,"name":"Danger Dwarf","steam_id":76561198059490571,"connected_time":6607000000000,"state":"active","ping":62},{"user_id":958,"name":"Seaport Hime","steam_id":76561198055914224,"connected_time":65000000000,"state":"active","ping":90},{"user_id":937,"name":"Jesse Bear","steam_id":76561198217075305,"connected_time":2419000000000,"state":"active","ping":101},{"user_id":953,"name":"ihave80hp","steam_id":76561199251621911,"connected_time":609000000000,"state":"active","ping":121},{"user_id":929,"name":"Zanartan","steam_id":76561198050528902,"connected_time":3159000000000,"state":"active","ping":193},{"user_id":914,"name":"Zorlovo","steam_id":76561198006443283,"connected_time":4568000000000,"state":"active","ping":78},{"user_id":899,"name":"the private","steam_id":76561198232500756,"connected_time":6183000000000,"state":"active","ping":60},{"user_id":956,"name":"basmati jarate","steam_id":76561198319442494,"connected_time":153000000000,"state":"active","ping":88},{"user_id":927,"name":"S O L I D","steam_id":76561198086095072,"connected_time":3308000000000,"state":"active","ping":56},{"user_id":922,"name":"pandoRA","steam_id":76561198075490385,"connected_time":3642000000000,"state":"active","ping":80},{"user_id":950,"name":"Lazulf","steam_id":76561198041410859,"connected_time":901000000000,"state":"active","ping":82},{"user_id":907,"name":"mkl","steam_id":76561197986401685,"connected_time":5018000000000,"state":"active","ping":61},{"user_id":872,"name":"SleeplessCollin","steam_id":76561198968140914,"connected_time":8240000000000,"state":"active","ping":66},{"user_id":931,"name":"rose","steam_id":76561197995200743,"connected_time":2834000000000,"state":"active","ping":68}]},{"server_id":5,"name":"Uncletopia | Frankfurt | 1 | All Maps","name_short":"frk-1","host":"frk-1.de.uncletopia.com","port":27015,"enabled":true,"region":"eu","cc":"de","latitude":50.110924,"longitude":8.682127,"reserved":0,"last_update":"0001-01-01T00:00:00Z","name_a2s":"Uncletopia | Frankfurt | 1 | All Maps","protocol":17,"map":"pl_snowycoast","folder":"tf","game":"Team Fortress","app_id":440,"player_count":0,"max_players":24,"Bots":0,"server_type":"Dedicated","server_os":"Linux","password":true,"vac":true,"version":"7882260","steam_id":85568392924469989,"keywords":["nocrits","nodmgspread","payload","uncletopia"],"game_id":440,"stv_port":27016,"stv_name":"Uncletopia | Frankfurt | 1 | All Maps | STV","players":null},{"server_id":110,"name":"Uncletopia | Frankfurt | 2 | All Maps","name_short":"frk-2","host":"frk-1.de.uncletopia.com","port":27025,"enabled":true,"region":"eu","cc":"de","latitude":50.110924,"longitude":8.682127,"reserved":0,"last_update":"0001-01-01T00:00:00Z","name_a2s":"Uncletopia | Frankfurt | 2 | All Maps","protocol":17,"map":"koth_harvest_final","folder":"tf","game":"Team Fortress","app_id":440,"player_count":0,"max_players":24,"Bots":0,"server_type":"Dedicated","server_os":"Linux","password":true,"vac":true,"version":"7882260","steam_id":85568392924469990,"keywords":["cp","nocrits","nodmgspread","uncletopia"],"game_id":440,"stv_port":27026,"stv_name":"Uncletopia | Frankfurt | 2 | All Maps | STV","players":null},{"server_id":308,"name":"Uncletopia | Frankfurt | 3 | All Maps","name_short":"frk-3","host":"frk-1.de.uncletopia.com","port":27035,"enabled":true,"region":"eu","cc":"de","latitude":50.110924,"longitude":8.682127,"reserved":0,"last_update":"0001-01-01T00:00:00Z","name_a2s":"Uncletopia | Frankfurt | 3 | All Maps","protocol":17,"map":"cp_process_final","folder":"tf","game":"Team Fortress","app_id":440,"player_count":0,"max_players":24,"Bots":0,"server_type":"Dedicated","server_os":"Linux","password":true,"vac":true,"version":"7882260","steam_id":85568392924504274,"keywords":["cp","nocrits","nodmgspread","uncletopia"],"game_id":440,"stv_port":27036,"stv_name":"Uncletopia | Frankfurt | 3 | All Maps | STV","players":null},{"server_id":309,"name":"Uncletopia | Frankfurt | 4 | All Maps","name_short":"frk-4","host":"frk-1.de.uncletopia.com","port":27045,"enabled":true,"region":"eu","cc":"de","latitude":50.110924,"longitude":8.682127,"reserved":0,"last_update":"0001-01-01T00:00:00Z","name_a2s":"Uncletopia | Frankfurt | 4 | All Maps","protocol":17,"map":"koth_highpass","folder":"tf","game":"Team Fortress","app_id":440,"player_count":0,"max_players":24,"Bots":0,"server_type":"Dedicated","server_os":"Linux","password":true,"vac":true,"version":"7882260","steam_id":85568392924504275,"keywords":["cp","nocrits","nodmgspread","uncletopia"],"game_id":440,"stv_port":27046,"stv_name":"Uncletopia | Frankfurt | 4 | All Maps | STV","players":null},{"server_id":310,"name":"Uncletopia | Frankfurt | 5 | All Maps","name_short":"frk-5","host":"frk-1.de.uncletopia.com","port":27055,"enabled":true,"region":"eu","cc":"de","latitude":50.110924,"longitude":8.682127,"reserved":0,"last_update":"0001-01-01T00:00:00Z","name_a2s":"Uncletopia | Frankfurt | 5 | All Maps","protocol":17,"map":"pl_borneo","folder":"tf","game":"Team Fortress","app_id":440,"player_count":0,"max_players":24,"Bots":0,"server_type":"Dedicated","server_os":"Linux","password":true,"vac":true,"version":"7882260","steam_id":85568392924504277,"keywords":["nocrits","nodmgspread","payload","uncletopia"],"game_id":440,"stv_port":27056,"stv_name":"Uncletopia | Frankfurt | 5 | All Maps | STV","players":null},{"server_id":311,"name":"Uncletopia | Frankfurt | 6 | All Maps","name_short":"frk-6","host":"frk-1.de.uncletopia.com","port":27065,"enabled":true,"region":"eu","cc":"de","latitude":50.110924,"longitude":8.682127,"reserved":0,"last_update":"0001-01-01T00:00:00Z","name_a2s":"Uncletopia | Frankfurt | 6 | All Maps","protocol":17,"map":"pl_badwater","folder":"tf","game":"Team Fortress","app_id":440,"player_count":24,"max_players":24,"Bots":0,"server_type":"Dedicated","server_os":"Linux","password":true,"vac":true,"version":"7882260","steam_id":85568392924504278,"keywords":["nocrits","nodmgspread","payload","uncletopia"],"game_id":440,"stv_port":27066,"stv_name":"Uncletopia | Frankfurt | 6 | All Maps | STV","players":[{"user_id":7,"name":"Barry Bee Benson","steam_id":76561198115199225,"connected_time":4595000000000,"state":"active","ping":60},{"user_id":8,"name":"christoph","steam_id":76561198862617811,"connected_time":4464000000000,"state":"active","ping":64},{"user_id":9,"name":"Chopperson_","steam_id":76561198873728497,"connected_time":4072000000000,"state":"active","ping":104},{"user_id":18,"name":"Registered Sex Defender","steam_id":76561198039836567,"connected_time":3225000000000,"state":"active","ping":60},{"user_id":59,"name":"Xeno","steam_id":76561198975556646,"connected_time":568000000000,"state":"active","ping":45},{"user_id":32,"name":"tax evasion gaming","steam_id":76561199212653573,"connected_time":2152000000000,"state":"active","ping":80},{"user_id":58,"name":"Rin-Nakaret","steam_id":76561197971051188,"connected_time":602000000000,"state":"active","ping":68},{"user_id":26,"name":"just_adhenz1284 #SaveTF2","steam_id":76561198293654671,"connected_time":2408000000000,"state":"active","ping":158},{"user_id":60,"name":"leadsquid","steam_id":76561198071544109,"connected_time":566000000000,"state":"active","ping":120},{"user_id":28,"name":"Egor Pomidor","steam_id":76561199175688390,"connected_time":2287000000000,"state":"active","ping":76},{"user_id":20,"name":"LocalNoob","steam_id":76561199059920084,"connected_time":3034000000000,"state":"active","ping":83},{"user_id":47,"name":"bonk enjoyer","steam_id":76561198111568728,"connected_time":1502000000000,"state":"active","ping":50},{"user_id":24,"name":"engineer drip","steam_id":76561198991032570,"connected_time":2542000000000,"state":"active","ping":98},{"user_id":51,"name":"[T]aKer","steam_id":76561198001778013,"connected_time":1231000000000,"state":"active","ping":51},{"user_id":61,"name":"Phosphorus","steam_id":76561199001265049,"connected_time":547000000000,"state":"active","ping":89},{"user_id":56,"name":"Coomer","steam_id":76561198186808027,"connected_time":630000000000,"state":"active","ping":48},{"user_id":69,"name":"Xriasp","steam_id":76561198104721321,"connected_time":145000000000,"state":"active","ping":75},{"user_id":39,"name":"furniture centaur","steam_id":76561198057868438,"connected_time":1950000000000,"state":"active","ping":65},{"user_id":68,"name":"Hubero","steam_id":76561198017053653,"connected_time":175000000000,"state":"active","ping":62},{"user_id":35,"name":"Varma-kakkonen","steam_id":76561198271871145,"connected_time":2025000000000,"state":"active","ping":101},{"user_id":65,"name":"spy among us","steam_id":76561198392537090,"connected_time":318000000000,"state":"active","ping":61},{"user_id":57,"name":"Boyarishnik","steam_id":76561198986324207,"connected_time":630000000000,"state":"active","ping":88},{"user_id":38,"name":"√ÉNVS DR√ÉNVS","steam_id":76561198138733015,"connected_time":1992000000000,"state":"active","ping":112},{"user_id":41,"name":"Bonca","steam_id":76561198137503531,"connected_time":1880000000000,"state":"active","ping":76}]},{"server_id":23,"name":"Uncletopia | Frankfurt | 7 | Stopwatch Beta","name_short":"frk-7","host":"frk-1.de.uncletopia.com","port":27075,"enabled":true,"region":"eu","cc":"de","latitude":50.110924,"longitude":8.682127,"reserved":0,"last_update":"0001-01-01T00:00:00Z","name_a2s":"Uncletopia | Frankfurt | 7 | Stopwatch Beta","protocol":17,"map":"workshop/cp_process_f12.ugc2302948105","folder":"tf","game":"Team Fortress","app_id":440,"player_count":0,"max_players":24,"Bots":0,"server_type":"Dedicated","server_os":"Linux","password":true,"vac":true,"version":"7882260","steam_id":85568392924742827,"keywords":["cp","nocrits","nodmgspread","uncletopia"],"game_id":440,"stv_port":27076,"stv_name":"Uncletopia | Frankfurt | 7 | Stopwatch Beta | STV","players":null},{"server_id":24,"name":"Uncletopia | Frankfurt | 8 | Community","name_short":"frk-8","host":"frk-1.de.uncletopia.com","port":27085,"enabled":true,"region":"eu","cc":"de","latitude":50.110924,"longitude":8.682127,"reserved":0,"last_update":"0001-01-01T00:00:00Z","name_a2s":"Uncletopia | Frankfurt | 8 | Community","protocol":17,"map":"cp_mountainlab","folder":"tf","game":"Team Fortress","app_id":440,"player_count":0,"max_players":24,"Bots":0,"server_type":"Dedicated","server_os":"Linux","password":true,"vac":true,"version":"7882260","steam_id":85568392924742828,"keywords":["cp","nocrits","nodmgspread","uncletopia"],"game_id":440,"stv_port":27086,"stv_name":"Uncletopia | Frankfurt | 8 | Community | STV","players":null},{"server_id":202,"name":"Uncletopia | Hong Kong | 1 | All Maps","name_short":"hgk-1","host":"hgk-1.hk.uncletopia.com","port":27015,"enabled":true,"region":"asia","cc":"hk","latitude":22.302711,"longitude":114.177216,"reserved":0,"last_update":"0001-01-01T00:00:00Z","name_a2s":"Uncletopia | Hong Kong | 1 | All Maps","protocol":17,"map":"cp_process_final","folder":"tf","game":"Team Fortress","app_id":440,"player_count":24,"max_players":24,"Bots":0,"server_type":"Dedicated","server_os":"Linux","password":true,"vac":true,"version":"7882260","steam_id":85568392924494504,"keywords":["cp","nocrits","nodmgspread","uncletopia"],"game_id":440,"stv_port":27016,"stv_name":"Uncletopia | Hong Kong | 1 | All Maps | STV","players":[{"user_id":193,"name":"MeetTeMedic99","steam_id":76561199208706868,"connected_time":1350000000000,"state":"active","ping":77},{"user_id":184,"name":"NeutralM4sk","steam_id":76561199034346807,"connected_time":2265000000000,"state":"active","ping":90},{"user_id":170,"name":"silverhouse7","steam_id":76561198349634906,"connected_time":4152000000000,"state":"active","ping":90},{"user_id":147,"name":"stupendous sycophant","steam_id":76561198055553140,"connected_time":7881000000000,"state":"active","ping":76},{"user_id":152,"name":"Samoyed","steam_id":76561198299150410,"connected_time":7104000000000,"state":"active","ping":104},{"user_id":163,"name":"ArcticDolphin","steam_id":76561198203626319,"connected_time":6036000000000,"state":"active","ping":125},{"user_id":154,"name":"vintage","steam_id":76561198230213828,"connected_time":6881000000000,"state":"active","ping":116},{"user_id":186,"name":"ObscuroLucem","steam_id":76561198875037943,"connected_time":1420000000000,"state":"active","ping":91},{"user_id":164,"name":"im_0ff","steam_id":76561198339346695,"connected_time":5306000000000,"state":"active","ping":125},{"user_id":189,"name":"Chomer","steam_id":76561199034546642,"connected_time":1405000000000,"state":"active","ping":105},{"user_id":158,"name":"water tastes good","steam_id":76561199375947670,"connected_time":6105000000000,"state":"active","ping":73},{"user_id":197,"name":"Maria ghostcap.com","steam_id":76561198237613398,"connected_time":1171000000000,"state":"active","ping":158},{"user_id":95,"name":"spinach (old mouse)","steam_id":76561198042539541,"connected_time":11623000000000,"state":"active","ping":83},{"user_id":172,"name":"huoh (cant chat)","steam_id":76561199480939609,"connected_time":4148000000000,"state":"active","ping":76},{"user_id":178,"name":"huh :-)","steam_id":76561198293775978,"connected_time":3512000000000,"state":"active","ping":95},{"user_id":175,"name":"screaming sniper","steam_id":76561199085568674,"connected_time":4026000000000,"state":"active","ping":72},{"user_id":185,"name":"Noyour","steam_id":76561198323259830,"connected_time":1823000000000,"state":"active","ping":110},{"user_id":157,"name":"bocchi the oppai!","steam_id":76561198008307645,"connected_time":6241000000000,"state":"active","ping":136},{"user_id":119,"name":"„Åµ„Çè„Åµ„ÇèÊØõÂ∏É","steam_id":76561198088403016,"connected_time":9580000000000,"state":"active","ping":100},{"user_id":194,"name":"Corn_Archer","steam_id":76561199185044554,"connected_time":1349000000000,"state":"active","ping":68},{"user_id":203,"name":"TheChainsaw","steam_id":76561198312001455,"connected_time":988000000000,"state":"active","ping":118},{"user_id":150,"name":"17","steam_id":76561198241530712,"connected_time":7828000000000,"state":"active","ping":59},{"user_id":191,"name":"Michael Scott","steam_id":76561198023082794,"connected_time":1404000000000,"state":"active","ping":55},{"user_id":204,"name":"Ivy","steam_id":76561198400698408,"connected_time":987000000000,"state":"active","ping":98}]},{"server_id":1,"name":"Uncletopia | Los Angeles | 1 | All Maps","name_short":"lax-1","host":"lax-1.us.uncletopia.com","port":27015,"enabled":true,"region":"us-west","cc":"us","latitude":33.94279,"longitude":-118.41004,"reserved":0,"last_update":"0001-01-01T00:00:00Z","name_a2s":"Uncletopia | Los Angeles | 1 | All Maps","protocol":17,"map":"pl_badwater","folder":"tf","game":"Team Fortress","app_id":440,"player_count":23,"max_players":24,"Bots":0,"server_type":"Dedicated","server_os":"Linux","password":true,"vac":true,"version":"7882260","steam_id":85568392924469991,"keywords":["nocrits","nodmgspread","payload","uncletopia"],"game_id":440,"stv_port":27016,"stv_name":"Uncletopia | Los Angeles | 1 | All Maps | STV","players":[{"user_id":422,"name":"Swanky","steam_id":76561198056242899,"connected_time":1545000000000,"state":"active","ping":79},{"user_id":448,"name":"Pho","steam_id":76561198306515742,"connected_time":61000000000,"state":"active","ping":59},{"user_id":449,"name":"HellaCopter","steam_id":76561198062313698,"connected_time":57000000000,"state":"active","ping":65},{"user_id":408,"name":"Coyote Bongwater","steam_id":76561198022905122,"connected_time":3011000000000,"state":"active","ping":60},{"user_id":447,"name":"Wonsubon","steam_id":76561198305249493,"connected_time":135000000000,"state":"active","ping":48},{"user_id":430,"name":"Viktor Ludwig","steam_id":76561198973370004,"connected_time":915000000000,"state":"active","ping":55},{"user_id":417,"name":"..flop","steam_id":76561197989058876,"connected_time":2219000000000,"state":"active","ping":75},{"user_id":412,"name":"Buuw","steam_id":76561198085707714,"connected_time":2702000000000,"state":"active","ping":48},{"user_id":431,"name":"juju_kungfu","steam_id":76561198151291219,"connected_time":911000000000,"state":"active","ping":70},{"user_id":423,"name":"qt wavyz","steam_id":76561199060668138,"connected_time":1398000000000,"state":"active","ping":93},{"user_id":425,"name":"Pyrotek‚Å¥","steam_id":76561198072747672,"connected_time":1357000000000,"state":"active","ping":34},{"user_id":426,"name":"O D J","steam_id":76561198071254599,"connected_time":1293000000000,"state":"active","ping":52},{"user_id":451,"name":"elephant thumb","steam_id":76561198118859752,"connected_time":19000000000,"state":"active","ping":46},{"user_id":452,"name":"RIP LANCE REDDICK","steam_id":76561198099980149,"connected_time":0,"state":"spawning","ping":7},{"user_id":427,"name":"speed","steam_id":76561198074489549,"connected_time":1277000000000,"state":"active","ping":45},{"user_id":433,"name":"Farseer Ulwithy","steam_id":76561197965179245,"connected_time":874000000000,"state":"active","ping":86},{"user_id":434,"name":"Jack from Jack in The Box","steam_id":76561199083594971,"connected_time":868000000000,"state":"active","ping":48},{"user_id":439,"name":"Doctor Pootis","steam_id":76561198445720431,"connected_time":645000000000,"state":"active","ping":58},{"user_id":428,"name":"Dr_Minty","steam_id":76561199043644449,"connected_time":1148000000000,"state":"active","ping":44},{"user_id":436,"name":"el wokismo","steam_id":76561198058617608,"connected_time":749000000000,"state":"active","ping":60},{"user_id":332,"name":"UneditedAndy","steam_id":76561198982544947,"connected_time":8773000000000,"state":"active","ping":70},{"user_id":414,"name":"Scorpianswag","steam_id":76561198260651036,"connected_time":2538000000000,"state":"active","ping":44},{"user_id":415,"name":"BJ","steam_id":76561198004307563,"connected_time":2530000000000,"state":"active","ping":158}]},{"server_id":112,"name":"Uncletopia | Los Angeles | 2 | All Maps","name_short":"lax-2","host":"lax-1.us.uncletopia.com","port":27025,"enabled":true,"region":"us-west","cc":"us","latitude":33.94279,"longitude":-118.41004,"reserved":0,"last_update":"0001-01-01T00:00:00Z","name_a2s":"Uncletopia | Los Angeles | 2 | All Maps","protocol":17,"map":"koth_cascade","folder":"tf","game":"Team Fortress","app_id":440,"player_count":12,"max_players":24,"Bots":0,"server_type":"Dedicated","server_os":"Linux","password":true,"vac":true,"version":"7882260","steam_id":85568392924469992,"keywords":["cp","nocrits","nodmgspread","uncletopia"],"game_id":440,"stv_port":27026,"stv_name":"Uncletopia | Los Angeles | 2 | All Maps | STV","players":[{"user_id":666,"name":"Antreuse","steam_id":76561198219721132,"connected_time":2701000000000,"state":"active","ping":71},{"user_id":685,"name":"Windfall","steam_id":76561198046500859,"connected_time":718000000000,"state":"active","ping":43},{"user_id":664,"name":"Special Gorilla","steam_id":76561198120705900,"connected_time":2819000000000,"state":"active","ping":46},{"user_id":692,"name":"DungeonMaster Van","steam_id":76561197981954308,"connected_time":126000000000,"state":"active","ping":84},{"user_id":671,"name":"Adam Levine (Real)","steam_id":76561199199257149,"connected_time":1900000000000,"state":"active","ping":47},{"user_id":665,"name":"Wham Mistress","steam_id":76561198115422032,"connected_time":2721000000000,"state":"active","ping":46},{"user_id":688,"name":"LeTonzy","steam_id":76561198005806699,"connected_time":446000000000,"state":"active","ping":61},{"user_id":687,"name":"Frank Accardi","steam_id":76561198017275707,"connected_time":556000000000,"state":"active","ping":66},{"user_id":691,"name":"H–§RSEPAIN","steam_id":76561198083658115,"connected_time":310000000000,"state":"active","ping":74},{"user_id":678,"name":"Jimmy","steam_id":76561198857959855,"connected_time":1672000000000,"state":"active","ping":42},{"user_id":416,"name":"[√òWQJ√ò]chubacaalatake","steam_id":76561198136201697,"connected_time":21401000000000,"state":"active","ping":83}]},{"server_id":324,"name":"Uncletopia | Los Angeles | 3 | All Maps","name_short":"lax-3","host":"lax-1.us.uncletopia.com","port":27035,"enabled":true,"region":"us-west","cc":"us","latitude":33.94279,"longitude":-118.41004,"reserved":0,"last_update":"0001-01-01T00:00:00Z","name_a2s":"Uncletopia | Los Angeles | 3 | All Maps","protocol":17,"map":"pl_borneo","folder":"tf","game":"Team Fortress","app_id":440,"player_count":24,"max_players":24,"Bots":0,"server_type":"Dedicated","server_os":"Linux","password":true,"vac":true,"version":"7882260","steam_id":85568392924510198,"keywords":["nocrits","nodmgspread","payload","uncletopia"],"game_id":440,"stv_port":27036,"stv_name":"Uncletopia | Los Angeles | 3 | All Maps | STV","players":[{"user_id":759,"name":"insane jester","steam_id":76561198079609974,"connected_time":1058000000000,"state":"active","ping":56},{"user_id":753,"name":"‡∂û#savetf2","steam_id":76561198432226673,"connected_time":1536000000000,"state":"active","ping":63},{"user_id":736,"name":"resh","steam_id":76561198239598834,"connected_time":4163000000000,"state":"active","ping":102},{"user_id":754,"name":"roryisreallyoutofit","steam_id":76561198065825165,"connected_time":1507000000000,"state":"active","ping":96},{"user_id":752,"name":"smogun","steam_id":76561198361158518,"connected_time":1550000000000,"state":"active","ping":54},{"user_id":725,"name":"californjoe","steam_id":76561197965047795,"connected_time":5650000000000,"state":"active","ping":52},{"user_id":746,"name":"KrylonHeretic","steam_id":76561198139811459,"connected_time":3358000000000,"state":"active","ping":73},{"user_id":762,"name":"Walrus","steam_id":76561198001799905,"connected_time":917000000000,"state":"active","ping":51},{"user_id":755,"name":"ed","steam_id":76561198080475712,"connected_time":1485000000000,"state":"active","ping":57},{"user_id":756,"name":"Geb","steam_id":76561198043187719,"connected_time":1471000000000,"state":"active","ping":68},{"user_id":716,"name":"Bagoool","steam_id":76561198065368286,"connected_time":6002000000000,"state":"active","ping":104},{"user_id":661,"name":"NEBULA","steam_id":76561198086878595,"connected_time":10870000000000,"state":"active","ping":54},{"user_id":763,"name":"TheRealChizz","steam_id":76561198016055769,"connected_time":888000000000,"state":"active","ping":65},{"user_id":729,"name":"Zigadox","steam_id":76561198079813479,"connected_time":5285000000000,"state":"active","ping":118},{"user_id":758,"name":"Feet","steam_id":76561198047302528,"connected_time":1313000000000,"state":"active","ping":79},{"user_id":717,"name":"lite","steam_id":76561198041535914,"connected_time":5991000000000,"state":"active","ping":103},{"user_id":766,"name":"chow (SFMTA)","steam_id":76561198331518769,"connected_time":114000000000,"state":"active","ping":70},{"user_id":562,"name":"Moomin","steam_id":76561198072726213,"connected_time":16354000000000,"state":"active","ping":50},{"user_id":760,"name":"gg","steam_id":76561198892870216,"connected_time":1050000000000,"state":"active","ping":45},{"user_id":764,"name":"soltuno","steam_id":76561198074430565,"connected_time":883000000000,"state":"active","ping":66},{"user_id":749,"name":"Flying Tortilla","steam_id":76561198079455930,"connected_time":2716000000000,"state":"active","ping":118},{"user_id":765,"name":"Texas","steam_id":76561198053276976,"connected_time":371000000000,"state":"active","ping":64},{"user_id":733,"name":"Anthid","steam_id":76561198074493797,"connected_time":4882000000000,"state":"active","ping":76},{"user_id":685,"name":"squash","steam_id":76561198150281353,"connected_time":9125000000000,"state":"active","ping":87}]},{"server_id":25,"name":"Uncletopia | Los Angeles | 4 | Stopwatch Beta","name_short":"lax-4","host":"lax-1.us.uncletopia.com","port":27045,"enabled":true,"region":"us-west","cc":"us","latitude":33.94279,"longitude":-118.41004,"reserved":0,"last_update":"0001-01-01T00:00:00Z","name_a2s":"Uncletopia | Los Angeles | 4 | Stopwatch Beta","protocol":17,"map":"koth_lakeside_final","folder":"tf","game":"Team Fortress","app_id":440,"player_count":0,"max_players":24,"Bots":0,"server_type":"Dedicated","server_os":"Linux","password":true,"vac":true,"version":"7882260","steam_id":85568392924510199,"keywords":["cp","nocrits","nodmgspread","uncletopia"],"game_id":440,"stv_port":27046,"stv_name":"Uncletopia | Los Angeles | 4 | Stopwatch Beta | STV","players":null},{"server_id":11,"name":"Uncletopia | London | 1 | All Maps","name_short":"lon-1","host":"lon-1.uk.uncletopia.com","port":27015,"enabled":true,"region":"eu","cc":"gb","latitude":51.509865,"longitude":-0.118092,"reserved":0,"last_update":"0001-01-01T00:00:00Z","name_a2s":"Uncletopia | London | 1 | All Maps","protocol":17,"map":"pl_snowycoast","folder":"tf","game":"Team Fortress","app_id":440,"player_count":0,"max_players":24,"Bots":0,"server_type":"Dedicated","server_os":"Linux","password":true,"vac":true,"version":"7882260","steam_id":85568392924367362,"keywords":["nocrits","nodmgspread","payload","uncletopia"],"game_id":440,"stv_port":27016,"stv_name":"Uncletopia | London | 1 | All Maps | STV","players":null},{"server_id":114,"name":"Uncletopia | London | 2 | All Maps","name_short":"lon-2","host":"lon-1.uk.uncletopia.com","port":27025,"enabled":true,"region":"eu","cc":"gb","latitude":51.509865,"longitude":-0.118092,"reserved":0,"last_update":"0001-01-01T00:00:00Z","name_a2s":"Uncletopia | London | 2 | All Maps","protocol":17,"map":"koth_highpass","folder":"tf","game":"Team Fortress","app_id":440,"player_count":0,"max_players":24,"Bots":0,"server_type":"Dedicated","server_os":"Linux","password":true,"vac":true,"version":"7882260","steam_id":85568392924470941,"keywords":["cp","nocrits","nodmgspread","uncletopia"],"game_id":440,"stv_port":27026,"stv_name":"Uncletopia | London | 2 | All Maps | STV","players":null},{"server_id":320,"name":"Uncletopia | London | 3 | All Maps","name_short":"lon-3","host":"lon-1.uk.uncletopia.com","port":27035,"enabled":true,"region":"eu","cc":"gb","latitude":51.509865,"longitude":-0.118092,"reserved":0,"last_update":"0001-01-01T00:00:00Z","name_a2s":"Uncletopia | London | 3 | All Maps","protocol":17,"map":"koth_cascade","folder":"tf","game":"Team Fortress","app_id":440,"player_count":0,"max_players":24,"Bots":0,"server_type":"Dedicated","server_os":"Linux","password":true,"vac":true,"version":"7882260","steam_id":85568392924510192,"keywords":["cp","nocrits","nodmgspread","uncletopia"],"game_id":440,"stv_port":27036,"stv_name":"Uncletopia | London | 3 | All Maps | STV","players":null},{"server_id":321,"name":"Uncletopia | London | 4 | All Maps","name_short":"lon-4","host":"lon-1.uk.uncletopia.com","port":27045,"enabled":true,"region":"eu","cc":"gb","latitude":51.509865,"longitude":-0.118092,"reserved":0,"last_update":"0001-01-01T00:00:00Z","name_a2s":"Uncletopia | London | 4 | All Maps","protocol":17,"map":"cp_dustbowl","folder":"tf","game":"Team Fortress","app_id":440,"player_count":0,"max_players":24,"Bots":0,"server_type":"Dedicated","server_os":"Linux","password":true,"vac":true,"version":"7882260","steam_id":85568392924510193,"keywords":["cp","nocrits","nodmgspread","uncletopia"],"game_id":440,"stv_port":27046,"stv_name":"Uncletopia | London | 4 | All Maps | STV","players":null},{"server_id":21,"name":"Uncletopia | London | 5 | All Maps","name_short":"lon-5","host":"lon-1.uk.uncletopia.com","port":27055,"enabled":true,"region":"eu","cc":"gb","latitude":51.509865,"longitude":-0.118092,"reserved":0,"last_update":"0001-01-01T00:00:00Z","name_a2s":"Uncletopia | London | 5 | All Maps","protocol":17,"map":"pl_pier","folder":"tf","game":"Team Fortress","app_id":440,"player_count":24,"max_players":24,"Bots":0,"server_type":"Dedicated","server_os":"Linux","password":true,"vac":true,"version":"7882260","steam_id":85568392924742829,"keywords":["nocrits","nodmgspread","payload","uncletopia"],"game_id":440,"stv_port":27056,"stv_name":"Uncletopia | London | 5 | All Maps | STV","players":[{"user_id":3,"name":"Grey","steam_id":76561198187190267,"connected_time":6745000000000,"state":"active","ping":46},{"user_id":83,"name":"Cat$s","steam_id":76561198052157830,"connected_time":419000000000,"state":"active","ping":31},{"user_id":86,"name":"dunduu","steam_id":76561198875240717,"connected_time":159000000000,"state":"active","ping":76},{"user_id":53,"name":"Milk","steam_id":76561198125876588,"connected_time":3145000000000,"state":"active","ping":38},{"user_id":80,"name":"Rohnus","steam_id":76561198074049934,"connected_time":503000000000,"state":"active","ping":46},{"user_id":69,"name":"hayley ‚ô•","steam_id":76561198093125555,"connected_time":1547000000000,"state":"active","ping":61},{"user_id":61,"name":"Seal","steam_id":76561198357482860,"connected_time":2286000000000,"state":"active","ping":84},{"user_id":78,"name":"anzaveris","steam_id":76561198089850657,"connected_time":564000000000,"state":"active","ping":105},{"user_id":11,"name":"Geese Goose","steam_id":76561198070903248,"connected_time":6715000000000,"state":"active","ping":57},{"user_id":12,"name":"PP_master69420","steam_id":76561199019913910,"connected_time":6711000000000,"state":"active","ping":83},{"user_id":70,"name":"2suomalaista","steam_id":76561198149927980,"connected_time":1422000000000,"state":"active","ping":75},{"user_id":85,"name":"Zirael","steam_id":76561198057143358,"connected_time":220000000000,"state":"active","ping":131},{"user_id":73,"name":"MozPango","steam_id":76561198083556891,"connected_time":1229000000000,"state":"active","ping":90},{"user_id":82,"name":"Worst spy main","steam_id":76561198924648366,"connected_time":471000000000,"state":"active","ping":85},{"user_id":38,"name":"Holo","steam_id":76561198348567663,"connected_time":4929000000000,"state":"active","ping":78},{"user_id":77,"name":"WaDIP","steam_id":76561198010270494,"connected_time":835000000000,"state":"active","ping":78},{"user_id":56,"name":"Bun","steam_id":76561197989239999,"connected_time":2900000000000,"state":"active","ping":54},{"user_id":74,"name":"Saint","steam_id":76561198003296382,"connected_time":1226000000000,"state":"active","ping":71},{"user_id":76,"name":"Mr. Cobbweb","steam_id":76561198215079953,"connected_time":1136000000000,"state":"active","ping":61},{"user_id":52,"name":"the indomitable human spirit","steam_id":76561198718760200,"connected_time":3260000000000,"state":"active","ping":46},{"user_id":68,"name":"electro","steam_id":76561198024536979,"connected_time":1715000000000,"state":"active","ping":85},{"user_id":84,"name":"Szeregowy LowiRyb","steam_id":76561198855967762,"connected_time":388000000000,"state":"active","ping":111},{"user_id":47,"name":"The Traveller","steam_id":76561198105364304,"connected_time":4368000000000,"state":"active","ping":103},{"user_id":59,"name":"St√ºmpy","steam_id":76561198255904077,"connected_time":2754000000000,"state":"active","ping":68}]},{"server_id":22,"name":"Uncletopia | London | 6 | All Maps","name_short":"lon-6","host":"lon-1.uk.uncletopia.com","port":27065,"enabled":true,"region":"eu","cc":"gb","latitude":51.509865,"longitude":-0.118092,"reserved":0,"last_update":"0001-01-01T00:00:00Z","name_a2s":"Uncletopia | London | 6 | All Maps","protocol":17,"map":"koth_lakeside_final","folder":"tf","game":"Team Fortress","app_id":440,"player_count":0,"max_players":24,"Bots":0,"server_type":"Dedicated","server_os":"Linux","password":true,"vac":true,"version":"7882260","steam_id":85568392924742830,"keywords":["cp","nocrits","nodmgspread","uncletopia"],"game_id":440,"stv_port":27066,"stv_name":"Uncletopia | London | 6 | All Maps | STV","players":null},{"server_id":40,"name":"Uncletopia | London | 7 | No Payload","name_short":"lon-7","host":"lon-1.uk.uncletopia.com","port":27075,"enabled":true,"region":"eu","cc":"gb","latitude":51.509865,"longitude":-0.118092,"reserved":0,"last_update":"0001-01-01T00:00:00Z","name_a2s":"Uncletopia | London | 7 | No Payload","protocol":17,"map":"pl_upward","folder":"tf","game":"Team Fortress","app_id":440,"player_count":0,"max_players":24,"Bots":0,"server_type":"Dedicated","server_os":"Linux","password":true,"vac":true,"version":"7882260","steam_id":85568392924964314,"keywords":["nocrits","nodmgspread","payload","uncletopia"],"game_id":440,"stv_port":27076,"stv_name":"Uncletopia | London | 7 | No Payload | STV","players":null},{"server_id":41,"name":"Uncletopia | London | 8 | Community","name_short":"lon-8","host":"lon-1.uk.uncletopia.com","port":27085,"enabled":true,"region":"eu","cc":"gb","latitude":51.509865,"longitude":-0.118092,"reserved":0,"last_update":"0001-01-01T00:00:00Z","name_a2s":"Uncletopia | London | 8 | Community","protocol":17,"map":"pl_upward","folder":"tf","game":"Team Fortress","app_id":440,"player_count":0,"max_players":24,"Bots":0,"server_type":"Dedicated","server_os":"Linux","password":true,"vac":true,"version":"7882260","steam_id":85568392924964315,"keywords":["nocrits","nodmgspread","payload","uncletopia"],"game_id":440,"stv_port":27086,"stv_name":"Uncletopia | London | 8 | Community | STV","players":null},{"server_id":300,"name":"Uncletopia | Montr√©al | 1 | All Maps","name_short":"mtl-1","host":"mtl-1.ca.uncletopia.com","port":27015,"enabled":true,"region":"us-east","cc":"ca","latitude":45.50889,"longitude":-73.56167,"reserved":0,"last_update":"0001-01-01T00:00:00Z","name_a2s":"Uncletopia | Montr√©al | 1 | All Maps","protocol":17,"map":"pl_barnblitz","folder":"tf","game":"Team Fortress","app_id":440,"player_count":0,"max_players":24,"Bots":0,"server_type":"Dedicated","server_os":"Linux","password":true,"vac":true,"version":"7882260","steam_id":85568392924500087,"keywords":["nocrits","nodmgspread","payload","uncletopia"],"game_id":440,"stv_port":27016,"stv_name":"Uncletopia | Montr√©al | 1 | All Maps | STV","players":null},{"server_id":301,"name":"Uncletopia | Montr√©al | 2 | All Maps","name_short":"mtl-2","host":"mtl-1.ca.uncletopia.com","port":27025,"enabled":true,"region":"us-east","cc":"ca","latitude":45.50889,"longitude":-73.56167,"reserved":0,"last_update":"0001-01-01T00:00:00Z","name_a2s":"Uncletopia | Montr√©al | 2 | All Maps","protocol":17,"map":"koth_cascade","folder":"tf","game":"Team Fortress","app_id":440,"player_count":0,"max_players":24,"Bots":0,"server_type":"Dedicated","server_os":"Linux","password":true,"vac":true,"version":"7882260","steam_id":85568392924500088,"keywords":["cp","nocrits","nodmgspread","uncletopia"],"game_id":440,"stv_port":27026,"stv_name":"Uncletopia | Montr√©al | 2 | All Maps | STV","players":null},{"server_id":302,"name":"Uncletopia | Montr√©al | 3 | All Maps","name_short":"mtl-3","host":"mtl-1.ca.uncletopia.com","port":27035,"enabled":true,"region":"us-east","cc":"ca","latitude":45.50889,"longitude":-73.56167,"reserved":0,"last_update":"0001-01-01T00:00:00Z","name_a2s":"Uncletopia | Montr√©al | 3 | All Maps","protocol":17,"map":"koth_viaduct","folder":"tf","game":"Team Fortress","app_id":440,"player_count":0,"max_players":24,"Bots":0,"server_type":"Dedicated","server_os":"Linux","password":true,"vac":true,"version":"7882260","steam_id":85568392924500089,"keywords":["cp","nocrits","nodmgspread","uncletopia"],"game_id":440,"stv_port":27036,"stv_name":"Uncletopia | Montr√©al | 3 | All Maps | STV","players":null},{"server_id":303,"name":"Uncletopia | Montr√©al | 4 | No Payload","name_short":"mtl-4","host":"mtl-1.ca.uncletopia.com","port":27045,"enabled":true,"region":"us-east","cc":"ca","latitude":45.50889,"longitude":-73.56167,"reserved":0,"last_update":"0001-01-01T00:00:00Z","name_a2s":"Uncletopia | Montr√©al | 4 | No Payload","protocol":17,"map":"plr_bananabay","folder":"tf","game":"Team Fortress","app_id":440,"player_count":0,"max_players":24,"Bots":0,"server_type":"Dedicated","server_os":"Linux","password":true,"vac":true,"version":"7882260","steam_id":85568392924500090,"keywords":["nocrits","nodmgspread","payload","uncletopia"],"game_id":440,"stv_port":27046,"stv_name":"Uncletopia | Montr√©al | 4 | No Payload | STV","players":null},{"server_id":13,"name":"Uncletopia | New York City | 1 | All Maps","name_short":"nyc-1","host":"nyc-1.us.uncletopia.com","port":27015,"enabled":true,"region":"us-east","cc":"us","latitude":40.73061,"longitude":-73.93524,"reserved":0,"last_update":"0001-01-01T00:00:00Z","name_a2s":"Uncletopia | New York City | 1 | All Maps","protocol":17,"map":"pl_snowycoast","folder":"tf","game":"Team Fortress","app_id":440,"player_count":0,"max_players":24,"Bots":0,"server_type":"Dedicated","server_os":"Linux","password":true,"vac":true,"version":"7882260","steam_id":85568392924469993,"keywords":["nocrits","nodmgspread","payload","uncletopia"],"game_id":440,"stv_port":27016,"stv_name":"Uncletopia | New York City | 1 | All Maps | STV","players":null},{"server_id":14,"name":"Uncletopia | New York City | 2 | All Maps","name_short":"nyc-2","host":"nyc-1.us.uncletopia.com","port":27025,"enabled":true,"region":"us-east","cc":"us","latitude":40.73061,"longitude":-73.93524,"reserved":0,"last_update":"0001-01-01T00:00:00Z","name_a2s":"Uncletopia | New York City | 2 | All Maps","protocol":17,"map":"pl_upward","folder":"tf","game":"Team Fortress","app_id":440,"player_count":0,"max_players":24,"Bots":0,"server_type":"Dedicated","server_os":"Linux","password":true,"vac":true,"version":"7882260","steam_id":85568392924469994,"keywords":["nocrits","nodmgspread","payload","uncletopia"],"game_id":440,"stv_port":27026,"stv_name":"Uncletopia | New York City | 2 | All Maps | STV","players":null},{"server_id":15,"name":"Uncletopia | New York City | 3 | Stopwatch Beta","name_short":"nyc-3","host":"nyc-1.us.uncletopia.com","port":27035,"enabled":true,"region":"us-east","cc":"us","latitude":40.73061,"longitude":-73.93524,"reserved":0,"last_update":"0001-01-01T00:00:00Z","name_a2s":"Uncletopia | New York City | 3 | Stopwatch Beta","protocol":17,"map":"workshop/pl_vigil_rc9.ugc1266210012","folder":"tf","game":"Team Fortress","app_id":440,"player_count":0,"max_players":24,"Bots":0,"server_type":"Dedicated","server_os":"Linux","password":true,"vac":true,"version":"7882260","steam_id":85568392924742820,"keywords":["nocrits","nodmgspread","payload","uncletopia"],"game_id":440,"stv_port":27036,"stv_name":"Uncletopia | New York City | 3 | Stopwatch Beta | STV","players":null},{"server_id":16,"name":"Uncletopia | New York City | 4 | Community","name_short":"nyc-4","host":"nyc-1.us.uncletopia.com","port":27045,"enabled":true,"region":"us-east","cc":"us","latitude":40.73061,"longitude":-73.93524,"reserved":0,"last_update":"0001-01-01T00:00:00Z","name_a2s":"Uncletopia | New York City | 4 | Community","protocol":17,"map":"workshop/koth_kemptown_rc1.ugc767410655","folder":"tf","game":"Team Fortress","app_id":440,"player_count":0,"max_players":24,"Bots":0,"server_type":"Dedicated","server_os":"Linux","password":true,"vac":true,"version":"7882260","steam_id":85568392924742821,"keywords":["cp","nocrits","nodmgspread","uncletopia"],"game_id":440,"stv_port":27046,"stv_name":"Uncletopia | New York City | 4 | Community | STV","players":null},{"server_id":142,"name":"Uncletopia | S√£o Paulo | 1 | All Maps","name_short":"sao-1","host":"sao-1.br.uncletopia.com","port":27015,"enabled":true,"region":"sa","cc":"br","latitude":-23.533773,"longitude":-46.62529,"reserved":0,"last_update":"0001-01-01T00:00:00Z","name_a2s":"Uncletopia | S√£o Paulo | 1 | All Maps","protocol":17,"map":"koth_highpass","folder":"tf","game":"Team Fortress","app_id":440,"player_count":0,"max_players":24,"Bots":0,"server_type":"Dedicated","server_os":"Linux","password":true,"vac":true,"version":"7882260","steam_id":85568392924469996,"keywords":["cp","nocrits","nodmgspread","uncletopia"],"game_id":440,"stv_port":27016,"stv_name":"Uncletopia | S√£o Paulo | 1 | All Maps | STV","players":null},{"server_id":143,"name":"Uncletopia | S√£o Paulo | 2 | All Maps","name_short":"sao-2","host":"sao-2.br.uncletopia.com","port":27015,"enabled":true,"region":"sa","cc":"br","latitude":-23.533773,"longitude":-46.62529,"reserved":0,"last_update":"0001-01-01T00:00:00Z","name_a2s":"Uncletopia | S√£o Paulo | 2 | All Maps","protocol":17,"map":"pl_snowycoast","folder":"tf","game":"Team Fortress","app_id":440,"player_count":0,"max_players":24,"Bots":0,"server_type":"Dedicated","server_os":"Linux","password":true,"vac":true,"version":"7882260","steam_id":85568392924485349,"keywords":["nocrits","nodmgspread","payload","uncletopia"],"game_id":440,"stv_port":27016,"stv_name":"Uncletopia | S√£o Paulo | 2 | All Maps | STV","players":null},{"server_id":7,"name":"Uncletopia | Seattle | 1 | All Maps","name_short":"sea-1","host":"sea-1.us.uncletopia.com","port":27015,"enabled":true,"region":"us-west","cc":"us","latitude":47.608013,"longitude":-122.33517,"reserved":0,"last_update":"0001-01-01T00:00:00Z","name_a2s":"Uncletopia | Seattle | 1 | All Maps","protocol":17,"map":"koth_nucleus","folder":"tf","game":"Team Fortress","app_id":440,"player_count":23,"max_players":24,"Bots":0,"server_type":"Dedicated","server_os":"Linux","password":true,"vac":true,"version":"7882260","steam_id":85568392924469997,"keywords":["cp","nocrits","nodmgspread","uncletopia"],"game_id":440,"stv_port":27016,"stv_name":"Uncletopia | Seattle | 1 | All Maps | STV","players":[{"user_id":548,"name":"MayaBon","steam_id":76561198797968261,"connected_time":1161000000000,"state":"active","ping":58},{"user_id":562,"name":"starryder2004","steam_id":76561199174929065,"connected_time":10000000000,"state":"active","ping":68},{"user_id":534,"name":"Brain Issue","steam_id":76561198068324695,"connected_time":2347000000000,"state":"active","ping":58},{"user_id":543,"name":"hhdinonugglets","steam_id":76561197974493959,"connected_time":1972000000000,"state":"active","ping":107},{"user_id":536,"name":"yaoipilled","steam_id":76561198055486814,"connected_time":2212000000000,"state":"active","ping":54},{"user_id":549,"name":"BelligerentHawk","steam_id":76561198805588654,"connected_time":1152000000000,"state":"active","ping":81},{"user_id":559,"name":"NE–ØO","steam_id":76561197965450216,"connected_time":126000000000,"state":"active","ping":55},{"user_id":525,"name":"rock gaming","steam_id":76561199402868311,"connected_time":2683000000000,"state":"active","ping":85},{"user_id":526,"name":"imtoofadedicantevendapuup","steam_id":76561198180372310,"connected_time":2634000000000,"state":"active","ping":57},{"user_id":527,"name":"Dura","steam_id":76561198081086998,"connected_time":2633000000000,"state":"active","ping":45},{"user_id":501,"name":"[TrC] Dackstrus","steam_id":76561197973518509,"connected_time":5359000000000,"state":"active","ping":56},{"user_id":555,"name":"poole party","steam_id":76561198099234665,"connected_time":163000000000,"state":"active","ping":60},{"user_id":551,"name":"ibu","steam_id":76561197968084065,"connected_time":1009000000000,"state":"active","ping":48},{"user_id":538,"name":"help","steam_id":76561198044689625,"connected_time":2194000000000,"state":"active","ping":54},{"user_id":550,"name":"thelostrobotmusic","steam_id":76561199013230288,"connected_time":1097000000000,"state":"active","ping":45},{"user_id":540,"name":"Stev the Prurient Oxymoron","steam_id":76561197999442625,"connected_time":2080000000000,"state":"active","ping":62},{"user_id":522,"name":"gorlab","steam_id":76561198025089694,"connected_time":2851000000000,"state":"active","ping":49},{"user_id":556,"name":"[TrC] Nosy","steam_id":76561197978859310,"connected_time":160000000000,"state":"active","ping":55},{"user_id":545,"name":"charm quark","steam_id":76561198098770777,"connected_time":1474000000000,"state":"active","ping":59},{"user_id":553,"name":"Nakasmacka","steam_id":76561198049787270,"connected_time":171000000000,"state":"active","ping":36},{"user_id":552,"name":"Wafflemuscle","steam_id":76561198868628982,"connected_time":838000000000,"state":"active","ping":46},{"user_id":557,"name":"my fursona has a fat ass","steam_id":76561199190800520,"connected_time":160000000000,"state":"active","ping":41},{"user_id":561,"name":"Lumberjane37 (She/Her)","steam_id":76561198014841793,"connected_time":104000000000,"state":"active","ping":92}]},{"server_id":119,"name":"Uncletopia | Seattle | 2 | All Maps","name_short":"sea-2","host":"sea-1.us.uncletopia.com","port":27025,"enabled":true,"region":"us-west","cc":"us","latitude":47.608013,"longitude":-122.33517,"reserved":0,"last_update":"0001-01-01T00:00:00Z","name_a2s":"Uncletopia | Seattle | 2 | All Maps","protocol":17,"map":"plr_bananabay","folder":"tf","game":"Team Fortress","app_id":440,"player_count":24,"max_players":24,"Bots":0,"server_type":"Dedicated","server_os":"Linux","password":true,"vac":true,"version":"7882260","steam_id":85568392924469998,"keywords":["nocrits","nodmgspread","payload","uncletopia"],"game_id":440,"stv_port":27026,"stv_name":"Uncletopia | Seattle | 2 | All Maps | STV","players":[{"user_id":631,"name":"Pre Pissed Pants","steam_id":76561198042143837,"connected_time":477000000000,"state":"active","ping":67},{"user_id":580,"name":"TrumpShallPurgetheAnimeScourge","steam_id":76561199128200999,"connected_time":4054000000000,"state":"active","ping":66},{"user_id":588,"name":"MyMonkeyBaby","steam_id":76561198046896670,"connected_time":3208000000000,"state":"active","ping":59},{"user_id":556,"name":"Faefanger","steam_id":76561198201871002,"connected_time":6467000000000,"state":"active","ping":58},{"user_id":610,"name":"The Nine Worthies","steam_id":76561198025834251,"connected_time":1961000000000,"state":"active","ping":140},{"user_id":639,"name":"Eros","steam_id":76561198071413833,"connected_time":250000000000,"state":"active","ping":68},{"user_id":630,"name":"mike, crossed","steam_id":76561198225411004,"connected_time":548000000000,"state":"active","ping":70},{"user_id":640,"name":"adend","steam_id":76561198061542927,"connected_time":244000000000,"state":"active","ping":68},{"user_id":592,"name":"Enderlord99","steam_id":76561198158152954,"connected_time":3053000000000,"state":"active","ping":59},{"user_id":632,"name":"JPMÂ≤©","steam_id":76561198043967997,"connected_time":477000000000,"state":"active","ping":67},{"user_id":606,"name":"tiny","steam_id":76561198010743348,"connected_time":2214000000000,"state":"active","ping":90},{"user_id":634,"name":"Grill Skills","steam_id":76561198053575147,"connected_time":376000000000,"state":"active","ping":67},{"user_id":628,"name":"theconqueror","steam_id":76561199229806456,"connected_time":873000000000,"state":"active","ping":117},{"user_id":641,"name":"SCUD missile up your ass","steam_id":76561198066452726,"connected_time":179000000000,"state":"active","ping":81},{"user_id":617,"name":"Darkspiral","steam_id":76561198080807559,"connected_time":1658000000000,"state":"active","ping":74},{"user_id":623,"name":"PANÊä¢Âä´","steam_id":76561198379418286,"connected_time":1112000000000,"state":"active","ping":57},{"user_id":629,"name":"AlIen","steam_id":76561198093605031,"connected_time":551000000000,"state":"active","ping":70},{"user_id":635,"name":"PageBoiSkull","steam_id":76561198237353578,"connected_time":366000000000,"state":"active","ping":82},{"user_id":636,"name":"Strikerbolt","steam_id":76561199095622897,"connected_time":336000000000,"state":"active","ping":75},{"user_id":619,"name":"Lone_Explorer","steam_id":76561198081972715,"connected_time":1642000000000,"state":"active","ping":63},{"user_id":570,"name":"Donny Q","steam_id":76561198020901703,"connected_time":4905000000000,"state":"active","ping":58},{"user_id":558,"name":"2 Point Tom","steam_id":76561198087617008,"connected_time":5810000000000,"state":"active","ping":50},{"user_id":563,"name":"Medic Boyfriend","steam_id":76561198104086771,"connected_time":5512000000000,"state":"active","ping":75},{"user_id":627,"name":"PepperNSalt","steam_id":76561198169000533,"connected_time":911000000000,"state":"active","ping":45}]},{"server_id":406,"name":"Uncletopia | Seattle | 3 | Stopwatch Beta","name_short":"sea-3","host":"sea-1.us.uncletopia.com","port":27035,"enabled":true,"region":"us-west","cc":"us","latitude":47.608013,"longitude":-122.33517,"reserved":0,"last_update":"0001-01-01T00:00:00Z","name_a2s":"Uncletopia | Seattle | 3 | Stopwatch Beta","protocol":17,"map":"workshop/koth_ramjam_rc1.ugc459778887","folder":"tf","game":"Team Fortress","app_id":440,"player_count":0,"max_players":24,"Bots":0,"server_type":"Dedicated","server_os":"Linux","password":true,"vac":true,"version":"7882260","steam_id":85568392924515217,"keywords":["cp","nocrits","nodmgspread","uncletopia"],"game_id":440,"stv_port":27036,"stv_name":"Uncletopia | Seattle | 3 | Stopwatch Beta | STV","players":null},{"server_id":17,"name":"Uncletopia | San Francisco | 1 | All Maps","name_short":"sfo-1","host":"sfo-1.us.uncletopia.com","port":27015,"enabled":true,"region":"us-west","cc":"us","latitude":37.77397,"longitude":-122.4313,"reserved":0,"last_update":"0001-01-01T00:00:00Z","name_a2s":"Uncletopia | San Francisco | 1 | All Maps","protocol":17,"map":"pl_barnblitz","folder":"tf","game":"Team Fortress","app_id":440,"player_count":24,"max_players":24,"Bots":0,"server_type":"Dedicated","server_os":"Linux","password":true,"vac":true,"version":"7882260","steam_id":85568392924469999,"keywords":["nocrits","nodmgspread","payload","uncletopia"],"game_id":440,"stv_port":27016,"stv_name":"Uncletopia | San Francisco | 1 | All Maps | STV","players":[{"user_id":366,"name":"mossyDoomhead","steam_id":76561198237954578,"connected_time":1952000000000,"state":"active","ping":67},{"user_id":351,"name":"Melody","steam_id":76561198407789232,"connected_time":3228000000000,"state":"active","ping":75},{"user_id":364,"name":"Spooby","steam_id":76561198168114366,"connected_time":2020000000000,"state":"active","ping":119},{"user_id":373,"name":"puffer","steam_id":76561199049164456,"connected_time":795000000000,"state":"active","ping":169},{"user_id":369,"name":"Hakurei Reimu","steam_id":76561198045388290,"connected_time":1670000000000,"state":"active","ping":65},{"user_id":358,"name":"K4le","steam_id":76561198747668363,"connected_time":2372000000000,"state":"active","ping":65},{"user_id":370,"name":"Sanguimancer","steam_id":76561198095634738,"connected_time":1454000000000,"state":"active","ping":68},{"user_id":371,"name":"Dunkin' Ponuts","steam_id":76561198082382465,"connected_time":1406000000000,"state":"active","ping":68},{"user_id":339,"name":"ProNoob","steam_id":76561197966068103,"connected_time":4062000000000,"state":"active","ping":58},{"user_id":365,"name":"JohnnyGitGud","steam_id":76561198401455467,"connected_time":1993000000000,"state":"active","ping":65},{"user_id":352,"name":"lmao","steam_id":76561198303548110,"connected_time":3029000000000,"state":"active","ping":60},{"user_id":329,"name":"en.wikipedia.org/wiki/Nae_Nae","steam_id":76561198418288939,"connected_time":4728000000000,"state":"active","ping":51},{"user_id":345,"name":"SanitysEdge","steam_id":76561198130732813,"connected_time":3630000000000,"state":"active","ping":51},{"user_id":367,"name":"Aradia","steam_id":76561198255575892,"connected_time":1931000000000,"state":"active","ping":83},{"user_id":374,"name":"RUF","steam_id":76561198062315805,"connected_time":437000000000,"state":"active","ping":63},{"user_id":346,"name":"Saucy Boy","steam_id":76561198178332031,"connected_time":3623000000000,"state":"active","ping":115},{"user_id":360,"name":"Crimson Chin","steam_id":76561198104315166,"connected_time":2365000000000,"state":"active","ping":52},{"user_id":341,"name":"MintyFreshMentos","steam_id":76561198839944799,"connected_time":3808000000000,"state":"active","ping":50},{"user_id":375,"name":"MegaMatt","steam_id":76561198198900365,"connected_time":298000000000,"state":"active","ping":58},{"user_id":263,"name":"Lambchop","steam_id":76561198043900363,"connected_time":10894000000000,"state":"active","ping":59},{"user_id":280,"name":"Hector Salamanca","steam_id":76561199103213955,"connected_time":9479000000000,"state":"active","ping":62},{"user_id":260,"name":"SvicidalBug","steam_id":76561198221390504,"connected_time":10986000000000,"state":"active","ping":84},{"user_id":362,"name":"Timebomb2134","steam_id":76561199065629825,"connected_time":2333000000000,"state":"active","ping":70},{"user_id":347,"name":"‚ô†Silver‚ô†","steam_id":76561198206109224,"connected_time":3618000000000,"state":"active","ping":119}]},{"server_id":18,"name":"Uncletopia | San Francisco | 2 | All Maps","name_short":"sfo-2","host":"sfo-1.us.uncletopia.com","port":27025,"enabled":true,"region":"us-west","cc":"us","latitude":37.77397,"longitude":-122.4313,"reserved":0,"last_update":"0001-01-01T00:00:00Z","name_a2s":"Uncletopia | San Francisco | 2 | All Maps","protocol":17,"map":"plr_hightower","folder":"tf","game":"Team Fortress","app_id":440,"player_count":7,"max_players":24,"Bots":0,"server_type":"Dedicated","server_os":"Linux","password":true,"vac":true,"version":"7882260","steam_id":85568392924470000,"keywords":["nocrits","nodmgspread","payload","uncletopia"],"game_id":440,"stv_port":27026,"stv_name":"Uncletopia | San Francisco | 2 | All Maps | STV","players":[{"user_id":840,"name":"Breadman","steam_id":76561198097979919,"connected_time":78000000000,"state":"active","ping":91},{"user_id":841,"name":"lizardman","steam_id":76561199029030831,"connected_time":57000000000,"state":"active","ping":149},{"user_id":838,"name":"Crabby","steam_id":76561198040023173,"connected_time":309000000000,"state":"active","ping":61},{"user_id":748,"name":"MultiVaC","steam_id":76561197960270728,"connected_time":6685000000000,"state":"active","ping":46},{"user_id":798,"name":"MegaBron James","steam_id":76561198066091050,"connected_time":3407000000000,"state":"active","ping":60},{"user_id":793,"name":"lol","steam_id":76561198026491738,"connected_time":3665000000000,"state":"active","ping":54},{"user_id":767,"name":"nori_420","steam_id":76561199117134203,"connected_time":5829000000000,"state":"active","ping":59}]},{"server_id":19,"name":"Uncletopia | San Francisco | 3 | Stopwatch Beta","name_short":"sfo-3","host":"sfo-1.us.uncletopia.com","port":27035,"enabled":true,"region":"us-west","cc":"us","latitude":37.77397,"longitude":-122.4313,"reserved":0,"last_update":"0001-01-01T00:00:00Z","name_a2s":"Uncletopia | San Francisco | 3 | Stopwatch Beta","protocol":17,"map":"pl_snowycoast","folder":"tf","game":"Team Fortress","app_id":440,"player_count":0,"max_players":24,"Bots":0,"server_type":"Dedicated","server_os":"Linux","password":true,"vac":true,"version":"7882260","steam_id":85568392924742824,"keywords":["nocrits","nodmgspread","payload","uncletopia"],"game_id":440,"stv_port":27036,"stv_name":"Uncletopia | San Francisco | 3 | Stopwatch Beta | STV","players":null},{"server_id":20,"name":"Uncletopia | San Francisco | 4 | Community","name_short":"sfo-4","host":"sfo-1.us.uncletopia.com","port":27045,"enabled":true,"region":"us-west","cc":"us","latitude":37.77397,"longitude":-122.4313,"reserved":0,"last_update":"0001-01-01T00:00:00Z","name_a2s":"Uncletopia | San Francisco | 4 | Community","protocol":17,"map":"workshop/koth_kemptown_rc1.ugc767410655","folder":"tf","game":"Team Fortress","app_id":440,"player_count":0,"max_players":24,"Bots":0,"server_type":"Dedicated","server_os":"Linux","password":true,"vac":true,"version":"7882260","steam_id":85568392924742826,"keywords":["cp","nocrits","nodmgspread","uncletopia"],"game_id":440,"stv_port":27046,"stv_name":"Uncletopia | San Francisco | 4 | Community | STV","players":null},{"server_id":141,"name":"Uncletopia | Sydney | 1 | All Maps","name_short":"syd-1","host":"syd-1.au.uncletopia.com","port":27015,"enabled":true,"region":"au","cc":"au","latitude":-33.865143,"longitude":151.2099,"reserved":0,"last_update":"0001-01-01T00:00:00Z","name_a2s":"Uncletopia | Sydney | 1 | All Maps","protocol":17,"map":"cp_snakewater_final1","folder":"tf","game":"Team Fortress","app_id":440,"player_count":19,"max_players":24,"Bots":0,"server_type":"Dedicated","server_os":"Linux","password":true,"vac":true,"version":"7882260","steam_id":85568392924470001,"keywords":["cp","nocrits","nodmgspread","uncletopia"],"game_id":440,"stv_port":27016,"stv_name":"Uncletopia | Sydney | 1 | All Maps | STV","players":[{"user_id":155,"name":"NightSpawn","steam_id":76561199447160011,"connected_time":5946000000000,"state":"active","ping":71},{"user_id":193,"name":"Jeshƒ´","steam_id":76561198105982416,"connected_time":2334000000000,"state":"active","ping":50},{"user_id":213,"name":"Michaelsoft Binbows","steam_id":76561198422847304,"connected_time":782000000000,"state":"active","ping":93},{"user_id":230,"name":"kit","steam_id":76561198067730632,"connected_time":10000000000,"state":"spawning","ping":52},{"user_id":218,"name":"lucy","steam_id":76561198052402134,"connected_time":342000000000,"state":"active","ping":181},{"user_id":207,"name":"Tux The Penguin From Linux","steam_id":76561199087704467,"connected_time":1218000000000,"state":"active","ping":48},{"user_id":164,"name":"RustyMeat","steam_id":76561198119162442,"connected_time":3999000000000,"state":"active","ping":69},{"user_id":220,"name":"pootisitoop","steam_id":76561197995358524,"connected_time":256000000000,"state":"active","ping":58},{"user_id":208,"name":"MAN2222","steam_id":76561199012480562,"connected_time":1177000000000,"state":"active","ping":54},{"user_id":226,"name":"flux","steam_id":76561198168130275,"connected_time":104000000000,"state":"active","ping":71},{"user_id":227,"name":"spedP00L","steam_id":76561198232274992,"connected_time":70000000000,"state":"active","ping":67},{"user_id":172,"name":"using a laptop","steam_id":76561199445302425,"connected_time":3383000000000,"state":"active","ping":153},{"user_id":215,"name":"Blondie","steam_id":76561198046977058,"connected_time":701000000000,"state":"active","ping":63},{"user_id":216,"name":"Bait Monkey","steam_id":76561198085392224,"connected_time":538000000000,"state":"active","ping":69},{"user_id":223,"name":"abs","steam_id":76561198444717492,"connected_time":169000000000,"state":"active","ping":55},{"user_id":224,"name":"werid","steam_id":76561198217763131,"connected_time":159000000000,"state":"active","ping":60},{"user_id":225,"name":"Denszeal","steam_id":76561198313718095,"connected_time":133000000000,"state":"active","ping":75},{"user_id":228,"name":"reecespuffs","steam_id":76561198375426616,"connected_time":64000000000,"state":"active","ping":54},{"user_id":229,"name":"Snowy","steam_id":76561198255720598,"connected_time":44000000000,"state":"active","ping":38}]},{"server_id":123,"name":"Uncletopia | Sydney | 2 | All Maps","name_short":"syd-2","host":"syd-1.au.uncletopia.com","port":27025,"enabled":true,"region":"au","cc":"au","latitude":-33.865143,"longitude":151.2099,"reserved":0,"last_update":"0001-01-01T00:00:00Z","name_a2s":"Uncletopia | Sydney | 2 | All Maps","protocol":17,"map":"koth_highpass","folder":"tf","game":"Team Fortress","app_id":440,"player_count":0,"max_players":24,"Bots":0,"server_type":"Dedicated","server_os":"Linux","password":true,"vac":true,"version":"7882260","steam_id":85568392924470002,"keywords":["cp","nocrits","nodmgspread","uncletopia"],"game_id":440,"stv_port":27026,"stv_name":"Uncletopia | Sydney | 2 | All Maps | STV","players":null},{"server_id":395,"name":"Uncletopia | Sydney | 3 | All Maps","name_short":"syd-3","host":"syd-1.au.uncletopia.com","port":27035,"enabled":true,"region":"au","cc":"au","latitude":-33.865143,"longitude":151.2099,"reserved":0,"last_update":"0001-01-01T00:00:00Z","name_a2s":"Uncletopia | Sydney | 3 | All Maps","protocol":17,"map":"pl_pier","folder":"tf","game":"Team Fortress","app_id":440,"player_count":22,"max_players":24,"Bots":0,"server_type":"Dedicated","server_os":"Linux","password":true,"vac":true,"version":"7882260","steam_id":85568392925194467,"keywords":["nocrits","nodmgspread","payload","uncletopia"],"game_id":440,"stv_port":27036,"stv_name":"Uncletopia | Sydney | 3 | All Maps | STV","players":[{"user_id":259,"name":"you've left me be Wilbur'd","steam_id":76561198301282416,"connected_time":6134000000000,"state":"active","ping":46},{"user_id":336,"name":"SaltierThanYou","steam_id":76561198444395188,"connected_time":272000000000,"state":"active","ping":82},{"user_id":329,"name":"shutterstock camel","steam_id":76561198079345240,"connected_time":764000000000,"state":"active","ping":59},{"user_id":335,"name":"Muffin","steam_id":76561198075391119,"connected_time":345000000000,"state":"active","ping":50},{"user_id":304,"name":"Sentry Gun (EpicGuy4227)","steam_id":76561198094132328,"connected_time":2927000000000,"state":"active","ping":37},{"user_id":343,"name":"Monkey M√¶n","steam_id":76561198122470022,"connected_time":4000000000,"state":"spawning","ping":59},{"user_id":340,"name":"MindlessTie","steam_id":76561198107844324,"connected_time":113000000000,"state":"active","ping":67},{"user_id":310,"name":"Tantei Rotana","steam_id":76561198041204323,"connected_time":2146000000000,"state":"active","ping":72},{"user_id":339,"name":"modus","steam_id":76561198025099660,"connected_time":208000000000,"state":"active","ping":35},{"user_id":328,"name":"wom","steam_id":76561199375834537,"connected_time":900000000000,"state":"active","ping":125},{"user_id":341,"name":"Decrafted says hi","steam_id":76561198316597003,"connected_time":58000000000,"state":"active","ping":173},{"user_id":325,"name":"Dupiter","steam_id":76561198108820767,"connected_time":1236000000000,"state":"active","ping":58},{"user_id":307,"name":"pants money","steam_id":76561198066256359,"connected_time":2793000000000,"state":"active","ping":55},{"user_id":342,"name":"science denier","steam_id":76561197980015398,"connected_time":45000000000,"state":"active","ping":45},{"user_id":273,"name":"humph","steam_id":76561198083730533,"connected_time":5441000000000,"state":"active","ping":45},{"user_id":314,"name":"‚ô• BILL!!! ‚ô•","steam_id":76561198066726621,"connected_time":1989000000000,"state":"active","ping":45},{"user_id":290,"name":"broccoli","steam_id":76561198838171912,"connected_time":4532000000000,"state":"active","ping":136},{"user_id":302,"name":"absed","steam_id":76561198831069486,"connected_time":3021000000000,"state":"active","ping":52},{"user_id":317,"name":"O'rangutan","steam_id":76561198095916681,"connected_time":1716000000000,"state":"active","ping":44},{"user_id":295,"name":"stiffy360","steam_id":76561199002426696,"connected_time":4005000000000,"state":"active","ping":76},{"user_id":327,"name":"Branko","steam_id":76561199262196710,"connected_time":911000000000,"state":"active","ping":106},{"user_id":322,"name":"Pile of Sneed","steam_id":76561198143537391,"connected_time":1352000000000,"state":"active","ping":61}]},{"server_id":396,"name":"Uncletopia | Sydney | 4 | All Maps","name_short":"syd-4","host":"syd-1.au.uncletopia.com","port":27045,"enabled":true,"region":"au","cc":"au","latitude":-33.865143,"longitude":151.2099,"reserved":0,"last_update":"0001-01-01T00:00:00Z","name_a2s":"Uncletopia | Sydney | 4 | All Maps","protocol":17,"map":"pl_badwater","folder":"tf","game":"Team Fortress","app_id":440,"player_count":0,"max_players":24,"Bots":0,"server_type":"Dedicated","server_os":"Linux","password":true,"vac":true,"version":"7882260","steam_id":85568392925397958,"keywords":["nocrits","nodmgspread","payload","uncletopia"],"game_id":440,"stv_port":27046,"stv_name":"Uncletopia | Sydney | 4 | All Maps | STV","players":null},{"server_id":58,"name":"Uncletopia | Sydney | 5 | Stopwatch Beta","name_short":"syd-5","host":"syd-1.au.uncletopia.com","port":27055,"enabled":true,"region":"au","cc":"au","latitude":-33.865143,"longitude":151.2099,"reserved":0,"last_update":"0001-01-01T00:00:00Z","name_a2s":"Uncletopia | Sydney | 5 | Stopwatch Beta","protocol":17,"map":"koth_viaduct","folder":"tf","game":"Team Fortress","app_id":440,"player_count":0,"max_players":24,"Bots":0,"server_type":"Dedicated","server_os":"Linux","password":true,"vac":true,"version":"7882260","steam_id":85568392925397959,"keywords":["cp","nocrits","nodmgspread","uncletopia"],"game_id":440,"stv_port":27056,"stv_name":"Uncletopia | Sydney | 5 | Stopwatch Beta | STV","players":null},{"server_id":59,"name":"Uncletopia | Sydney | 6 | Community","name_short":"syd-6","host":"syd-1.au.uncletopia.com","port":27065,"enabled":true,"region":"au","cc":"au","latitude":-33.865143,"longitude":151.2099,"reserved":0,"last_update":"0001-01-01T00:00:00Z","name_a2s":"Uncletopia | Sydney | 6 | Community","protocol":17,"map":"workshop/koth_product_final.ugc454272353","folder":"tf","game":"Team Fortress","app_id":440,"player_count":0,"max_players":24,"Bots":0,"server_type":"Dedicated","server_os":"Linux","password":true,"vac":true,"version":"7882260","steam_id":85568392925397960,"keywords":["cp","nocrits","nodmgspread","uncletopia"],"game_id":440,"stv_port":27066,"stv_name":"Uncletopia | Sydney | 6 | Community | STV","players":null},{"server_id":49,"name":"Uncletopia | Warsaw | 1 | All Maps","name_short":"waw-1","host":"waw-1.pl.uncletopia.com","port":27015,"enabled":true,"region":"eu","cc":"pl","latitude":52.2297,"longitude":21.017532,"reserved":0,"last_update":"0001-01-01T00:00:00Z","name_a2s":"","protocol":0,"map":"","folder":"","game":"","app_id":0,"player_count":0,"max_players":0,"Bots":0,"server_type":"","server_os":"","password":false,"vac":false,"version":"","steam_id":0,"keywords":null,"game_id":0,"stv_port":0,"stv_name":"","players":null},{"server_id":50,"name":"Uncletopia | Warsaw | 2 | All Maps","name_short":"waw-2","host":"waw-1.pl.uncletopia.com","port":27025,"enabled":true,"region":"eu","cc":"pl","latitude":52.2297,"longitude":21.017532,"reserved":0,"last_update":"0001-01-01T00:00:00Z","name_a2s":"Uncletopia | Warsaw | 2 | All Maps","protocol":17,"map":"koth_viaduct","folder":"tf","game":"Team Fortress","app_id":440,"player_count":0,"max_players":24,"Bots":0,"server_type":"Dedicated","server_os":"Linux","password":true,"vac":true,"version":"7882260","steam_id":85568392925397851,"keywords":["cp","nocrits","nodmgspread","uncletopia"],"game_id":440,"stv_port":27026,"stv_name":"Uncletopia | Warsaw | 2 | All Maps | STV","players":null},{"server_id":51,"name":"Uncletopia | Warsaw | 3 | All Maps","name_short":"waw-3","host":"waw-1.pl.uncletopia.com","port":27035,"enabled":true,"region":"eu","cc":"pl","latitude":52.2297,"longitude":21.017532,"reserved":0,"last_update":"0001-01-01T00:00:00Z","name_a2s":"Uncletopia | Warsaw | 3 | All Maps","protocol":17,"map":"pl_badwater","folder":"tf","game":"Team Fortress","app_id":440,"player_count":0,"max_players":24,"Bots":0,"server_type":"Dedicated","server_os":"Linux","password":true,"vac":true,"version":"7882260","steam_id":85568392925397852,"keywords":["nocrits","nodmgspread","payload","uncletopia"],"game_id":440,"stv_port":27036,"stv_name":"Uncletopia | Warsaw | 3 | All Maps | STV","players":null},{"server_id":52,"name":"Uncletopia | Warsaw | 4 | All Maps","name_short":"waw-4","host":"waw-1.pl.uncletopia.com","port":27045,"enabled":true,"region":"eu","cc":"pl","latitude":52.2297,"longitude":21.017532,"reserved":0,"last_update":"0001-01-01T00:00:00Z","name_a2s":"Uncletopia | Warsaw | 4 | All Maps","protocol":17,"map":"koth_cascade","folder":"tf","game":"Team Fortress","app_id":440,"player_count":0,"max_players":24,"Bots":0,"server_type":"Dedicated","server_os":"Linux","password":true,"vac":true,"version":"7882260","steam_id":85568392925397853,"keywords":["cp","nocrits","nodmgspread","uncletopia"],"game_id":440,"stv_port":27046,"stv_name":"Uncletopia | Warsaw | 4 | All Maps | STV","players":null},{"server_id":53,"name":"Uncletopia | Warsaw | 5 | Stopwatch Beta","name_short":"waw-5","host":"waw-1.pl.uncletopia.com","port":27055,"enabled":true,"region":"eu","cc":"pl","latitude":52.2297,"longitude":21.017532,"reserved":0,"last_update":"0001-01-01T00:00:00Z","name_a2s":"Uncletopia | Warsaw | 5 | Stopwatch Beta","protocol":17,"map":"koth_highpass","folder":"tf","game":"Team Fortress","app_id":440,"player_count":0,"max_players":24,"Bots":0,"server_type":"Dedicated","server_os":"Linux","password":true,"vac":true,"version":"7882260","steam_id":85568392925397854,"keywords":["cp","nocrits","nodmgspread","uncletopia"],"game_id":440,"stv_port":27056,"stv_name":"Uncletopia | Warsaw | 5 | Stopwatch Beta | STV","players":null},{"server_id":54,"name":"Uncletopia | Warsaw | 6 | Community","name_short":"waw-6","host":"waw-1.pl.uncletopia.com","port":27065,"enabled":true,"region":"eu","cc":"pl","latitude":52.2297,"longitude":21.017532,"reserved":0,"last_update":"0001-01-01T00:00:00Z","name_a2s":"Uncletopia | Warsaw | 6 | Community","protocol":17,"map":"cp_dustbowl","folder":"tf","game":"Team Fortress","app_id":440,"player_count":0,"max_players":24,"Bots":0,"server_type":"Dedicated","server_os":"Linux","password":true,"vac":true,"version":"7882260","steam_id":85568392925397856,"keywords":["cp","nocrits","nodmgspread","uncletopia"],"game_id":440,"stv_port":27066,"stv_name":"Uncletopia | Warsaw | 6 | Community | STV","players":null}]}