{"status":true,"message":"","result":[{"server_id":9,"name":"Uncletopia | Atlanta | 1 | All Maps","name_short":"atl-1","host":"atl-1.us.uncletopia.com","port":27015,"enabled":true,"region":"us-east","cc":"us","latitude":33.753746,"longitude":-84.38633,"reserved":0,"last_update":"0001-01-01T00:00:00Z","name_a2s":"Uncletopia | Atlanta | 1 | All Maps","protocol":17,"map":"koth_cascade","folder":"tf","game":"Team Fortress","app_id":440,"player_count":0,"max_players":24,"Bots":0,"server_type":"Dedicated","server_os":"Linux","password":true,"vac":true,"version":"7757534","steam_id":85568392924469982,"keywords":["cp","nocrits","nodmgspread","uncletopia"],"game_id":440,"stv_port":27016,"stv_name":"Uncletopia | Atlanta | 1 | All Maps | STV","players":null},{"server_id":400,"name":"Uncletopia | Atlanta | 3 | Stopwatch Beta","name_short":"atl-3","host":"atl-1.us.uncletopia.com","port":27035,"enabled":true,"region":"us-east","cc":"us","latitude":33.753746,"longitude":-84.38633,"reserved":0,"last_update":"0001-01-01T00:00:00Z","name_a2s":"Uncletopia | Atlanta | 3 | Stopwatch Beta","protocol":17,"map":"workshop/cp_process_f11.ugc2302948105","folder":"tf","game":"Team Fortress","app_id":440,"player_count":0,"max_players":24,"Bots":0,"server_type":"Dedicated","server_os":"Linux","password":true,"vac":true,"version":"7757534","steam_id":85568392924515187,"keywords":["cp","nocrits","nodmgspread","uncletopia"],"game_id":440,"stv_port":27036,"stv_name":"Uncletopia | Atlanta | 3 | Stopwatch Beta | STV","players":null},{"server_id":401,"name":"Uncletopia | Atlanta | 4 | No Payload","name_short":"atl-4","host":"atl-1.us.uncletopia.com","port":27045,"enabled":true,"region":"us-east","cc":"us","latitude":33.753746,"longitude":-84.38633,"reserved":0,"last_update":"0001-01-01T00:00:00Z","name_a2s":"Uncletopia | Atlanta | 4 | No Payload","protocol":17,"map":"pl_pier","folder":"tf","game":"Team Fortress","app_id":440,"player_count":0,"max_players":24,"Bots":0,"server_type":"Dedicated","server_os":"Linux","password":true,"vac":true,"version":"7723704","steam_id":85568392924515188,"keywords":["nocrits","nodmgspread","payload","uncletopia"],"game_id":440,"stv_port":27046,"stv_name":"Uncletopia | Atlanta | 4 | No Payload | STV","players":null},{"server_id":2,"name":"Uncletopia | Chicago | 1 | All Maps","name_short":"chi-1","host":"chi-1.us.uncletopia.com","port":27015,"enabled":true,"region":"us-central","cc":"us","latitude":41.881832,"longitude":-87.62318,"reserved":0,"last_update":"0001-01-01T00:00:00Z","name_a2s":"Uncletopia | Chicago | 1 | All Maps","protocol":17,"map":"pl_borneo","folder":"tf","game":"Team Fortress","app_id":440,"player_count":0,"max_players":24,"Bots":0,"server_type":"Dedicated","server_os":"Linux","password":true,"vac":true,"version":"7757534","steam_id":85568392924469984,"keywords":["nocrits","nodmgspread","payload","uncletopia"],"game_id":440,"stv_port":27016,"stv_name":"Uncletopia | Chicago | 1 | All Maps | STV","players":null},{"server_id":106,"name":"Uncletopia | Chicago | 2 | All Maps","name_short":"chi-2","host":"chi-1.us.uncletopia.com","port":27025,"enabled":true,"region":"us-central","cc":"us","latitude":41.881832,"longitude":-87.62318,"reserved":0,"last_update":"0001-01-01T00:00:00Z","name_a2s":"Uncletopia | Chicago | 2 | All Maps","protocol":17,"map":"cp_yukon_final","folder":"tf","game":"Team Fortress","app_id":440,"player_count":0,"max_players":24,"Bots":0,"server_type":"Dedicated","server_os":"Linux","password":true,"vac":true,"version":"7757534","steam_id":85568392924469985,"keywords":["cp","nocrits","nodmgspread","uncletopia"],"game_id":440,"stv_port":27026,"stv_name":"Uncletopia | Chicago | 2 | All Maps | STV","players":null},{"server_id":402,"name":"Uncletopia | Chicago | 3 | All Maps","name_short":"chi-3","host":"chi-1.us.uncletopia.com","port":27035,"enabled":true,"region":"us-central","cc":"us","latitude":41.881832,"longitude":-87.62318,"reserved":0,"last_update":"0001-01-01T00:00:00Z","name_a2s":"Uncletopia | Chicago | 3 | All Maps","protocol":17,"map":"cp_snakewater_final1","folder":"tf","game":"Team Fortress","app_id":440,"player_count":0,"max_players":24,"Bots":0,"server_type":"Dedicated","server_os":"Linux","password":true,"vac":true,"version":"7757534","steam_id":85568392924515191,"keywords":["cp","nocrits","nodmgspread","uncletopia"],"game_id":440,"stv_port":27036,"stv_name":"Uncletopia | Chicago | 3 | All Maps | STV","players":null},{"server_id":403,"name":"Uncletopia | Chicago | 4 | All Maps","name_short":"chi-4","host":"chi-1.us.uncletopia.com","port":27045,"enabled":true,"region":"us-central","cc":"us","latitude":41.881832,"longitude":-87.62318,"reserved":0,"last_update":"0001-01-01T00:00:00Z","name_a2s":"Uncletopia | Chicago | 4 | All Maps","protocol":17,"map":"pl_pier","folder":"tf","game":"Team Fortress","app_id":440,"player_count":21,"max_players":24,"Bots":0,"server_type":"Dedicated","server_os":"Linux","password":true,"vac":true,"version":"7757534","steam_id":85568392924515193,"keywords":["nocrits","nodmgspread","payload","uncletopia"],"game_id":440,"stv_port":27046,"stv_name":"Uncletopia | Chicago | 4 | All Maps | STV","players":[{"user_id":874,"name":"goron","steam_id":76561198051089144,"connected_time":1073000000000,"state":"active","ping":73},{"user_id":852,"name":"Anxiety","steam_id":76561198365627687,"connected_time":1908000000000,"state":"active","ping":116},{"user_id":876,"name":"CheeseCake488","steam_id":76561199407617942,"connected_time":648000000000,"state":"active","ping":132},{"user_id":868,"name":"Albino Jellyfish","steam_id":76561198208561097,"connected_time":1219000000000,"state":"active","ping":65},{"user_id":818,"name":"maybe 3 brain cells","steam_id":76561198081282228,"connected_time":3946000000000,"state":"active","ping":60},{"user_id":879,"name":"iiTzSharky","steam_id":76561198849595712,"connected_time":371000000000,"state":"active","ping":81},{"user_id":864,"name":"sweaterfan","steam_id":76561199389567214,"connected_time":1262000000000,"state":"active","ping":56},{"user_id":882,"name":"Ms.Helloo","steam_id":76561199017530870,"connected_time":290000000000,"state":"active","ping":95},{"user_id":880,"name":"Towns","steam_id":76561198984662863,"connected_time":364000000000,"state":"active","ping":74},{"user_id":869,"name":"gromit","steam_id":76561198037746805,"connected_time":1214000000000,"state":"active","ping":66},{"user_id":843,"name":"Klinger","steam_id":76561198136336290,"connected_time":2650000000000,"state":"active","ping":81},{"user_id":883,"name":"Heillion","steam_id":76561198037205922,"connected_time":150000000000,"state":"active","ping":93},{"user_id":885,"name":"served","steam_id":76561199438267625,"connected_time":88000000000,"state":"active","ping":100},{"user_id":834,"name":"kametro4","steam_id":76561198835430429,"connected_time":2951000000000,"state":"active","ping":77},{"user_id":886,"name":"Appa","steam_id":76561198110449520,"connected_time":17000000000,"state":"active","ping":78},{"user_id":829,"name":"DronClon","steam_id":76561198158201216,"connected_time":3119000000000,"state":"active","ping":165},{"user_id":878,"name":"ali oop","steam_id":76561198057516213,"connected_time":523000000000,"state":"active","ping":82},{"user_id":877,"name":"FAC","steam_id":76561198009818412,"connected_time":629000000000,"state":"active","ping":73},{"user_id":780,"name":"Uncle Iroh","steam_id":76561198131467867,"connected_time":5628000000000,"state":"active","ping":80},{"user_id":873,"name":"Puzzle Master -IYSMITL-","steam_id":76561198259132395,"connected_time":1154000000000,"state":"active","ping":97},{"user_id":860,"name":"OldManHenderson1976","steam_id":76561198148713751,"connected_time":1787000000000,"state":"active","ping":82}]},{"server_id":36,"name":"Uncletopia | Chicago | 5 | All Maps","name_short":"chi-5","host":"chi-2.us.uncletopia.com","port":27015,"enabled":true,"region":"us-central","cc":"us","latitude":41.881832,"longitude":-87.62318,"reserved":0,"last_update":"0001-01-01T00:00:00Z","name_a2s":"Uncletopia | Chicago | 5 | All Maps","protocol":17,"map":"koth_viaduct","folder":"tf","game":"Team Fortress","app_id":440,"player_count":0,"max_players":24,"Bots":0,"server_type":"Dedicated","server_os":"Linux","password":true,"vac":true,"version":"7757534","steam_id":85568392924866362,"keywords":["cp","nocrits","nodmgspread","uncletopia"],"game_id":440,"stv_port":27016,"stv_name":"Uncletopia | Chicago | 5 | All Maps | STV","players":null},{"server_id":37,"name":"Uncletopia | Chicago | 6 | All Maps","name_short":"chi-6","host":"chi-2.us.uncletopia.com","port":27025,"enabled":true,"region":"us-central","cc":"us","latitude":41.881832,"longitude":-87.62318,"reserved":0,"last_update":"0001-01-01T00:00:00Z","name_a2s":"Uncletopia | Chicago | 6 | All Maps","protocol":17,"map":"koth_cascade","folder":"tf","game":"Team Fortress","app_id":440,"player_count":0,"max_players":24,"Bots":0,"server_type":"Dedicated","server_os":"Linux","password":true,"vac":true,"version":"7757534","steam_id":85568392924866363,"keywords":["cp","nocrits","nodmgspread","uncletopia"],"game_id":440,"stv_port":27026,"stv_name":"Uncletopia | Chicago | 6 | All Maps | STV","players":null},{"server_id":38,"name":"Uncletopia | Chicago | 7 | Stopwatch Beta","name_short":"chi-7","host":"chi-2.us.uncletopia.com","port":27035,"enabled":true,"region":"us-central","cc":"us","latitude":41.881832,"longitude":-87.62318,"reserved":0,"last_update":"0001-01-01T00:00:00Z","name_a2s":"Uncletopia | Chicago | 7 | Stopwatch Beta","protocol":17,"map":"workshop/koth_product_final.ugc454272353","folder":"tf","game":"Team Fortress","app_id":440,"player_count":0,"max_players":24,"Bots":0,"server_type":"Dedicated","server_os":"Linux","password":true,"vac":true,"version":"7757534","steam_id":85568392924866364,"keywords":["cp","nocrits","nodmgspread","uncletopia"],"game_id":440,"stv_port":27036,"stv_name":"Uncletopia | Chicago | 7 | Stopwatch Beta | STV","players":null},{"server_id":39,"name":"Uncletopia | Chicago | 8 | Community","name_short":"chi-8","host":"chi-2.us.uncletopia.com","port":27045,"enabled":true,"region":"us-central","cc":"us","latitude":41.881832,"longitude":-87.62318,"reserved":0,"last_update":"0001-01-01T00:00:00Z","name_a2s":"Uncletopia | Chicago | 8 | Community","protocol":17,"map":"workshop/koth_ramjam_rc1.ugc459778887","folder":"tf","game":"Team Fortress","app_id":440,"player_count":0,"max_players":24,"Bots":0,"server_type":"Dedicated","server_os":"Linux","password":true,"vac":true,"version":"7757534","steam_id":85568392924866365,"keywords":["cp","nocrits","nodmgspread","uncletopia"],"game_id":440,"stv_port":27046,"stv_name":"Uncletopia | Chicago | 8 | Community | STV","players":null},{"server_id":8,"name":"Uncletopia | Dallas | 1 | All Maps","name_short":"dal-1","host":"dal-1.us.uncletopia.com","port":27015,"enabled":true,"region":"us-central","cc":"us","latitude":32.779167,"longitude":-96.80889,"reserved":0,"last_update":"0001-01-01T00:00:00Z","name_a2s":"Uncletopia | Dallas | 1 | All Maps","protocol":17,"map":"pl_frontier_final","folder":"tf","game":"Team Fortress","app_id":440,"player_count":24,"max_players":24,"Bots":0,"server_type":"Dedicated","server_os":"Linux","password":true,"vac":true,"version":"7757534","steam_id":85568392924469986,"keywords":["nocrits","nodmgspread","payload","uncletopia"],"game_id":440,"stv_port":27016,"stv_name":"Uncletopia | Dallas | 1 | All Maps | STV","players":[{"user_id":979,"name":"ElectronX","steam_id":76561198116034988,"connected_time":3153000000000,"state":"active","ping":81},{"user_id":1017,"name":"Monky duh luppy","steam_id":76561198035410427,"connected_time":866000000000,"state":"active","ping":84},{"user_id":954,"name":"Riff","steam_id":76561198066921423,"connected_time":4795000000000,"state":"active","ping":72},{"user_id":982,"name":"Snoopy","steam_id":76561198273735974,"connected_time":2975000000000,"state":"active","ping":68},{"user_id":983,"name":"The Deders","steam_id":76561198002639950,"connected_time":2967000000000,"state":"active","ping":68},{"user_id":1014,"name":"meggie","steam_id":76561198038291026,"connected_time":942000000000,"state":"active","ping":39},{"user_id":1002,"name":"BeyondBaito","steam_id":76561198068222085,"connected_time":2487000000000,"state":"active","ping":66},{"user_id":926,"name":"trash beast","steam_id":76561198015792736,"connected_time":6224000000000,"state":"active","ping":75},{"user_id":1020,"name":"jello","steam_id":76561198094320477,"connected_time":395000000000,"state":"active","ping":61},{"user_id":1015,"name":"MoonWolf","steam_id":76561198095735033,"connected_time":931000000000,"state":"active","ping":57},{"user_id":981,"name":"Cythemanticore","steam_id":76561198346374610,"connected_time":3009000000000,"state":"active","ping":68},{"user_id":984,"name":"Ryuujin","steam_id":76561198000897946,"connected_time":2957000000000,"state":"active","ping":109},{"user_id":1005,"name":"Golden Robot","steam_id":76561198149576075,"connected_time":2139000000000,"state":"active","ping":66},{"user_id":998,"name":"WhistlingFox04","steam_id":76561198381509938,"connected_time":2581000000000,"state":"active","ping":98},{"user_id":999,"name":"Isopentyl Ethanoate","steam_id":76561198116389072,"connected_time":2557000000000,"state":"active","ping":122},{"user_id":952,"name":"matto1120","steam_id":76561198201321499,"connected_time":4940000000000,"state":"active","ping":83},{"user_id":1008,"name":"frozenwasanokmovie","steam_id":76561198157407952,"connected_time":1996000000000,"state":"active","ping":84},{"user_id":992,"name":"NW","steam_id":76561199092907535,"connected_time":2821000000000,"state":"active","ping":129},{"user_id":1009,"name":"KennyRufus","steam_id":76561199007229925,"connected_time":1749000000000,"state":"active","ping":111},{"user_id":1016,"name":"NotAWeeb","steam_id":76561198165530739,"connected_time":893000000000,"state":"active","ping":87},{"user_id":1019,"name":"kilometers","steam_id":76561198090642147,"connected_time":829000000000,"state":"active","ping":85},{"user_id":1018,"name":"you are all pieces on my chessb","steam_id":76561198039909187,"connected_time":864000000000,"state":"active","ping":79},{"user_id":890,"name":"MelonLikeAFelon","steam_id":76561198060170336,"connected_time":9252000000000,"state":"active","ping":67},{"user_id":1003,"name":"Gundam Guy","steam_id":76561198178453993,"connected_time":2434000000000,"state":"active","ping":81}]},{"server_id":108,"name":"Uncletopia | Dallas | 2 | All Maps","name_short":"dal-2","host":"dal-1.us.uncletopia.com","port":27025,"enabled":true,"region":"us-central","cc":"us","latitude":32.779167,"longitude":-96.80889,"reserved":0,"last_update":"0001-01-01T00:00:00Z","name_a2s":"Uncletopia | Dallas | 2 | All Maps","protocol":17,"map":"pl_barnblitz","folder":"tf","game":"Team Fortress","app_id":440,"player_count":0,"max_players":24,"Bots":0,"server_type":"Dedicated","server_os":"Linux","password":true,"vac":true,"version":"7757534","steam_id":85568392924469988,"keywords":["nocrits","nodmgspread","payload","uncletopia"],"game_id":440,"stv_port":27026,"stv_name":"Uncletopia | Dallas | 2 | All Maps | STV","players":null},{"server_id":5,"name":"Uncletopia | Frankfurt | 1 | All Maps","name_short":"frk-1","host":"frk-1.de.uncletopia.com","port":27015,"enabled":true,"region":"eu","cc":"de","latitude":50.110924,"longitude":8.682127,"reserved":0,"last_update":"0001-01-01T00:00:00Z","name_a2s":"Uncletopia | Frankfurt | 1 | All Maps","protocol":17,"map":"cp_dustbowl","folder":"tf","game":"Team Fortress","app_id":440,"player_count":0,"max_players":24,"Bots":0,"server_type":"Dedicated","server_os":"Linux","password":true,"vac":true,"version":"7757534","steam_id":85568392924469989,"keywords":["cp","nocrits","nodmgspread","uncletopia"],"game_id":440,"stv_port":27016,"stv_name":"Uncletopia | Frankfurt | 1 | All Maps | STV","players":null},{"server_id":110,"name":"Uncletopia | Frankfurt | 2 | All Maps","name_short":"frk-2","host":"frk-1.de.uncletopia.com","port":27025,"enabled":true,"region":"eu","cc":"de","latitude":50.110924,"longitude":8.682127,"reserved":0,"last_update":"0001-01-01T00:00:00Z","name_a2s":"Uncletopia | Frankfurt | 2 | All Maps","protocol":17,"map":"cp_mountainlab","folder":"tf","game":"Team Fortress","app_id":440,"player_count":0,"max_players":24,"Bots":0,"server_type":"Dedicated","server_os":"Linux","password":true,"vac":true,"version":"7757534","steam_id":85568392924469990,"keywords":["cp","nocrits","nodmgspread","uncletopia"],"game_id":440,"stv_port":27026,"stv_name":"Uncletopia | Frankfurt | 2 | All Maps | STV","players":null},{"server_id":308,"name":"Uncletopia | Frankfurt | 3 | All Maps","name_short":"frk-3","host":"frk-1.de.uncletopia.com","port":27035,"enabled":true,"region":"eu","cc":"de","latitude":50.110924,"longitude":8.682127,"reserved":0,"last_update":"0001-01-01T00:00:00Z","name_a2s":"Uncletopia | Frankfurt | 3 | All Maps","protocol":17,"map":"cp_dustbowl","folder":"tf","game":"Team Fortress","app_id":440,"player_count":22,"max_players":24,"Bots":0,"server_type":"Dedicated","server_os":"Linux","password":true,"vac":true,"version":"7757534","steam_id":85568392924504274,"keywords":["cp","nocrits","nodmgspread","uncletopia"],"game_id":440,"stv_port":27036,"stv_name":"Uncletopia | Frankfurt | 3 | All Maps | STV","players":[{"user_id":52,"name":"KajaStorm","steam_id":76561199215842872,"connected_time":1433000000000,"state":"active","ping":118},{"user_id":37,"name":"SantiThePug #ReviveTheCaber","steam_id":76561199049615996,"connected_time":2178000000000,"state":"active","ping":71},{"user_id":32,"name":"707","steam_id":76561198846610729,"connected_time":2429000000000,"state":"active","ping":161},{"user_id":18,"name":"desu!","steam_id":76561198052878585,"connected_time":3480000000000,"state":"active","ping":116},{"user_id":53,"name":"panko","steam_id":76561199216923710,"connected_time":1397000000000,"state":"active","ping":136},{"user_id":24,"name":"Mike Rizzowski","steam_id":76561198798657045,"connected_time":3100000000000,"state":"active","ping":79},{"user_id":73,"name":"Boyarishnik","steam_id":76561198986324207,"connected_time":46000000000,"state":"active","ping":85},{"user_id":57,"name":"tori_spring","steam_id":76561199375975842,"connected_time":1168000000000,"state":"active","ping":56},{"user_id":58,"name":"Halal math addicted player","steam_id":76561199150051951,"connected_time":1163000000000,"state":"active","ping":148},{"user_id":59,"name":"101 000 tuns of democracy","steam_id":76561198218257120,"connected_time":1127000000000,"state":"active","ping":69},{"user_id":70,"name":"maitokannuttaja","steam_id":76561198123743550,"connected_time":270000000000,"state":"active","ping":92},{"user_id":34,"name":"Guru","steam_id":76561198093853069,"connected_time":2352000000000,"state":"active","ping":59},{"user_id":36,"name":"Ljubansky","steam_id":76561198012948059,"connected_time":2254000000000,"state":"active","ping":50},{"user_id":55,"name":"Allereinan","steam_id":76561198342239906,"connected_time":1287000000000,"state":"active","ping":115},{"user_id":47,"name":"Andreus","steam_id":76561199403926001,"connected_time":1519000000000,"state":"active","ping":60},{"user_id":71,"name":"Rautakaupanmyyjä33","steam_id":76561198101753162,"connected_time":268000000000,"state":"active","ping":88},{"user_id":48,"name":"Poleeyan","steam_id":76561198885522435,"connected_time":1504000000000,"state":"active","ping":64},{"user_id":56,"name":"Dark_Prelate","steam_id":76561199065671442,"connected_time":1274000000000,"state":"active","ping":57},{"user_id":67,"name":"Vincere aut mori.","steam_id":76561198170994682,"connected_time":694000000000,"state":"active","ping":80},{"user_id":62,"name":"fatmegaman","steam_id":76561198171015509,"connected_time":1024000000000,"state":"active","ping":80},{"user_id":66,"name":"Tony Montana Gaming","steam_id":76561198130288819,"connected_time":732000000000,"state":"active","ping":98},{"user_id":64,"name":"Montrose","steam_id":76561198338911736,"connected_time":957000000000,"state":"active","ping":179}]},{"server_id":309,"name":"Uncletopia | Frankfurt | 4 | All Maps","name_short":"frk-4","host":"frk-1.de.uncletopia.com","port":27045,"enabled":true,"region":"eu","cc":"de","latitude":50.110924,"longitude":8.682127,"reserved":0,"last_update":"0001-01-01T00:00:00Z","name_a2s":"Uncletopia | Frankfurt | 4 | All Maps","protocol":17,"map":"koth_viaduct","folder":"tf","game":"Team Fortress","app_id":440,"player_count":0,"max_players":24,"Bots":0,"server_type":"Dedicated","server_os":"Linux","password":true,"vac":true,"version":"7757534","steam_id":85568392924504275,"keywords":["cp","nocrits","nodmgspread","uncletopia"],"game_id":440,"stv_port":27046,"stv_name":"Uncletopia | Frankfurt | 4 | All Maps | STV","players":null},{"server_id":310,"name":"Uncletopia | Frankfurt | 5 | All Maps","name_short":"frk-5","host":"frk-1.de.uncletopia.com","port":27055,"enabled":true,"region":"eu","cc":"de","latitude":50.110924,"longitude":8.682127,"reserved":0,"last_update":"0001-01-01T00:00:00Z","name_a2s":"Uncletopia | Frankfurt | 5 | All Maps","protocol":17,"map":"cp_altitude","folder":"tf","game":"Team Fortress","app_id":440,"player_count":0,"max_players":24,"Bots":0,"server_type":"Dedicated","server_os":"Linux","password":true,"vac":true,"version":"7757534","steam_id":85568392924504277,"keywords":["cp","nocrits","nodmgspread","uncletopia"],"game_id":440,"stv_port":27056,"stv_name":"Uncletopia | Frankfurt | 5 | All Maps | STV","players":null},{"server_id":311,"name":"Uncletopia | Frankfurt | 6 | All Maps","name_short":"frk-6","host":"frk-1.de.uncletopia.com","port":27065,"enabled":true,"region":"eu","cc":"de","latitude":50.110924,"longitude":8.682127,"reserved":0,"last_update":"0001-01-01T00:00:00Z","name_a2s":"Uncletopia | Frankfurt | 6 | All Maps","protocol":17,"map":"koth_highpass","folder":"tf","game":"Team Fortress","app_id":440,"player_count":0,"max_players":24,"Bots":0,"server_type":"Dedicated","server_os":"Linux","password":true,"vac":true,"version":"7757534","steam_id":85568392924504278,"keywords":["cp","nocrits","nodmgspread","uncletopia"],"game_id":440,"stv_port":27066,"stv_name":"Uncletopia | Frankfurt | 6 | All Maps | STV","players":null},{"server_id":23,"name":"Uncletopia | Frankfurt | 7 | Stopwatch Beta","name_short":"frk-7","host":"frk-1.de.uncletopia.com","port":27075,"enabled":true,"region":"eu","cc":"de","latitude":50.110924,"longitude":8.682127,"reserved":0,"last_update":"0001-01-01T00:00:00Z","name_a2s":"Uncletopia | Frankfurt | 7 | Stopwatch Beta","protocol":17,"map":"workshop/koth_ramjam_rc1.ugc459778887","folder":"tf","game":"Team Fortress","app_id":440,"player_count":1,"max_players":24,"Bots":0,"server_type":"Dedicated","server_os":"Linux","password":true,"vac":true,"version":"7757534","steam_id":85568392924742827,"keywords":["cp","nocrits","nodmgspread","uncletopia"],"game_id":440,"stv_port":27076,"stv_name":"Uncletopia | Frankfurt | 7 | Stopwatch Beta | STV","players":[{"user_id":3,"name":"Grinch Gun","steam_id":76561198097789669,"connected_time":461000000000,"state":"active","ping":42}]},{"server_id":24,"name":"Uncletopia | Frankfurt | 8 | Community","name_short":"frk-8","host":"frk-1.de.uncletopia.com","port":27085,"enabled":true,"region":"eu","cc":"de","latitude":50.110924,"longitude":8.682127,"reserved":0,"last_update":"0001-01-01T00:00:00Z","name_a2s":"Uncletopia | Frankfurt | 8 | Community","protocol":17,"map":"koth_cascade","folder":"tf","game":"Team Fortress","app_id":440,"player_count":0,"max_players":24,"Bots":0,"server_type":"Dedicated","server_os":"Linux","password":true,"vac":true,"version":"7757534","steam_id":85568392924742828,"keywords":["cp","nocrits","nodmgspread","uncletopia"],"game_id":440,"stv_port":27086,"stv_name":"Uncletopia | Frankfurt | 8 | Community | STV","players":null},{"server_id":202,"name":"Uncletopia | Hong Kong | 1 | All Maps","name_short":"hgk-1","host":"hgk-1.hk.uncletopia.com","port":27015,"enabled":true,"region":"asia","cc":"hk","latitude":22.302711,"longitude":114.177216,"reserved":0,"last_update":"0001-01-01T00:00:00Z","name_a2s":"Uncletopia | Hong Kong | 1 | All Maps","protocol":17,"map":"pl_swiftwater_final1","folder":"tf","game":"Team Fortress","app_id":440,"player_count":12,"max_players":24,"Bots":0,"server_type":"Dedicated","server_os":"Linux","password":true,"vac":true,"version":"7757534","steam_id":85568392924494504,"keywords":["nocrits","nodmgspread","payload","uncletopia"],"game_id":440,"stv_port":27016,"stv_name":"Uncletopia | Hong Kong | 1 | All Maps | STV","players":[{"user_id":322,"name":"uptriste","steam_id":76561198158666692,"connected_time":3381000000000,"state":"active","ping":33},{"user_id":364,"name":"Pusihol","steam_id":76561199250209631,"connected_time":187000000000,"state":"active","ping":56},{"user_id":229,"name":"im_0ff","steam_id":76561198339346695,"connected_time":10364000000000,"state":"active","ping":124},{"user_id":358,"name":"\u003c\u003cDunce](:-p)-|---\u003c","steam_id":76561199190321580,"connected_time":450000000000,"state":"active","ping":340},{"user_id":367,"name":"Kek","steam_id":76561199004616229,"connected_time":163000000000,"state":"active","ping":198},{"user_id":325,"name":"screaming sniper","steam_id":76561199085568674,"connected_time":3340000000000,"state":"active","ping":59},{"user_id":311,"name":"T.","steam_id":76561198337887896,"connected_time":4429000000000,"state":"active","ping":70},{"user_id":350,"name":"niceguy6785","steam_id":76561199442589750,"connected_time":1105000000000,"state":"active","ping":60},{"user_id":341,"name":"FAQ","steam_id":76561198068689092,"connected_time":1721000000000,"state":"active","ping":85},{"user_id":360,"name":"ilikefarts69#caberOP","steam_id":76561199262750178,"connected_time":441000000000,"state":"active","ping":149},{"user_id":306,"name":"帕","steam_id":76561198439343999,"connected_time":4866000000000,"state":"active","ping":83},{"user_id":344,"name":"TheChainsaw","steam_id":76561198312001455,"connected_time":1564000000000,"state":"active","ping":119}]},{"server_id":1,"name":"Uncletopia | Los Angeles | 1 | All Maps","name_short":"lax-1","host":"lax-1.us.uncletopia.com","port":27015,"enabled":true,"region":"us-west","cc":"us","latitude":33.94279,"longitude":-118.41004,"reserved":0,"last_update":"0001-01-01T00:00:00Z","name_a2s":"Uncletopia | Los Angeles | 1 | All Maps","protocol":17,"map":"cp_sunshine","folder":"tf","game":"Team Fortress","app_id":440,"player_count":1,"max_players":24,"Bots":0,"server_type":"Dedicated","server_os":"Linux","password":true,"vac":true,"version":"7757534","steam_id":85568392924469991,"keywords":["cp","nocrits","nodmgspread","uncletopia"],"game_id":440,"stv_port":27016,"stv_name":"Uncletopia | Los Angeles | 1 | All Maps | STV","players":[{"user_id":186,"name":"dont touch","steam_id":76561198165442555,"connected_time":8838000000000,"state":"active","ping":74}]},{"server_id":112,"name":"Uncletopia | Los Angeles | 2 | All Maps","name_short":"lax-2","host":"lax-1.us.uncletopia.com","port":27025,"enabled":true,"region":"us-west","cc":"us","latitude":33.94279,"longitude":-118.41004,"reserved":0,"last_update":"0001-01-01T00:00:00Z","name_a2s":"Uncletopia | Los Angeles | 2 | All Maps","protocol":17,"map":"koth_highpass","folder":"tf","game":"Team Fortress","app_id":440,"player_count":0,"max_players":24,"Bots":0,"server_type":"Dedicated","server_os":"Linux","password":true,"vac":true,"version":"7757534","steam_id":85568392924469992,"keywords":["cp","nocrits","nodmgspread","uncletopia"],"game_id":440,"stv_port":27026,"stv_name":"Uncletopia | Los Angeles | 2 | All Maps | STV","players":null},{"server_id":324,"name":"Uncletopia | Los Angeles | 3 | All Maps","name_short":"lax-3","host":"lax-1.us.uncletopia.com","port":27035,"enabled":true,"region":"us-west","cc":"us","latitude":33.94279,"longitude":-118.41004,"reserved":0,"last_update":"0001-01-01T00:00:00Z","name_a2s":"Uncletopia | Los Angeles | 3 | All Maps","protocol":17,"map":"cp_sunshine","folder":"tf","game":"Team Fortress","app_id":440,"player_count":0,"max_players":24,"Bots":0,"server_type":"Dedicated","server_os":"Linux","password":true,"vac":true,"version":"7757534","steam_id":85568392924510198,"keywords":["cp","nocrits","nodmgspread","uncletopia"],"game_id":440,"stv_port":27036,"stv_name":"Uncletopia | Los Angeles | 3 | All Maps | STV","players":null},{"server_id":25,"name":"Uncletopia | Los Angeles | 4 | Stopwatch Beta","name_short":"lax-4","host":"lax-1.us.uncletopia.com","port":27045,"enabled":true,"region":"us-west","cc":"us","latitude":33.94279,"longitude":-118.41004,"reserved":0,"last_update":"0001-01-01T00:00:00Z","name_a2s":"Uncletopia | Los Angeles | 4 | Stopwatch Beta","protocol":17,"map":"workshop/pl_barnblitz_pro7.ugc582280235","folder":"tf","game":"Team Fortress","app_id":440,"player_count":0,"max_players":24,"Bots":0,"server_type":"Dedicated","server_os":"Linux","password":true,"vac":true,"version":"7757534","steam_id":85568392924510199,"keywords":["nocrits","nodmgspread","payload","uncletopia"],"game_id":440,"stv_port":27046,"stv_name":"Uncletopia | Los Angeles | 4 | Stopwatch Beta | STV","players":null},{"server_id":11,"name":"Uncletopia | London | 1 | All Maps","name_short":"lon-1","host":"lon-1.uk.uncletopia.com","port":27015,"enabled":true,"region":"eu","cc":"gb","latitude":51.509865,"longitude":-0.118092,"reserved":0,"last_update":"0001-01-01T00:00:00Z","name_a2s":"Uncletopia | London | 1 | All Maps","protocol":17,"map":"cp_sunshine","folder":"tf","game":"Team Fortress","app_id":440,"player_count":0,"max_players":24,"Bots":0,"server_type":"Dedicated","server_os":"Linux","password":true,"vac":true,"version":"7757534","steam_id":85568392924367362,"keywords":["cp","nocrits","nodmgspread","uncletopia"],"game_id":440,"stv_port":27016,"stv_name":"Uncletopia | London | 1 | All Maps | STV","players":null},{"server_id":114,"name":"Uncletopia | London | 2 | All Maps","name_short":"lon-2","host":"lon-1.uk.uncletopia.com","port":27025,"enabled":true,"region":"eu","cc":"gb","latitude":51.509865,"longitude":-0.118092,"reserved":0,"last_update":"0001-01-01T00:00:00Z","name_a2s":"Uncletopia | London | 2 | All Maps","protocol":17,"map":"pl_swiftwater_final1","folder":"tf","game":"Team Fortress","app_id":440,"player_count":24,"max_players":24,"Bots":0,"server_type":"Dedicated","server_os":"Linux","password":true,"vac":true,"version":"7757534","steam_id":85568392924470941,"keywords":["nocrits","nodmgspread","payload","uncletopia"],"game_id":440,"stv_port":27026,"stv_name":"Uncletopia | London | 2 | All Maps | STV","players":[{"user_id":105,"name":"hud_saytext_time 0","steam_id":76561198010327228,"connected_time":3390000000000,"state":"active","ping":64},{"user_id":130,"name":"Andy","steam_id":76561198046918834,"connected_time":414000000000,"state":"active","ping":68},{"user_id":5,"name":"BrainLacking","steam_id":76561198965574196,"connected_time":11569000000000,"state":"active","ping":54},{"user_id":129,"name":"jaime8D","steam_id":76561197980590671,"connected_time":702000000000,"state":"active","ping":84},{"user_id":125,"name":"Bad and Wuji","steam_id":76561199385280253,"connected_time":1779000000000,"state":"active","ping":116},{"user_id":134,"name":"RLCrazyCat3","steam_id":76561197983757878,"connected_time":377000000000,"state":"active","ping":64},{"user_id":119,"name":"Mr.B","steam_id":76561199204478925,"connected_time":2631000000000,"state":"active","ping":113},{"user_id":121,"name":"Blacksheep","steam_id":76561198019621063,"connected_time":2060000000000,"state":"active","ping":48},{"user_id":131,"name":"G/3","steam_id":76561198234844188,"connected_time":413000000000,"state":"active","ping":59},{"user_id":72,"name":"korpokkur kolossus","steam_id":76561198029827784,"connected_time":5971000000000,"state":"active","ping":101},{"user_id":140,"name":"magnarull","steam_id":76561198972383118,"connected_time":77000000000,"state":"active","ping":80},{"user_id":14,"name":"rat :3","steam_id":76561198151884156,"connected_time":11551000000000,"state":"active","ping":51},{"user_id":126,"name":"Mr. Pickles #SaveTF2","steam_id":76561199210183560,"connected_time":1761000000000,"state":"active","ping":122},{"user_id":123,"name":"zombie","steam_id":76561198072162404,"connected_time":1814000000000,"state":"active","ping":92},{"user_id":137,"name":"SynthBox3","steam_id":76561199094075745,"connected_time":149000000000,"state":"connecting","ping":0},{"user_id":18,"name":"Arturs","steam_id":76561198085667179,"connected_time":11546000000000,"state":"active","ping":119},{"user_id":132,"name":"axl","steam_id":76561198991661832,"connected_time":412000000000,"state":"active","ping":71},{"user_id":108,"name":"lucabargagli","steam_id":76561199353783858,"connected_time":3324000000000,"state":"active","ping":84},{"user_id":138,"name":"Pastoss","steam_id":76561198379098260,"connected_time":129000000000,"state":"active","ping":66},{"user_id":136,"name":"Optimist 50","steam_id":76561198039631442,"connected_time":213000000000,"state":"active","ping":77},{"user_id":127,"name":"Chrikin","steam_id":76561198416301532,"connected_time":1450000000000,"state":"active","ping":171},{"user_id":128,"name":"amjadgx9","steam_id":76561199388681087,"connected_time":1170000000000,"state":"active","ping":116},{"user_id":88,"name":"Choruptian","steam_id":76561198017686366,"connected_time":4031000000000,"state":"active","ping":72},{"user_id":116,"name":"em","steam_id":76561198084507532,"connected_time":2954000000000,"state":"active","ping":74}]},{"server_id":320,"name":"Uncletopia | London | 3 | All Maps","name_short":"lon-3","host":"lon-1.uk.uncletopia.com","port":27035,"enabled":true,"region":"eu","cc":"gb","latitude":51.509865,"longitude":-0.118092,"reserved":0,"last_update":"0001-01-01T00:00:00Z","name_a2s":"Uncletopia | London | 3 | All Maps","protocol":17,"map":"pl_badwater","folder":"tf","game":"Team Fortress","app_id":440,"player_count":0,"max_players":24,"Bots":0,"server_type":"Dedicated","server_os":"Linux","password":true,"vac":true,"version":"7757534","steam_id":85568392924510192,"keywords":["nocrits","nodmgspread","payload","uncletopia"],"game_id":440,"stv_port":27036,"stv_name":"Uncletopia | London | 3 | All Maps | STV","players":null},{"server_id":321,"name":"Uncletopia | London | 4 | All Maps","name_short":"lon-4","host":"lon-1.uk.uncletopia.com","port":27045,"enabled":true,"region":"eu","cc":"gb","latitude":51.509865,"longitude":-0.118092,"reserved":0,"last_update":"0001-01-01T00:00:00Z","name_a2s":"Uncletopia | London | 4 | All Maps","protocol":17,"map":"koth_cascade","folder":"tf","game":"Team Fortress","app_id":440,"player_count":0,"max_players":24,"Bots":0,"server_type":"Dedicated","server_os":"Linux","password":true,"vac":true,"version":"7757534","steam_id":85568392924510193,"keywords":["cp","nocrits","nodmgspread","uncletopia"],"game_id":440,"stv_port":27046,"stv_name":"Uncletopia | London | 4 | All Maps | STV","players":null},{"server_id":21,"name":"Uncletopia | London | 5 | All Maps","name_short":"lon-5","host":"lon-1.uk.uncletopia.com","port":27055,"enabled":true,"region":"eu","cc":"gb","latitude":51.509865,"longitude":-0.118092,"reserved":0,"last_update":"0001-01-01T00:00:00Z","name_a2s":"Uncletopia | London | 5 | All Maps","protocol":17,"map":"pl_barnblitz","folder":"tf","game":"Team Fortress","app_id":440,"player_count":22,"max_players":24,"Bots":0,"server_type":"Dedicated","server_os":"Linux","password":true,"vac":true,"version":"7757534","steam_id":85568392924742829,"keywords":["nocrits","nodmgspread","payload","uncletopia"],"game_id":440,"stv_port":27056,"stv_name":"Uncletopia | London | 5 | All Maps | STV","players":[{"user_id":98,"name":"glg","steam_id":76561198856495841,"connected_time":218000000000,"state":"active","ping":109},{"user_id":33,"name":"problack","steam_id":76561198000514719,"connected_time":6146000000000,"state":"active","ping":62},{"user_id":84,"name":"FatalRyhme","steam_id":76561198018713483,"connected_time":1807000000000,"state":"active","ping":87},{"user_id":76,"name":"DarkFady","steam_id":76561198179099523,"connected_time":2277000000000,"state":"active","ping":104},{"user_id":69,"name":"ZeeZer0","steam_id":76561198043828441,"connected_time":3302000000000,"state":"active","ping":51},{"user_id":64,"name":"Critz!","steam_id":76561197998110417,"connected_time":3949000000000,"state":"active","ping":89},{"user_id":99,"name":"Quackus Duckus","steam_id":76561198442928985,"connected_time":180000000000,"state":"active","ping":164},{"user_id":91,"name":"Fard","steam_id":76561198417756416,"connected_time":1492000000000,"state":"active","ping":98},{"user_id":95,"name":"MRLOLENO","steam_id":76561198450911838,"connected_time":860000000000,"state":"active","ping":71},{"user_id":67,"name":"HAYTAM14","steam_id":76561198970139659,"connected_time":3358000000000,"state":"active","ping":163},{"user_id":80,"name":"Денис Базука","steam_id":76561198835849082,"connected_time":2243000000000,"state":"active","ping":103},{"user_id":87,"name":"antlionguard","steam_id":76561198072747143,"connected_time":1674000000000,"state":"active","ping":102},{"user_id":93,"name":"GARbageTrash","steam_id":76561199101269633,"connected_time":892000000000,"state":"active","ping":87},{"user_id":85,"name":"Hey, I´m Andy!","steam_id":76561198060337777,"connected_time":1791000000000,"state":"active","ping":84},{"user_id":96,"name":"Your Lovely Medic","steam_id":76561198039326848,"connected_time":557000000000,"state":"active","ping":72},{"user_id":47,"name":"ivanmixo","steam_id":76561198160213989,"connected_time":4660000000000,"state":"active","ping":62},{"user_id":88,"name":"Ewelinka Zniszczenia","steam_id":76561198307374456,"connected_time":1673000000000,"state":"active","ping":83},{"user_id":92,"name":"Kenny","steam_id":76561198107911141,"connected_time":906000000000,"state":"active","ping":61},{"user_id":66,"name":"Homicidal Tendencies","steam_id":76561198828681043,"connected_time":3721000000000,"state":"active","ping":40},{"user_id":83,"name":"thussu","steam_id":76561198890409949,"connected_time":1894000000000,"state":"active","ping":97},{"user_id":82,"name":"Johnny Sack","steam_id":76561198364121077,"connected_time":2229000000000,"state":"active","ping":99},{"user_id":94,"name":"The Dark Destoryer","steam_id":76561198831440921,"connected_time":891000000000,"state":"active","ping":24}]},{"server_id":22,"name":"Uncletopia | London | 6 | All Maps","name_short":"lon-6","host":"lon-1.uk.uncletopia.com","port":27065,"enabled":true,"region":"eu","cc":"gb","latitude":51.509865,"longitude":-0.118092,"reserved":0,"last_update":"0001-01-01T00:00:00Z","name_a2s":"Uncletopia | London | 6 | All Maps","protocol":17,"map":"pl_snowycoast","folder":"tf","game":"Team Fortress","app_id":440,"player_count":0,"max_players":24,"Bots":0,"server_type":"Dedicated","server_os":"Linux","password":true,"vac":true,"version":"7757534","steam_id":85568392924742830,"keywords":["nocrits","nodmgspread","payload","uncletopia"],"game_id":440,"stv_port":27066,"stv_name":"Uncletopia | London | 6 | All Maps | STV","players":null},{"server_id":40,"name":"Uncletopia | London | 7 | No Payload","name_short":"lon-7","host":"lon-1.uk.uncletopia.com","port":27075,"enabled":true,"region":"eu","cc":"gb","latitude":51.509865,"longitude":-0.118092,"reserved":0,"last_update":"0001-01-01T00:00:00Z","name_a2s":"Uncletopia | London | 7 | No Payload","protocol":17,"map":"koth_sawmill","folder":"tf","game":"Team Fortress","app_id":440,"player_count":0,"max_players":24,"Bots":0,"server_type":"Dedicated","server_os":"Linux","password":true,"vac":true,"version":"7757534","steam_id":85568392924964314,"keywords":["cp","nocrits","nodmgspread","uncletopia"],"game_id":440,"stv_port":27076,"stv_name":"Uncletopia | London | 7 | No Payload | STV","players":null},{"server_id":41,"name":"Uncletopia | London | 8 | Community","name_short":"lon-8","host":"lon-1.uk.uncletopia.com","port":27085,"enabled":true,"region":"eu","cc":"gb","latitude":51.509865,"longitude":-0.118092,"reserved":0,"last_update":"0001-01-01T00:00:00Z","name_a2s":"Uncletopia | London | 8 | Community","protocol":17,"map":"workshop/pl_cactuscanyon_redux_rc4b.ugc2579644293","folder":"tf","game":"Team Fortress","app_id":440,"player_count":0,"max_players":24,"Bots":0,"server_type":"Dedicated","server_os":"Linux","password":true,"vac":true,"version":"7757534","steam_id":85568392924964315,"keywords":["nocrits","nodmgspread","payload","uncletopia"],"game_id":440,"stv_port":27086,"stv_name":"Uncletopia | London | 8 | Community | STV","players":null},{"server_id":300,"name":"Uncletopia | Montréal | 1 | All Maps","name_short":"mtl-1","host":"mtl-1.ca.uncletopia.com","port":27015,"enabled":true,"region":"us-east","cc":"ca","latitude":45.50889,"longitude":-73.56167,"reserved":0,"last_update":"0001-01-01T00:00:00Z","name_a2s":"Uncletopia | Montréal | 1 | All Maps","protocol":17,"map":"koth_cascade","folder":"tf","game":"Team Fortress","app_id":440,"player_count":0,"max_players":24,"Bots":0,"server_type":"Dedicated","server_os":"Linux","password":true,"vac":true,"version":"7757534","steam_id":85568392924500087,"keywords":["cp","nocrits","nodmgspread","uncletopia"],"game_id":440,"stv_port":27016,"stv_name":"Uncletopia | Montréal | 1 | All Maps | STV","players":null},{"server_id":301,"name":"Uncletopia | Montréal | 2 | All Maps","name_short":"mtl-2","host":"mtl-1.ca.uncletopia.com","port":27025,"enabled":true,"region":"us-east","cc":"ca","latitude":45.50889,"longitude":-73.56167,"reserved":0,"last_update":"0001-01-01T00:00:00Z","name_a2s":"Uncletopia | Montréal | 2 | All Maps","protocol":17,"map":"cp_sunshine","folder":"tf","game":"Team Fortress","app_id":440,"player_count":0,"max_players":24,"Bots":0,"server_type":"Dedicated","server_os":"Linux","password":true,"vac":true,"version":"7757534","steam_id":85568392924500088,"keywords":["cp","nocrits","nodmgspread","uncletopia"],"game_id":440,"stv_port":27026,"stv_name":"Uncletopia | Montréal | 2 | All Maps | STV","players":null},{"server_id":302,"name":"Uncletopia | Montréal | 3 | All Maps","name_short":"mtl-3","host":"mtl-1.ca.uncletopia.com","port":27035,"enabled":true,"region":"us-east","cc":"ca","latitude":45.50889,"longitude":-73.56167,"reserved":0,"last_update":"0001-01-01T00:00:00Z","name_a2s":"Uncletopia | Montréal | 3 | All Maps","protocol":17,"map":"pl_frontier_final","folder":"tf","game":"Team Fortress","app_id":440,"player_count":0,"max_players":24,"Bots":0,"server_type":"Dedicated","server_os":"Linux","password":true,"vac":true,"version":"7757534","steam_id":85568392924500089,"keywords":["nocrits","nodmgspread","payload","uncletopia"],"game_id":440,"stv_port":27036,"stv_name":"Uncletopia | Montréal | 3 | All Maps | STV","players":null},{"server_id":303,"name":"Uncletopia | Montréal | 4 | No Payload","name_short":"mtl-4","host":"mtl-1.ca.uncletopia.com","port":27045,"enabled":true,"region":"us-east","cc":"ca","latitude":45.50889,"longitude":-73.56167,"reserved":0,"last_update":"0001-01-01T00:00:00Z","name_a2s":"Uncletopia | Montréal | 4 | No Payload","protocol":17,"map":"koth_highpass","folder":"tf","game":"Team Fortress","app_id":440,"player_count":0,"max_players":24,"Bots":0,"server_type":"Dedicated","server_os":"Linux","password":true,"vac":true,"version":"7757534","steam_id":85568392924500090,"keywords":["cp","nocrits","nodmgspread","uncletopia"],"game_id":440,"stv_port":27046,"stv_name":"Uncletopia | Montréal | 4 | No Payload | STV","players":null},{"server_id":13,"name":"Uncletopia | New York City | 1 | All Maps","name_short":"nyc-1","host":"nyc-1.us.uncletopia.com","port":27015,"enabled":true,"region":"us-east","cc":"us","latitude":40.73061,"longitude":-73.93524,"reserved":0,"last_update":"0001-01-01T00:00:00Z","name_a2s":"Uncletopia | New York City | 1 | All Maps","protocol":17,"map":"koth_highpass","folder":"tf","game":"Team Fortress","app_id":440,"player_count":0,"max_players":24,"Bots":0,"server_type":"Dedicated","server_os":"Linux","password":true,"vac":true,"version":"7757534","steam_id":85568392924469993,"keywords":["cp","nocrits","nodmgspread","uncletopia"],"game_id":440,"stv_port":27016,"stv_name":"Uncletopia | New York City | 1 | All Maps | STV","players":null},{"server_id":14,"name":"Uncletopia | New York City | 2 | All Maps","name_short":"nyc-2","host":"nyc-1.us.uncletopia.com","port":27025,"enabled":true,"region":"us-east","cc":"us","latitude":40.73061,"longitude":-73.93524,"reserved":0,"last_update":"0001-01-01T00:00:00Z","name_a2s":"Uncletopia | New York City | 2 | All Maps","protocol":17,"map":"pl_swiftwater_final1","folder":"tf","game":"Team Fortress","app_id":440,"player_count":19,"max_players":24,"Bots":0,"server_type":"Dedicated","server_os":"Linux","password":true,"vac":true,"version":"7757534","steam_id":85568392924469994,"keywords":["nocrits","nodmgspread","payload","uncletopia"],"game_id":440,"stv_port":27026,"stv_name":"Uncletopia | New York City | 2 | All Maps | STV","players":[{"user_id":908,"name":"can't","steam_id":76561198090531755,"connected_time":425000000000,"state":"active","ping":89},{"user_id":909,"name":"germba","steam_id":76561198421591995,"connected_time":318000000000,"state":"active","ping":108},{"user_id":884,"name":"Ewah","steam_id":76561198057912166,"connected_time":1319000000000,"state":"active","ping":62},{"user_id":913,"name":"Alphaslayer","steam_id":76561198127571653,"connected_time":1000000000,"state":"spawning","ping":42},{"user_id":878,"name":"Nuggie Trafficker","steam_id":76561198075086238,"connected_time":1545000000000,"state":"active","ping":38},{"user_id":912,"name":"ShadowWasUhOh","steam_id":76561198400361935,"connected_time":105000000000,"state":"active","ping":78},{"user_id":891,"name":"Decot","steam_id":76561198042016967,"connected_time":1001000000000,"state":"active","ping":67},{"user_id":898,"name":"Zigadox","steam_id":76561198079813479,"connected_time":778000000000,"state":"active","ping":72},{"user_id":861,"name":"Assitins","steam_id":76561198041572892,"connected_time":3356000000000,"state":"active","ping":54},{"user_id":886,"name":"HeavenHearst","steam_id":76561198066083947,"connected_time":1210000000000,"state":"active","ping":54},{"user_id":903,"name":"Antknee","steam_id":76561198263793809,"connected_time":703000000000,"state":"active","ping":67},{"user_id":892,"name":"Aristotle Voulton","steam_id":76561198100174923,"connected_time":980000000000,"state":"active","ping":85},{"user_id":872,"name":"Laelaps","steam_id":76561198100061416,"connected_time":1922000000000,"state":"active","ping":58},{"user_id":893,"name":"sergeant Adderall","steam_id":76561199010296481,"connected_time":902000000000,"state":"active","ping":69},{"user_id":894,"name":"Ⓑ⓪⓪ⓣⓨⓒⓐⓚⓔⓢ","steam_id":76561198088776421,"connected_time":857000000000,"state":"active","ping":77},{"user_id":897,"name":"matkaster","steam_id":76561197998546486,"connected_time":796000000000,"state":"active","ping":79},{"user_id":900,"name":"frappe444","steam_id":76561199032973937,"connected_time":746000000000,"state":"active","ping":121},{"user_id":901,"name":"Fi \u003c3","steam_id":76561198315348942,"connected_time":738000000000,"state":"active","ping":135},{"user_id":902,"name":"Makali","steam_id":76561198839601234,"connected_time":737000000000,"state":"active","ping":125}]},{"server_id":15,"name":"Uncletopia | New York City | 3 | Stopwatch Beta","name_short":"nyc-3","host":"nyc-1.us.uncletopia.com","port":27035,"enabled":true,"region":"us-east","cc":"us","latitude":40.73061,"longitude":-73.93524,"reserved":0,"last_update":"0001-01-01T00:00:00Z","name_a2s":"Uncletopia | New York City | 3 | Stopwatch Beta","protocol":17,"map":"workshop/cp_reckoner_rc6.ugc674719999","folder":"tf","game":"Team Fortress","app_id":440,"player_count":0,"max_players":24,"Bots":0,"server_type":"Dedicated","server_os":"Linux","password":true,"vac":true,"version":"7757534","steam_id":85568392924742820,"keywords":["cp","nocrits","nodmgspread","uncletopia"],"game_id":440,"stv_port":27036,"stv_name":"Uncletopia | New York City | 3 | Stopwatch Beta | STV","players":null},{"server_id":16,"name":"Uncletopia | New York City | 4 | Community","name_short":"nyc-4","host":"nyc-1.us.uncletopia.com","port":27045,"enabled":true,"region":"us-east","cc":"us","latitude":40.73061,"longitude":-73.93524,"reserved":0,"last_update":"0001-01-01T00:00:00Z","name_a2s":"Uncletopia | New York City | 4 | Community","protocol":17,"map":"workshop/koth_ramjam_rc1.ugc459778887","folder":"tf","game":"Team Fortress","app_id":440,"player_count":0,"max_players":24,"Bots":0,"server_type":"Dedicated","server_os":"Linux","password":true,"vac":true,"version":"7757534","steam_id":85568392924742821,"keywords":["cp","nocrits","nodmgspread","uncletopia"],"game_id":440,"stv_port":27046,"stv_name":"Uncletopia | New York City | 4 | Community | STV","players":null},{"server_id":142,"name":"Uncletopia | São Paulo | 1 | All Maps","name_short":"sao-1","host":"sao-1.br.uncletopia.com","port":27015,"enabled":true,"region":"sa","cc":"br","latitude":-23.533773,"longitude":-46.62529,"reserved":0,"last_update":"0001-01-01T00:00:00Z","name_a2s":"Uncletopia | São Paulo | 1 | All Maps","protocol":17,"map":"pl_snowycoast","folder":"tf","game":"Team Fortress","app_id":440,"player_count":0,"max_players":24,"Bots":0,"server_type":"Dedicated","server_os":"Linux","password":true,"vac":true,"version":"7757534","steam_id":85568392924469996,"keywords":["nocrits","nodmgspread","payload","uncletopia"],"game_id":440,"stv_port":27016,"stv_name":"Uncletopia | São Paulo | 1 | All Maps | STV","players":null},{"server_id":143,"name":"Uncletopia | São Paulo | 2 | All Maps","name_short":"sao-2","host":"sao-2.br.uncletopia.com","port":27015,"enabled":true,"region":"sa","cc":"br","latitude":-23.533773,"longitude":-46.62529,"reserved":0,"last_update":"0001-01-01T00:00:00Z","name_a2s":"Uncletopia | São Paulo | 2 | All Maps","protocol":17,"map":"pl_barnblitz","folder":"tf","game":"Team Fortress","app_id":440,"player_count":0,"max_players":24,"Bots":0,"server_type":"Dedicated","server_os":"Linux","password":true,"vac":true,"version":"7757534","steam_id":85568392924485349,"keywords":["nocrits","nodmgspread","payload","uncletopia"],"game_id":440,"stv_port":27016,"stv_name":"Uncletopia | São Paulo | 2 | All Maps | STV","players":null},{"server_id":7,"name":"Uncletopia | Seattle | 1 | All Maps","name_short":"sea-1","host":"sea-1.us.uncletopia.com","port":27015,"enabled":true,"region":"us-west","cc":"us","latitude":47.608013,"longitude":-122.33517,"reserved":0,"last_update":"0001-01-01T00:00:00Z","name_a2s":"Uncletopia | Seattle | 1 | All Maps","protocol":17,"map":"pl_chilly","folder":"tf","game":"Team Fortress","app_id":440,"player_count":22,"max_players":24,"Bots":0,"server_type":"Dedicated","server_os":"Linux","password":true,"vac":true,"version":"7757534","steam_id":85568392924469997,"keywords":["nocrits","nodmgspread","payload","uncletopia"],"game_id":440,"stv_port":27016,"stv_name":"Uncletopia | Seattle | 1 | All Maps | STV","players":[{"user_id":756,"name":"StreamMindRiderByHailTheSun","steam_id":76561198165208572,"connected_time":516000000000,"state":"active","ping":100},{"user_id":640,"name":"An Old Lady","steam_id":76561198047480318,"connected_time":10683000000000,"state":"active","ping":64},{"user_id":761,"name":"need_a_hobby","steam_id":76561198988764495,"connected_time":254000000000,"state":"active","ping":62},{"user_id":719,"name":"Arsonist Goose","steam_id":76561198147441830,"connected_time":3696000000000,"state":"active","ping":74},{"user_id":758,"name":"Lucerne★Flower","steam_id":76561198264105406,"connected_time":479000000000,"state":"active","ping":130},{"user_id":754,"name":"⛧","steam_id":76561198021308963,"connected_time":773000000000,"state":"active","ping":69},{"user_id":612,"name":"PopcornNinja101","steam_id":76561198330680181,"connected_time":14501000000000,"state":"active","ping":56},{"user_id":727,"name":"kaeru","steam_id":76561198043789098,"connected_time":2751000000000,"state":"active","ping":60},{"user_id":718,"name":"COOL master_9","steam_id":76561198073041151,"connected_time":3790000000000,"state":"active","ping":100},{"user_id":706,"name":"Ayayahuasca","steam_id":76561199002906056,"connected_time":4532000000000,"state":"active","ping":47},{"user_id":762,"name":"teh mummy","steam_id":76561198044123636,"connected_time":212000000000,"state":"active","ping":71},{"user_id":759,"name":"dubba (•̀_•́ )","steam_id":76561199428471192,"connected_time":423000000000,"state":"active","ping":67},{"user_id":753,"name":"dP | I'm in a Wookie Suit","steam_id":76561198083307644,"connected_time":800000000000,"state":"active","ping":55},{"user_id":725,"name":"The Caretaker","steam_id":76561198125241411,"connected_time":2917000000000,"state":"active","ping":114},{"user_id":763,"name":"scaaaaaa","steam_id":76561198129535114,"connected_time":116000000000,"state":"active","ping":123},{"user_id":764,"name":"sly1","steam_id":76561198049014977,"connected_time":5000000000,"state":"spawning","ping":65},{"user_id":740,"name":"diymo","steam_id":76561198017600790,"connected_time":1968000000000,"state":"active","ping":35},{"user_id":747,"name":"forktails","steam_id":76561198046185082,"connected_time":1770000000000,"state":"active","ping":119},{"user_id":734,"name":"KingToaster","steam_id":76561198007903802,"connected_time":2300000000000,"state":"active","ping":45},{"user_id":724,"name":"Kaleidescoop","steam_id":76561198074886885,"connected_time":3011000000000,"state":"active","ping":67},{"user_id":729,"name":"Defeat","steam_id":76561198065203818,"connected_time":2501000000000,"state":"active","ping":45},{"user_id":755,"name":"Percules 2024","steam_id":76561198195220521,"connected_time":749000000000,"state":"active","ping":75}]},{"server_id":119,"name":"Uncletopia | Seattle | 2 | All Maps","name_short":"sea-2","host":"sea-1.us.uncletopia.com","port":27025,"enabled":true,"region":"us-west","cc":"us","latitude":47.608013,"longitude":-122.33517,"reserved":0,"last_update":"0001-01-01T00:00:00Z","name_a2s":"Uncletopia | Seattle | 2 | All Maps","protocol":17,"map":"pl_badwater","folder":"tf","game":"Team Fortress","app_id":440,"player_count":24,"max_players":24,"Bots":0,"server_type":"Dedicated","server_os":"Linux","password":true,"vac":true,"version":"7757534","steam_id":85568392924469998,"keywords":["nocrits","nodmgspread","payload","uncletopia"],"game_id":440,"stv_port":27026,"stv_name":"Uncletopia | Seattle | 2 | All Maps | STV","players":[{"user_id":587,"name":"苗條厚","steam_id":76561198164921218,"connected_time":1518000000000,"state":"active","ping":123},{"user_id":595,"name":"The dreaded jar","steam_id":76561199087010656,"connected_time":1176000000000,"state":"active","ping":56},{"user_id":554,"name":"Axiom","steam_id":76561198120536885,"connected_time":4722000000000,"state":"active","ping":125},{"user_id":586,"name":"Buckytr","steam_id":76561198096335025,"connected_time":1542000000000,"state":"active","ping":57},{"user_id":496,"name":"Dr. Reaper","steam_id":76561198049436290,"connected_time":10300000000000,"state":"active","ping":55},{"user_id":588,"name":"Marv_L","steam_id":76561198035709541,"connected_time":1445000000000,"state":"active","ping":69},{"user_id":574,"name":"cookie","steam_id":76561197971557295,"connected_time":3170000000000,"state":"active","ping":78},{"user_id":528,"name":"Shrödinger's Trap","steam_id":76561198082996062,"connected_time":5712000000000,"state":"active","ping":78},{"user_id":598,"name":"Typhoid","steam_id":76561198067791086,"connected_time":343000000000,"state":"active","ping":75},{"user_id":461,"name":"Vexxant","steam_id":76561198080549580,"connected_time":13903000000000,"state":"active","ping":99},{"user_id":589,"name":"Scut","steam_id":76561198973734291,"connected_time":1402000000000,"state":"active","ping":62},{"user_id":590,"name":"Hifumi Togo","steam_id":76561198074930636,"connected_time":1344000000000,"state":"active","ping":89},{"user_id":594,"name":"Caramel_Chalice","steam_id":76561198307609692,"connected_time":1220000000000,"state":"active","ping":58},{"user_id":558,"name":"Munchie","steam_id":76561198169751371,"connected_time":4220000000000,"state":"active","ping":49},{"user_id":591,"name":"pat back","steam_id":76561198347225801,"connected_time":1323000000000,"state":"active","ping":57},{"user_id":584,"name":"Misterwipeout","steam_id":76561198068900320,"connected_time":1589000000000,"state":"active","ping":54},{"user_id":592,"name":"trackpad gaming | f2p","steam_id":76561198840414371,"connected_time":1306000000000,"state":"active","ping":42},{"user_id":599,"name":"oohho","steam_id":76561198073707607,"connected_time":313000000000,"state":"active","ping":69},{"user_id":600,"name":"yup","steam_id":76561199190800520,"connected_time":310000000000,"state":"active","ping":41},{"user_id":593,"name":"Suicutie","steam_id":76561198878942822,"connected_time":1293000000000,"state":"active","ping":115},{"user_id":551,"name":"FridgeOfJustice","steam_id":76561198061995534,"connected_time":4840000000000,"state":"active","ping":85},{"user_id":582,"name":"Bubbamanme","steam_id":76561198119778504,"connected_time":1913000000000,"state":"active","ping":56},{"user_id":601,"name":"Shnakes","steam_id":76561198201649518,"connected_time":219000000000,"state":"active","ping":92},{"user_id":581,"name":"Naffers","steam_id":76561198195957335,"connected_time":2332000000000,"state":"active","ping":43}]},{"server_id":406,"name":"Uncletopia | Seattle | 3 | Stopwatch Beta","name_short":"sea-3","host":"sea-1.us.uncletopia.com","port":27035,"enabled":true,"region":"us-west","cc":"us","latitude":47.608013,"longitude":-122.33517,"reserved":0,"last_update":"0001-01-01T00:00:00Z","name_a2s":"Uncletopia | Seattle | 3 | Stopwatch Beta","protocol":17,"map":"pl_swiftwater_final1","folder":"tf","game":"Team Fortress","app_id":440,"player_count":0,"max_players":24,"Bots":0,"server_type":"Dedicated","server_os":"Linux","password":true,"vac":true,"version":"7757534","steam_id":85568392924515217,"keywords":["nocrits","nodmgspread","payload","uncletopia"],"game_id":440,"stv_port":27036,"stv_name":"Uncletopia | Seattle | 3 | Stopwatch Beta | STV","players":null},{"server_id":17,"name":"Uncletopia | San Francisco | 1 | All Maps","name_short":"sfo-1","host":"sfo-1.us.uncletopia.com","port":27015,"enabled":true,"region":"us-west","cc":"us","latitude":37.77397,"longitude":-122.4313,"reserved":0,"last_update":"0001-01-01T00:00:00Z","name_a2s":"Uncletopia | San Francisco | 1 | All Maps","protocol":17,"map":"pl_upward","folder":"tf","game":"Team Fortress","app_id":440,"player_count":18,"max_players":24,"Bots":0,"server_type":"Dedicated","server_os":"Linux","password":true,"vac":true,"version":"7757534","steam_id":85568392924469999,"keywords":["nocrits","nodmgspread","payload","uncletopia"],"game_id":440,"stv_port":27016,"stv_name":"Uncletopia | San Francisco | 1 | All Maps | STV","players":[{"user_id":921,"name":"THE NUT","steam_id":76561198067813626,"connected_time":3412000000000,"state":"active","ping":63},{"user_id":938,"name":"Meat Bug (Lv.16 Goober)","steam_id":76561199084596444,"connected_time":1927000000000,"state":"active","ping":65},{"user_id":949,"name":"xMystic_Fire","steam_id":76561198189961543,"connected_time":1505000000000,"state":"active","ping":85},{"user_id":951,"name":"Burger","steam_id":76561197976822885,"connected_time":1175000000000,"state":"active","ping":88},{"user_id":954,"name":"jon","steam_id":76561198065314212,"connected_time":996000000000,"state":"active","ping":44},{"user_id":957,"name":"invb","steam_id":76561197998263914,"connected_time":865000000000,"state":"active","ping":109},{"user_id":960,"name":"Halo","steam_id":76561198144909435,"connected_time":121000000000,"state":"active","ping":60},{"user_id":896,"name":"beatrix","steam_id":76561199057103062,"connected_time":5028000000000,"state":"active","ping":73},{"user_id":952,"name":"TheProNub819","steam_id":76561198148157458,"connected_time":1151000000000,"state":"active","ping":84},{"user_id":959,"name":"Cheff cook","steam_id":76561198451203268,"connected_time":289000000000,"state":"active","ping":49},{"user_id":908,"name":"Bl0ckM4n","steam_id":76561199016413171,"connected_time":4670000000000,"state":"active","ping":70},{"user_id":943,"name":"who is doug","steam_id":76561198858328080,"connected_time":1791000000000,"state":"active","ping":59},{"user_id":847,"name":"Zoroaz (3 Shots and a cocktail)","steam_id":76561199245203720,"connected_time":8779000000000,"state":"active","ping":90},{"user_id":940,"name":"7akoda","steam_id":76561198053289095,"connected_time":1862000000000,"state":"active","ping":53},{"user_id":928,"name":"Dom Kench","steam_id":76561198118910491,"connected_time":3051000000000,"state":"active","ping":86},{"user_id":948,"name":"Box","steam_id":76561198046638837,"connected_time":1562000000000,"state":"active","ping":79},{"user_id":953,"name":"Jack from Jack in The Box","steam_id":76561199083594971,"connected_time":1022000000000,"state":"active","ping":65},{"user_id":927,"name":"garry","steam_id":76561199091007559,"connected_time":3084000000000,"state":"active","ping":72}]},{"server_id":18,"name":"Uncletopia | San Francisco | 2 | All Maps","name_short":"sfo-2","host":"sfo-1.us.uncletopia.com","port":27025,"enabled":true,"region":"us-west","cc":"us","latitude":37.77397,"longitude":-122.4313,"reserved":0,"last_update":"0001-01-01T00:00:00Z","name_a2s":"Uncletopia | San Francisco | 2 | All Maps","protocol":17,"map":"pl_swiftwater_final1","folder":"tf","game":"Team Fortress","app_id":440,"player_count":19,"max_players":24,"Bots":0,"server_type":"Dedicated","server_os":"Linux","password":true,"vac":true,"version":"7757534","steam_id":85568392924470000,"keywords":["nocrits","nodmgspread","payload","uncletopia"],"game_id":440,"stv_port":27026,"stv_name":"Uncletopia | San Francisco | 2 | All Maps | STV","players":[{"user_id":338,"name":"Jax","steam_id":76561198251160282,"connected_time":6809000000000,"state":"active","ping":63},{"user_id":373,"name":"kona","steam_id":76561199146582356,"connected_time":4976000000000,"state":"active","ping":73},{"user_id":410,"name":"jayzak24","steam_id":76561198354267509,"connected_time":2427000000000,"state":"active","ping":71},{"user_id":411,"name":"goopsnatch","steam_id":76561198143877682,"connected_time":2416000000000,"state":"active","ping":82},{"user_id":422,"name":"Xosibel","steam_id":76561197960781704,"connected_time":1693000000000,"state":"active","ping":58},{"user_id":412,"name":"Yokogaijin Jr.","steam_id":76561199124647094,"connected_time":2366000000000,"state":"active","ping":36},{"user_id":413,"name":"Probably_not_me","steam_id":76561199164555798,"connected_time":2331000000000,"state":"active","ping":87},{"user_id":436,"name":"Wso1123","steam_id":76561198048040111,"connected_time":1196000000000,"state":"active","ping":62},{"user_id":423,"name":"CrazyMoonGaming","steam_id":76561198044271642,"connected_time":1676000000000,"state":"active","ping":112},{"user_id":445,"name":"MS Paint Gamer","steam_id":76561198964527916,"connected_time":195000000000,"state":"active","ping":68},{"user_id":424,"name":"D.A. Ace","steam_id":76561198046455229,"connected_time":1671000000000,"state":"active","ping":64},{"user_id":425,"name":"AriesAesthetics","steam_id":76561199027365833,"connected_time":1664000000000,"state":"active","ping":67},{"user_id":426,"name":"Sad Sapling","steam_id":76561198075612150,"connected_time":1595000000000,"state":"active","ping":47},{"user_id":439,"name":"Throw Artist","steam_id":76561198055589808,"connected_time":797000000000,"state":"active","ping":44},{"user_id":428,"name":"Biznickel","steam_id":76561199422511230,"connected_time":1550000000000,"state":"active","ping":69},{"user_id":430,"name":"Anax Alter","steam_id":76561198110249546,"connected_time":1485000000000,"state":"active","ping":112},{"user_id":441,"name":"Cloudman","steam_id":76561198041389138,"connected_time":776000000000,"state":"active","ping":114},{"user_id":434,"name":"Omega-Kiba","steam_id":76561198154594523,"connected_time":1350000000000,"state":"active","ping":59},{"user_id":443,"name":"staticc","steam_id":76561198330715708,"connected_time":666000000000,"state":"active","ping":69}]},{"server_id":19,"name":"Uncletopia | San Francisco | 3 | Stopwatch Beta","name_short":"sfo-3","host":"sfo-1.us.uncletopia.com","port":27035,"enabled":true,"region":"us-west","cc":"us","latitude":37.77397,"longitude":-122.4313,"reserved":0,"last_update":"0001-01-01T00:00:00Z","name_a2s":"Uncletopia | San Francisco | 3 | Stopwatch Beta","protocol":17,"map":"workshop/koth_clearcut_b15.ugc2107050255","folder":"tf","game":"Team Fortress","app_id":440,"player_count":0,"max_players":24,"Bots":0,"server_type":"Dedicated","server_os":"Linux","password":true,"vac":true,"version":"7757534","steam_id":85568392924742824,"keywords":["cp","nocrits","nodmgspread","uncletopia"],"game_id":440,"stv_port":27036,"stv_name":"Uncletopia | San Francisco | 3 | Stopwatch Beta | STV","players":null},{"server_id":20,"name":"Uncletopia | San Francisco | 4 | Community","name_short":"sfo-4","host":"sfo-1.us.uncletopia.com","port":27045,"enabled":true,"region":"us-west","cc":"us","latitude":37.77397,"longitude":-122.4313,"reserved":0,"last_update":"0001-01-01T00:00:00Z","name_a2s":"Uncletopia | San Francisco | 4 | Community","protocol":17,"map":"workshop/koth_ramjam_rc1.ugc459778887","folder":"tf","game":"Team Fortress","app_id":440,"player_count":24,"max_players":24,"Bots":0,"server_type":"Dedicated","server_os":"Linux","password":true,"vac":true,"version":"7757534","steam_id":85568392924742826,"keywords":["cp","nocrits","nodmgspread","uncletopia"],"game_id":440,"stv_port":27046,"stv_name":"Uncletopia | San Francisco | 4 | Community | STV","players":[{"user_id":641,"name":"sara, boylady","steam_id":76561198283462369,"connected_time":5882000000000,"state":"active","ping":60},{"user_id":608,"name":"JJP","steam_id":76561198032914094,"connected_time":8298000000000,"state":"active","ping":45},{"user_id":684,"name":"JayK","steam_id":76561198046277492,"connected_time":919000000000,"state":"active","ping":90},{"user_id":692,"name":"en.wikipedia.org/wiki/Nae_Nae","steam_id":76561198418288939,"connected_time":497000000000,"state":"active","ping":58},{"user_id":683,"name":"Chi-Chia","steam_id":76561198067955987,"connected_time":1236000000000,"state":"active","ping":69},{"user_id":664,"name":"daemon","steam_id":76561198001541433,"connected_time":3320000000000,"state":"active","ping":106},{"user_id":631,"name":"p9 delight","steam_id":76561197980280272,"connected_time":6723000000000,"state":"active","ping":65},{"user_id":686,"name":"brk","steam_id":76561198079634017,"connected_time":851000000000,"state":"active","ping":61},{"user_id":687,"name":"KOOLAID","steam_id":76561198062775462,"connected_time":831000000000,"state":"active","ping":60},{"user_id":646,"name":"cyro","steam_id":76561198146241989,"connected_time":5594000000000,"state":"active","ping":114},{"user_id":636,"name":"Oomitch","steam_id":76561198071702759,"connected_time":6392000000000,"state":"active","ping":73},{"user_id":653,"name":"alaska","steam_id":76561198017030029,"connected_time":5315000000000,"state":"active","ping":47},{"user_id":680,"name":"Eden","steam_id":76561198075587475,"connected_time":1716000000000,"state":"active","ping":88},{"user_id":688,"name":"The Broken Lightbulb","steam_id":76561198141566312,"connected_time":772000000000,"state":"active","ping":68},{"user_id":689,"name":"rorywashere /ᐠ - ˕ -マ Ⳋ","steam_id":76561198065825165,"connected_time":771000000000,"state":"active","ping":105},{"user_id":690,"name":"victordead121","steam_id":76561199180843121,"connected_time":742000000000,"state":"active","ping":82},{"user_id":674,"name":"Jakkuzzi","steam_id":76561198097256820,"connected_time":2255000000000,"state":"active","ping":57},{"user_id":651,"name":"me","steam_id":76561199468285784,"connected_time":5525000000000,"state":"active","ping":44},{"user_id":693,"name":"⌂smarb⌂","steam_id":76561199197198840,"connected_time":429000000000,"state":"active","ping":82},{"user_id":648,"name":"IllTurbollI","steam_id":76561198204238512,"connected_time":5574000000000,"state":"active","ping":124},{"user_id":671,"name":"douglas4925","steam_id":76561198930342505,"connected_time":2490000000000,"state":"active","ping":61},{"user_id":621,"name":"doo doo","steam_id":76561198049784197,"connected_time":7657000000000,"state":"active","ping":49},{"user_id":672,"name":"Kage","steam_id":76561198203190975,"connected_time":2488000000000,"state":"active","ping":72},{"user_id":677,"name":"p9 jorts","steam_id":76561199041179985,"connected_time":2060000000000,"state":"active","ping":84}]},{"server_id":141,"name":"Uncletopia | Sydney | 1 | All Maps","name_short":"syd-1","host":"syd-1.au.uncletopia.com","port":27015,"enabled":true,"region":"au","cc":"au","latitude":-33.865143,"longitude":151.2099,"reserved":0,"last_update":"0001-01-01T00:00:00Z","name_a2s":"Uncletopia | Sydney | 1 | All Maps","protocol":17,"map":"pl_frontier_final","folder":"tf","game":"Team Fortress","app_id":440,"player_count":24,"max_players":24,"Bots":0,"server_type":"Dedicated","server_os":"Linux","password":true,"vac":true,"version":"7757534","steam_id":85568392924470001,"keywords":["nocrits","nodmgspread","payload","uncletopia"],"game_id":440,"stv_port":27016,"stv_name":"Uncletopia | Sydney | 1 | All Maps | STV","players":[{"user_id":380,"name":"SassnCheeky","steam_id":76561197993875592,"connected_time":4244000000000,"state":"active","ping":55},{"user_id":413,"name":"Vasxus","steam_id":76561198067733319,"connected_time":1996000000000,"state":"active","ping":65},{"user_id":407,"name":"Cup","steam_id":76561198038485845,"connected_time":2557000000000,"state":"active","ping":45},{"user_id":408,"name":"Mentos","steam_id":76561197980750976,"connected_time":2556000000000,"state":"active","ping":45},{"user_id":437,"name":"Death By Bougar","steam_id":76561198301282416,"connected_time":412000000000,"state":"active","ping":55},{"user_id":439,"name":"Piyo.","steam_id":76561197985114373,"connected_time":151000000000,"state":"active","ping":71},{"user_id":423,"name":"Jy","steam_id":76561198104427524,"connected_time":1410000000000,"state":"active","ping":55},{"user_id":393,"name":"diamond","steam_id":76561198206754736,"connected_time":2890000000000,"state":"active","ping":54},{"user_id":438,"name":"SkoKiE","steam_id":76561198283542986,"connected_time":333000000000,"state":"active","ping":60},{"user_id":432,"name":"Tiger_Tan","steam_id":76561198221733844,"connected_time":980000000000,"state":"active","ping":69},{"user_id":404,"name":"yumps","steam_id":76561198009311069,"connected_time":2587000000000,"state":"active","ping":60},{"user_id":391,"name":"Eddie","steam_id":76561198081031350,"connected_time":3101000000000,"state":"active","ping":47},{"user_id":402,"name":"jim :)","steam_id":76561198127508905,"connected_time":2618000000000,"state":"active","ping":33},{"user_id":392,"name":"formatic","steam_id":76561198316573006,"connected_time":3068000000000,"state":"active","ping":101},{"user_id":297,"name":"Chooka","steam_id":76561197992307814,"connected_time":9449000000000,"state":"active","ping":70},{"user_id":435,"name":"DAsh ツ","steam_id":76561198073070676,"connected_time":943000000000,"state":"active","ping":53},{"user_id":383,"name":"Abraham Lincoln","steam_id":76561198095292515,"connected_time":3878000000000,"state":"active","ping":69},{"user_id":397,"name":"Piklz","steam_id":76561198043384139,"connected_time":2846000000000,"state":"active","ping":55},{"user_id":426,"name":"Bolzen","steam_id":76561198046093482,"connected_time":1331000000000,"state":"active","ping":86},{"user_id":428,"name":"electro599","steam_id":76561198058148858,"connected_time":1223000000000,"state":"active","ping":58},{"user_id":433,"name":"SchlaytoN","steam_id":76561198206793747,"connected_time":972000000000,"state":"active","ping":66},{"user_id":420,"name":"AfroMeerkat","steam_id":76561197995499647,"connected_time":1686000000000,"state":"active","ping":68},{"user_id":429,"name":"Livid","steam_id":76561198060024585,"connected_time":1222000000000,"state":"active","ping":36},{"user_id":410,"name":"Ok Mate","steam_id":76561198254922035,"connected_time":2347000000000,"state":"active","ping":51}]},{"server_id":123,"name":"Uncletopia | Sydney | 2 | All Maps","name_short":"syd-2","host":"syd-1.au.uncletopia.com","port":27025,"enabled":true,"region":"au","cc":"au","latitude":-33.865143,"longitude":151.2099,"reserved":0,"last_update":"0001-01-01T00:00:00Z","name_a2s":"Uncletopia | Sydney | 2 | All Maps","protocol":17,"map":"pl_frontier_final","folder":"tf","game":"Team Fortress","app_id":440,"player_count":24,"max_players":24,"Bots":0,"server_type":"Dedicated","server_os":"Linux","password":true,"vac":true,"version":"7757534","steam_id":85568392924470002,"keywords":["nocrits","nodmgspread","payload","uncletopia"],"game_id":440,"stv_port":27026,"stv_name":"Uncletopia | Sydney | 2 | All Maps | STV","players":[{"user_id":264,"name":"dinxie","steam_id":76561199448765541,"connected_time":943000000000,"state":"active","ping":71},{"user_id":265,"name":"hive","steam_id":76561199099744527,"connected_time":839000000000,"state":"active","ping":46},{"user_id":231,"name":"Dr Barry Mundy PhD","steam_id":76561198034512686,"connected_time":2714000000000,"state":"active","ping":45},{"user_id":245,"name":"in the balls","steam_id":76561199084857134,"connected_time":2304000000000,"state":"active","ping":59},{"user_id":284,"name":"FyreFeat","steam_id":76561198068428930,"connected_time":244000000000,"state":"active","ping":54},{"user_id":266,"name":"ylloriza1267","steam_id":76561198992500258,"connected_time":836000000000,"state":"active","ping":43},{"user_id":271,"name":"Q","steam_id":76561198055600105,"connected_time":731000000000,"state":"active","ping":70},{"user_id":283,"name":"dodsy19","steam_id":76561198062538247,"connected_time":312000000000,"state":"active","ping":55},{"user_id":277,"name":"JayTheLlamaKing","steam_id":76561198836354249,"connected_time":558000000000,"state":"active","ping":70},{"user_id":260,"name":"heavenlyhell","steam_id":76561198838615070,"connected_time":1229000000000,"state":"active","ping":50},{"user_id":270,"name":"yoga","steam_id":76561199163801558,"connected_time":777000000000,"state":"active","ping":42},{"user_id":276,"name":"scout tf2","steam_id":76561198251386932,"connected_time":616000000000,"state":"active","ping":70},{"user_id":285,"name":"Pew pew pew!","steam_id":76561198004120277,"connected_time":197000000000,"state":"active","ping":39},{"user_id":257,"name":"Succulent Vino","steam_id":76561198060290608,"connected_time":1725000000000,"state":"active","ping":71},{"user_id":278,"name":"Glockenspe (She/Her)","steam_id":76561199184115241,"connected_time":538000000000,"state":"active","ping":55},{"user_id":286,"name":"gimmick","steam_id":76561198449368846,"connected_time":12000000000,"state":"spawning","ping":76},{"user_id":236,"name":"Branko","steam_id":76561199262196710,"connected_time":2519000000000,"state":"active","ping":33},{"user_id":243,"name":"MrBoysenBerryJam","steam_id":76561198073085657,"connected_time":2364000000000,"state":"active","ping":87},{"user_id":280,"name":"a loaf of bread","steam_id":76561198206424961,"connected_time":401000000000,"state":"active","ping":67},{"user_id":258,"name":"shaggy","steam_id":76561198124366634,"connected_time":1689000000000,"state":"active","ping":59},{"user_id":281,"name":"wombraider","steam_id":76561199375834537,"connected_time":387000000000,"state":"active","ping":127},{"user_id":251,"name":"york","steam_id":76561197996817216,"connected_time":2114000000000,"state":"active","ping":59},{"user_id":282,"name":"Hawk","steam_id":76561198135164277,"connected_time":361000000000,"state":"active","ping":52},{"user_id":248,"name":"Mouse Balls","steam_id":76561199037470627,"connected_time":2278000000000,"state":"active","ping":110}]},{"server_id":395,"name":"Uncletopia | Sydney | 3 | All Maps","name_short":"syd-3","host":"syd-1.au.uncletopia.com","port":27035,"enabled":true,"region":"au","cc":"au","latitude":-33.865143,"longitude":151.2099,"reserved":0,"last_update":"0001-01-01T00:00:00Z","name_a2s":"Uncletopia | Sydney | 3 | All Maps","protocol":17,"map":"cp_snakewater_final1","folder":"tf","game":"Team Fortress","app_id":440,"player_count":0,"max_players":24,"Bots":0,"server_type":"Dedicated","server_os":"Linux","password":true,"vac":true,"version":"7757534","steam_id":85568392925194467,"keywords":["cp","nocrits","nodmgspread","uncletopia"],"game_id":440,"stv_port":27036,"stv_name":"Uncletopia | Sydney | 3 | All Maps | STV","players":null},{"server_id":396,"name":"Uncletopia | Sydney | 4 | All Maps","name_short":"syd-4","host":"syd-1.au.uncletopia.com","port":27045,"enabled":true,"region":"au","cc":"au","latitude":-33.865143,"longitude":151.2099,"reserved":0,"last_update":"0001-01-01T00:00:00Z","name_a2s":"Uncletopia | Sydney | 4 | All Maps","protocol":17,"map":"cp_altitude","folder":"tf","game":"Team Fortress","app_id":440,"player_count":0,"max_players":24,"Bots":0,"server_type":"Dedicated","server_os":"Linux","password":true,"vac":true,"version":"7757534","steam_id":85568392925397958,"keywords":["cp","nocrits","nodmgspread","uncletopia"],"game_id":440,"stv_port":27046,"stv_name":"Uncletopia | Sydney | 4 | All Maps | STV","players":null},{"server_id":58,"name":"Uncletopia | Sydney | 5 | Stopwatch Beta","name_short":"syd-5","host":"syd-1.au.uncletopia.com","port":27055,"enabled":true,"region":"au","cc":"au","latitude":-33.865143,"longitude":151.2099,"reserved":0,"last_update":"0001-01-01T00:00:00Z","name_a2s":"Uncletopia | Sydney | 5 | Stopwatch Beta","protocol":17,"map":"workshop/koth_ashville_final.ugc2130459942","folder":"tf","game":"Team Fortress","app_id":440,"player_count":0,"max_players":24,"Bots":0,"server_type":"Dedicated","server_os":"Linux","password":true,"vac":true,"version":"7757534","steam_id":85568392925397959,"keywords":["cp","nocrits","nodmgspread","uncletopia"],"game_id":440,"stv_port":27056,"stv_name":"Uncletopia | Sydney | 5 | Stopwatch Beta | STV","players":null},{"server_id":59,"name":"Uncletopia | Sydney | 6 | Community","name_short":"syd-6","host":"syd-1.au.uncletopia.com","port":27065,"enabled":true,"region":"au","cc":"au","latitude":-33.865143,"longitude":151.2099,"reserved":0,"last_update":"0001-01-01T00:00:00Z","name_a2s":"Uncletopia | Sydney | 6 | Community","protocol":17,"map":"workshop/koth_slaughter_rc1.ugc1712845210","folder":"tf","game":"Team Fortress","app_id":440,"player_count":0,"max_players":24,"Bots":0,"server_type":"Dedicated","server_os":"Linux","password":true,"vac":true,"version":"7757534","steam_id":85568392925397960,"keywords":["cp","nocrits","nodmgspread","uncletopia"],"game_id":440,"stv_port":27066,"stv_name":"Uncletopia | Sydney | 6 | Community | STV","players":null},{"server_id":49,"name":"Uncletopia | Warsaw | 1 | All Maps","name_short":"waw-1","host":"waw-1.pl.uncletopia.com","port":27015,"enabled":true,"region":"eu","cc":"pl","latitude":52.2297,"longitude":21.017532,"reserved":0,"last_update":"0001-01-01T00:00:00Z","name_a2s":"","protocol":0,"map":"","folder":"","game":"","app_id":0,"player_count":0,"max_players":0,"Bots":0,"server_type":"","server_os":"","password":false,"vac":false,"version":"","steam_id":0,"keywords":null,"game_id":0,"stv_port":0,"stv_name":"","players":null},{"server_id":50,"name":"Uncletopia | Warsaw | 2 | All Maps","name_short":"waw-2","host":"waw-1.pl.uncletopia.com","port":27025,"enabled":true,"region":"eu","cc":"pl","latitude":52.2297,"longitude":21.017532,"reserved":0,"last_update":"0001-01-01T00:00:00Z","name_a2s":"Uncletopia | Warsaw | 2 | All Maps","protocol":17,"map":"cp_snakewater_final1","folder":"tf","game":"Team Fortress","app_id":440,"player_count":0,"max_players":24,"Bots":0,"server_type":"Dedicated","server_os":"Linux","password":true,"vac":true,"version":"7757534","steam_id":85568392925397851,"keywords":["cp","nocrits","nodmgspread","uncletopia"],"game_id":440,"stv_port":27026,"stv_name":"Uncletopia | Warsaw | 2 | All Maps | STV","players":null},{"server_id":51,"name":"Uncletopia | Warsaw | 3 | All Maps","name_short":"waw-3","host":"waw-1.pl.uncletopia.com","port":27035,"enabled":true,"region":"eu","cc":"pl","latitude":52.2297,"longitude":21.017532,"reserved":0,"last_update":"0001-01-01T00:00:00Z","name_a2s":"Uncletopia | Warsaw | 3 | All Maps","protocol":17,"map":"pl_swiftwater_final1","folder":"tf","game":"Team Fortress","app_id":440,"player_count":0,"max_players":24,"Bots":0,"server_type":"Dedicated","server_os":"Linux","password":true,"vac":true,"version":"7757534","steam_id":85568392925397852,"keywords":["nocrits","nodmgspread","payload","uncletopia"],"game_id":440,"stv_port":27036,"stv_name":"Uncletopia | Warsaw | 3 | All Maps | STV","players":null},{"server_id":52,"name":"Uncletopia | Warsaw | 4 | All Maps","name_short":"waw-4","host":"waw-1.pl.uncletopia.com","port":27045,"enabled":true,"region":"eu","cc":"pl","latitude":52.2297,"longitude":21.017532,"reserved":0,"last_update":"0001-01-01T00:00:00Z","name_a2s":"Uncletopia | Warsaw | 4 | All Maps","protocol":17,"map":"pl_borneo","folder":"tf","game":"Team Fortress","app_id":440,"player_count":0,"max_players":24,"Bots":0,"server_type":"Dedicated","server_os":"Linux","password":true,"vac":true,"version":"7757534","steam_id":85568392925397853,"keywords":["nocrits","nodmgspread","payload","uncletopia"],"game_id":440,"stv_port":27046,"stv_name":"Uncletopia | Warsaw | 4 | All Maps | STV","players":null},{"server_id":53,"name":"Uncletopia | Warsaw | 5 | Stopwatch Beta","name_short":"waw-5","host":"waw-1.pl.uncletopia.com","port":27055,"enabled":true,"region":"eu","cc":"pl","latitude":52.2297,"longitude":21.017532,"reserved":0,"last_update":"0001-01-01T00:00:00Z","name_a2s":"Uncletopia | Warsaw | 5 | Stopwatch Beta","protocol":17,"map":"pl_upward","folder":"tf","game":"Team Fortress","app_id":440,"player_count":0,"max_players":24,"Bots":0,"server_type":"Dedicated","server_os":"Linux","password":true,"vac":true,"version":"7757534","steam_id":85568392925397854,"keywords":["nocrits","nodmgspread","payload","uncletopia"],"game_id":440,"stv_port":27056,"stv_name":"Uncletopia | Warsaw | 5 | Stopwatch Beta | STV","players":null},{"server_id":54,"name":"Uncletopia | Warsaw | 6 | Community","name_short":"waw-6","host":"waw-1.pl.uncletopia.com","port":27065,"enabled":true,"region":"eu","cc":"pl","latitude":52.2297,"longitude":21.017532,"reserved":0,"last_update":"0001-01-01T00:00:00Z","name_a2s":"Uncletopia | Warsaw | 6 | Community","protocol":17,"map":"workshop/koth_bagel_rc5.ugc2514036946","folder":"tf","game":"Team Fortress","app_id":440,"player_count":0,"max_players":24,"Bots":0,"server_type":"Dedicated","server_os":"Linux","password":true,"vac":true,"version":"7757534","steam_id":85568392925397856,"keywords":["cp","nocrits","nodmgspread","uncletopia"],"game_id":440,"stv_port":27066,"stv_name":"Uncletopia | Warsaw | 6 | Community | STV","players":null}]}