{"status":true,"message":"","result":[{"server_id":9,"name":"Uncletopia | Atlanta | 1 | All Maps","name_short":"atl-1","host":"atl-1.us.uncletopia.com","port":27015,"enabled":true,"region":"us-east","cc":"us","latitude":33.753746,"longitude":-84.38633,"reserved":0,"last_update":"0001-01-01T00:00:00Z","name_a2s":"Uncletopia | Atlanta | 1 | All Maps","protocol":17,"map":"pl_swiftwater_final1","folder":"tf","game":"Team Fortress","app_id":440,"player_count":24,"max_players":24,"Bots":0,"server_type":"Dedicated","server_os":"Linux","password":true,"vac":true,"version":"7961495","steam_id":85568392924469982,"keywords":["nocrits","nodmgspread","payload","uncletopia"],"game_id":440,"stv_port":27016,"stv_name":"Uncletopia | Atlanta | 1 | All Maps | STV","players":null},{"server_id":104,"name":"Uncletopia | Atlanta | 2 | All Maps","name_short":"atl-2","host":"atl-1.us.uncletopia.com","port":27025,"enabled":true,"region":"us-east","cc":"us","latitude":33.753746,"longitude":-84.38633,"reserved":0,"last_update":"0001-01-01T00:00:00Z","name_a2s":"Uncletopia | Atlanta | 2 | All Maps","protocol":17,"map":"pl_snowycoast","folder":"tf","game":"Team Fortress","app_id":440,"player_count":24,"max_players":24,"Bots":0,"server_type":"Dedicated","server_os":"Linux","password":true,"vac":true,"version":"7961495","steam_id":85568392924469983,"keywords":["nocrits","nodmgspread","payload","uncletopia"],"game_id":440,"stv_port":27026,"stv_name":"Uncletopia | Atlanta | 2 | All Maps | STV","players":null},{"server_id":400,"name":"Uncletopia | Atlanta | 3 | Stopwatch","name_short":"atl-3","host":"atl-1.us.uncletopia.com","port":27035,"enabled":true,"region":"us-east","cc":"us","latitude":33.753746,"longitude":-84.38633,"reserved":0,"last_update":"0001-01-01T00:00:00Z","name_a2s":"Uncletopia | Atlanta | 3 | Stopwatch","protocol":17,"map":"cp_process_final","folder":"tf","game":"Team Fortress","app_id":440,"player_count":0,"max_players":24,"Bots":0,"server_type":"Dedicated","server_os":"Linux","password":true,"vac":true,"version":"7961495","steam_id":85568392924515187,"keywords":["cp","nocrits","nodmgspread","uncletopia"],"game_id":440,"stv_port":27036,"stv_name":"Uncletopia | Atlanta | 3 | Stopwatch | STV","players":null},{"server_id":401,"name":"Uncletopia | Atlanta | 4 | Community","name_short":"atl-4","host":"atl-1.us.uncletopia.com","port":27045,"enabled":true,"region":"us-east","cc":"us","latitude":33.753746,"longitude":-84.38633,"reserved":0,"last_update":"0001-01-01T00:00:00Z","name_a2s":"Uncletopia | Atlanta | 4 | Community","protocol":17,"map":"koth_trenchfoot_b1a","folder":"tf","game":"Team Fortress","app_id":440,"player_count":0,"max_players":24,"Bots":0,"server_type":"Dedicated","server_os":"Linux","password":true,"vac":true,"version":"7961495","steam_id":85568392924515188,"keywords":["cp","nocrits","nodmgspread","uncletopia"],"game_id":440,"stv_port":27046,"stv_name":"Uncletopia | Atlanta | 4 | Community | STV","players":null},{"server_id":2,"name":"Uncletopia | Chicago | 1 | All Maps","name_short":"chi-1","host":"chi-1.us.uncletopia.com","port":27015,"enabled":true,"region":"us-central","cc":"us","latitude":41.881832,"longitude":-87.62318,"reserved":0,"last_update":"0001-01-01T00:00:00Z","name_a2s":"Uncletopia | Chicago | 1 | All Maps","protocol":17,"map":"pl_badwater","folder":"tf","game":"Team Fortress","app_id":440,"player_count":24,"max_players":24,"Bots":0,"server_type":"Dedicated","server_os":"Linux","password":true,"vac":true,"version":"7961495","steam_id":85568392924469984,"keywords":["nocrits","nodmgspread","payload","uncletopia"],"game_id":440,"stv_port":27016,"stv_name":"Uncletopia | Chicago | 1 | All Maps | STV","players":[{"user_id":308,"name":"Mirai Asamii","steam_id":76561198272673386,"connected_time":1014000000000,"state":"active","ping":107},{"user_id":195,"name":"eekum bokum","steam_id":76561198157266273,"connected_time":10133000000000,"state":"active","ping":73},{"user_id":304,"name":"lexi","steam_id":76561198176299759,"connected_time":1391000000000,"state":"active","ping":79},{"user_id":292,"name":"LikeASir","steam_id":76561198042209721,"connected_time":1841000000000,"state":"active","ping":45},{"user_id":294,"name":"Lost","steam_id":76561198025933206,"connected_time":1790000000000,"state":"active","ping":60},{"user_id":306,"name":"Kid named download","steam_id":76561199192074448,"connected_time":1103000000000,"state":"active","ping":74},{"user_id":307,"name":"Indigolake","steam_id":76561198202215807,"connected_time":1084000000000,"state":"active","ping":78},{"user_id":312,"name":"gary","steam_id":76561198140226890,"connected_time":385000000000,"state":"active","ping":64},{"user_id":310,"name":"trainmarine -bt","steam_id":76561198341784551,"connected_time":401000000000,"state":"active","ping":59},{"user_id":295,"name":"imng","steam_id":76561198014988031,"connected_time":1780000000000,"state":"active","ping":72},{"user_id":302,"name":"Өchpochmak","steam_id":76561198434212101,"connected_time":1553000000000,"state":"active","ping":87},{"user_id":289,"name":"Milkmur","steam_id":76561198210043821,"connected_time":1850000000000,"state":"active","ping":74},{"user_id":309,"name":"Cy4nideCutie","steam_id":76561198126686695,"connected_time":557000000000,"state":"active","ping":52},{"user_id":257,"name":"PKBEAST_7","steam_id":76561198177136537,"connected_time":5652000000000,"state":"active","ping":88},{"user_id":240,"name":"skrt","steam_id":76561198233984300,"connected_time":6702000000000,"state":"active","ping":45},{"user_id":311,"name":"tulpa","steam_id":76561198013253513,"connected_time":398000000000,"state":"active","ping":80},{"user_id":316,"name":"g.","steam_id":76561197981404672,"connected_time":74000000000,"state":"active","ping":75},{"user_id":314,"name":"Gotta Move That Gear Up","steam_id":76561197993467034,"connected_time":380000000000,"state":"active","ping":47},{"user_id":285,"name":"Toxapex","steam_id":76561198341537452,"connected_time":2677000000000,"state":"active","ping":70},{"user_id":245,"name":"real evidence of goblins","steam_id":76561198119536224,"connected_time":6405000000000,"state":"active","ping":104},{"user_id":315,"name":"Mack","steam_id":76561198089361823,"connected_time":373000000000,"state":"active","ping":120},{"user_id":317,"name":"Julio","steam_id":76561198272237516,"connected_time":55000000000,"state":"active","ping":68},{"user_id":263,"name":"Kaluka","steam_id":76561198036861445,"connected_time":5498000000000,"state":"active","ping":71},{"user_id":287,"name":"Architect","steam_id":76561198015242016,"connected_time":2246000000000,"state":"active","ping":70}]},{"server_id":106,"name":"Uncletopia | Chicago | 2 | All Maps","name_short":"chi-2","host":"chi-1.us.uncletopia.com","port":27025,"enabled":true,"region":"us-central","cc":"us","latitude":41.881832,"longitude":-87.62318,"reserved":0,"last_update":"0001-01-01T00:00:00Z","name_a2s":"Uncletopia | Chicago | 2 | All Maps","protocol":17,"map":"koth_viaduct","folder":"tf","game":"Team Fortress","app_id":440,"player_count":1,"max_players":24,"Bots":0,"server_type":"Dedicated","server_os":"Linux","password":true,"vac":true,"version":"7961495","steam_id":85568392924469985,"keywords":["cp","nocrits","nodmgspread","uncletopia"],"game_id":440,"stv_port":27026,"stv_name":"Uncletopia | Chicago | 2 | All Maps | STV","players":[{"user_id":17,"name":"so really cool","steam_id":76561198804598184,"connected_time":403000000000,"state":"active","ping":82}]},{"server_id":402,"name":"Uncletopia | Chicago | 3 | All Maps","name_short":"chi-3","host":"chi-1.us.uncletopia.com","port":27035,"enabled":true,"region":"us-central","cc":"us","latitude":41.881832,"longitude":-87.62318,"reserved":0,"last_update":"0001-01-01T00:00:00Z","name_a2s":"Uncletopia | Chicago | 3 | All Maps","protocol":17,"map":"pl_upward","folder":"tf","game":"Team Fortress","app_id":440,"player_count":24,"max_players":24,"Bots":0,"server_type":"Dedicated","server_os":"Linux","password":true,"vac":true,"version":"7961495","steam_id":85568392924515191,"keywords":["nocrits","nodmgspread","payload","uncletopia"],"game_id":440,"stv_port":27036,"stv_name":"Uncletopia | Chicago | 3 | All Maps | STV","players":[{"user_id":195,"name":"A Puppy","steam_id":76561198828184456,"connected_time":2386000000000,"state":"active","ping":58},{"user_id":215,"name":"Smokey Ian","steam_id":76561199128786637,"connected_time":736000000000,"state":"active","ping":97},{"user_id":199,"name":"silly","steam_id":76561199009200975,"connected_time":1934000000000,"state":"active","ping":90},{"user_id":177,"name":"TheOneZoot","steam_id":76561198121944243,"connected_time":3241000000000,"state":"active","ping":80},{"user_id":221,"name":"Windup Monkey in a Human Suit","steam_id":76561198119501444,"connected_time":396000000000,"state":"active","ping":107},{"user_id":203,"name":"BestAvgGamer","steam_id":76561198209871075,"connected_time":1884000000000,"state":"active","ping":80},{"user_id":210,"name":"Mae","steam_id":76561198085815757,"connected_time":1285000000000,"state":"active","ping":67},{"user_id":158,"name":"pimbo jingus","steam_id":76561198275343583,"connected_time":4918000000000,"state":"active","ping":45},{"user_id":198,"name":"Icaras","steam_id":76561198416724843,"connected_time":2076000000000,"state":"active","ping":135},{"user_id":222,"name":"HOTA","steam_id":76561199002778841,"connected_time":229000000000,"state":"active","ping":73},{"user_id":194,"name":"destiny 2 the witch queen delux","steam_id":76561198249206656,"connected_time":2532000000000,"state":"active","ping":65},{"user_id":196,"name":"Slob and Sup","steam_id":76561198123441203,"connected_time":2348000000000,"state":"active","ping":92},{"user_id":181,"name":"Rated_C","steam_id":76561199226478414,"connected_time":3212000000000,"state":"active","ping":106},{"user_id":218,"name":"SLEEPY-Class NHP","steam_id":76561198064583865,"connected_time":687000000000,"state":"active","ping":69},{"user_id":204,"name":"4OH2 Jack","steam_id":76561198240702298,"connected_time":1878000000000,"state":"active","ping":89},{"user_id":211,"name":"Philo","steam_id":76561198061873341,"connected_time":984000000000,"state":"active","ping":92},{"user_id":219,"name":"FizzleWizard","steam_id":76561198045990868,"connected_time":682000000000,"state":"active","ping":70},{"user_id":213,"name":"AkimboAoki","steam_id":76561198158323058,"connected_time":755000000000,"state":"active","ping":99},{"user_id":214,"name":"ok","steam_id":76561199487373269,"connected_time":755000000000,"state":"active","ping":70},{"user_id":212,"name":"NukaTheRabbit {Fur}","steam_id":76561198058692928,"connected_time":811000000000,"state":"active","ping":59},{"user_id":220,"name":"creeber guy","steam_id":76561198392539722,"connected_time":674000000000,"state":"active","ping":84},{"user_id":185,"name":"Sup m8","steam_id":76561198081659121,"connected_time":3190000000000,"state":"active","ping":63},{"user_id":186,"name":"Autumn, The Only Good Season","steam_id":76561198103496593,"connected_time":3157000000000,"state":"active","ping":62},{"user_id":209,"name":"Lia_Rein","steam_id":76561198151569597,"connected_time":1626000000000,"state":"active","ping":148}]},{"server_id":403,"name":"Uncletopia | Chicago | 4 | All Maps","name_short":"chi-4","host":"chi-1.us.uncletopia.com","port":27045,"enabled":true,"region":"us-central","cc":"us","latitude":41.881832,"longitude":-87.62318,"reserved":0,"last_update":"0001-01-01T00:00:00Z","name_a2s":"Uncletopia | Chicago | 4 | All Maps","protocol":17,"map":"pl_upward","folder":"tf","game":"Team Fortress","app_id":440,"player_count":24,"max_players":24,"Bots":0,"server_type":"Dedicated","server_os":"Linux","password":true,"vac":true,"version":"7961495","steam_id":85568392924515193,"keywords":["nocrits","nodmgspread","payload","uncletopia"],"game_id":440,"stv_port":27046,"stv_name":"Uncletopia | Chicago | 4 | All Maps | STV","players":[{"user_id":433,"name":"Lightish Red","steam_id":76561198060879701,"connected_time":596000000000,"state":"active","ping":46},{"user_id":416,"name":"saph","steam_id":76561198982059630,"connected_time":1299000000000,"state":"active","ping":67},{"user_id":426,"name":"maxie!","steam_id":76561197962607364,"connected_time":960000000000,"state":"active","ping":66},{"user_id":411,"name":"Cheeseburger","steam_id":76561198044131927,"connected_time":1579000000000,"state":"active","ping":60},{"user_id":386,"name":"StudioMania (#SAVETF2)","steam_id":76561198211315795,"connected_time":3620000000000,"state":"active","ping":66},{"user_id":429,"name":"Huhwhatname","steam_id":76561198347590696,"connected_time":841000000000,"state":"active","ping":71},{"user_id":420,"name":"kris736","steam_id":76561198038208255,"connected_time":1140000000000,"state":"active","ping":60},{"user_id":428,"name":"Jeiyo","steam_id":76561199070161957,"connected_time":873000000000,"state":"active","ping":74},{"user_id":412,"name":"Cheese4Everyone","steam_id":76561198022333985,"connected_time":1578000000000,"state":"active","ping":75},{"user_id":406,"name":"Dragus","steam_id":76561198032967285,"connected_time":2043000000000,"state":"active","ping":54},{"user_id":368,"name":"::INVEST IN SKYNET::","steam_id":76561198144436132,"connected_time":4917000000000,"state":"active","ping":81},{"user_id":422,"name":"cart","steam_id":76561198253731826,"connected_time":1087000000000,"state":"active","ping":59},{"user_id":399,"name":"jstn","steam_id":76561198845283665,"connected_time":3202000000000,"state":"active","ping":70},{"user_id":410,"name":"bunsy","steam_id":76561198097292857,"connected_time":1594000000000,"state":"active","ping":77},{"user_id":436,"name":"Rodgedan","steam_id":76561198226236524,"connected_time":269000000000,"state":"active","ping":84},{"user_id":437,"name":"Captain Malarkey","steam_id":76561198869924281,"connected_time":268000000000,"state":"active","ping":54},{"user_id":430,"name":"QuakAtack","steam_id":76561198870770157,"connected_time":834000000000,"state":"active","ping":82},{"user_id":414,"name":"Low Health Lemming","steam_id":76561198866881376,"connected_time":1568000000000,"state":"active","ping":71},{"user_id":403,"name":"simplyhere141","steam_id":76561199204117948,"connected_time":2456000000000,"state":"active","ping":60},{"user_id":405,"name":"the archmage","steam_id":76561198380018244,"connected_time":2077000000000,"state":"active","ping":75},{"user_id":419,"name":"TheSnipersHat","steam_id":76561198057684066,"connected_time":1170000000000,"state":"active","ping":47},{"user_id":400,"name":"Fatpoob","steam_id":76561198056730096,"connected_time":3194000000000,"state":"active","ping":46},{"user_id":425,"name":"Hurb","steam_id":76561198746677086,"connected_time":1059000000000,"state":"active","ping":76},{"user_id":409,"name":"ole_diggy","steam_id":76561198970212746,"connected_time":1973000000000,"state":"active","ping":69}]},{"server_id":36,"name":"Uncletopia | Chicago | 5 | All Maps","name_short":"chi-5","host":"chi-2.us.uncletopia.com","port":27015,"enabled":true,"region":"us-central","cc":"us","latitude":41.881832,"longitude":-87.62318,"reserved":0,"last_update":"0001-01-01T00:00:00Z","name_a2s":"Uncletopia | Chicago | 5 | All Maps","protocol":17,"map":"koth_viaduct","folder":"tf","game":"Team Fortress","app_id":440,"player_count":0,"max_players":24,"Bots":0,"server_type":"Dedicated","server_os":"Linux","password":true,"vac":true,"version":"7961495","steam_id":85568392924866362,"keywords":["cp","nocrits","nodmgspread","uncletopia"],"game_id":440,"stv_port":27016,"stv_name":"Uncletopia | Chicago | 5 | All Maps | STV","players":null},{"server_id":37,"name":"Uncletopia | Chicago | 6 | All Maps","name_short":"chi-6","host":"chi-2.us.uncletopia.com","port":27025,"enabled":true,"region":"us-central","cc":"us","latitude":41.881832,"longitude":-87.62318,"reserved":0,"last_update":"0001-01-01T00:00:00Z","name_a2s":"Uncletopia | Chicago | 6 | All Maps","protocol":17,"map":"pl_frontier_final","folder":"tf","game":"Team Fortress","app_id":440,"player_count":0,"max_players":24,"Bots":0,"server_type":"Dedicated","server_os":"Linux","password":true,"vac":true,"version":"7961495","steam_id":85568392924866363,"keywords":["nocrits","nodmgspread","payload","uncletopia"],"game_id":440,"stv_port":27026,"stv_name":"Uncletopia | Chicago | 6 | All Maps | STV","players":null},{"server_id":38,"name":"Uncletopia | Chicago | 7 | Stopwatch","name_short":"chi-7","host":"chi-2.us.uncletopia.com","port":27035,"enabled":true,"region":"us-central","cc":"us","latitude":41.881832,"longitude":-87.62318,"reserved":0,"last_update":"0001-01-01T00:00:00Z","name_a2s":"Uncletopia | Chicago | 7 | Stopwatch","protocol":17,"map":"pl_badwater","folder":"tf","game":"Team Fortress","app_id":440,"player_count":0,"max_players":24,"Bots":0,"server_type":"Dedicated","server_os":"Linux","password":true,"vac":true,"version":"7961495","steam_id":85568392924866364,"keywords":["nocrits","nodmgspread","payload","uncletopia"],"game_id":440,"stv_port":27036,"stv_name":"Uncletopia | Chicago | 7 | Stopwatch | STV","players":null},{"server_id":39,"name":"Uncletopia | Chicago | 8 | Community","name_short":"chi-8","host":"chi-2.us.uncletopia.com","port":27045,"enabled":true,"region":"us-central","cc":"us","latitude":41.881832,"longitude":-87.62318,"reserved":0,"last_update":"0001-01-01T00:00:00Z","name_a2s":"Uncletopia | Chicago | 8 | Community","protocol":17,"map":"pl_pier","folder":"tf","game":"Team Fortress","app_id":440,"player_count":24,"max_players":24,"Bots":0,"server_type":"Dedicated","server_os":"Linux","password":true,"vac":true,"version":"7961495","steam_id":85568392924866365,"keywords":["nocrits","nodmgspread","payload","uncletopia"],"game_id":440,"stv_port":27046,"stv_name":"Uncletopia | Chicago | 8 | Community | STV","players":[{"user_id":9,"name":"mr_random_mr","steam_id":76561199485678347,"connected_time":2324000000000,"state":"active","ping":62},{"user_id":55,"name":"Sergeant Snowflake","steam_id":76561198041474489,"connected_time":11000000000,"state":"spawning","ping":41},{"user_id":41,"name":"LemonZest","steam_id":76561199196369249,"connected_time":1163000000000,"state":"active","ping":83},{"user_id":42,"name":"Chris Hansen, Kell of Kells","steam_id":76561198986775156,"connected_time":1067000000000,"state":"active","ping":83},{"user_id":17,"name":"Notorious","steam_id":76561198240531476,"connected_time":1839000000000,"state":"active","ping":66},{"user_id":18,"name":"Shuu","steam_id":76561199199180558,"connected_time":1827000000000,"state":"active","ping":50},{"user_id":19,"name":"Scratch","steam_id":76561198001558567,"connected_time":1535000000000,"state":"active","ping":68},{"user_id":20,"name":"Leon","steam_id":76561197987585964,"connected_time":1517000000000,"state":"active","ping":80},{"user_id":53,"name":"Oogle","steam_id":76561198041815877,"connected_time":410000000000,"state":"active","ping":59},{"user_id":22,"name":"Ruthal","steam_id":76561198004393612,"connected_time":1501000000000,"state":"active","ping":86},{"user_id":48,"name":"Hyperactivedimwit","steam_id":76561198134221704,"connected_time":854000000000,"state":"active","ping":49},{"user_id":25,"name":"Berb","steam_id":76561198193911899,"connected_time":1407000000000,"state":"active","ping":102},{"user_id":30,"name":"Jerock Jagoggins","steam_id":76561198055721127,"connected_time":1267000000000,"state":"active","ping":73},{"user_id":32,"name":"Rumlow","steam_id":76561199447870100,"connected_time":1255000000000,"state":"active","ping":62},{"user_id":54,"name":"[chef] iron","steam_id":76561197970888616,"connected_time":31000000000,"state":"active","ping":44},{"user_id":34,"name":"Varie","steam_id":76561199454930210,"connected_time":1220000000000,"state":"active","ping":79},{"user_id":44,"name":"Professional Brohamad","steam_id":76561198824025210,"connected_time":1058000000000,"state":"active","ping":46},{"user_id":45,"name":"DJtrickshot2013","steam_id":76561199184622920,"connected_time":1043000000000,"state":"active","ping":85},{"user_id":50,"name":"Inevitable","steam_id":76561198210050169,"connected_time":713000000000,"state":"active","ping":68},{"user_id":38,"name":"Dirtbike rider","steam_id":76561198030457066,"connected_time":1193000000000,"state":"active","ping":83},{"user_id":49,"name":"Bee","steam_id":76561198074681324,"connected_time":749000000000,"state":"active","ping":76},{"user_id":40,"name":"Auroth the Bookwyrm","steam_id":76561198017476031,"connected_time":1182000000000,"state":"active","ping":67},{"user_id":46,"name":"oomper","steam_id":76561199189982701,"connected_time":1041000000000,"state":"active","ping":56},{"user_id":47,"name":"PlasmaLink","steam_id":76561198008425081,"connected_time":1010000000000,"state":"active","ping":77}]},{"server_id":8,"name":"Uncletopia | Dallas | 1 | All Maps","name_short":"dal-1","host":"dal-1.us.uncletopia.com","port":27015,"enabled":true,"region":"us-central","cc":"us","latitude":32.779167,"longitude":-96.80889,"reserved":0,"last_update":"0001-01-01T00:00:00Z","name_a2s":"Uncletopia | Dallas | 1 | All Maps","protocol":17,"map":"plr_nightfall_final","folder":"tf","game":"Team Fortress","app_id":440,"player_count":24,"max_players":24,"Bots":0,"server_type":"Dedicated","server_os":"Linux","password":true,"vac":true,"version":"7961495","steam_id":85568392924469986,"keywords":["nocrits","nodmgspread","payload","uncletopia"],"game_id":440,"stv_port":27016,"stv_name":"Uncletopia | Dallas | 1 | All Maps | STV","players":[{"user_id":118,"name":"muck","steam_id":76561198120437909,"connected_time":5117000000000,"state":"active","ping":44},{"user_id":197,"name":"Epifiny","steam_id":76561198027958086,"connected_time":1206000000000,"state":"active","ping":91},{"user_id":138,"name":"HeroOfTime","steam_id":76561199096218001,"connected_time":3218000000000,"state":"active","ping":106},{"user_id":136,"name":"Phantom Thief","steam_id":76561198254482947,"connected_time":3245000000000,"state":"active","ping":105},{"user_id":196,"name":"Salt","steam_id":76561198418001135,"connected_time":1241000000000,"state":"active","ping":67},{"user_id":239,"name":"shrimpy dimpy","steam_id":76561198367735460,"connected_time":326000000000,"state":"active","ping":50},{"user_id":176,"name":"sobaka","steam_id":76561198116008934,"connected_time":1997000000000,"state":"active","ping":102},{"user_id":259,"name":"Look at me Hector","steam_id":76561198089414077,"connected_time":7000000000,"state":"active","ping":126},{"user_id":252,"name":"ChebJeb","steam_id":76561198981377081,"connected_time":121000000000,"state":"active","ping":101},{"user_id":248,"name":"flippercurve","steam_id":76561199238295034,"connected_time":163000000000,"state":"active","ping":73},{"user_id":219,"name":"Dreszerg","steam_id":76561198838757422,"connected_time":709000000000,"state":"active","ping":82},{"user_id":200,"name":"IchigoDolphin","steam_id":76561198319769482,"connected_time":1120000000000,"state":"active","ping":50},{"user_id":201,"name":"motherofdragons96","steam_id":76561198864779097,"connected_time":1091000000000,"state":"active","ping":112},{"user_id":101,"name":"Úntermensch","steam_id":76561198149634242,"connected_time":5754000000000,"state":"active","ping":92},{"user_id":98,"name":"Crack Addict","steam_id":76561198166681494,"connected_time":6166000000000,"state":"active","ping":55},{"user_id":249,"name":"Schlebecke","steam_id":76561199044752122,"connected_time":139000000000,"state":"active","ping":74},{"user_id":199,"name":"ebbaxter13","steam_id":76561198839647688,"connected_time":1153000000000,"state":"active","ping":133},{"user_id":215,"name":"SgtCheeseThe2nd","steam_id":76561198363687592,"connected_time":801000000000,"state":"active","ping":45},{"user_id":255,"name":"SmokeyGalaxy","steam_id":76561198118780516,"connected_time":65000000000,"state":"spawning","ping":56},{"user_id":228,"name":"floppy muppet","steam_id":76561198003076261,"connected_time":525000000000,"state":"active","ping":90},{"user_id":223,"name":"marty","steam_id":76561198032782746,"connected_time":650000000000,"state":"active","ping":89},{"user_id":245,"name":"Maywolf","steam_id":76561199047166336,"connected_time":253000000000,"state":"active","ping":96},{"user_id":144,"name":"Paul Badman","steam_id":76561198965289206,"connected_time":3108000000000,"state":"active","ping":135},{"user_id":204,"name":"dicksnip","steam_id":76561198356515396,"connected_time":1067000000000,"state":"active","ping":56}]},{"server_id":108,"name":"Uncletopia | Dallas | 2 | All Maps","name_short":"dal-2","host":"dal-1.us.uncletopia.com","port":27025,"enabled":true,"region":"us-central","cc":"us","latitude":32.779167,"longitude":-96.80889,"reserved":0,"last_update":"0001-01-01T00:00:00Z","name_a2s":"Uncletopia | Dallas | 2 | All Maps","protocol":17,"map":"pl_badwater","folder":"tf","game":"Team Fortress","app_id":440,"player_count":24,"max_players":24,"Bots":0,"server_type":"Dedicated","server_os":"Linux","password":true,"vac":true,"version":"7961495","steam_id":85568392924469988,"keywords":["nocrits","nodmgspread","payload","uncletopia"],"game_id":440,"stv_port":27026,"stv_name":"Uncletopia | Dallas | 2 | All Maps | STV","players":[{"user_id":205,"name":"Rob","steam_id":76561199187786660,"connected_time":5543000000000,"state":"active","ping":56},{"user_id":277,"name":"GlizzLord","steam_id":76561198321010427,"connected_time":1187000000000,"state":"active","ping":115},{"user_id":241,"name":"HUESO","steam_id":76561198276383681,"connected_time":3023000000000,"state":"active","ping":78},{"user_id":266,"name":"allahsdroptop","steam_id":76561198133195238,"connected_time":1732000000000,"state":"active","ping":101},{"user_id":268,"name":"cringeass nae-nae girl","steam_id":76561198108753857,"connected_time":1417000000000,"state":"active","ping":86},{"user_id":262,"name":"Junshiii","steam_id":76561198153511831,"connected_time":2253000000000,"state":"active","ping":75},{"user_id":269,"name":"grand piano tuna","steam_id":76561198135137213,"connected_time":1385000000000,"state":"active","ping":50},{"user_id":282,"name":"Chilis 2 for 20","steam_id":76561198121544531,"connected_time":83000000000,"state":"active","ping":75},{"user_id":270,"name":"catfish from toontown","steam_id":76561198060070002,"connected_time":1380000000000,"state":"active","ping":62},{"user_id":271,"name":"Pixelated Pussy","steam_id":76561198002511088,"connected_time":1378000000000,"state":"active","ping":116},{"user_id":238,"name":"heroine(real)","steam_id":76561199026721822,"connected_time":3553000000000,"state":"active","ping":103},{"user_id":284,"name":"Zesty Zucchini Ziti","steam_id":76561198092494136,"connected_time":3000000000,"state":"spawning","ping":44},{"user_id":248,"name":"Medic GF","steam_id":76561198400531556,"connected_time":2766000000000,"state":"active","ping":77},{"user_id":278,"name":"Love, Cam","steam_id":76561198139174433,"connected_time":1040000000000,"state":"active","ping":108},{"user_id":279,"name":"BIG LION","steam_id":76561198091880358,"connected_time":903000000000,"state":"active","ping":70},{"user_id":276,"name":"moe","steam_id":76561198929586245,"connected_time":1225000000000,"state":"active","ping":70},{"user_id":285,"name":"-=Bits=-Dinkleberg","steam_id":76561198080367616,"connected_time":2000000000,"state":"spawning","ping":41},{"user_id":255,"name":"Will5550","steam_id":76561198273838135,"connected_time":2552000000000,"state":"active","ping":51},{"user_id":217,"name":"Frebresio","steam_id":76561198353493333,"connected_time":5188000000000,"state":"active","ping":99},{"user_id":274,"name":"Maxmind24","steam_id":76561198859888778,"connected_time":1331000000000,"state":"active","ping":141},{"user_id":280,"name":"Dutch","steam_id":76561198040969743,"connected_time":532000000000,"state":"active","ping":74},{"user_id":283,"name":"tools","steam_id":76561199010542612,"connected_time":58000000000,"state":"active","ping":74},{"user_id":261,"name":"plink","steam_id":76561198057829889,"connected_time":2406000000000,"state":"active","ping":56},{"user_id":275,"name":"Dirt Road","steam_id":76561198210372012,"connected_time":1322000000000,"state":"active","ping":97}]},{"server_id":404,"name":"Uncletopia | Dallas | 3 | All Maps","name_short":"dal-3","host":"dal-1.us.uncletopia.com","port":27035,"enabled":true,"region":"us-central","cc":"us","latitude":32.779167,"longitude":-96.80889,"reserved":0,"last_update":"0001-01-01T00:00:00Z","name_a2s":"Uncletopia | Dallas | 3 | All Maps","protocol":17,"map":"pl_barnblitz","folder":"tf","game":"Team Fortress","app_id":440,"player_count":0,"max_players":24,"Bots":0,"server_type":"Dedicated","server_os":"Linux","password":true,"vac":true,"version":"7961495","steam_id":85568392924515219,"keywords":["nocrits","nodmgspread","payload","uncletopia"],"game_id":440,"stv_port":27036,"stv_name":"Uncletopia | Dallas | 3 | All Maps | STV","players":null},{"server_id":405,"name":"Uncletopia | Dallas | 4 | Community","name_short":"dal-4","host":"dal-1.us.uncletopia.com","port":27045,"enabled":true,"region":"us-central","cc":"us","latitude":32.779167,"longitude":-96.80889,"reserved":0,"last_update":"0001-01-01T00:00:00Z","name_a2s":"Uncletopia | Dallas | 4 | Community","protocol":17,"map":"workshop/cp_mannbase_rc2a.ugc1900737467","folder":"tf","game":"Team Fortress","app_id":440,"player_count":0,"max_players":24,"Bots":0,"server_type":"Dedicated","server_os":"Linux","password":true,"vac":true,"version":"7961495","steam_id":85568392924515220,"keywords":["cp","nocrits","nodmgspread","uncletopia"],"game_id":440,"stv_port":27046,"stv_name":"Uncletopia | Dallas | 4 | Community | STV","players":null},{"server_id":5,"name":"Uncletopia | Frankfurt | 1 | All Maps","name_short":"frk-1","host":"frk-1.de.uncletopia.com","port":27015,"enabled":true,"region":"eu","cc":"de","latitude":50.110924,"longitude":8.682127,"reserved":0,"last_update":"0001-01-01T00:00:00Z","name_a2s":"Uncletopia | Frankfurt | 1 | All Maps","protocol":17,"map":"pl_upward","folder":"tf","game":"Team Fortress","app_id":440,"player_count":24,"max_players":24,"Bots":0,"server_type":"Dedicated","server_os":"Linux","password":true,"vac":true,"version":"7961495","steam_id":85568392924469989,"keywords":["nocrits","nodmgspread","payload","uncletopia"],"game_id":440,"stv_port":27016,"stv_name":"Uncletopia | Frankfurt | 1 | All Maps | STV","players":[{"user_id":699,"name":"cat","steam_id":76561198832231975,"connected_time":447000000000,"state":"active","ping":78},{"user_id":700,"name":"ThatKetos","steam_id":76561198989682540,"connected_time":446000000000,"state":"active","ping":45},{"user_id":706,"name":"EχSpecula","steam_id":76561198040669766,"connected_time":357000000000,"state":"active","ping":104},{"user_id":610,"name":"Richard_HUN","steam_id":76561198299050967,"connected_time":7240000000000,"state":"active","ping":90},{"user_id":701,"name":"lord-carlos","steam_id":76561198025150761,"connected_time":439000000000,"state":"active","ping":52},{"user_id":690,"name":"󠀡󠀡 󠀡Lazerkuken","steam_id":76561198102048004,"connected_time":764000000000,"state":"active","ping":73},{"user_id":707,"name":"cargo_conductor_754","steam_id":76561198165604007,"connected_time":355000000000,"state":"active","ping":58},{"user_id":711,"name":"Egtu","steam_id":76561198013757235,"connected_time":43000000000,"state":"active","ping":65},{"user_id":708,"name":"good christian boy","steam_id":76561199125213263,"connected_time":322000000000,"state":"active","ping":160},{"user_id":646,"name":"Bazooka-Charlie","steam_id":76561198080776269,"connected_time":3939000000000,"state":"active","ping":96},{"user_id":696,"name":"MargoulGetron","steam_id":76561198020551698,"connected_time":577000000000,"state":"active","ping":58},{"user_id":680,"name":"meow (they/them)","steam_id":76561198416657815,"connected_time":969000000000,"state":"active","ping":71},{"user_id":678,"name":"BrownBreadMan","steam_id":76561199092834214,"connected_time":1847000000000,"state":"active","ping":61},{"user_id":698,"name":"ericgoodheart","steam_id":76561198871056612,"connected_time":463000000000,"state":"active","ping":162},{"user_id":702,"name":"Dogii46_","steam_id":76561198798788069,"connected_time":433000000000,"state":"active","ping":45},{"user_id":697,"name":"Gent","steam_id":76561198037167890,"connected_time":564000000000,"state":"active","ping":77},{"user_id":703,"name":"Stefman","steam_id":76561199025104038,"connected_time":432000000000,"state":"active","ping":73},{"user_id":686,"name":"Guardsman Alex","steam_id":76561198000094686,"connected_time":828000000000,"state":"active","ping":74},{"user_id":710,"name":"Chillkroete_109","steam_id":76561199226815479,"connected_time":227000000000,"state":"active","ping":60},{"user_id":687,"name":"engineer drip","steam_id":76561198991032570,"connected_time":827000000000,"state":"active","ping":94},{"user_id":709,"name":"SWAY","steam_id":76561198865753833,"connected_time":247000000000,"state":"active","ping":70},{"user_id":688,"name":"gabi","steam_id":76561198145652139,"connected_time":799000000000,"state":"active","ping":75},{"user_id":691,"name":"wicc","steam_id":76561198893915644,"connected_time":759000000000,"state":"active","ping":71},{"user_id":695,"name":"Fajjson","steam_id":76561199236237192,"connected_time":623000000000,"state":"active","ping":75}]},{"server_id":110,"name":"Uncletopia | Frankfurt | 2 | All Maps","name_short":"frk-2","host":"frk-1.de.uncletopia.com","port":27025,"enabled":true,"region":"eu","cc":"de","latitude":50.110924,"longitude":8.682127,"reserved":0,"last_update":"0001-01-01T00:00:00Z","name_a2s":"Uncletopia | Frankfurt | 2 | All Maps","protocol":17,"map":"pl_thundermountain","folder":"tf","game":"Team Fortress","app_id":440,"player_count":23,"max_players":24,"Bots":0,"server_type":"Dedicated","server_os":"Linux","password":true,"vac":true,"version":"7961495","steam_id":85568392924469990,"keywords":["nocrits","nodmgspread","payload","uncletopia"],"game_id":440,"stv_port":27026,"stv_name":"Uncletopia | Frankfurt | 2 | All Maps | STV","players":[{"user_id":592,"name":"pierogi","steam_id":76561198718760200,"connected_time":459000000000,"state":"active","ping":60},{"user_id":599,"name":"grandpa's post-mortem photo","steam_id":76561198130116078,"connected_time":63000000000,"state":"active","ping":93},{"user_id":576,"name":"gmem","steam_id":76561198070006725,"connected_time":1672000000000,"state":"active","ping":62},{"user_id":582,"name":"F4.exe","steam_id":76561198278822807,"connected_time":912000000000,"state":"active","ping":60},{"user_id":517,"name":"Nugget","steam_id":76561198338916407,"connected_time":5540000000000,"state":"active","ping":74},{"user_id":480,"name":"Medium sized Cunt","steam_id":76561199012566222,"connected_time":8992000000000,"state":"active","ping":58},{"user_id":596,"name":"Nonok","steam_id":76561199480685498,"connected_time":386000000000,"state":"active","ping":63},{"user_id":577,"name":"Jeffacakes","steam_id":76561198280101970,"connected_time":1658000000000,"state":"active","ping":83},{"user_id":509,"name":"Bonca","steam_id":76561198137503531,"connected_time":6336000000000,"state":"active","ping":75},{"user_id":585,"name":"ArcX","steam_id":76561198805049375,"connected_time":642000000000,"state":"active","ping":60},{"user_id":598,"name":"Olufsen","steam_id":76561198009324148,"connected_time":130000000000,"state":"active","ping":101},{"user_id":586,"name":"lurid","steam_id":76561198063159528,"connected_time":634000000000,"state":"active","ping":55},{"user_id":587,"name":"p o o t i s","steam_id":76561198061694077,"connected_time":589000000000,"state":"active","ping":60},{"user_id":588,"name":"MANTARES","steam_id":76561198183949987,"connected_time":560000000000,"state":"active","ping":64},{"user_id":589,"name":"elmstJP ₪ F4.exe","steam_id":76561197997909480,"connected_time":554000000000,"state":"active","ping":75},{"user_id":590,"name":"Prostate stealer","steam_id":76561198866972538,"connected_time":552000000000,"state":"active","ping":75},{"user_id":597,"name":"BIG BOI SPICE","steam_id":76561198194862277,"connected_time":307000000000,"state":"active","ping":69},{"user_id":476,"name":"cactus_octoling","steam_id":76561198837919828,"connected_time":9189000000000,"state":"active","ping":96},{"user_id":593,"name":"competitive sex","steam_id":76561198060530483,"connected_time":457000000000,"state":"active","ping":75},{"user_id":594,"name":"Baklava Enjoyer","steam_id":76561198990679631,"connected_time":452000000000,"state":"active","ping":74},{"user_id":578,"name":"paguro","steam_id":76561198119560871,"connected_time":1356000000000,"state":"active","ping":70},{"user_id":579,"name":"ImmortalJerry","steam_id":76561199046137142,"connected_time":1332000000000,"state":"active","ping":65},{"user_id":558,"name":"niandits","steam_id":76561198419798900,"connected_time":3861000000000,"state":"active","ping":124}]},{"server_id":308,"name":"Uncletopia | Frankfurt | 3 | All Maps","name_short":"frk-3","host":"frk-1.de.uncletopia.com","port":27035,"enabled":true,"region":"eu","cc":"de","latitude":50.110924,"longitude":8.682127,"reserved":0,"last_update":"0001-01-01T00:00:00Z","name_a2s":"Uncletopia | Frankfurt | 3 | All Maps","protocol":17,"map":"cp_sunshine","folder":"tf","game":"Team Fortress","app_id":440,"player_count":25,"max_players":24,"Bots":0,"server_type":"Dedicated","server_os":"Linux","password":true,"vac":true,"version":"7961495","steam_id":85568392924504274,"keywords":["cp","nocrits","nodmgspread","uncletopia"],"game_id":440,"stv_port":27036,"stv_name":"Uncletopia | Frankfurt | 3 | All Maps | STV","players":[{"user_id":230,"name":"Proto-arc","steam_id":76561198012776747,"connected_time":258000000000,"state":"active","ping":60},{"user_id":237,"name":"coella","steam_id":76561198442803577,"connected_time":112000000000,"state":"spawning","ping":88},{"user_id":225,"name":"quarks and stuff","steam_id":76561198137869662,"connected_time":358000000000,"state":"active","ping":50},{"user_id":186,"name":"xavier","steam_id":76561198076494034,"connected_time":4741000000000,"state":"active","ping":57},{"user_id":231,"name":"leminsc8","steam_id":76561198825084995,"connected_time":253000000000,"state":"active","ping":35},{"user_id":229,"name":"MR BUBBLES","steam_id":76561198019005259,"connected_time":352000000000,"state":"active","ping":104},{"user_id":232,"name":"Piellino","steam_id":76561198156873276,"connected_time":251000000000,"state":"active","ping":94},{"user_id":234,"name":"Shourai","steam_id":76561198201192634,"connected_time":215000000000,"state":"active","ping":60},{"user_id":241,"name":"chgivan","steam_id":76561198060010064,"connected_time":73000000000,"state":"active","ping":85},{"user_id":202,"name":"Vershal Smershal","steam_id":76561198116223995,"connected_time":3434000000000,"state":"active","ping":61},{"user_id":218,"name":"Mi Manchi","steam_id":76561198171573129,"connected_time":1695000000000,"state":"active","ping":60},{"user_id":235,"name":"SleepyJoe","steam_id":76561198843157581,"connected_time":207000000000,"state":"active","ping":74},{"user_id":213,"name":"Koli","steam_id":76561197992428783,"connected_time":2301000000000,"state":"active","ping":45},{"user_id":236,"name":"frosty","steam_id":76561198094560834,"connected_time":196000000000,"state":"active","ping":59},{"user_id":196,"name":"Udinese Dion","steam_id":76561198067931573,"connected_time":3997000000000,"state":"active","ping":50},{"user_id":239,"name":"Appl","steam_id":76561198115766056,"connected_time":98000000000,"state":"active","ping":59},{"user_id":214,"name":"Donki Wonki","steam_id":76561198327761273,"connected_time":2227000000000,"state":"active","ping":64},{"user_id":224,"name":"El Wiwi","steam_id":76561198134378108,"connected_time":1182000000000,"state":"active","ping":85},{"user_id":187,"name":"Rarky","steam_id":76561198054398642,"connected_time":4679000000000,"state":"active","ping":45},{"user_id":198,"name":"Bajas","steam_id":76561198179339326,"connected_time":3754000000000,"state":"active","ping":75},{"user_id":240,"name":"Mc Cheezy","steam_id":76561198834780242,"connected_time":96000000000,"state":"active","ping":109},{"user_id":167,"name":"Chloemew","steam_id":76561198042071762,"connected_time":6130000000000,"state":"active","ping":54},{"user_id":223,"name":"TeaLan","steam_id":76561198118742661,"connected_time":1239000000000,"state":"active","ping":78},{"user_id":242,"name":"sareena","steam_id":76561198810194062,"connected_time":23000000000,"state":"active","ping":68},{"user_id":228,"name":"einfinity","steam_id":76561197992776372,"connected_time":356000000000,"state":"active","ping":87}]},{"server_id":309,"name":"Uncletopia | Frankfurt | 4 | All Maps","name_short":"frk-4","host":"frk-1.de.uncletopia.com","port":27045,"enabled":true,"region":"eu","cc":"de","latitude":50.110924,"longitude":8.682127,"reserved":0,"last_update":"0001-01-01T00:00:00Z","name_a2s":"Uncletopia | Frankfurt | 4 | All Maps","protocol":17,"map":"pl_pier","folder":"tf","game":"Team Fortress","app_id":440,"player_count":24,"max_players":24,"Bots":0,"server_type":"Dedicated","server_os":"Linux","password":true,"vac":true,"version":"7961495","steam_id":85568392924504275,"keywords":["nocrits","nodmgspread","payload","uncletopia"],"game_id":440,"stv_port":27046,"stv_name":"Uncletopia | Frankfurt | 4 | All Maps | STV","players":[{"user_id":197,"name":"Strafe","steam_id":76561198035579253,"connected_time":1430000000000,"state":"active","ping":143},{"user_id":212,"name":"Rops","steam_id":76561198031608011,"connected_time":750000000000,"state":"active","ping":79},{"user_id":221,"name":"DubiozaK","steam_id":76561199428701264,"connected_time":105000000000,"state":"active","ping":94},{"user_id":116,"name":"KajaStorm","steam_id":76561199215842872,"connected_time":7028000000000,"state":"active","ping":126},{"user_id":169,"name":"Mike Doe","steam_id":76561198331251922,"connected_time":2180000000000,"state":"active","ping":59},{"user_id":198,"name":"Mijans","steam_id":76561198047801578,"connected_time":1429000000000,"state":"active","ping":63},{"user_id":195,"name":"† Miakolla †","steam_id":76561198819585997,"connected_time":1646000000000,"state":"active","ping":97},{"user_id":159,"name":"s a i","steam_id":76561197970379754,"connected_time":2588000000000,"state":"active","ping":57},{"user_id":204,"name":"Michał","steam_id":76561198320346362,"connected_time":1051000000000,"state":"active","ping":60},{"user_id":216,"name":"martin","steam_id":76561198107039012,"connected_time":420000000000,"state":"active","ping":55},{"user_id":192,"name":"IanThatMiner","steam_id":76561198079785511,"connected_time":1708000000000,"state":"active","ping":155},{"user_id":218,"name":"Aspartus","steam_id":76561198101385763,"connected_time":305000000000,"state":"active","ping":47},{"user_id":163,"name":"MrWeis","steam_id":76561198115443579,"connected_time":2386000000000,"state":"active","ping":66},{"user_id":200,"name":"Yellowtt","steam_id":76561198374834340,"connected_time":1389000000000,"state":"active","ping":73},{"user_id":209,"name":"Fuvuk","steam_id":76561198044458593,"connected_time":919000000000,"state":"active","ping":87},{"user_id":206,"name":"jasonherlein1","steam_id":76561199468905854,"connected_time":1015000000000,"state":"active","ping":74},{"user_id":167,"name":"Benzo Fury","steam_id":76561198025259336,"connected_time":2234000000000,"state":"active","ping":49},{"user_id":219,"name":"lol","steam_id":76561198104438656,"connected_time":304000000000,"state":"active","ping":74},{"user_id":220,"name":"Sheen (Khang)","steam_id":76561198371062974,"connected_time":236000000000,"state":"active","ping":87},{"user_id":174,"name":"nedi prem hl","steam_id":76561198875472890,"connected_time":2129000000000,"state":"active","ping":72},{"user_id":213,"name":"elwen","steam_id":76561198025282054,"connected_time":447000000000,"state":"active","ping":68},{"user_id":207,"name":"gx71","steam_id":76561198035112358,"connected_time":1003000000000,"state":"active","ping":61},{"user_id":211,"name":"Velvet","steam_id":76561198180081394,"connected_time":787000000000,"state":"active","ping":57},{"user_id":194,"name":"Peskyplumber64","steam_id":76561198044458330,"connected_time":1701000000000,"state":"active","ping":67}]},{"server_id":310,"name":"Uncletopia | Frankfurt | 5 | All Maps","name_short":"frk-5","host":"frk-1.de.uncletopia.com","port":27055,"enabled":true,"region":"eu","cc":"de","latitude":50.110924,"longitude":8.682127,"reserved":0,"last_update":"0001-01-01T00:00:00Z","name_a2s":"Uncletopia | Frankfurt | 5 | All Maps","protocol":17,"map":"koth_lakeside_final","folder":"tf","game":"Team Fortress","app_id":440,"player_count":24,"max_players":24,"Bots":0,"server_type":"Dedicated","server_os":"Linux","password":true,"vac":true,"version":"7961495","steam_id":85568392924504277,"keywords":["cp","nocrits","nodmgspread","uncletopia"],"game_id":440,"stv_port":27056,"stv_name":"Uncletopia | Frankfurt | 5 | All Maps | STV","players":[{"user_id":493,"name":"Gibby","steam_id":76561198048213112,"connected_time":468000000000,"state":"active","ping":51},{"user_id":504,"name":"pef","steam_id":76561198398629859,"connected_time":114000000000,"state":"active","ping":102},{"user_id":484,"name":"Schiever","steam_id":76561198052136026,"connected_time":1544000000000,"state":"active","ping":59},{"user_id":505,"name":"Finkaksu :3","steam_id":76561198201389163,"connected_time":95000000000,"state":"active","ping":61},{"user_id":468,"name":"QR-M5TR","steam_id":76561198197626135,"connected_time":1981000000000,"state":"active","ping":60},{"user_id":452,"name":"=BaFFe= Krakenpots","steam_id":76561198106600025,"connected_time":2701000000000,"state":"active","ping":58},{"user_id":496,"name":"Oblivion","steam_id":76561198352683491,"connected_time":411000000000,"state":"active","ping":51},{"user_id":497,"name":"RayTrain","steam_id":76561198874299515,"connected_time":406000000000,"state":"active","ping":73},{"user_id":498,"name":"TheSafestFlyingWalrus","steam_id":76561199220308414,"connected_time":370000000000,"state":"active","ping":70},{"user_id":456,"name":"boryshero","steam_id":76561198435995576,"connected_time":2567000000000,"state":"active","ping":70},{"user_id":500,"name":"elyo","steam_id":76561198209442489,"connected_time":298000000000,"state":"active","ping":55},{"user_id":499,"name":"Hans","steam_id":76561198030061999,"connected_time":331000000000,"state":"active","ping":62},{"user_id":508,"name":"Urfangonultasadana","steam_id":76561199389286151,"connected_time":70000000000,"state":"active","ping":106},{"user_id":486,"name":"Metalizer","steam_id":76561198099595082,"connected_time":1504000000000,"state":"active","ping":73},{"user_id":502,"name":"Finn","steam_id":76561198112456809,"connected_time":201000000000,"state":"active","ping":56},{"user_id":503,"name":"VictoriaFae (She/Her)","steam_id":76561198093221218,"connected_time":197000000000,"state":"active","ping":75},{"user_id":506,"name":"bigwish | bmod.tf","steam_id":76561197997859723,"connected_time":76000000000,"state":"active","ping":75},{"user_id":491,"name":"ChicoColo [ A1r ]","steam_id":76561198045977760,"connected_time":896000000000,"state":"active","ping":45},{"user_id":507,"name":"Xiqui","steam_id":76561198818386611,"connected_time":74000000000,"state":"active","ping":78},{"user_id":480,"name":"Merca #savetf2","steam_id":76561198088782472,"connected_time":1635000000000,"state":"active","ping":45},{"user_id":509,"name":"shr","steam_id":76561198449852071,"connected_time":60000000000,"state":"active","ping":54},{"user_id":481,"name":"Milosz52","steam_id":76561199060940204,"connected_time":1623000000000,"state":"active","ping":76},{"user_id":492,"name":"Moondrop","steam_id":76561199421181719,"connected_time":483000000000,"state":"active","ping":61},{"user_id":451,"name":"Archive","steam_id":76561198071255385,"connected_time":2720000000000,"state":"active","ping":77}]},{"server_id":311,"name":"Uncletopia | Frankfurt | 6 | All Maps","name_short":"frk-6","host":"frk-1.de.uncletopia.com","port":27065,"enabled":true,"region":"eu","cc":"de","latitude":50.110924,"longitude":8.682127,"reserved":0,"last_update":"0001-01-01T00:00:00Z","name_a2s":"Uncletopia | Frankfurt | 6 | All Maps","protocol":17,"map":"cp_sunshine","folder":"tf","game":"Team Fortress","app_id":440,"player_count":12,"max_players":24,"Bots":0,"server_type":"Dedicated","server_os":"Linux","password":true,"vac":true,"version":"7961495","steam_id":85568392924504278,"keywords":["cp","nocrits","nodmgspread","uncletopia"],"game_id":440,"stv_port":27066,"stv_name":"Uncletopia | Frankfurt | 6 | All Maps | STV","players":[{"user_id":517,"name":"Reimu Hakurei","steam_id":76561198152478010,"connected_time":68000000000,"state":"active","ping":82},{"user_id":506,"name":"Mancomb Seepgood","steam_id":76561197974116369,"connected_time":1535000000000,"state":"active","ping":57},{"user_id":503,"name":"Rodak","steam_id":76561199135986344,"connected_time":2130000000000,"state":"active","ping":67},{"user_id":515,"name":"twitch.tv/cockroachjones","steam_id":76561199070677866,"connected_time":386000000000,"state":"active","ping":60},{"user_id":489,"name":"Hexagon","steam_id":76561198151205758,"connected_time":2815000000000,"state":"active","ping":45},{"user_id":509,"name":"он","steam_id":76561198172046813,"connected_time":1461000000000,"state":"active","ping":69},{"user_id":516,"name":"Basin","steam_id":76561199201199677,"connected_time":264000000000,"state":"active","ping":55},{"user_id":486,"name":"Mébh Óg MacTíre","steam_id":76561198346399624,"connected_time":2970000000000,"state":"active","ping":68},{"user_id":437,"name":"Arsonist","steam_id":76561199087953833,"connected_time":7424000000000,"state":"active","ping":97},{"user_id":498,"name":"aisu","steam_id":76561198043768507,"connected_time":2403000000000,"state":"active","ping":165},{"user_id":514,"name":"cat","steam_id":76561198837071509,"connected_time":784000000000,"state":"active","ping":82},{"user_id":510,"name":"Watermelon","steam_id":76561198078349914,"connected_time":1452000000000,"state":"active","ping":61}]},{"server_id":23,"name":"Uncletopia | Frankfurt | 7 | Stopwatch","name_short":"frk-7","host":"frk-1.de.uncletopia.com","port":27075,"enabled":true,"region":"eu","cc":"de","latitude":50.110924,"longitude":8.682127,"reserved":0,"last_update":"0001-01-01T00:00:00Z","name_a2s":"Uncletopia | Frankfurt | 7 | Stopwatch","protocol":17,"map":"workshop/pl_summercoast_rc8e.ugc1761528829","folder":"tf","game":"Team Fortress","app_id":440,"player_count":7,"max_players":24,"Bots":0,"server_type":"Dedicated","server_os":"Linux","password":true,"vac":true,"version":"7961495","steam_id":85568392924742827,"keywords":["nocrits","nodmgspread","payload","uncletopia"],"game_id":440,"stv_port":27076,"stv_name":"Uncletopia | Frankfurt | 7 | Stopwatch | STV","players":[{"user_id":282,"name":"gamersans","steam_id":76561199265596497,"connected_time":1013000000000,"state":"active","ping":161},{"user_id":259,"name":"Silva_mlon","steam_id":76561199310242047,"connected_time":1570000000000,"state":"active","ping":74},{"user_id":284,"name":"supercharger832","steam_id":76561198871408515,"connected_time":986000000000,"state":"active","ping":83},{"user_id":291,"name":"Gul'dan","steam_id":76561198240466940,"connected_time":453000000000,"state":"active","ping":79},{"user_id":266,"name":"joachym","steam_id":76561198428579761,"connected_time":1436000000000,"state":"active","ping":56},{"user_id":242,"name":"Mge Brother","steam_id":76561198860424456,"connected_time":2836000000000,"state":"active","ping":55},{"user_id":274,"name":"Desnot","steam_id":76561198862581894,"connected_time":1329000000000,"state":"active","ping":75}]},{"server_id":24,"name":"Uncletopia | Frankfurt | 8 | Community","name_short":"frk-8","host":"frk-1.de.uncletopia.com","port":27085,"enabled":true,"region":"eu","cc":"de","latitude":50.110924,"longitude":8.682127,"reserved":0,"last_update":"0001-01-01T00:00:00Z","name_a2s":"Uncletopia | Frankfurt | 8 | Community","protocol":17,"map":"workshop/pl_divulgence_b4b.ugc2884808746","folder":"tf","game":"Team Fortress","app_id":440,"player_count":3,"max_players":24,"Bots":0,"server_type":"Dedicated","server_os":"Linux","password":true,"vac":true,"version":"7961495","steam_id":85568392924742828,"keywords":["nocrits","nodmgspread","payload","uncletopia"],"game_id":440,"stv_port":27086,"stv_name":"Uncletopia | Frankfurt | 8 | Community | STV","players":[{"user_id":31,"name":"Lavender","steam_id":76561198151092311,"connected_time":460000000000,"state":"active","ping":45},{"user_id":32,"name":"Sir.Danne","steam_id":76561198065554776,"connected_time":445000000000,"state":"active","ping":68},{"user_id":33,"name":"HeadlessM8","steam_id":76561198099861905,"connected_time":439000000000,"state":"active","ping":44}]},{"server_id":202,"name":"Uncletopia | Hong Kong | 1 | All Maps","name_short":"hgk-1","host":"hgk-1.hk.uncletopia.com","port":27015,"enabled":true,"region":"asia","cc":"hk","latitude":22.302711,"longitude":114.177216,"reserved":0,"last_update":"0001-01-01T00:00:00Z","name_a2s":"Uncletopia | Hong Kong | 1 | All Maps","protocol":17,"map":"koth_cascade","folder":"tf","game":"Team Fortress","app_id":440,"player_count":0,"max_players":24,"Bots":0,"server_type":"Dedicated","server_os":"Linux","password":true,"vac":true,"version":"7961495","steam_id":85568392924494504,"keywords":["cp","nocrits","nodmgspread","uncletopia"],"game_id":440,"stv_port":27016,"stv_name":"Uncletopia | Hong Kong | 1 | All Maps | STV","players":null},{"server_id":1,"name":"Uncletopia | Los Angeles | 1 | All Maps","name_short":"lax-1","host":"lax-1.us.uncletopia.com","port":27015,"enabled":true,"region":"us-west","cc":"us","latitude":33.94279,"longitude":-118.41004,"reserved":0,"last_update":"0001-01-01T00:00:00Z","name_a2s":"Uncletopia | Los Angeles | 1 | All Maps","protocol":17,"map":"cp_snakewater_final1","folder":"tf","game":"Team Fortress","app_id":440,"player_count":0,"max_players":24,"Bots":0,"server_type":"Dedicated","server_os":"Linux","password":true,"vac":true,"version":"7961495","steam_id":85568392924469991,"keywords":["cp","nocrits","nodmgspread","uncletopia"],"game_id":440,"stv_port":27016,"stv_name":"Uncletopia | Los Angeles | 1 | All Maps | STV","players":null},{"server_id":112,"name":"Uncletopia | Los Angeles | 2 | All Maps","name_short":"lax-2","host":"lax-1.us.uncletopia.com","port":27025,"enabled":true,"region":"us-west","cc":"us","latitude":33.94279,"longitude":-118.41004,"reserved":0,"last_update":"0001-01-01T00:00:00Z","name_a2s":"Uncletopia | Los Angeles | 2 | All Maps","protocol":17,"map":"cp_mountainlab","folder":"tf","game":"Team Fortress","app_id":440,"player_count":0,"max_players":24,"Bots":0,"server_type":"Dedicated","server_os":"Linux","password":true,"vac":true,"version":"7961495","steam_id":85568392924469992,"keywords":["cp","nocrits","nodmgspread","uncletopia"],"game_id":440,"stv_port":27026,"stv_name":"Uncletopia | Los Angeles | 2 | All Maps | STV","players":null},{"server_id":324,"name":"Uncletopia | Los Angeles | 3 | All Maps","name_short":"lax-3","host":"lax-1.us.uncletopia.com","port":27035,"enabled":true,"region":"us-west","cc":"us","latitude":33.94279,"longitude":-118.41004,"reserved":0,"last_update":"0001-01-01T00:00:00Z","name_a2s":"Uncletopia | Los Angeles | 3 | All Maps","protocol":17,"map":"koth_viaduct","folder":"tf","game":"Team Fortress","app_id":440,"player_count":0,"max_players":24,"Bots":0,"server_type":"Dedicated","server_os":"Linux","password":true,"vac":true,"version":"7961495","steam_id":85568392924510198,"keywords":["cp","nocrits","nodmgspread","uncletopia"],"game_id":440,"stv_port":27036,"stv_name":"Uncletopia | Los Angeles | 3 | All Maps | STV","players":null},{"server_id":25,"name":"Uncletopia | Los Angeles | 4 | Stopwatch","name_short":"lax-4","host":"lax-1.us.uncletopia.com","port":27045,"enabled":true,"region":"us-west","cc":"us","latitude":33.94279,"longitude":-118.41004,"reserved":0,"last_update":"0001-01-01T00:00:00Z","name_a2s":"Uncletopia | Los Angeles | 4 | Stopwatch","protocol":17,"map":"pl_barnblitz","folder":"tf","game":"Team Fortress","app_id":440,"player_count":0,"max_players":24,"Bots":0,"server_type":"Dedicated","server_os":"Linux","password":true,"vac":true,"version":"7961495","steam_id":85568392924510199,"keywords":["nocrits","nodmgspread","payload","uncletopia"],"game_id":440,"stv_port":27046,"stv_name":"Uncletopia | Los Angeles | 4 | Stopwatch | STV","players":null},{"server_id":11,"name":"Uncletopia | London | 1 | All Maps","name_short":"lon-1","host":"lon-1.uk.uncletopia.com","port":27015,"enabled":true,"region":"eu","cc":"gb","latitude":51.509865,"longitude":-0.118092,"reserved":0,"last_update":"0001-01-01T00:00:00Z","name_a2s":"Uncletopia | London | 1 | All Maps","protocol":17,"map":"cp_process_final","folder":"tf","game":"Team Fortress","app_id":440,"player_count":17,"max_players":24,"Bots":0,"server_type":"Dedicated","server_os":"Linux","password":true,"vac":true,"version":"7961495","steam_id":85568392924367362,"keywords":["cp","nocrits","nodmgspread","uncletopia"],"game_id":440,"stv_port":27016,"stv_name":"Uncletopia | London | 1 | All Maps | STV","players":[{"user_id":585,"name":"123","steam_id":76561198113733477,"connected_time":140000000000,"state":"active","ping":62},{"user_id":570,"name":"Jon","steam_id":76561199380849468,"connected_time":933000000000,"state":"active","ping":62},{"user_id":535,"name":"Greg_M74","steam_id":76561198823492311,"connected_time":4293000000000,"state":"active","ping":119},{"user_id":574,"name":"Prome","steam_id":76561199050383942,"connected_time":390000000000,"state":"active","ping":55},{"user_id":576,"name":"*Eurobeat Intensifies*","steam_id":76561199019412162,"connected_time":344000000000,"state":"active","ping":51},{"user_id":577,"name":"tucker","steam_id":76561198348308711,"connected_time":291000000000,"state":"active","ping":129},{"user_id":578,"name":"padillacampos","steam_id":76561198161923970,"connected_time":282000000000,"state":"active","ping":76},{"user_id":544,"name":"Slifer the SKY Acorn","steam_id":76561198062255803,"connected_time":3289000000000,"state":"active","ping":67},{"user_id":582,"name":"Nithle","steam_id":76561198025372740,"connected_time":217000000000,"state":"active","ping":30},{"user_id":508,"name":"quickfast","steam_id":76561199438900919,"connected_time":6965000000000,"state":"active","ping":41},{"user_id":588,"name":"dotdotdot","steam_id":76561198057628751,"connected_time":30000000000,"state":"active","ping":61},{"user_id":567,"name":"Kahvi","steam_id":76561198723244199,"connected_time":1198000000000,"state":"active","ping":73},{"user_id":548,"name":"owo","steam_id":76561198158209651,"connected_time":3047000000000,"state":"active","ping":52},{"user_id":572,"name":"Fwebbie","steam_id":76561199006875621,"connected_time":648000000000,"state":"active","ping":69},{"user_id":587,"name":"uwu","steam_id":76561199209906710,"connected_time":38000000000,"state":"active","ping":37},{"user_id":573,"name":"Kphi(i)","steam_id":76561198970587061,"connected_time":451000000000,"state":"active","ping":57},{"user_id":566,"name":"Son Goku","steam_id":76561199383437138,"connected_time":1332000000000,"state":"active","ping":122}]},{"server_id":114,"name":"Uncletopia | London | 2 | All Maps","name_short":"lon-2","host":"lon-1.uk.uncletopia.com","port":27025,"enabled":true,"region":"eu","cc":"gb","latitude":51.509865,"longitude":-0.118092,"reserved":0,"last_update":"0001-01-01T00:00:00Z","name_a2s":"Uncletopia | London | 2 | All Maps","protocol":17,"map":"pl_upward","folder":"tf","game":"Team Fortress","app_id":440,"player_count":23,"max_players":24,"Bots":0,"server_type":"Dedicated","server_os":"Linux","password":true,"vac":true,"version":"7961495","steam_id":85568392924470941,"keywords":["nocrits","nodmgspread","payload","uncletopia"],"game_id":440,"stv_port":27026,"stv_name":"Uncletopia | London | 2 | All Maps | STV","players":[{"user_id":504,"name":"Krucial","steam_id":76561198144464665,"connected_time":367000000000,"state":"active","ping":111},{"user_id":469,"name":"Henry Fonda","steam_id":76561199378865926,"connected_time":2379000000000,"state":"active","ping":93},{"user_id":490,"name":"gr3821","steam_id":76561198091531010,"connected_time":1225000000000,"state":"active","ping":45},{"user_id":468,"name":"shleep","steam_id":76561198991731237,"connected_time":2490000000000,"state":"active","ping":136},{"user_id":470,"name":"Rez","steam_id":76561198410598772,"connected_time":2369000000000,"state":"active","ping":45},{"user_id":505,"name":"8 Ball","steam_id":76561197960988736,"connected_time":330000000000,"state":"active","ping":45},{"user_id":495,"name":"eMcP!","steam_id":76561198382509396,"connected_time":569000000000,"state":"active","ping":54},{"user_id":493,"name":"Lux","steam_id":76561198060417740,"connected_time":855000000000,"state":"active","ping":46},{"user_id":496,"name":"Dr Cum Master","steam_id":76561198378657692,"connected_time":563000000000,"state":"active","ping":46},{"user_id":487,"name":"толя","steam_id":76561199098518615,"connected_time":1475000000000,"state":"active","ping":78},{"user_id":358,"name":"Flying Squirrel","steam_id":76561198005202791,"connected_time":10125000000000,"state":"active","ping":75},{"user_id":509,"name":"❤︎WarMole❤","steam_id":76561198104248760,"connected_time":32000000000,"state":"active","ping":71},{"user_id":498,"name":"bulten","steam_id":76561199065740950,"connected_time":542000000000,"state":"active","ping":75},{"user_id":510,"name":"A new Player(F2p)","steam_id":76561199388826335,"connected_time":30000000000,"state":"active","ping":134},{"user_id":500,"name":"Voks_","steam_id":76561198159687785,"connected_time":534000000000,"state":"active","ping":66},{"user_id":473,"name":"jean","steam_id":76561198060780111,"connected_time":2230000000000,"state":"active","ping":60},{"user_id":480,"name":"Buddy","steam_id":76561198050185582,"connected_time":1870000000000,"state":"active","ping":59},{"user_id":486,"name":"Dogdigger","steam_id":76561198032893130,"connected_time":1500000000000,"state":"active","ping":103},{"user_id":507,"name":"Abbplutt","steam_id":76561198121678429,"connected_time":168000000000,"state":"active","ping":86},{"user_id":419,"name":"Mono","steam_id":76561198114569493,"connected_time":6035000000000,"state":"active","ping":45},{"user_id":483,"name":"madhead200","steam_id":76561198119498666,"connected_time":1752000000000,"state":"active","ping":67},{"user_id":508,"name":"Dewotter","steam_id":76561198007653168,"connected_time":139000000000,"state":"active","ping":60},{"user_id":502,"name":"Milk","steam_id":76561198125876588,"connected_time":527000000000,"state":"active","ping":45}]},{"server_id":320,"name":"Uncletopia | London | 3 | All Maps","name_short":"lon-3","host":"lon-1.uk.uncletopia.com","port":27035,"enabled":true,"region":"eu","cc":"gb","latitude":51.509865,"longitude":-0.118092,"reserved":0,"last_update":"0001-01-01T00:00:00Z","name_a2s":"Uncletopia | London | 3 | All Maps","protocol":17,"map":"pl_pier","folder":"tf","game":"Team Fortress","app_id":440,"player_count":23,"max_players":24,"Bots":0,"server_type":"Dedicated","server_os":"Linux","password":true,"vac":true,"version":"7961495","steam_id":85568392924510192,"keywords":["nocrits","nodmgspread","payload","uncletopia"],"game_id":440,"stv_port":27036,"stv_name":"Uncletopia | London | 3 | All Maps | STV","players":[{"user_id":289,"name":"gabagool","steam_id":76561198307111838,"connected_time":5694000000000,"state":"active","ping":29},{"user_id":367,"name":"Redmailbox","steam_id":76561198042930322,"connected_time":358000000000,"state":"active","ping":72},{"user_id":340,"name":"spy's arent real","steam_id":76561198165871469,"connected_time":1473000000000,"state":"active","ping":69},{"user_id":346,"name":"Elma Canón del Toro","steam_id":76561198081053203,"connected_time":1301000000000,"state":"active","ping":169},{"user_id":343,"name":"superman545454545454545454","steam_id":76561199182863907,"connected_time":1354000000000,"state":"active","ping":124},{"user_id":347,"name":"Ostara","steam_id":76561198200054489,"connected_time":1293000000000,"state":"active","ping":73},{"user_id":348,"name":"RedWater","steam_id":76561198016406576,"connected_time":1266000000000,"state":"active","ping":90},{"user_id":368,"name":"Dougie","steam_id":76561198079567499,"connected_time":69000000000,"state":"active","ping":74},{"user_id":352,"name":"NeonPixel","steam_id":76561198165901066,"connected_time":1206000000000,"state":"active","ping":75},{"user_id":363,"name":"Owenter","steam_id":76561198083201886,"connected_time":929000000000,"state":"active","ping":40},{"user_id":355,"name":"Cowspace","steam_id":76561198072733227,"connected_time":1069000000000,"state":"active","ping":70},{"user_id":365,"name":"AsuX","steam_id":76561197990333289,"connected_time":721000000000,"state":"active","ping":61},{"user_id":327,"name":"meriones","steam_id":76561198034234373,"connected_time":3303000000000,"state":"active","ping":40},{"user_id":301,"name":"JaneDoe","steam_id":76561198067081506,"connected_time":5101000000000,"state":"active","ping":89},{"user_id":357,"name":"tzlil","steam_id":76561198399916290,"connected_time":993000000000,"state":"active","ping":102},{"user_id":358,"name":"Raldow","steam_id":76561198021389301,"connected_time":992000000000,"state":"active","ping":58},{"user_id":359,"name":"Sneaky boi","steam_id":76561199195985387,"connected_time":990000000000,"state":"active","ping":89},{"user_id":360,"name":"Caruzon - Obismal","steam_id":76561198036211170,"connected_time":981000000000,"state":"active","ping":86},{"user_id":361,"name":"Macci - Obismal","steam_id":76561198050485404,"connected_time":940000000000,"state":"active","ping":79},{"user_id":298,"name":"Big Al","steam_id":76561198079585198,"connected_time":5460000000000,"state":"active","ping":57},{"user_id":362,"name":"zak","steam_id":76561197998895428,"connected_time":940000000000,"state":"active","ping":70},{"user_id":364,"name":"Papillon","steam_id":76561198049725849,"connected_time":915000000000,"state":"active","ping":135},{"user_id":331,"name":"Itai","steam_id":76561198804555329,"connected_time":3065000000000,"state":"active","ping":111}]},{"server_id":321,"name":"Uncletopia | London | 4 | All Maps","name_short":"lon-4","host":"lon-1.uk.uncletopia.com","port":27045,"enabled":true,"region":"eu","cc":"gb","latitude":51.509865,"longitude":-0.118092,"reserved":0,"last_update":"0001-01-01T00:00:00Z","name_a2s":"Uncletopia | London | 4 | All Maps","protocol":17,"map":"cp_sunshine","folder":"tf","game":"Team Fortress","app_id":440,"player_count":2,"max_players":24,"Bots":0,"server_type":"Dedicated","server_os":"Linux","password":true,"vac":true,"version":"7961495","steam_id":85568392924510193,"keywords":["cp","nocrits","nodmgspread","uncletopia"],"game_id":440,"stv_port":27046,"stv_name":"Uncletopia | London | 4 | All Maps | STV","players":[{"user_id":741,"name":"TreeBeardMan","steam_id":76561198316545657,"connected_time":481000000000,"state":"active","ping":152},{"user_id":742,"name":"reuben.karas","steam_id":76561199013787641,"connected_time":447000000000,"state":"active","ping":61}]},{"server_id":21,"name":"Uncletopia | London | 5 | All Maps","name_short":"lon-5","host":"lon-1.uk.uncletopia.com","port":27055,"enabled":true,"region":"eu","cc":"gb","latitude":51.509865,"longitude":-0.118092,"reserved":0,"last_update":"0001-01-01T00:00:00Z","name_a2s":"Uncletopia | London | 5 | All Maps","protocol":17,"map":"cp_process_final","folder":"tf","game":"Team Fortress","app_id":440,"player_count":14,"max_players":24,"Bots":0,"server_type":"Dedicated","server_os":"Linux","password":true,"vac":true,"version":"7961495","steam_id":85568392924742829,"keywords":["cp","nocrits","nodmgspread","uncletopia"],"game_id":440,"stv_port":27056,"stv_name":"Uncletopia | London | 5 | All Maps | STV","players":[{"user_id":95,"name":"Adspy","steam_id":76561198855050261,"connected_time":687000000000,"state":"active","ping":59},{"user_id":103,"name":"wheel bread","steam_id":76561199062586342,"connected_time":227000000000,"state":"active","ping":67},{"user_id":105,"name":"Space Viking","steam_id":76561199013736960,"connected_time":109000000000,"state":"active","ping":129},{"user_id":66,"name":"Nesster","steam_id":76561198071688242,"connected_time":2675000000000,"state":"active","ping":131},{"user_id":67,"name":"UglyTwinYgor","steam_id":76561198132718039,"connected_time":2630000000000,"state":"active","ping":85},{"user_id":87,"name":"sniper ruins tf","steam_id":76561197980736364,"connected_time":1313000000000,"state":"active","ping":77},{"user_id":60,"name":"Noob_with_source","steam_id":76561198870362103,"connected_time":3478000000000,"state":"active","ping":53},{"user_id":53,"name":"Ash","steam_id":76561198148738525,"connected_time":4032000000000,"state":"active","ping":103},{"user_id":97,"name":"Pottery Knight","steam_id":76561198094455814,"connected_time":612000000000,"state":"active","ping":87},{"user_id":69,"name":"invertO","steam_id":76561198142244174,"connected_time":2608000000000,"state":"active","ping":57},{"user_id":70,"name":"A Succulent Chinese Meal","steam_id":76561198069472440,"connected_time":2581000000000,"state":"active","ping":70},{"user_id":85,"name":"JC","steam_id":76561198029213352,"connected_time":1720000000000,"state":"active","ping":43},{"user_id":93,"name":"MrvicaKing69","steam_id":76561199268407840,"connected_time":847000000000,"state":"active","ping":85},{"user_id":73,"name":"normii","steam_id":76561198301332732,"connected_time":2451000000000,"state":"active","ping":45}]},{"server_id":22,"name":"Uncletopia | London | 6 | All Maps","name_short":"lon-6","host":"lon-1.uk.uncletopia.com","port":27065,"enabled":true,"region":"eu","cc":"gb","latitude":51.509865,"longitude":-0.118092,"reserved":0,"last_update":"0001-01-01T00:00:00Z","name_a2s":"Uncletopia | London | 6 | All Maps","protocol":17,"map":"pl_rumford_event","folder":"tf","game":"Team Fortress","app_id":440,"player_count":20,"max_players":24,"Bots":0,"server_type":"Dedicated","server_os":"Linux","password":true,"vac":true,"version":"7961495","steam_id":85568392924742830,"keywords":["nocrits","nodmgspread","payload","uncletopia"],"game_id":440,"stv_port":27066,"stv_name":"Uncletopia | London | 6 | All Maps | STV","players":[{"user_id":754,"name":"TunaaFsh","steam_id":76561198127194010,"connected_time":1768000000000,"state":"active","ping":59},{"user_id":770,"name":"SimpleAlgorithms0","steam_id":76561198308367423,"connected_time":347000000000,"state":"active","ping":54},{"user_id":767,"name":"Red","steam_id":76561198876085813,"connected_time":453000000000,"state":"active","ping":60},{"user_id":760,"name":"Herb","steam_id":76561198205266944,"connected_time":818000000000,"state":"active","ping":45},{"user_id":747,"name":"[ Louinskii ]","steam_id":76561198060509154,"connected_time":1936000000000,"state":"active","ping":53},{"user_id":768,"name":"NASSER","steam_id":76561198999598488,"connected_time":398000000000,"state":"active","ping":135},{"user_id":758,"name":"Jeffrey Harpen","steam_id":76561199073314677,"connected_time":1038000000000,"state":"active","ping":77},{"user_id":764,"name":"tow fort?","steam_id":76561197972287320,"connected_time":592000000000,"state":"active","ping":84},{"user_id":776,"name":"georgeiscool3","steam_id":76561199116151412,"connected_time":118000000000,"state":"active","ping":64},{"user_id":773,"name":"Aeinzalot","steam_id":76561198195288449,"connected_time":261000000000,"state":"active","ping":43},{"user_id":771,"name":"TheOnlyEgg","steam_id":76561198117795961,"connected_time":342000000000,"state":"active","ping":123},{"user_id":774,"name":"_Corvo_","steam_id":76561198129339188,"connected_time":248000000000,"state":"active","ping":88},{"user_id":775,"name":"CaveTones","steam_id":76561198257570910,"connected_time":197000000000,"state":"active","ping":109},{"user_id":777,"name":"JZ","steam_id":76561198377029198,"connected_time":116000000000,"state":"active","ping":138},{"user_id":778,"name":"steck","steam_id":76561197973948113,"connected_time":69000000000,"state":"active","ping":67},{"user_id":779,"name":"Coke Zero","steam_id":76561198158562873,"connected_time":65000000000,"state":"active","ping":64},{"user_id":781,"name":"Lukas","steam_id":76561198009118452,"connected_time":25000000000,"state":"active","ping":65},{"user_id":749,"name":"Arty","steam_id":76561198160100181,"connected_time":1919000000000,"state":"active","ping":62},{"user_id":702,"name":"fischman","steam_id":76561199064142670,"connected_time":5350000000000,"state":"active","ping":69},{"user_id":750,"name":"Joel","steam_id":76561198079581107,"connected_time":1910000000000,"state":"active","ping":59}]},{"server_id":40,"name":"Uncletopia | London | 7 | Stopwatch","name_short":"lon-7","host":"lon-1.uk.uncletopia.com","port":27075,"enabled":true,"region":"eu","cc":"gb","latitude":51.509865,"longitude":-0.118092,"reserved":0,"last_update":"0001-01-01T00:00:00Z","name_a2s":"Uncletopia | London | 7 | Stopwatch","protocol":17,"map":"workshop/koth_bagel_rc6.ugc2514036946","folder":"tf","game":"Team Fortress","app_id":440,"player_count":0,"max_players":24,"Bots":0,"server_type":"Dedicated","server_os":"Linux","password":true,"vac":true,"version":"7961495","steam_id":85568392924964314,"keywords":["cp","nocrits","nodmgspread","uncletopia"],"game_id":440,"stv_port":27076,"stv_name":"Uncletopia | London | 7 | Stopwatch | STV","players":null},{"server_id":41,"name":"Uncletopia | London | 8 | Community","name_short":"lon-8","host":"lon-1.uk.uncletopia.com","port":27085,"enabled":true,"region":"eu","cc":"gb","latitude":51.509865,"longitude":-0.118092,"reserved":0,"last_update":"0001-01-01T00:00:00Z","name_a2s":"Uncletopia | London | 8 | Community","protocol":17,"map":"workshop/cp_alloy_rc3.ugc592805587","folder":"tf","game":"Team Fortress","app_id":440,"player_count":0,"max_players":24,"Bots":0,"server_type":"Dedicated","server_os":"Linux","password":true,"vac":true,"version":"7961495","steam_id":85568392924964315,"keywords":["cp","nocrits","nodmgspread","uncletopia"],"game_id":440,"stv_port":27086,"stv_name":"Uncletopia | London | 8 | Community | STV","players":null},{"server_id":300,"name":"Uncletopia | Montréal | 1 | All Maps","name_short":"mtl-1","host":"mtl-1.ca.uncletopia.com","port":27015,"enabled":true,"region":"us-east","cc":"ca","latitude":45.50889,"longitude":-73.56167,"reserved":0,"last_update":"0001-01-01T00:00:00Z","name_a2s":"","protocol":0,"map":"","folder":"","game":"","app_id":0,"player_count":0,"max_players":0,"Bots":0,"server_type":"","server_os":"","password":false,"vac":false,"version":"","steam_id":0,"keywords":null,"game_id":0,"stv_port":0,"stv_name":"","players":null},{"server_id":301,"name":"Uncletopia | Montréal | 2 | All Maps","name_short":"mtl-2","host":"mtl-1.ca.uncletopia.com","port":27025,"enabled":true,"region":"us-east","cc":"ca","latitude":45.50889,"longitude":-73.56167,"reserved":0,"last_update":"0001-01-01T00:00:00Z","name_a2s":"","protocol":0,"map":"","folder":"","game":"","app_id":0,"player_count":0,"max_players":0,"Bots":0,"server_type":"","server_os":"","password":false,"vac":false,"version":"","steam_id":0,"keywords":null,"game_id":0,"stv_port":0,"stv_name":"","players":null},{"server_id":302,"name":"Uncletopia | Montréal | 3 | All Maps","name_short":"mtl-3","host":"mtl-1.ca.uncletopia.com","port":27035,"enabled":true,"region":"us-east","cc":"ca","latitude":45.50889,"longitude":-73.56167,"reserved":0,"last_update":"0001-01-01T00:00:00Z","name_a2s":"","protocol":0,"map":"","folder":"","game":"","app_id":0,"player_count":0,"max_players":0,"Bots":0,"server_type":"","server_os":"","password":false,"vac":false,"version":"","steam_id":0,"keywords":null,"game_id":0,"stv_port":0,"stv_name":"","players":null},{"server_id":303,"name":"Uncletopia | Montréal | 4 | No Payload","name_short":"mtl-4","host":"mtl-1.ca.uncletopia.com","port":27045,"enabled":true,"region":"us-east","cc":"ca","latitude":45.50889,"longitude":-73.56167,"reserved":0,"last_update":"0001-01-01T00:00:00Z","name_a2s":"","protocol":0,"map":"","folder":"","game":"","app_id":0,"player_count":0,"max_players":0,"Bots":0,"server_type":"","server_os":"","password":false,"vac":false,"version":"","steam_id":0,"keywords":null,"game_id":0,"stv_port":0,"stv_name":"","players":null},{"server_id":13,"name":"Uncletopia | New York City | 1 | All Maps","name_short":"nyc-1","host":"nyc-1.us.uncletopia.com","port":27015,"enabled":true,"region":"us-east","cc":"us","latitude":40.73061,"longitude":-73.93524,"reserved":0,"last_update":"0001-01-01T00:00:00Z","name_a2s":"Uncletopia | New York City | 1 | All Maps","protocol":17,"map":"cp_altitude","folder":"tf","game":"Team Fortress","app_id":440,"player_count":24,"max_players":24,"Bots":0,"server_type":"Dedicated","server_os":"Linux","password":true,"vac":true,"version":"7961495","steam_id":85568392924469993,"keywords":["cp","nocrits","nodmgspread","uncletopia"],"game_id":440,"stv_port":27016,"stv_name":"Uncletopia | New York City | 1 | All Maps | STV","players":[{"user_id":103,"name":"Sove67","steam_id":76561198069919807,"connected_time":224000000000,"state":"active","ping":107},{"user_id":104,"name":"el wiwi","steam_id":76561198857304367,"connected_time":218000000000,"state":"active","ping":64},{"user_id":63,"name":"Pork Soda","steam_id":76561198119575082,"connected_time":3582000000000,"state":"active","ping":61},{"user_id":28,"name":"bleach65","steam_id":76561198115270571,"connected_time":4659000000000,"state":"active","ping":76},{"user_id":90,"name":"Crazy Ivan","steam_id":76561197993072059,"connected_time":1424000000000,"state":"active","ping":68},{"user_id":65,"name":"Krabby","steam_id":76561198038002264,"connected_time":3557000000000,"state":"active","ping":62},{"user_id":32,"name":"็Periculosum PhD in Funny","steam_id":76561198123370914,"connected_time":4610000000000,"state":"active","ping":99},{"user_id":85,"name":"Andallfor","steam_id":76561198350143349,"connected_time":1873000000000,"state":"active","ping":45},{"user_id":105,"name":"Future Tusk","steam_id":76561198199635217,"connected_time":179000000000,"state":"active","ping":132},{"user_id":106,"name":"ExtraSoap","steam_id":76561198008712409,"connected_time":176000000000,"state":"active","ping":54},{"user_id":102,"name":"pim","steam_id":76561198095163441,"connected_time":239000000000,"state":"active","ping":91},{"user_id":87,"name":"Stupid Sexy Flanders #Save tf2","steam_id":76561198136311983,"connected_time":1640000000000,"state":"active","ping":65},{"user_id":92,"name":"Bagadi","steam_id":76561198150241624,"connected_time":1221000000000,"state":"active","ping":54},{"user_id":97,"name":"DivineBanana","steam_id":76561198026529731,"connected_time":644000000000,"state":"active","ping":89},{"user_id":45,"name":"ndvr","steam_id":76561199379200102,"connected_time":4253000000000,"state":"active","ping":55},{"user_id":107,"name":"leboombomb","steam_id":76561198880736827,"connected_time":158000000000,"state":"active","ping":62},{"user_id":108,"name":"Idk","steam_id":76561198971629959,"connected_time":101000000000,"state":"active","ping":131},{"user_id":94,"name":"Domswish","steam_id":76561198331444240,"connected_time":1109000000000,"state":"active","ping":54},{"user_id":96,"name":"Kiradias777","steam_id":76561198067176309,"connected_time":763000000000,"state":"active","ping":72},{"user_id":100,"name":"In the Balls","steam_id":76561199015025033,"connected_time":254000000000,"state":"active","ping":66},{"user_id":54,"name":"ADRIEN BRODY","steam_id":76561198009299473,"connected_time":4011000000000,"state":"active","ping":58},{"user_id":95,"name":"popfulmail","steam_id":76561198865971290,"connected_time":907000000000,"state":"active","ping":82},{"user_id":101,"name":".","steam_id":76561198077882008,"connected_time":254000000000,"state":"active","ping":56},{"user_id":82,"name":"Baron von Whoopsie","steam_id":76561197996691013,"connected_time":2111000000000,"state":"active","ping":62}]},{"server_id":14,"name":"Uncletopia | New York City | 2 | All Maps","name_short":"nyc-2","host":"nyc-1.us.uncletopia.com","port":27025,"enabled":true,"region":"us-east","cc":"us","latitude":40.73061,"longitude":-73.93524,"reserved":0,"last_update":"0001-01-01T00:00:00Z","name_a2s":"Uncletopia | New York City | 2 | All Maps","protocol":17,"map":"koth_lakeside_final","folder":"tf","game":"Team Fortress","app_id":440,"player_count":2,"max_players":24,"Bots":0,"server_type":"Dedicated","server_os":"Linux","password":true,"vac":true,"version":"7961495","steam_id":85568392924469994,"keywords":["cp","nocrits","nodmgspread","uncletopia"],"game_id":440,"stv_port":27026,"stv_name":"Uncletopia | New York City | 2 | All Maps | STV","players":[{"user_id":16,"name":"AprilB0rnSt0rm","steam_id":76561199135214335,"connected_time":12000000000,"state":"spawning","ping":47},{"user_id":11,"name":"Gothmog","steam_id":76561198115714484,"connected_time":459000000000,"state":"active","ping":154}]},{"server_id":15,"name":"Uncletopia | New York City | 3 | Stopwatch","name_short":"nyc-3","host":"nyc-1.us.uncletopia.com","port":27035,"enabled":true,"region":"us-east","cc":"us","latitude":40.73061,"longitude":-73.93524,"reserved":0,"last_update":"0001-01-01T00:00:00Z","name_a2s":"Uncletopia | New York City | 3 | Stopwatch","protocol":17,"map":"pl_snowycoast","folder":"tf","game":"Team Fortress","app_id":440,"player_count":0,"max_players":24,"Bots":0,"server_type":"Dedicated","server_os":"Linux","password":true,"vac":true,"version":"7961495","steam_id":85568392924742820,"keywords":["nocrits","nodmgspread","payload","uncletopia"],"game_id":440,"stv_port":27036,"stv_name":"Uncletopia | New York City | 3 | Stopwatch | STV","players":null},{"server_id":16,"name":"Uncletopia | New York City | 4 | Community","name_short":"nyc-4","host":"nyc-1.us.uncletopia.com","port":27045,"enabled":true,"region":"us-east","cc":"us","latitude":40.73061,"longitude":-73.93524,"reserved":0,"last_update":"0001-01-01T00:00:00Z","name_a2s":"Uncletopia | New York City | 4 | Community","protocol":17,"map":"cp_altitude","folder":"tf","game":"Team Fortress","app_id":440,"player_count":0,"max_players":24,"Bots":0,"server_type":"Dedicated","server_os":"Linux","password":true,"vac":true,"version":"7961495","steam_id":85568392924742821,"keywords":["cp","nocrits","nodmgspread","uncletopia"],"game_id":440,"stv_port":27046,"stv_name":"Uncletopia | New York City | 4 | Community | STV","players":null},{"server_id":142,"name":"Uncletopia | São Paulo | 1 | All Maps","name_short":"sao-1","host":"sao-1.br.uncletopia.com","port":27015,"enabled":true,"region":"sa","cc":"br","latitude":-23.533773,"longitude":-46.62529,"reserved":0,"last_update":"0001-01-01T00:00:00Z","name_a2s":"Uncletopia | São Paulo | 1 | All Maps","protocol":17,"map":"pl_snowycoast","folder":"tf","game":"Team Fortress","app_id":440,"player_count":0,"max_players":24,"Bots":0,"server_type":"Dedicated","server_os":"Linux","password":true,"vac":true,"version":"7961495","steam_id":85568392924469996,"keywords":["nocrits","nodmgspread","payload","uncletopia"],"game_id":440,"stv_port":27016,"stv_name":"Uncletopia | São Paulo | 1 | All Maps | STV","players":null},{"server_id":143,"name":"Uncletopia | São Paulo | 2 | Community","name_short":"sao-2","host":"sao-2.br.uncletopia.com","port":27015,"enabled":true,"region":"sa","cc":"br","latitude":-23.533773,"longitude":-46.62529,"reserved":0,"last_update":"0001-01-01T00:00:00Z","name_a2s":"Uncletopia | São Paulo | 2 | Community","protocol":17,"map":"pl_badwater","folder":"tf","game":"Team Fortress","app_id":440,"player_count":0,"max_players":24,"Bots":0,"server_type":"Dedicated","server_os":"Linux","password":true,"vac":true,"version":"7961495","steam_id":85568392924485349,"keywords":["nocrits","nodmgspread","payload","uncletopia"],"game_id":440,"stv_port":27016,"stv_name":"Uncletopia | São Paulo | 2 | Community | STV","players":null},{"server_id":7,"name":"Uncletopia | Seattle | 1 | All Maps","name_short":"sea-1","host":"sea-1.us.uncletopia.com","port":27015,"enabled":true,"region":"us-west","cc":"us","latitude":47.608013,"longitude":-122.33517,"reserved":0,"last_update":"0001-01-01T00:00:00Z","name_a2s":"Uncletopia | Seattle | 1 | All Maps","protocol":17,"map":"pl_upward","folder":"tf","game":"Team Fortress","app_id":440,"player_count":24,"max_players":24,"Bots":0,"server_type":"Dedicated","server_os":"Linux","password":true,"vac":true,"version":"7961495","steam_id":85568392924469997,"keywords":["nocrits","nodmgspread","payload","uncletopia"],"game_id":440,"stv_port":27016,"stv_name":"Uncletopia | Seattle | 1 | All Maps | STV","players":[{"user_id":125,"name":"Karg","steam_id":76561198091387866,"connected_time":2547000000000,"state":"active","ping":73},{"user_id":85,"name":"10HourNaps","steam_id":76561199082304859,"connected_time":4775000000000,"state":"active","ping":61},{"user_id":140,"name":"Dan","steam_id":76561198205054883,"connected_time":952000000000,"state":"active","ping":57},{"user_id":84,"name":"YourLocalArsonist","steam_id":76561199111922751,"connected_time":4802000000000,"state":"active","ping":116},{"user_id":141,"name":"ScoutBox","steam_id":76561198111539895,"connected_time":942000000000,"state":"active","ping":75},{"user_id":154,"name":"Igrium","steam_id":76561198119549811,"connected_time":329000000000,"state":"active","ping":63},{"user_id":110,"name":"2 Point Tom","steam_id":76561198087617008,"connected_time":3183000000000,"state":"active","ping":46},{"user_id":143,"name":"ZeeKThe3rd","steam_id":76561198190156546,"connected_time":908000000000,"state":"active","ping":60},{"user_id":127,"name":"Sirfub","steam_id":76561198160767583,"connected_time":2524000000000,"state":"active","ping":108},{"user_id":144,"name":"K2f","steam_id":76561198049600563,"connected_time":873000000000,"state":"active","ping":75},{"user_id":136,"name":"rat gets the cheese","steam_id":76561198031234032,"connected_time":1553000000000,"state":"active","ping":96},{"user_id":105,"name":"evilOlive","steam_id":76561198106222025,"connected_time":3523000000000,"state":"active","ping":79},{"user_id":153,"name":"Daz","steam_id":76561198041431938,"connected_time":496000000000,"state":"active","ping":53},{"user_id":156,"name":"ikuyo","steam_id":76561198996950205,"connected_time":72000000000,"state":"active","ping":61},{"user_id":131,"name":"BigBubble42","steam_id":76561198136286123,"connected_time":2411000000000,"state":"active","ping":80},{"user_id":149,"name":"barney","steam_id":76561198166433332,"connected_time":738000000000,"state":"active","ping":75},{"user_id":118,"name":"Sploonbabagoosecooties","steam_id":76561198139972201,"connected_time":2787000000000,"state":"active","ping":58},{"user_id":147,"name":"oil","steam_id":76561198099980149,"connected_time":859000000000,"state":"active","ping":84},{"user_id":139,"name":"Mediocre","steam_id":76561198056352693,"connected_time":1120000000000,"state":"active","ping":86},{"user_id":77,"name":"ten times","steam_id":76561198858474714,"connected_time":5408000000000,"state":"active","ping":55},{"user_id":126,"name":"Acidbrawler","steam_id":76561198174803983,"connected_time":2535000000000,"state":"active","ping":98},{"user_id":137,"name":"5kPrime","steam_id":76561198039471915,"connected_time":1384000000000,"state":"active","ping":88},{"user_id":135,"name":"for eel? on cod? no carp?","steam_id":76561198095121758,"connected_time":2033000000000,"state":"active","ping":74},{"user_id":152,"name":"Jpxfred","steam_id":76561199414783749,"connected_time":586000000000,"state":"active","ping":83}]},{"server_id":119,"name":"Uncletopia | Seattle | 2 | All Maps","name_short":"sea-2","host":"sea-1.us.uncletopia.com","port":27025,"enabled":true,"region":"us-west","cc":"us","latitude":47.608013,"longitude":-122.33517,"reserved":0,"last_update":"0001-01-01T00:00:00Z","name_a2s":"Uncletopia | Seattle | 2 | All Maps","protocol":17,"map":"cp_steel","folder":"tf","game":"Team Fortress","app_id":440,"player_count":23,"max_players":24,"Bots":0,"server_type":"Dedicated","server_os":"Linux","password":true,"vac":true,"version":"7961495","steam_id":85568392924469998,"keywords":["cp","nocrits","nodmgspread","uncletopia"],"game_id":440,"stv_port":27026,"stv_name":"Uncletopia | Seattle | 2 | All Maps | STV","players":[{"user_id":173,"name":"COOL master_9","steam_id":76561198073041151,"connected_time":3685000000000,"state":"active","ping":100},{"user_id":180,"name":"Lili W.","steam_id":76561199391478575,"connected_time":3238000000000,"state":"active","ping":68},{"user_id":179,"name":"Pirate with radio","steam_id":76561199247095754,"connected_time":3345000000000,"state":"active","ping":98},{"user_id":174,"name":"Noah","steam_id":76561198059048749,"connected_time":3648000000000,"state":"active","ping":64},{"user_id":184,"name":"aqua","steam_id":76561199407709552,"connected_time":2447000000000,"state":"active","ping":108},{"user_id":211,"name":"Apollo","steam_id":76561198162364702,"connected_time":74000000000,"state":"active","ping":49},{"user_id":159,"name":"Cinnifox","steam_id":76561198068773971,"connected_time":4216000000000,"state":"active","ping":70},{"user_id":107,"name":"Keamy","steam_id":76561199471434875,"connected_time":8846000000000,"state":"active","ping":37},{"user_id":199,"name":"chanoc","steam_id":76561198026734746,"connected_time":1455000000000,"state":"active","ping":70},{"user_id":207,"name":"wmjledger","steam_id":76561198443046861,"connected_time":717000000000,"state":"active","ping":62},{"user_id":201,"name":"Croxsbow","steam_id":76561198893327481,"connected_time":1410000000000,"state":"active","ping":46},{"user_id":209,"name":"TheArachnidGamer","steam_id":76561198304986752,"connected_time":533000000000,"state":"active","ping":72},{"user_id":190,"name":"Pneumo.","steam_id":76561197987911883,"connected_time":2330000000000,"state":"active","ping":74},{"user_id":191,"name":"eepy kitty :3","steam_id":76561198106313563,"connected_time":2319000000000,"state":"active","ping":105},{"user_id":204,"name":"Sicko Mode (Chris Pratt Cover)","steam_id":76561198315786174,"connected_time":813000000000,"state":"active","ping":122},{"user_id":175,"name":"Boxcars","steam_id":76561198120978767,"connected_time":3643000000000,"state":"active","ping":80},{"user_id":206,"name":"Mr. DeLarge","steam_id":76561198336820066,"connected_time":761000000000,"state":"active","ping":62},{"user_id":171,"name":"blossssssommmmm","steam_id":76561198042735130,"connected_time":3859000000000,"state":"active","ping":57},{"user_id":194,"name":"Kamin","steam_id":76561198255299559,"connected_time":2150000000000,"state":"active","ping":146},{"user_id":210,"name":"CopperBox","steam_id":76561198068217248,"connected_time":516000000000,"state":"active","ping":85},{"user_id":212,"name":"Pluto","steam_id":76561198338593690,"connected_time":40000000000,"state":"active","ping":123},{"user_id":158,"name":"26O3 極光面紗","steam_id":76561198964074985,"connected_time":4406000000000,"state":"active","ping":68},{"user_id":116,"name":"Satori Komeiji","steam_id":76561198158211423,"connected_time":8519000000000,"state":"active","ping":78}]},{"server_id":406,"name":"Uncletopia | Seattle | 3 | Stopwatch","name_short":"sea-3","host":"sea-1.us.uncletopia.com","port":27035,"enabled":true,"region":"us-west","cc":"us","latitude":47.608013,"longitude":-122.33517,"reserved":0,"last_update":"0001-01-01T00:00:00Z","name_a2s":"Uncletopia | Seattle | 3 | Stopwatch","protocol":17,"map":"koth_highpass","folder":"tf","game":"Team Fortress","app_id":440,"player_count":0,"max_players":24,"Bots":0,"server_type":"Dedicated","server_os":"Linux","password":true,"vac":true,"version":"7961495","steam_id":85568392924515217,"keywords":["cp","nocrits","nodmgspread","uncletopia"],"game_id":440,"stv_port":27036,"stv_name":"Uncletopia | Seattle | 3 | Stopwatch | STV","players":null},{"server_id":17,"name":"Uncletopia | San Francisco | 1 | All Maps","name_short":"sfo-1","host":"sfo-1.us.uncletopia.com","port":27015,"enabled":true,"region":"us-west","cc":"us","latitude":37.77397,"longitude":-122.4313,"reserved":0,"last_update":"0001-01-01T00:00:00Z","name_a2s":"Uncletopia | San Francisco | 1 | All Maps","protocol":17,"map":"koth_cascade","folder":"tf","game":"Team Fortress","app_id":440,"player_count":0,"max_players":24,"Bots":0,"server_type":"Dedicated","server_os":"Linux","password":true,"vac":true,"version":"7961495","steam_id":85568392924469999,"keywords":["cp","nocrits","nodmgspread","uncletopia"],"game_id":440,"stv_port":27016,"stv_name":"Uncletopia | San Francisco | 1 | All Maps | STV","players":null},{"server_id":18,"name":"Uncletopia | San Francisco | 2 | All Maps","name_short":"sfo-2","host":"sfo-1.us.uncletopia.com","port":27025,"enabled":true,"region":"us-west","cc":"us","latitude":37.77397,"longitude":-122.4313,"reserved":0,"last_update":"0001-01-01T00:00:00Z","name_a2s":"Uncletopia | San Francisco | 2 | All Maps","protocol":17,"map":"pl_frontier_final","folder":"tf","game":"Team Fortress","app_id":440,"player_count":0,"max_players":24,"Bots":0,"server_type":"Dedicated","server_os":"Linux","password":true,"vac":true,"version":"7961495","steam_id":85568392924470000,"keywords":["nocrits","nodmgspread","payload","uncletopia"],"game_id":440,"stv_port":27026,"stv_name":"Uncletopia | San Francisco | 2 | All Maps | STV","players":null},{"server_id":19,"name":"Uncletopia | San Francisco | 3 | Stopwatch","name_short":"sfo-3","host":"sfo-1.us.uncletopia.com","port":27035,"enabled":true,"region":"us-west","cc":"us","latitude":37.77397,"longitude":-122.4313,"reserved":0,"last_update":"0001-01-01T00:00:00Z","name_a2s":"Uncletopia | San Francisco | 3 | Stopwatch","protocol":17,"map":"pl_pier","folder":"tf","game":"Team Fortress","app_id":440,"player_count":0,"max_players":24,"Bots":0,"server_type":"Dedicated","server_os":"Linux","password":true,"vac":true,"version":"7961495","steam_id":85568392924742824,"keywords":["nocrits","nodmgspread","payload","uncletopia"],"game_id":440,"stv_port":27036,"stv_name":"Uncletopia | San Francisco | 3 | Stopwatch | STV","players":null},{"server_id":20,"name":"Uncletopia | San Francisco | 4 | Community","name_short":"sfo-4","host":"sfo-1.us.uncletopia.com","port":27045,"enabled":true,"region":"us-west","cc":"us","latitude":37.77397,"longitude":-122.4313,"reserved":0,"last_update":"0001-01-01T00:00:00Z","name_a2s":"Uncletopia | San Francisco | 4 | Community","protocol":17,"map":"pl_pier","folder":"tf","game":"Team Fortress","app_id":440,"player_count":0,"max_players":24,"Bots":0,"server_type":"Dedicated","server_os":"Linux","password":true,"vac":true,"version":"7961495","steam_id":85568392924742826,"keywords":["nocrits","nodmgspread","payload","uncletopia"],"game_id":440,"stv_port":27046,"stv_name":"Uncletopia | San Francisco | 4 | Community | STV","players":null},{"server_id":141,"name":"Uncletopia | Sydney | 1 | All Maps","name_short":"syd-1","host":"syd-1.au.uncletopia.com","port":27015,"enabled":true,"region":"au","cc":"au","latitude":-33.865143,"longitude":151.2099,"reserved":0,"last_update":"0001-01-01T00:00:00Z","name_a2s":"Uncletopia | Sydney | 1 | All Maps","protocol":17,"map":"koth_viaduct","folder":"tf","game":"Team Fortress","app_id":440,"player_count":0,"max_players":24,"Bots":0,"server_type":"Dedicated","server_os":"Linux","password":true,"vac":true,"version":"7961495","steam_id":85568392924470001,"keywords":["cp","nocrits","nodmgspread","uncletopia"],"game_id":440,"stv_port":27016,"stv_name":"Uncletopia | Sydney | 1 | All Maps | STV","players":null},{"server_id":123,"name":"Uncletopia | Sydney | 2 | All Maps","name_short":"syd-2","host":"syd-1.au.uncletopia.com","port":27025,"enabled":true,"region":"au","cc":"au","latitude":-33.865143,"longitude":151.2099,"reserved":0,"last_update":"0001-01-01T00:00:00Z","name_a2s":"Uncletopia | Sydney | 2 | All Maps","protocol":17,"map":"koth_lakeside_final","folder":"tf","game":"Team Fortress","app_id":440,"player_count":0,"max_players":24,"Bots":0,"server_type":"Dedicated","server_os":"Linux","password":true,"vac":true,"version":"7961495","steam_id":85568392924470002,"keywords":["cp","nocrits","nodmgspread","uncletopia"],"game_id":440,"stv_port":27026,"stv_name":"Uncletopia | Sydney | 2 | All Maps | STV","players":null},{"server_id":395,"name":"Uncletopia | Sydney | 3 | All Maps","name_short":"syd-3","host":"syd-1.au.uncletopia.com","port":27035,"enabled":true,"region":"au","cc":"au","latitude":-33.865143,"longitude":151.2099,"reserved":0,"last_update":"0001-01-01T00:00:00Z","name_a2s":"Uncletopia | Sydney | 3 | All Maps","protocol":17,"map":"pl_frontier_final","folder":"tf","game":"Team Fortress","app_id":440,"player_count":0,"max_players":24,"Bots":0,"server_type":"Dedicated","server_os":"Linux","password":true,"vac":true,"version":"7961495","steam_id":85568392925194467,"keywords":["nocrits","nodmgspread","payload","uncletopia"],"game_id":440,"stv_port":27036,"stv_name":"Uncletopia | Sydney | 3 | All Maps | STV","players":null},{"server_id":396,"name":"Uncletopia | Sydney | 4 | All Maps","name_short":"syd-4","host":"syd-1.au.uncletopia.com","port":27045,"enabled":true,"region":"au","cc":"au","latitude":-33.865143,"longitude":151.2099,"reserved":0,"last_update":"0001-01-01T00:00:00Z","name_a2s":"Uncletopia | Sydney | 4 | All Maps","protocol":17,"map":"cp_process_final","folder":"tf","game":"Team Fortress","app_id":440,"player_count":0,"max_players":24,"Bots":0,"server_type":"Dedicated","server_os":"Linux","password":true,"vac":true,"version":"7961495","steam_id":85568392925397958,"keywords":["cp","nocrits","nodmgspread","uncletopia"],"game_id":440,"stv_port":27046,"stv_name":"Uncletopia | Sydney | 4 | All Maps | STV","players":null},{"server_id":58,"name":"Uncletopia | Sydney | 5 | Stopwatch","name_short":"syd-5","host":"syd-1.au.uncletopia.com","port":27055,"enabled":true,"region":"au","cc":"au","latitude":-33.865143,"longitude":151.2099,"reserved":0,"last_update":"0001-01-01T00:00:00Z","name_a2s":"Uncletopia | Sydney | 5 | Stopwatch","protocol":17,"map":"pl_frontier_final","folder":"tf","game":"Team Fortress","app_id":440,"player_count":0,"max_players":24,"Bots":0,"server_type":"Dedicated","server_os":"Linux","password":true,"vac":true,"version":"7961495","steam_id":85568392925397959,"keywords":["nocrits","nodmgspread","payload","uncletopia"],"game_id":440,"stv_port":27056,"stv_name":"Uncletopia | Sydney | 5 | Stopwatch | STV","players":null},{"server_id":59,"name":"Uncletopia | Sydney | 6 | Community","name_short":"syd-6","host":"syd-1.au.uncletopia.com","port":27065,"enabled":true,"region":"au","cc":"au","latitude":-33.865143,"longitude":151.2099,"reserved":0,"last_update":"0001-01-01T00:00:00Z","name_a2s":"Uncletopia | Sydney | 6 | Community","protocol":17,"map":"cp_sunshine","folder":"tf","game":"Team Fortress","app_id":440,"player_count":0,"max_players":24,"Bots":0,"server_type":"Dedicated","server_os":"Linux","password":true,"vac":true,"version":"7961495","steam_id":85568392925397960,"keywords":["cp","nocrits","nodmgspread","uncletopia"],"game_id":440,"stv_port":27066,"stv_name":"Uncletopia | Sydney | 6 | Community | STV","players":null},{"server_id":49,"name":"Uncletopia | Warsaw | 1 | All Maps","name_short":"waw-1","host":"waw-1.pl.uncletopia.com","port":27015,"enabled":true,"region":"eu","cc":"pl","latitude":52.2297,"longitude":21.017532,"reserved":0,"last_update":"0001-01-01T00:00:00Z","name_a2s":"Uncletopia | Warsaw | 1 | All Maps","protocol":17,"map":"pl_swiftwater_final1","folder":"tf","game":"Team Fortress","app_id":440,"player_count":0,"max_players":24,"Bots":0,"server_type":"Dedicated","server_os":"Linux","password":true,"vac":true,"version":"7961495","steam_id":85568392925397850,"keywords":["nocrits","nodmgspread","payload","uncletopia"],"game_id":440,"stv_port":27016,"stv_name":"Uncletopia | Warsaw | 1 | All Maps | STV","players":null},{"server_id":50,"name":"Uncletopia | Warsaw | 2 | All Maps","name_short":"waw-2","host":"waw-1.pl.uncletopia.com","port":27025,"enabled":true,"region":"eu","cc":"pl","latitude":52.2297,"longitude":21.017532,"reserved":0,"last_update":"0001-01-01T00:00:00Z","name_a2s":"Uncletopia | Warsaw | 2 | All Maps","protocol":17,"map":"cp_altitude","folder":"tf","game":"Team Fortress","app_id":440,"player_count":16,"max_players":24,"Bots":0,"server_type":"Dedicated","server_os":"Linux","password":true,"vac":true,"version":"7961495","steam_id":85568392925397851,"keywords":["cp","nocrits","nodmgspread","uncletopia"],"game_id":440,"stv_port":27026,"stv_name":"Uncletopia | Warsaw | 2 | All Maps | STV","players":[{"user_id":73,"name":"God","steam_id":76561199049925843,"connected_time":7587000000000,"state":"active","ping":115},{"user_id":152,"name":"gerber local brewery","steam_id":76561198183623117,"connected_time":396000000000,"state":"active","ping":38},{"user_id":151,"name":"Fox King #savetf2","steam_id":76561199110688406,"connected_time":731000000000,"state":"active","ping":72},{"user_id":148,"name":"Ketoia","steam_id":76561198105995754,"connected_time":979000000000,"state":"active","ping":66},{"user_id":142,"name":"JareJare","steam_id":76561199040893751,"connected_time":1855000000000,"state":"active","ping":66},{"user_id":149,"name":"Dragonhunter219","steam_id":76561198241078656,"connected_time":903000000000,"state":"active","ping":207},{"user_id":150,"name":"Vivi The VVitch","steam_id":76561198199110998,"connected_time":817000000000,"state":"active","ping":41},{"user_id":145,"name":"Kjat","steam_id":76561198839433592,"connected_time":1596000000000,"state":"active","ping":67},{"user_id":146,"name":"ttk","steam_id":76561198094684065,"connected_time":1387000000000,"state":"active","ping":54},{"user_id":153,"name":"N","steam_id":76561198176593895,"connected_time":348000000000,"state":"active","ping":50},{"user_id":154,"name":"Waltism","steam_id":76561199447676489,"connected_time":290000000000,"state":"active","ping":519},{"user_id":155,"name":"Bryyy","steam_id":76561199013257266,"connected_time":254000000000,"state":"active","ping":57},{"user_id":135,"name":"godmodule","steam_id":76561198165995444,"connected_time":2817000000000,"state":"active","ping":90},{"user_id":156,"name":"Punker","steam_id":76561198255964089,"connected_time":171000000000,"state":"active","ping":103},{"user_id":158,"name":"stjepa_","steam_id":76561199353825240,"connected_time":51000000000,"state":"active","ping":117},{"user_id":104,"name":"RedMoose555","steam_id":76561198936369385,"connected_time":5817000000000,"state":"active","ping":81}]},{"server_id":51,"name":"Uncletopia | Warsaw | 3 | All Maps","name_short":"waw-3","host":"waw-1.pl.uncletopia.com","port":27035,"enabled":true,"region":"eu","cc":"pl","latitude":52.2297,"longitude":21.017532,"reserved":0,"last_update":"0001-01-01T00:00:00Z","name_a2s":"Uncletopia | Warsaw | 3 | All Maps","protocol":17,"map":"koth_cascade","folder":"tf","game":"Team Fortress","app_id":440,"player_count":0,"max_players":24,"Bots":0,"server_type":"Dedicated","server_os":"Linux","password":true,"vac":true,"version":"7961495","steam_id":85568392925397852,"keywords":["cp","nocrits","nodmgspread","uncletopia"],"game_id":440,"stv_port":27036,"stv_name":"Uncletopia | Warsaw | 3 | All Maps | STV","players":null},{"server_id":52,"name":"Uncletopia | Warsaw | 4 | All Maps","name_short":"waw-4","host":"waw-1.pl.uncletopia.com","port":27045,"enabled":true,"region":"eu","cc":"pl","latitude":52.2297,"longitude":21.017532,"reserved":0,"last_update":"0001-01-01T00:00:00Z","name_a2s":"Uncletopia | Warsaw | 4 | All Maps","protocol":17,"map":"cp_altitude","folder":"tf","game":"Team Fortress","app_id":440,"player_count":0,"max_players":24,"Bots":0,"server_type":"Dedicated","server_os":"Linux","password":true,"vac":true,"version":"7961495","steam_id":85568392925397853,"keywords":["cp","nocrits","nodmgspread","uncletopia"],"game_id":440,"stv_port":27046,"stv_name":"Uncletopia | Warsaw | 4 | All Maps | STV","players":null},{"server_id":53,"name":"Uncletopia | Warsaw | 5 | Stopwatch","name_short":"waw-5","host":"waw-1.pl.uncletopia.com","port":27055,"enabled":true,"region":"eu","cc":"pl","latitude":52.2297,"longitude":21.017532,"reserved":0,"last_update":"0001-01-01T00:00:00Z","name_a2s":"Uncletopia | Warsaw | 5 | Stopwatch","protocol":17,"map":"pl_barnblitz","folder":"tf","game":"Team Fortress","app_id":440,"player_count":0,"max_players":24,"Bots":0,"server_type":"Dedicated","server_os":"Linux","password":true,"vac":true,"version":"7961495","steam_id":85568392925397854,"keywords":["nocrits","nodmgspread","payload","uncletopia"],"game_id":440,"stv_port":27056,"stv_name":"Uncletopia | Warsaw | 5 | Stopwatch | STV","players":null},{"server_id":54,"name":"Uncletopia | Warsaw | 6 | Community","name_short":"waw-6","host":"waw-1.pl.uncletopia.com","port":27065,"enabled":true,"region":"eu","cc":"pl","latitude":52.2297,"longitude":21.017532,"reserved":0,"last_update":"0001-01-01T00:00:00Z","name_a2s":"Uncletopia | Warsaw | 6 | Community","protocol":17,"map":"workshop/pl_badwater_pro_v12.ugc2142942074","folder":"tf","game":"Team Fortress","app_id":440,"player_count":0,"max_players":24,"Bots":0,"server_type":"Dedicated","server_os":"Linux","password":true,"vac":true,"version":"7961495","steam_id":85568392925397856,"keywords":["nocrits","nodmgspread","payload","uncletopia"],"game_id":440,"stv_port":27066,"stv_name":"Uncletopia | Warsaw | 6 | Community | STV","players":null}]}