{"status":true,"message":"","result":[{"server_id":9,"name":"Uncletopia | Atlanta | 1 | All Maps","name_short":"atl-1","host":"atl-1.us.uncletopia.com","port":27015,"enabled":true,"region":"us-east","cc":"us","latitude":33.753746,"longitude":-84.38633,"reserved":0,"last_update":"0001-01-01T00:00:00Z","name_a2s":"Uncletopia | Atlanta | 1 | All Maps","protocol":17,"map":"pl_hoodoo_final","folder":"tf","game":"Team Fortress","app_id":440,"player_count":24,"max_players":24,"Bots":0,"server_type":"Dedicated","server_os":"Linux","password":true,"vac":true,"version":"7708610","steam_id":85568392924469982,"keywords":["nocrits","nodmgspread","payload","uncletopia"],"game_id":440,"stv_port":27016,"stv_name":"Uncletopia | Atlanta | 1 | All Maps | STV","players":[{"user_id":172,"name":"MysteryMage","steam_id":76561198074241821,"connected_time":2112000000000,"state":"active","ping":124},{"user_id":184,"name":"Braixen","steam_id":76561198354314389,"connected_time":456000000000,"state":"active","ping":66},{"user_id":186,"name":"embryonic beer","steam_id":76561198080589798,"connected_time":276000000000,"state":"active","ping":51},{"user_id":24,"name":"monke gaming","steam_id":76561198838245430,"connected_time":13259000000000,"state":"active","ping":129},{"user_id":177,"name":"OneTrueCorvid","steam_id":76561199012953221,"connected_time":1233000000000,"state":"active","ping":106},{"user_id":142,"name":"GREG","steam_id":76561198073021168,"connected_time":4548000000000,"state":"active","ping":45},{"user_id":176,"name":"goodheartchris","steam_id":76561198045836210,"connected_time":1239000000000,"state":"active","ping":80},{"user_id":175,"name":"Some Genius","steam_id":76561198101868089,"connected_time":1251000000000,"state":"active","ping":101},{"user_id":148,"name":"SuperJagops","steam_id":76561198034689716,"connected_time":4077000000000,"state":"active","ping":78},{"user_id":169,"name":"TheKingEnderman","steam_id":76561198412447420,"connected_time":2146000000000,"state":"active","ping":66},{"user_id":71,"name":"timesool","steam_id":76561198367583372,"connected_time":8958000000000,"state":"active","ping":78},{"user_id":182,"name":"tacofever","steam_id":76561198010966507,"connected_time":655000000000,"state":"active","ping":107},{"user_id":188,"name":"Mixomin","steam_id":76561198295061570,"connected_time":67000000000,"state":"active","ping":64},{"user_id":167,"name":"Vibey","steam_id":76561198342873474,"connected_time":2386000000000,"state":"active","ping":74},{"user_id":35,"name":"Cthulwho?","steam_id":76561198165550810,"connected_time":12056000000000,"state":"active","ping":61},{"user_id":153,"name":"Knightshade","steam_id":76561198047225393,"connected_time":3668000000000,"state":"active","ping":94},{"user_id":171,"name":"Clean","steam_id":76561198061224922,"connected_time":2145000000000,"state":"active","ping":84},{"user_id":173,"name":"MitcheyHD","steam_id":76561198066489645,"connected_time":2067000000000,"state":"active","ping":85},{"user_id":147,"name":"Coup de Grass","steam_id":76561198011643226,"connected_time":4262000000000,"state":"active","ping":62},{"user_id":185,"name":"Takumi Fujiwara","steam_id":76561198146281101,"connected_time":432000000000,"state":"active","ping":97},{"user_id":178,"name":"bdkaine1","steam_id":76561198133545467,"connected_time":1232000000000,"state":"active","ping":57},{"user_id":187,"name":"Frajer","steam_id":76561198059129680,"connected_time":73000000000,"state":"active","ping":80},{"user_id":157,"name":"√íw√ì","steam_id":76561197997304387,"connected_time":3306000000000,"state":"active","ping":73},{"user_id":189,"name":"NoonCity","steam_id":76561198010165479,"connected_time":32000000000,"state":"spawning","ping":67}]},{"server_id":400,"name":"Uncletopia | Atlanta | 3 | All Maps","name_short":"atl-3","host":"atl-1.us.uncletopia.com","port":27035,"enabled":true,"region":"us-east","cc":"us","latitude":33.753746,"longitude":-84.38633,"reserved":0,"last_update":"0001-01-01T00:00:00Z","name_a2s":"Uncletopia | Atlanta | 3 | All Maps","protocol":17,"map":"cp_process_final","folder":"tf","game":"Team Fortress","app_id":440,"player_count":24,"max_players":24,"Bots":0,"server_type":"Dedicated","server_os":"Linux","password":true,"vac":true,"version":"7708610","steam_id":85568392924515187,"keywords":["cp","nocrits","nodmgspread","uncletopia"],"game_id":440,"stv_port":27036,"stv_name":"Uncletopia | Atlanta | 3 | All Maps | STV","players":[{"user_id":4,"name":"abomination","steam_id":76561198167974713,"connected_time":3030000000000,"state":"active","ping":59},{"user_id":28,"name":"Shadow15kDude420","steam_id":76561198825658971,"connected_time":999000000000,"state":"active","ping":105},{"user_id":25,"name":"A_Malebolgia","steam_id":76561198097722818,"connected_time":1096000000000,"state":"active","ping":85},{"user_id":9,"name":"tabbymei","steam_id":76561199437351945,"connected_time":1928000000000,"state":"active","ping":78},{"user_id":11,"name":"qjkxkcd","steam_id":76561198035922283,"connected_time":1715000000000,"state":"active","ping":63},{"user_id":47,"name":"Gary Budussy","steam_id":76561197969793969,"connected_time":446000000000,"state":"active","ping":63},{"user_id":13,"name":"*dead*","steam_id":76561199199025631,"connected_time":1493000000000,"state":"active","ping":80},{"user_id":15,"name":"jorjor wells","steam_id":76561199073429082,"connected_time":1392000000000,"state":"active","ping":76},{"user_id":16,"name":"CyberSyn","steam_id":76561198169966346,"connected_time":1373000000000,"state":"active","ping":70},{"user_id":17,"name":"Walmart Employee","steam_id":76561198840373909,"connected_time":1359000000000,"state":"active","ping":61},{"user_id":48,"name":"rajas","steam_id":76561198049099910,"connected_time":406000000000,"state":"active","ping":78},{"user_id":19,"name":"Cad","steam_id":76561198312145232,"connected_time":1269000000000,"state":"active","ping":79},{"user_id":20,"name":"Chackie Jan","steam_id":76561199099907475,"connected_time":1233000000000,"state":"active","ping":93},{"user_id":37,"name":"stryker","steam_id":76561198373409641,"connected_time":690000000000,"state":"active","ping":52},{"user_id":45,"name":"Quakedad","steam_id":76561198055811307,"connected_time":476000000000,"state":"active","ping":120},{"user_id":49,"name":"megajor444","steam_id":76561198872929068,"connected_time":393000000000,"state":"active","ping":136},{"user_id":31,"name":"Habber The Quesomancer","steam_id":76561198049642751,"connected_time":917000000000,"state":"active","ping":60},{"user_id":46,"name":"fudge lord","steam_id":76561198118318422,"connected_time":469000000000,"state":"active","ping":55},{"user_id":33,"name":"Obama Gaming 2022","steam_id":76561199006905645,"connected_time":859000000000,"state":"active","ping":91},{"user_id":51,"name":"rlty","steam_id":76561198009395055,"connected_time":365000000000,"state":"active","ping":60},{"user_id":42,"name":"Tpoyo","steam_id":76561198049951724,"connected_time":552000000000,"state":"active","ping":81},{"user_id":38,"name":"Masotan","steam_id":76561199047187302,"connected_time":673000000000,"state":"active","ping":70},{"user_id":52,"name":"John Darksoul","steam_id":76561198999712284,"connected_time":308000000000,"state":"active","ping":93},{"user_id":40,"name":"Red Fox","steam_id":76561198389688170,"connected_time":628000000000,"state":"active","ping":82}]},{"server_id":401,"name":"Uncletopia | Atlanta | 4 | No Payload","name_short":"atl-4","host":"atl-1.us.uncletopia.com","port":27045,"enabled":true,"region":"us-east","cc":"us","latitude":33.753746,"longitude":-84.38633,"reserved":0,"last_update":"0001-01-01T00:00:00Z","name_a2s":"Uncletopia | Atlanta | 4 | No Payload","protocol":17,"map":"pl_upward","folder":"tf","game":"Team Fortress","app_id":440,"player_count":0,"max_players":24,"Bots":0,"server_type":"Dedicated","server_os":"Linux","password":true,"vac":true,"version":"7708610","steam_id":85568392924515188,"keywords":["nocrits","nodmgspread","payload","uncletopia"],"game_id":440,"stv_port":0,"stv_name":"","players":null},{"server_id":2,"name":"Uncletopia | Chicago | 1 | All Maps","name_short":"chi-1","host":"chi-1.us.uncletopia.com","port":27015,"enabled":true,"region":"us-central","cc":"us","latitude":41.881832,"longitude":-87.62318,"reserved":0,"last_update":"0001-01-01T00:00:00Z","name_a2s":"Uncletopia | Chicago | 1 | All Maps","protocol":17,"map":"koth_highpass","folder":"tf","game":"Team Fortress","app_id":440,"player_count":0,"max_players":24,"Bots":0,"server_type":"Dedicated","server_os":"Linux","password":true,"vac":true,"version":"7708610","steam_id":85568392924469984,"keywords":["cp","nocrits","nodmgspread","uncletopia"],"game_id":440,"stv_port":0,"stv_name":"","players":null},{"server_id":106,"name":"Uncletopia | Chicago | 2 | All Maps","name_short":"chi-2","host":"chi-1.us.uncletopia.com","port":27025,"enabled":true,"region":"us-central","cc":"us","latitude":41.881832,"longitude":-87.62318,"reserved":0,"last_update":"0001-01-01T00:00:00Z","name_a2s":"Uncletopia | Chicago | 2 | All Maps","protocol":17,"map":"cp_sunshine","folder":"tf","game":"Team Fortress","app_id":440,"player_count":0,"max_players":24,"Bots":0,"server_type":"Dedicated","server_os":"Linux","password":true,"vac":true,"version":"7708610","steam_id":85568392924469985,"keywords":["cp","nocrits","nodmgspread","uncletopia"],"game_id":440,"stv_port":0,"stv_name":"","players":null},{"server_id":402,"name":"Uncletopia | Chicago | 3 | All Maps","name_short":"chi-3","host":"chi-1.us.uncletopia.com","port":27035,"enabled":true,"region":"us-central","cc":"us","latitude":41.881832,"longitude":-87.62318,"reserved":0,"last_update":"0001-01-01T00:00:00Z","name_a2s":"Uncletopia | Chicago | 3 | All Maps","protocol":17,"map":"cp_dustbowl","folder":"tf","game":"Team Fortress","app_id":440,"player_count":0,"max_players":24,"Bots":0,"server_type":"Dedicated","server_os":"Linux","password":true,"vac":true,"version":"7708610","steam_id":85568392924515191,"keywords":["cp","nocrits","nodmgspread","uncletopia"],"game_id":440,"stv_port":0,"stv_name":"","players":null},{"server_id":403,"name":"Uncletopia | Chicago | 4 | All Maps","name_short":"chi-4","host":"chi-1.us.uncletopia.com","port":27045,"enabled":true,"region":"us-central","cc":"us","latitude":41.881832,"longitude":-87.62318,"reserved":0,"last_update":"0001-01-01T00:00:00Z","name_a2s":"Uncletopia | Chicago | 4 | All Maps","protocol":17,"map":"koth_highpass","folder":"tf","game":"Team Fortress","app_id":440,"player_count":0,"max_players":24,"Bots":0,"server_type":"Dedicated","server_os":"Linux","password":true,"vac":true,"version":"7708610","steam_id":85568392924515193,"keywords":["cp","nocrits","nodmgspread","uncletopia"],"game_id":440,"stv_port":27046,"stv_name":"Uncletopia | Chicago | 4 | All Maps | STV","players":null},{"server_id":36,"name":"Uncletopia | Chicago | 5 | All Maps","name_short":"chi-5","host":"chi-2.us.uncletopia.com","port":27015,"enabled":true,"region":"us-central","cc":"us","latitude":41.881832,"longitude":-87.62318,"reserved":0,"last_update":"0001-01-01T00:00:00Z","name_a2s":"Uncletopia | Chicago | 5 | All Maps","protocol":17,"map":"cp_snakewater_final1","folder":"tf","game":"Team Fortress","app_id":440,"player_count":0,"max_players":24,"Bots":0,"server_type":"Dedicated","server_os":"Linux","password":true,"vac":true,"version":"7708610","steam_id":85568392924866362,"keywords":["cp","nocrits","nodmgspread","uncletopia"],"game_id":440,"stv_port":0,"stv_name":"","players":null},{"server_id":37,"name":"Uncletopia | Chicago | 6 | All Maps","name_short":"chi-6","host":"chi-2.us.uncletopia.com","port":27025,"enabled":true,"region":"us-central","cc":"us","latitude":41.881832,"longitude":-87.62318,"reserved":0,"last_update":"0001-01-01T00:00:00Z","name_a2s":"Uncletopia | Chicago | 6 | All Maps","protocol":17,"map":"koth_cascade","folder":"tf","game":"Team Fortress","app_id":440,"player_count":0,"max_players":24,"Bots":0,"server_type":"Dedicated","server_os":"Linux","password":true,"vac":true,"version":"7708610","steam_id":85568392924866363,"keywords":["cp","nocrits","nodmgspread","uncletopia"],"game_id":440,"stv_port":0,"stv_name":"","players":null},{"server_id":38,"name":"Uncletopia | Chicago | 7 | No Payload","name_short":"chi-7","host":"chi-2.us.uncletopia.com","port":27035,"enabled":true,"region":"us-central","cc":"us","latitude":41.881832,"longitude":-87.62318,"reserved":0,"last_update":"0001-01-01T00:00:00Z","name_a2s":"Uncletopia | Chicago | 7 | No Payload","protocol":17,"map":"koth_viaduct","folder":"tf","game":"Team Fortress","app_id":440,"player_count":0,"max_players":24,"Bots":0,"server_type":"Dedicated","server_os":"Linux","password":true,"vac":true,"version":"7708610","steam_id":85568392924866364,"keywords":["cp","nocrits","nodmgspread","uncletopia"],"game_id":440,"stv_port":0,"stv_name":"","players":null},{"server_id":39,"name":"Uncletopia | Chicago | 8 | Community","name_short":"chi-8","host":"chi-2.us.uncletopia.com","port":27045,"enabled":true,"region":"us-central","cc":"us","latitude":41.881832,"longitude":-87.62318,"reserved":0,"last_update":"0001-01-01T00:00:00Z","name_a2s":"Uncletopia | Chicago | 8 | Community","protocol":17,"map":"pl_pier","folder":"tf","game":"Team Fortress","app_id":440,"player_count":0,"max_players":24,"Bots":0,"server_type":"Dedicated","server_os":"Linux","password":true,"vac":true,"version":"7708610","steam_id":85568392924866365,"keywords":["nocrits","nodmgspread","payload","uncletopia"],"game_id":440,"stv_port":0,"stv_name":"","players":null},{"server_id":8,"name":"Uncletopia | Dallas | 1 | All Maps","name_short":"dal-1","host":"dal-1.us.uncletopia.com","port":27015,"enabled":true,"region":"us-central","cc":"us","latitude":32.779167,"longitude":-96.80889,"reserved":0,"last_update":"0001-01-01T00:00:00Z","name_a2s":"Uncletopia | Dallas | 1 | All Maps","protocol":17,"map":"pl_upward","folder":"tf","game":"Team Fortress","app_id":440,"player_count":24,"max_players":24,"Bots":0,"server_type":"Dedicated","server_os":"Linux","password":true,"vac":true,"version":"7708610","steam_id":85568392924469986,"keywords":["nocrits","nodmgspread","payload","uncletopia"],"game_id":440,"stv_port":27016,"stv_name":"Uncletopia | Dallas | 1 | All Maps | STV","players":[{"user_id":46,"name":"paj","steam_id":76561198080026026,"connected_time":339000000000,"state":"active","ping":78},{"user_id":44,"name":"\"InsertWittyNameHere\"","steam_id":76561198273918841,"connected_time":401000000000,"state":"active","ping":92},{"user_id":25,"name":"the senate","steam_id":76561198353542913,"connected_time":1588000000000,"state":"active","ping":123},{"user_id":47,"name":"{907}DarkestFury","steam_id":76561198103662458,"connected_time":317000000000,"state":"active","ping":125},{"user_id":24,"name":"ultrax.extremex","steam_id":76561199201770653,"connected_time":1661000000000,"state":"active","ping":76},{"user_id":48,"name":"snoops","steam_id":76561197986760351,"connected_time":294000000000,"state":"active","ping":51},{"user_id":30,"name":"BlueBoi2006","steam_id":76561199150475057,"connected_time":961000000000,"state":"active","ping":58},{"user_id":57,"name":"There must be those who remembe","steam_id":76561198286792807,"connected_time":30000000000,"state":"spawning","ping":456},{"user_id":50,"name":"Normalux","steam_id":76561198293891426,"connected_time":250000000000,"state":"active","ping":112},{"user_id":29,"name":"PzVIIIMaus","steam_id":76561198346559365,"connected_time":1093000000000,"state":"active","ping":65},{"user_id":31,"name":"Rugbmilk","steam_id":76561199389283507,"connected_time":950000000000,"state":"active","ping":92},{"user_id":37,"name":"pumpkin lord","steam_id":76561198880607518,"connected_time":588000000000,"state":"active","ping":75},{"user_id":33,"name":"Paradoxial","steam_id":76561198883950850,"connected_time":730000000000,"state":"active","ping":90},{"user_id":35,"name":"Jammburger","steam_id":76561198091716240,"connected_time":680000000000,"state":"active","ping":55},{"user_id":36,"name":"Horizons","steam_id":76561198106417594,"connected_time":632000000000,"state":"active","ping":46},{"user_id":49,"name":"Scout from TF2","steam_id":76561198140651185,"connected_time":262000000000,"state":"active","ping":64},{"user_id":39,"name":"Captain Squidboy","steam_id":76561199122366842,"connected_time":503000000000,"state":"active","ping":92},{"user_id":40,"name":"extinct111","steam_id":76561199013696367,"connected_time":465000000000,"state":"active","ping":77},{"user_id":43,"name":"Squid","steam_id":76561198197045587,"connected_time":427000000000,"state":"active","ping":109},{"user_id":51,"name":"Am37000","steam_id":76561198872232094,"connected_time":232000000000,"state":"active","ping":54},{"user_id":52,"name":"cheated on the pregnancy test","steam_id":76561199107068627,"connected_time":221000000000,"state":"active","ping":65},{"user_id":53,"name":"tim-","steam_id":76561199119101315,"connected_time":204000000000,"state":"active","ping":94},{"user_id":54,"name":"Owl Pacino","steam_id":76561197979970666,"connected_time":182000000000,"state":"active","ping":77},{"user_id":56,"name":"Phosu","steam_id":76561198180162801,"connected_time":69000000000,"state":"active","ping":317}]},{"server_id":108,"name":"Uncletopia | Dallas | 2 | All Maps","name_short":"dal-2","host":"dal-1.us.uncletopia.com","port":27025,"enabled":true,"region":"us-central","cc":"us","latitude":32.779167,"longitude":-96.80889,"reserved":0,"last_update":"0001-01-01T00:00:00Z","name_a2s":"Uncletopia | Dallas | 2 | All Maps","protocol":17,"map":"koth_cascade","folder":"tf","game":"Team Fortress","app_id":440,"player_count":0,"max_players":24,"Bots":0,"server_type":"Dedicated","server_os":"Linux","password":true,"vac":true,"version":"7708610","steam_id":85568392924469988,"keywords":["cp","nocrits","nodmgspread","uncletopia"],"game_id":440,"stv_port":27026,"stv_name":"Uncletopia | Dallas | 2 | All Maps | STV","players":null},{"server_id":5,"name":"Uncletopia | Frankfurt | 1 | All Maps","name_short":"frk-1","host":"frk-1.de.uncletopia.com","port":27015,"enabled":true,"region":"eu","cc":"de","latitude":50.110924,"longitude":8.682127,"reserved":0,"last_update":"0001-01-01T00:00:00Z","name_a2s":"Uncletopia | Frankfurt | 1 | All Maps","protocol":17,"map":"pl_borneo","folder":"tf","game":"Team Fortress","app_id":440,"player_count":21,"max_players":24,"Bots":0,"server_type":"Dedicated","server_os":"Linux","password":true,"vac":true,"version":"7708610","steam_id":85568392924469989,"keywords":["nocrits","nodmgspread","payload","uncletopia"],"game_id":440,"stv_port":27016,"stv_name":"Uncletopia | Frankfurt | 1 | All Maps | STV","players":[{"user_id":297,"name":"Furkan","steam_id":76561198175613166,"connected_time":874000000000,"state":"active","ping":104},{"user_id":313,"name":"nicco","steam_id":76561198046217866,"connected_time":29000000000,"state":"active","ping":40},{"user_id":296,"name":"Bill Clinton Gaming","steam_id":76561199093399286,"connected_time":911000000000,"state":"active","ping":92},{"user_id":314,"name":"Shlyk","steam_id":76561198333387103,"connected_time":18000000000,"state":"spawning","ping":150},{"user_id":302,"name":"Jio'","steam_id":76561198024037596,"connected_time":803000000000,"state":"active","ping":44},{"user_id":315,"name":"caf√®","steam_id":76561198037938833,"connected_time":7000000000,"state":"spawning","ping":58},{"user_id":316,"name":"name","steam_id":76561198152620745,"connected_time":6000000000,"state":"spawning","ping":64},{"user_id":308,"name":"ghost","steam_id":76561198189940229,"connected_time":643000000000,"state":"active","ping":61},{"user_id":136,"name":"amogus","steam_id":76561198119439177,"connected_time":13057000000000,"state":"active","ping":58},{"user_id":304,"name":"Markein","steam_id":76561198360754280,"connected_time":796000000000,"state":"active","ping":45},{"user_id":305,"name":"Kali","steam_id":76561198796327257,"connected_time":789000000000,"state":"active","ping":47},{"user_id":306,"name":"Fran","steam_id":76561199070516960,"connected_time":789000000000,"state":"active","ping":63},{"user_id":285,"name":"Urfangonultasadana","steam_id":76561199389286151,"connected_time":1881000000000,"state":"active","ping":98},{"user_id":291,"name":"Cippo95","steam_id":76561198255311582,"connected_time":1269000000000,"state":"active","ping":80},{"user_id":273,"name":"Cardbrige","steam_id":76561198294453886,"connected_time":2711000000000,"state":"active","ping":48},{"user_id":286,"name":"axl","steam_id":76561198991661832,"connected_time":1843000000000,"state":"active","ping":73},{"user_id":280,"name":"Festdoktor","steam_id":76561198058159271,"connected_time":2074000000000,"state":"active","ping":53},{"user_id":287,"name":" ï ·µî·¥•·µî  î","steam_id":76561199117720299,"connected_time":1825000000000,"state":"active","ping":45},{"user_id":309,"name":"you (DK)","steam_id":76561198061472971,"connected_time":525000000000,"state":"active","ping":66},{"user_id":289,"name":"anairat","steam_id":76561198863788240,"connected_time":1804000000000,"state":"active","ping":76},{"user_id":311,"name":"Mikaela Reid","steam_id":76561198079941049,"connected_time":362000000000,"state":"active","ping":48}]},{"server_id":110,"name":"Uncletopia | Frankfurt | 2 | All Maps","name_short":"frk-2","host":"frk-1.de.uncletopia.com","port":27025,"enabled":true,"region":"eu","cc":"de","latitude":50.110924,"longitude":8.682127,"reserved":0,"last_update":"0001-01-01T00:00:00Z","name_a2s":"Uncletopia | Frankfurt | 2 | All Maps","protocol":17,"map":"pl_badwater","folder":"tf","game":"Team Fortress","app_id":440,"player_count":17,"max_players":24,"Bots":0,"server_type":"Dedicated","server_os":"Linux","password":true,"vac":true,"version":"7708610","steam_id":85568392924469990,"keywords":["nocrits","nodmgspread","payload","uncletopia"],"game_id":440,"stv_port":27026,"stv_name":"Uncletopia | Frankfurt | 2 | All Maps | STV","players":[{"user_id":89,"name":"Lost And Damned","steam_id":76561198453240974,"connected_time":4221000000000,"state":"active","ping":165},{"user_id":159,"name":"–ûrangePortals","steam_id":76561198282172748,"connected_time":249000000000,"state":"active","ping":121},{"user_id":160,"name":"Pasta goblin with a touchpad","steam_id":76561198803330799,"connected_time":56000000000,"state":"active","ping":125},{"user_id":164,"name":"”ã‘º◊ü.maS","steam_id":76561198114953928,"connected_time":7000000000,"state":"spawning","ping":59},{"user_id":158,"name":"jaMie","steam_id":76561198170148783,"connected_time":402000000000,"state":"active","ping":51},{"user_id":162,"name":"Octis","steam_id":76561198015536917,"connected_time":25000000000,"state":"spawning","ping":76},{"user_id":90,"name":"Oak_Tree_From_Minecraft","steam_id":76561199223984137,"connected_time":4174000000000,"state":"active","ping":50},{"user_id":141,"name":"petit_ewok  ï·µî·¥•·µî î","steam_id":76561197990244946,"connected_time":1521000000000,"state":"active","ping":67},{"user_id":114,"name":".::[SerafeTTiN]::.","steam_id":76561198009471724,"connected_time":3385000000000,"state":"active","ping":86},{"user_id":146,"name":"Gorilla","steam_id":76561198871897563,"connected_time":1449000000000,"state":"active","ping":123},{"user_id":109,"name":"jorj3821","steam_id":76561198844794367,"connected_time":3686000000000,"state":"active","ping":74},{"user_id":133,"name":"Here's Johnny!","steam_id":76561198065506317,"connected_time":1929000000000,"state":"active","ping":54},{"user_id":148,"name":"9/11 is a myth","steam_id":76561198081673615,"connected_time":1436000000000,"state":"active","ping":76},{"user_id":149,"name":"I-I","steam_id":76561198267969436,"connected_time":1399000000000,"state":"active","ping":60},{"user_id":150,"name":"bola typu ≈õwiƒôta","steam_id":76561199145943588,"connected_time":1343000000000,"state":"active","ping":70},{"user_id":115,"name":"MAKENTAKEN","steam_id":76561199127359587,"connected_time":3266000000000,"state":"active","ping":98},{"user_id":143,"name":"SantiThePug #ReviveTheCaber","steam_id":76561199049615996,"connected_time":1516000000000,"state":"active","ping":56}]},{"server_id":308,"name":"Uncletopia | Frankfurt | 3 | All Maps","name_short":"frk-3","host":"frk-1.de.uncletopia.com","port":27035,"enabled":true,"region":"eu","cc":"de","latitude":50.110924,"longitude":8.682127,"reserved":0,"last_update":"0001-01-01T00:00:00Z","name_a2s":"Uncletopia | Frankfurt | 3 | All Maps","protocol":17,"map":"pl_snowycoast","folder":"tf","game":"Team Fortress","app_id":440,"player_count":24,"max_players":24,"Bots":0,"server_type":"Dedicated","server_os":"Linux","password":true,"vac":true,"version":"7708610","steam_id":85568392924504274,"keywords":["nocrits","nodmgspread","payload","uncletopia"],"game_id":440,"stv_port":27036,"stv_name":"Uncletopia | Frankfurt | 3 | All Maps | STV","players":[{"user_id":268,"name":"Panzerwaffle","steam_id":76561198030382800,"connected_time":248000000000,"state":"active","ping":52},{"user_id":209,"name":"Prismoo","steam_id":76561198320524819,"connected_time":4658000000000,"state":"active","ping":76},{"user_id":267,"name":"Dimethaltryptamine","steam_id":76561198043841068,"connected_time":289000000000,"state":"active","ping":106},{"user_id":224,"name":"Technic","steam_id":76561198128096130,"connected_time":3477000000000,"state":"active","ping":48},{"user_id":269,"name":"Masquerade queen","steam_id":76561198218299273,"connected_time":247000000000,"state":"active","ping":101},{"user_id":256,"name":"presidentialAIDS","steam_id":76561199257284077,"connected_time":1348000000000,"state":"active","ping":136},{"user_id":265,"name":"mercedes ben","steam_id":76561198000147423,"connected_time":496000000000,"state":"active","ping":53},{"user_id":266,"name":"dassasinb","steam_id":76561198128316186,"connected_time":368000000000,"state":"active","ping":60},{"user_id":258,"name":"Nibiru_Agent","steam_id":76561198796404149,"connected_time":1328000000000,"state":"active","ping":99},{"user_id":273,"name":"Blat","steam_id":76561199013233409,"connected_time":93000000000,"state":"active","ping":74},{"user_id":243,"name":"cacapo","steam_id":76561198022255760,"connected_time":2192000000000,"state":"active","ping":72},{"user_id":213,"name":"GMsU | Rebikas","steam_id":76561198077053764,"connected_time":4453000000000,"state":"active","ping":45},{"user_id":202,"name":"Smissmin","steam_id":76561198005342133,"connected_time":5007000000000,"state":"active","ping":58},{"user_id":251,"name":"FENTANYLisOK","steam_id":76561198211450236,"connected_time":1532000000000,"state":"active","ping":54},{"user_id":162,"name":"cat (they/them)","steam_id":76561198416657815,"connected_time":7338000000000,"state":"active","ping":64},{"user_id":244,"name":"transjester","steam_id":76561198119594781,"connected_time":2162000000000,"state":"active","ping":63},{"user_id":214,"name":"GMsU | Smiley","steam_id":76561198121494414,"connected_time":4442000000000,"state":"active","ping":78},{"user_id":271,"name":"[LR-Looter]MrMurk","steam_id":76561198363380956,"connected_time":201000000000,"state":"active","ping":49},{"user_id":252,"name":"HIFO2.0","steam_id":76561198179131749,"connected_time":1515000000000,"state":"active","ping":66},{"user_id":223,"name":"GMsU | Acoul","steam_id":76561198229222992,"connected_time":3491000000000,"state":"active","ping":45},{"user_id":259,"name":"KuhlerKarl","steam_id":76561198411211564,"connected_time":1303000000000,"state":"active","ping":67},{"user_id":239,"name":"Fragirl","steam_id":76561198323411853,"connected_time":2256000000000,"state":"active","ping":83},{"user_id":272,"name":"Pabs :D","steam_id":76561198000016962,"connected_time":174000000000,"state":"active","ping":63},{"user_id":264,"name":"G√ºnther","steam_id":76561198333417038,"connected_time":890000000000,"state":"active","ping":90}]},{"server_id":309,"name":"Uncletopia | Frankfurt | 4 | All Maps","name_short":"frk-4","host":"frk-1.de.uncletopia.com","port":27045,"enabled":true,"region":"eu","cc":"de","latitude":50.110924,"longitude":8.682127,"reserved":0,"last_update":"0001-01-01T00:00:00Z","name_a2s":"Uncletopia | Frankfurt | 4 | All Maps","protocol":17,"map":"cp_sunshine","folder":"tf","game":"Team Fortress","app_id":440,"player_count":0,"max_players":24,"Bots":0,"server_type":"Dedicated","server_os":"Linux","password":true,"vac":true,"version":"7708610","steam_id":85568392924504275,"keywords":["cp","nocrits","nodmgspread","uncletopia"],"game_id":440,"stv_port":27046,"stv_name":"Uncletopia | Frankfurt | 4 | All Maps | STV","players":null},{"server_id":310,"name":"Uncletopia | Frankfurt | 5 | All Maps","name_short":"frk-5","host":"frk-1.de.uncletopia.com","port":27055,"enabled":true,"region":"eu","cc":"de","latitude":50.110924,"longitude":8.682127,"reserved":0,"last_update":"0001-01-01T00:00:00Z","name_a2s":"Uncletopia | Frankfurt | 5 | All Maps","protocol":17,"map":"cp_snakewater_final1","folder":"tf","game":"Team Fortress","app_id":440,"player_count":24,"max_players":24,"Bots":0,"server_type":"Dedicated","server_os":"Linux","password":true,"vac":true,"version":"7708610","steam_id":85568392924504277,"keywords":["cp","nocrits","nodmgspread","uncletopia"],"game_id":440,"stv_port":27056,"stv_name":"Uncletopia | Frankfurt | 5 | All Maps | STV","players":[{"user_id":269,"name":"hipster_doofus","steam_id":76561197970902697,"connected_time":1168000000000,"state":"active","ping":65},{"user_id":280,"name":"There Was Sludge","steam_id":76561198080631634,"connected_time":600000000000,"state":"active","ping":52},{"user_id":268,"name":"( ]KROAN[ )","steam_id":76561198022840710,"connected_time":1187000000000,"state":"active","ping":71},{"user_id":273,"name":"gamer_","steam_id":76561198094125769,"connected_time":1106000000000,"state":"active","ping":77},{"user_id":283,"name":"Mclovin567","steam_id":76561198799105302,"connected_time":190000000000,"state":"active","ping":52},{"user_id":216,"name":"TheBeardedM1G","steam_id":76561198040208946,"connected_time":4291000000000,"state":"active","ping":60},{"user_id":278,"name":"trexwithlasereyes ü•ö","steam_id":76561198417276908,"connected_time":715000000000,"state":"active","ping":59},{"user_id":261,"name":"pyrodaddy69","steam_id":76561199381572742,"connected_time":1395000000000,"state":"active","ping":166},{"user_id":265,"name":"[UiF] Sgt. Beebo","steam_id":76561198061094637,"connected_time":1267000000000,"state":"active","ping":45},{"user_id":282,"name":"yeldad","steam_id":76561198447264153,"connected_time":456000000000,"state":"active","ping":126},{"user_id":275,"name":"Lil Top","steam_id":76561198168740408,"connected_time":866000000000,"state":"active","ping":57},{"user_id":255,"name":"Chysa","steam_id":76561198131794145,"connected_time":1642000000000,"state":"active","ping":62},{"user_id":271,"name":"forb","steam_id":76561198812154373,"connected_time":1115000000000,"state":"active","ping":69},{"user_id":272,"name":"Mr rape face","steam_id":76561198049344810,"connected_time":1112000000000,"state":"active","ping":116},{"user_id":264,"name":"[UiF] BafTac r/f*ckcars","steam_id":76561198060547050,"connected_time":1318000000000,"state":"active","ping":69},{"user_id":240,"name":"MotokEkb","steam_id":76561198019501919,"connected_time":2319000000000,"state":"active","ping":104},{"user_id":241,"name":"JGV","steam_id":76561198094654971,"connected_time":2313000000000,"state":"active","ping":77},{"user_id":246,"name":"ash","steam_id":76561198004728744,"connected_time":2084000000000,"state":"active","ping":48},{"user_id":281,"name":"-‚Åß‚ÅßSir RoboGhost","steam_id":76561198169058054,"connected_time":558000000000,"state":"active","ping":60},{"user_id":259,"name":"Hook supervisor","steam_id":76561198069562237,"connected_time":1532000000000,"state":"active","ping":59},{"user_id":242,"name":"Florua","steam_id":76561198182297846,"connected_time":2311000000000,"state":"active","ping":66},{"user_id":218,"name":"Rezolt","steam_id":76561198069074807,"connected_time":4275000000000,"state":"active","ping":119},{"user_id":276,"name":"Chairforce","steam_id":76561198020208899,"connected_time":805000000000,"state":"active","ping":85},{"user_id":243,"name":"thegrapeshavebeeneatenbythelog","steam_id":76561198179339326,"connected_time":2287000000000,"state":"active","ping":75}]},{"server_id":311,"name":"Uncletopia | Frankfurt | 6 | All Maps","name_short":"frk-6","host":"frk-1.de.uncletopia.com","port":27065,"enabled":true,"region":"eu","cc":"de","latitude":50.110924,"longitude":8.682127,"reserved":0,"last_update":"0001-01-01T00:00:00Z","name_a2s":"Uncletopia | Frankfurt | 6 | All Maps","protocol":17,"map":"koth_lakeside_final","folder":"tf","game":"Team Fortress","app_id":440,"player_count":0,"max_players":24,"Bots":0,"server_type":"Dedicated","server_os":"Linux","password":true,"vac":true,"version":"7708610","steam_id":85568392924504278,"keywords":["cp","nocrits","nodmgspread","uncletopia"],"game_id":440,"stv_port":0,"stv_name":"","players":null},{"server_id":23,"name":"Uncletopia | Frankfurt | 7 | No Payload","name_short":"frk-7","host":"frk-1.de.uncletopia.com","port":27075,"enabled":true,"region":"eu","cc":"de","latitude":50.110924,"longitude":8.682127,"reserved":0,"last_update":"0001-01-01T00:00:00Z","name_a2s":"Uncletopia | Frankfurt | 7 | No Payload","protocol":17,"map":"cp_steel","folder":"tf","game":"Team Fortress","app_id":440,"player_count":0,"max_players":24,"Bots":0,"server_type":"Dedicated","server_os":"Linux","password":true,"vac":true,"version":"7708610","steam_id":85568392924742827,"keywords":["cp","nocrits","nodmgspread","uncletopia"],"game_id":440,"stv_port":27076,"stv_name":"Uncletopia | Frankfurt | 7 | No Payload | STV","players":null},{"server_id":24,"name":"Uncletopia | Frankfurt | 8 | Community","name_short":"frk-8","host":"frk-1.de.uncletopia.com","port":27085,"enabled":true,"region":"eu","cc":"de","latitude":50.110924,"longitude":8.682127,"reserved":0,"last_update":"0001-01-01T00:00:00Z","name_a2s":"Uncletopia | Frankfurt | 8 | Community","protocol":17,"map":"workshop/pl_cactuscanyon_redux_rc4b.ugc2579644293","folder":"tf","game":"Team Fortress","app_id":440,"player_count":3,"max_players":24,"Bots":0,"server_type":"Dedicated","server_os":"Linux","password":true,"vac":true,"version":"7708610","steam_id":85568392924742828,"keywords":["nocrits","nodmgspread","payload","uncletopia"],"game_id":440,"stv_port":27086,"stv_name":"Uncletopia | Frankfurt | 8 | Community | STV","players":[{"user_id":5,"name":"Spazmatic","steam_id":76561198060956170,"connected_time":3474000000000,"state":"spawning","ping":91},{"user_id":18,"name":"fried","steam_id":76561198307522022,"connected_time":157000000000,"state":"active","ping":46},{"user_id":19,"name":"PanPatrik","steam_id":76561198293331527,"connected_time":123000000000,"state":"active","ping":59}]},{"server_id":202,"name":"Uncletopia | Hong Kong | 1 | All Maps","name_short":"hgk-1","host":"hgk-1.hk.uncletopia.com","port":27015,"enabled":true,"region":"asia","cc":"hk","latitude":22.302711,"longitude":114.177216,"reserved":0,"last_update":"0001-01-01T00:00:00Z","name_a2s":"Uncletopia | Hong Kong | 1 | All Maps","protocol":17,"map":"pl_thundermountain","folder":"tf","game":"Team Fortress","app_id":440,"player_count":24,"max_players":24,"Bots":0,"server_type":"Dedicated","server_os":"Linux","password":true,"vac":true,"version":"7708610","steam_id":85568392924494504,"keywords":["nocrits","nodmgspread","payload","uncletopia"],"game_id":440,"stv_port":27016,"stv_name":"Uncletopia | Hong Kong | 1 | All Maps | STV","players":[{"user_id":657,"name":"Kall","steam_id":76561197993608660,"connected_time":2744000000000,"state":"active","ping":93},{"user_id":695,"name":"Plencers","steam_id":76561198311052198,"connected_time":1031000000000,"state":"active","ping":76},{"user_id":699,"name":"hpeed","steam_id":76561198808595586,"connected_time":929000000000,"state":"active","ping":70},{"user_id":677,"name":"table","steam_id":76561198055553140,"connected_time":1471000000000,"state":"active","ping":94},{"user_id":653,"name":"the big guy","steam_id":76561198412329672,"connected_time":3210000000000,"state":"active","ping":86},{"user_id":647,"name":"screaming sniper","steam_id":76561199085568674,"connected_time":4331000000000,"state":"active","ping":85},{"user_id":693,"name":"Wakiiiz","steam_id":76561198850134590,"connected_time":1123000000000,"state":"active","ping":61},{"user_id":662,"name":"Paragon","steam_id":76561197983816430,"connected_time":2734000000000,"state":"active","ping":132},{"user_id":665,"name":"Nimbus","steam_id":76561198877713016,"connected_time":2491000000000,"state":"active","ping":88},{"user_id":635,"name":"SissyFemboy‚ô°","steam_id":76561198841376347,"connected_time":4968000000000,"state":"active","ping":55},{"user_id":708,"name":"Momoxhien","steam_id":76561198414997429,"connected_time":566000000000,"state":"active","ping":57},{"user_id":636,"name":"Cheesey","steam_id":76561198975684137,"connected_time":4966000000000,"state":"active","ping":77},{"user_id":674,"name":"LimitsUP_","steam_id":76561199104828789,"connected_time":1536000000000,"state":"active","ping":96},{"user_id":641,"name":"tiden2000","steam_id":76561198092969425,"connected_time":4677000000000,"state":"active","ping":94},{"user_id":673,"name":"bowgartking","steam_id":76561198404372025,"connected_time":1558000000000,"state":"active","ping":93},{"user_id":670,"name":"RandomGuy1085","steam_id":76561199053910995,"connected_time":2082000000000,"state":"active","ping":90},{"user_id":711,"name":"ceo of swag","steam_id":76561199021157734,"connected_time":428000000000,"state":"active","ping":92},{"user_id":675,"name":"j_rex","steam_id":76561198132473926,"connected_time":1517000000000,"state":"active","ping":62},{"user_id":703,"name":"Batbob","steam_id":76561198999413123,"connected_time":843000000000,"state":"active","ping":70},{"user_id":667,"name":"Toygar","steam_id":76561198023679830,"connected_time":2410000000000,"state":"active","ping":57},{"user_id":672,"name":"the real is real!!!!!!","steam_id":76561198442507642,"connected_time":1572000000000,"state":"active","ping":78},{"user_id":678,"name":"gob lin","steam_id":76561198379597982,"connected_time":1468000000000,"state":"active","ping":70},{"user_id":691,"name":"Linus Meth Tips","steam_id":76561198827014993,"connected_time":1220000000000,"state":"active","ping":81},{"user_id":618,"name":"ÊØç„ÅÆËÇâÂõ£Â≠ê","steam_id":76561198069561896,"connected_time":6070000000000,"state":"active","ping":46}]},{"server_id":1,"name":"Uncletopia | Los Angeles | 1 | All Maps","name_short":"lax-1","host":"lax-1.us.uncletopia.com","port":27015,"enabled":true,"region":"us-west","cc":"us","latitude":33.94279,"longitude":-118.41004,"reserved":0,"last_update":"0001-01-01T00:00:00Z","name_a2s":"Uncletopia | Los Angeles | 1 | All Maps","protocol":17,"map":"cp_process_final","folder":"tf","game":"Team Fortress","app_id":440,"player_count":0,"max_players":24,"Bots":0,"server_type":"Dedicated","server_os":"Linux","password":true,"vac":true,"version":"7708610","steam_id":85568392924469991,"keywords":["cp","nocrits","nodmgspread","uncletopia"],"game_id":440,"stv_port":0,"stv_name":"","players":null},{"server_id":112,"name":"Uncletopia | Los Angeles | 2 | All Maps","name_short":"lax-2","host":"lax-1.us.uncletopia.com","port":27025,"enabled":true,"region":"us-west","cc":"us","latitude":33.94279,"longitude":-118.41004,"reserved":0,"last_update":"0001-01-01T00:00:00Z","name_a2s":"Uncletopia | Los Angeles | 2 | All Maps","protocol":17,"map":"cp_altitude","folder":"tf","game":"Team Fortress","app_id":440,"player_count":0,"max_players":24,"Bots":0,"server_type":"Dedicated","server_os":"Linux","password":true,"vac":true,"version":"7708610","steam_id":85568392924469992,"keywords":["cp","nocrits","nodmgspread","uncletopia"],"game_id":440,"stv_port":0,"stv_name":"","players":null},{"server_id":324,"name":"Uncletopia | Los Angeles | 3 | All Maps","name_short":"lax-3","host":"lax-1.us.uncletopia.com","port":27035,"enabled":true,"region":"us-west","cc":"us","latitude":33.94279,"longitude":-118.41004,"reserved":0,"last_update":"0001-01-01T00:00:00Z","name_a2s":"Uncletopia | Los Angeles | 3 | All Maps","protocol":17,"map":"cp_altitude","folder":"tf","game":"Team Fortress","app_id":440,"player_count":0,"max_players":24,"Bots":0,"server_type":"Dedicated","server_os":"Linux","password":true,"vac":true,"version":"7708610","steam_id":85568392924510198,"keywords":["cp","nocrits","nodmgspread","uncletopia"],"game_id":440,"stv_port":0,"stv_name":"","players":null},{"server_id":25,"name":"Uncletopia | Los Angeles | 4 | No Payload","name_short":"lax-4","host":"lax-1.us.uncletopia.com","port":27045,"enabled":true,"region":"us-west","cc":"us","latitude":33.94279,"longitude":-118.41004,"reserved":0,"last_update":"0001-01-01T00:00:00Z","name_a2s":"Uncletopia | Los Angeles | 4 | No Payload","protocol":17,"map":"pl_upward","folder":"tf","game":"Team Fortress","app_id":440,"player_count":0,"max_players":24,"Bots":0,"server_type":"Dedicated","server_os":"Linux","password":true,"vac":true,"version":"7708610","steam_id":85568392924510199,"keywords":["nocrits","nodmgspread","payload","uncletopia"],"game_id":440,"stv_port":0,"stv_name":"","players":null},{"server_id":11,"name":"Uncletopia | London | 1 | All Maps","name_short":"lon-1","host":"lon-1.uk.uncletopia.com","port":27015,"enabled":true,"region":"eu","cc":"gb","latitude":51.509865,"longitude":-0.118092,"reserved":0,"last_update":"0001-01-01T00:00:00Z","name_a2s":"Uncletopia | London | 1 | All Maps","protocol":17,"map":"cp_snakewater_final1","folder":"tf","game":"Team Fortress","app_id":440,"player_count":24,"max_players":24,"Bots":0,"server_type":"Dedicated","server_os":"Linux","password":true,"vac":true,"version":"7708610","steam_id":85568392924367362,"keywords":["cp","nocrits","nodmgspread","uncletopia"],"game_id":440,"stv_port":27016,"stv_name":"Uncletopia | London | 1 | All Maps | STV","players":[{"user_id":194,"name":"Warpzel65","steam_id":76561198799303596,"connected_time":288000000000,"state":"active","ping":117},{"user_id":187,"name":"Mr Chairmann","steam_id":76561199057755004,"connected_time":511000000000,"state":"active","ping":93},{"user_id":164,"name":"goblinninja110","steam_id":76561198269159354,"connected_time":2308000000000,"state":"active","ping":60},{"user_id":190,"name":"Audiofall","steam_id":76561198208814216,"connected_time":443000000000,"state":"active","ping":48},{"user_id":181,"name":"[O\u0026O]YaboiDucki","steam_id":76561198195976589,"connected_time":1489000000000,"state":"active","ping":74},{"user_id":199,"name":"Cranjis McBasketball","steam_id":76561198051290193,"connected_time":90000000000,"state":"active","ping":55},{"user_id":195,"name":"Xariklhs Kolimpithras","steam_id":76561198165584544,"connected_time":259000000000,"state":"active","ping":105},{"user_id":180,"name":"Celtins","steam_id":76561198839837475,"connected_time":1497000000000,"state":"active","ping":51},{"user_id":166,"name":"nhstefanov","steam_id":76561198811811405,"connected_time":2232000000000,"state":"active","ping":66},{"user_id":136,"name":"Romu3","steam_id":76561198055484251,"connected_time":4481000000000,"state":"active","ping":106},{"user_id":185,"name":"Urayuli","steam_id":76561198031573426,"connected_time":583000000000,"state":"active","ping":68},{"user_id":196,"name":"syla8215","steam_id":76561199007869949,"connected_time":248000000000,"state":"active","ping":74},{"user_id":149,"name":"Aspartus","steam_id":76561198101385763,"connected_time":4079000000000,"state":"active","ping":39},{"user_id":167,"name":"CM32MAker","steam_id":76561199157487382,"connected_time":2230000000000,"state":"active","ping":156},{"user_id":197,"name":"\\3quruc90\\d","steam_id":76561198314576132,"connected_time":237000000000,"state":"active","ping":82},{"user_id":168,"name":"sayhellotome","steam_id":76561199105063476,"connected_time":2219000000000,"state":"active","ping":42},{"user_id":183,"name":"obama","steam_id":76561198335143890,"connected_time":1022000000000,"state":"active","ping":53},{"user_id":173,"name":"Thunder","steam_id":76561198042433374,"connected_time":2006000000000,"state":"active","ping":36},{"user_id":198,"name":"Fr0xy","steam_id":76561198340137890,"connected_time":131000000000,"state":"active","ping":72},{"user_id":175,"name":"mue","steam_id":76561198087726702,"connected_time":1850000000000,"state":"active","ping":60},{"user_id":204,"name":"Dakkafex","steam_id":76561198020254869,"connected_time":35000000000,"state":"active","ping":45},{"user_id":201,"name":"aimee","steam_id":76561198834309212,"connected_time":83000000000,"state":"active","ping":136},{"user_id":202,"name":"Pandamonia","steam_id":76561198237125154,"connected_time":71000000000,"state":"active","ping":137},{"user_id":203,"name":"htraB","steam_id":76561198043122677,"connected_time":58000000000,"state":"active","ping":66}]},{"server_id":114,"name":"Uncletopia | London | 2 | All Maps","name_short":"lon-2","host":"lon-1.uk.uncletopia.com","port":27025,"enabled":true,"region":"eu","cc":"gb","latitude":51.509865,"longitude":-0.118092,"reserved":0,"last_update":"0001-01-01T00:00:00Z","name_a2s":"Uncletopia | London | 2 | All Maps","protocol":17,"map":"koth_highpass","folder":"tf","game":"Team Fortress","app_id":440,"player_count":0,"max_players":24,"Bots":0,"server_type":"Dedicated","server_os":"Linux","password":true,"vac":true,"version":"7708610","steam_id":85568392924470941,"keywords":["cp","nocrits","nodmgspread","uncletopia"],"game_id":440,"stv_port":27026,"stv_name":"Uncletopia | London | 2 | All Maps | STV","players":null},{"server_id":320,"name":"Uncletopia | London | 3 | All Maps","name_short":"lon-3","host":"lon-1.uk.uncletopia.com","port":27035,"enabled":true,"region":"eu","cc":"gb","latitude":51.509865,"longitude":-0.118092,"reserved":0,"last_update":"0001-01-01T00:00:00Z","name_a2s":"Uncletopia | London | 3 | All Maps","protocol":17,"map":"pl_swiftwater_final1","folder":"tf","game":"Team Fortress","app_id":440,"player_count":24,"max_players":24,"Bots":0,"server_type":"Dedicated","server_os":"Linux","password":true,"vac":true,"version":"7708610","steam_id":85568392924510192,"keywords":["nocrits","nodmgspread","payload","uncletopia"],"game_id":440,"stv_port":27036,"stv_name":"Uncletopia | London | 3 | All Maps | STV","players":[{"user_id":81,"name":"Boaph","steam_id":76561198119562274,"connected_time":192000000000,"state":"active","ping":76},{"user_id":82,"name":"Ing. Gadurlan","steam_id":76561198049191632,"connected_time":177000000000,"state":"active","ping":76},{"user_id":34,"name":"Mata","steam_id":76561198308191713,"connected_time":2463000000000,"state":"active","ping":72},{"user_id":19,"name":"VolcanicArts","steam_id":76561198063453246,"connected_time":3329000000000,"state":"active","ping":52},{"user_id":66,"name":"romaingallo","steam_id":76561198268112907,"connected_time":1402000000000,"state":"active","ping":53},{"user_id":23,"name":"Rudebwoyyy","steam_id":76561199387956486,"connected_time":3217000000000,"state":"active","ping":62},{"user_id":71,"name":"¬°!Ulexos!¬°","steam_id":76561198087502998,"connected_time":1011000000000,"state":"active","ping":75},{"user_id":54,"name":"clean carp","steam_id":76561198127053294,"connected_time":1833000000000,"state":"active","ping":68},{"user_id":21,"name":"Spread Eagle","steam_id":76561198027738546,"connected_time":3253000000000,"state":"active","ping":55},{"user_id":53,"name":"Radical Centrist","steam_id":76561198071883643,"connected_time":1866000000000,"state":"active","ping":142},{"user_id":41,"name":"Tazza","steam_id":76561198159811050,"connected_time":2137000000000,"state":"active","ping":61},{"user_id":74,"name":"peshay studio set 1996","steam_id":76561199026097466,"connected_time":621000000000,"state":"active","ping":75},{"user_id":64,"name":"KERPETEN","steam_id":76561198153031262,"connected_time":1574000000000,"state":"active","ping":75},{"user_id":43,"name":"zhern","steam_id":76561198027033926,"connected_time":2131000000000,"state":"active","ping":45},{"user_id":78,"name":"lisnin2deathgrips/gec :3","steam_id":76561199013457963,"connected_time":349000000000,"state":"active","ping":52},{"user_id":56,"name":"ducks","steam_id":76561198166148685,"connected_time":1782000000000,"state":"active","ping":30},{"user_id":79,"name":"The Sun in Rags","steam_id":76561198169990975,"connected_time":284000000000,"state":"active","ping":37},{"user_id":75,"name":"Paulie \"Walnuts\" Gualtieri","steam_id":76561198364121077,"connected_time":608000000000,"state":"active","ping":99},{"user_id":46,"name":"maakgis","steam_id":76561198851703804,"connected_time":2090000000000,"state":"active","ping":124},{"user_id":67,"name":"random_player691","steam_id":76561199209946306,"connected_time":1393000000000,"state":"active","ping":51},{"user_id":59,"name":"üåº POWER_Hugee","steam_id":76561198245495152,"connected_time":1755000000000,"state":"active","ping":60},{"user_id":80,"name":"Haggabah,WhoPliesTheUmbralPath","steam_id":76561198846984399,"connected_time":282000000000,"state":"active","ping":96},{"user_id":76,"name":"non_ai","steam_id":76561198270951938,"connected_time":581000000000,"state":"active","ping":120},{"user_id":63,"name":"Farmercy","steam_id":76561198000038039,"connected_time":1729000000000,"state":"active","ping":63}]},{"server_id":321,"name":"Uncletopia | London | 4 | All Maps","name_short":"lon-4","host":"lon-1.uk.uncletopia.com","port":27045,"enabled":true,"region":"eu","cc":"gb","latitude":51.509865,"longitude":-0.118092,"reserved":0,"last_update":"0001-01-01T00:00:00Z","name_a2s":"Uncletopia | London | 4 | All Maps","protocol":17,"map":"cp_dustbowl","folder":"tf","game":"Team Fortress","app_id":440,"player_count":21,"max_players":24,"Bots":0,"server_type":"Dedicated","server_os":"Linux","password":true,"vac":true,"version":"7708610","steam_id":85568392924510193,"keywords":["cp","nocrits","nodmgspread","uncletopia"],"game_id":440,"stv_port":27046,"stv_name":"Uncletopia | London | 4 | All Maps | STV","players":[{"user_id":336,"name":"DKshadow73","steam_id":76561198031607905,"connected_time":475000000000,"state":"active","ping":70},{"user_id":333,"name":"'93","steam_id":76561199216923710,"connected_time":671000000000,"state":"active","ping":145},{"user_id":311,"name":"Equinox","steam_id":76561199055592635,"connected_time":1671000000000,"state":"active","ping":49},{"user_id":312,"name":"Dire-Wolf","steam_id":76561198267622248,"connected_time":1647000000000,"state":"active","ping":161},{"user_id":269,"name":"Godot","steam_id":76561198339980449,"connected_time":3604000000000,"state":"active","ping":69},{"user_id":220,"name":"CamoS1250","steam_id":76561198309917434,"connected_time":5846000000000,"state":"active","ping":133},{"user_id":331,"name":"Economic crisis","steam_id":76561198063562843,"connected_time":857000000000,"state":"active","ping":118},{"user_id":334,"name":"Ixsus\u003c3","steam_id":76561198094756869,"connected_time":621000000000,"state":"active","ping":62},{"user_id":296,"name":"Valiant Mouse","steam_id":76561198119722453,"connected_time":2393000000000,"state":"active","ping":65},{"user_id":348,"name":"Duke Nukem VEVO","steam_id":76561198118929194,"connected_time":78000000000,"state":"active","ping":124},{"user_id":328,"name":"–ù–µ—á—É–π-–õ–µ–≤–∏—Ü—å–∫–∏–π","steam_id":76561198870926865,"connected_time":1024000000000,"state":"active","ping":45},{"user_id":340,"name":"dafydd","steam_id":76561198052200325,"connected_time":452000000000,"state":"active","ping":86},{"user_id":345,"name":"tralalaOuiOui","steam_id":76561197963471507,"connected_time":206000000000,"state":"active","ping":51},{"user_id":257,"name":"Bubu","steam_id":76561199305428573,"connected_time":3972000000000,"state":"active","ping":46},{"user_id":349,"name":"DIZ","steam_id":76561199065119525,"connected_time":50000000000,"state":"active","ping":112},{"user_id":343,"name":"Syringe Gun","steam_id":76561198097789669,"connected_time":370000000000,"state":"active","ping":71},{"user_id":342,"name":"„É†GeRmAn |√óUA√ó„É†","steam_id":76561199044754898,"connected_time":445000000000,"state":"active","ping":75},{"user_id":303,"name":"X-tis","steam_id":76561198043837480,"connected_time":2119000000000,"state":"active","ping":60},{"user_id":346,"name":"Pandovsky","steam_id":76561198095545468,"connected_time":105000000000,"state":"active","ping":46},{"user_id":332,"name":"Der Herr Doktor","steam_id":76561198119476089,"connected_time":826000000000,"state":"active","ping":64},{"user_id":325,"name":"HabibiRubik","steam_id":76561199101752634,"connected_time":1202000000000,"state":"active","ping":84}]},{"server_id":21,"name":"Uncletopia | London | 5 | All Maps","name_short":"lon-5","host":"lon-1.uk.uncletopia.com","port":27055,"enabled":true,"region":"eu","cc":"gb","latitude":51.509865,"longitude":-0.118092,"reserved":0,"last_update":"0001-01-01T00:00:00Z","name_a2s":"Uncletopia | London | 5 | All Maps","protocol":17,"map":"pl_barnblitz","folder":"tf","game":"Team Fortress","app_id":440,"player_count":0,"max_players":24,"Bots":0,"server_type":"Dedicated","server_os":"Linux","password":true,"vac":true,"version":"7708610","steam_id":85568392924742829,"keywords":["nocrits","nodmgspread","payload","uncletopia"],"game_id":440,"stv_port":27056,"stv_name":"Uncletopia | London | 5 | All Maps | STV","players":null},{"server_id":22,"name":"Uncletopia | London | 6 | All Maps","name_short":"lon-6","host":"lon-1.uk.uncletopia.com","port":27065,"enabled":true,"region":"eu","cc":"gb","latitude":51.509865,"longitude":-0.118092,"reserved":0,"last_update":"0001-01-01T00:00:00Z","name_a2s":"Uncletopia | London | 6 | All Maps","protocol":17,"map":"pl_upward","folder":"tf","game":"Team Fortress","app_id":440,"player_count":24,"max_players":24,"Bots":0,"server_type":"Dedicated","server_os":"Linux","password":true,"vac":true,"version":"7708610","steam_id":85568392924742830,"keywords":["nocrits","nodmgspread","payload","uncletopia"],"game_id":440,"stv_port":27066,"stv_name":"Uncletopia | London | 6 | All Maps | STV","players":[{"user_id":322,"name":"cof","steam_id":76561199128417805,"connected_time":1099000000000,"state":"active","ping":51},{"user_id":314,"name":"Wheatley","steam_id":76561199059006203,"connected_time":1658000000000,"state":"active","ping":162},{"user_id":330,"name":"gogomaster24","steam_id":76561198100112989,"connected_time":418000000000,"state":"active","ping":67},{"user_id":319,"name":"pjena","steam_id":76561198207643025,"connected_time":1243000000000,"state":"active","ping":59},{"user_id":323,"name":"install gentoo","steam_id":76561198185257982,"connected_time":1086000000000,"state":"active","ping":67},{"user_id":328,"name":"Ch0rys","steam_id":76561198314985318,"connected_time":470000000000,"state":"active","ping":68},{"user_id":324,"name":"SIGMA BALLS","steam_id":76561198302623594,"connected_time":799000000000,"state":"active","ping":112},{"user_id":327,"name":"Tibbs","steam_id":76561197987980406,"connected_time":494000000000,"state":"active","ping":65},{"user_id":332,"name":"torn","steam_id":76561198223003236,"connected_time":389000000000,"state":"active","ping":35},{"user_id":333,"name":"waffle toaster","steam_id":76561198799089628,"connected_time":384000000000,"state":"active","ping":49},{"user_id":131,"name":"Notorious_Pat","steam_id":76561198092348214,"connected_time":12290000000000,"state":"active","ping":145},{"user_id":308,"name":"Bob","steam_id":76561198061583417,"connected_time":1918000000000,"state":"active","ping":66},{"user_id":309,"name":"phonos","steam_id":76561198061255107,"connected_time":1912000000000,"state":"active","ping":63},{"user_id":290,"name":"–ò–Ω—Å–ø–µ–∫—Ç–æ—Ä –ê—Ç–∞—Å","steam_id":76561199175688390,"connected_time":2600000000000,"state":"active","ping":80},{"user_id":334,"name":"Yaire","steam_id":76561198017343510,"connected_time":382000000000,"state":"active","ping":60},{"user_id":256,"name":"Him","steam_id":76561198086400484,"connected_time":4686000000000,"state":"active","ping":69},{"user_id":335,"name":"Greencoffee","steam_id":76561198842090589,"connected_time":367000000000,"state":"active","ping":63},{"user_id":206,"name":"Bepperman","steam_id":76561198397517828,"connected_time":6778000000000,"state":"active","ping":57},{"user_id":337,"name":"wertiop","steam_id":76561198260627072,"connected_time":190000000000,"state":"active","ping":82},{"user_id":320,"name":"El Lobo","steam_id":76561198107978481,"connected_time":1228000000000,"state":"active","ping":92},{"user_id":339,"name":"adriankurek","steam_id":76561199349026873,"connected_time":129000000000,"state":"active","ping":80},{"user_id":311,"name":"LAMC","steam_id":76561199066888917,"connected_time":1796000000000,"state":"active","ping":70},{"user_id":271,"name":"Wyvern786","steam_id":76561199137770636,"connected_time":3426000000000,"state":"active","ping":49},{"user_id":326,"name":"When Life gives you Lemons","steam_id":76561198318290663,"connected_time":695000000000,"state":"active","ping":60}]},{"server_id":40,"name":"Uncletopia | London | 7 | No Payload","name_short":"lon-7","host":"lon-1.uk.uncletopia.com","port":27075,"enabled":true,"region":"eu","cc":"gb","latitude":51.509865,"longitude":-0.118092,"reserved":0,"last_update":"0001-01-01T00:00:00Z","name_a2s":"Uncletopia | London | 7 | No Payload","protocol":17,"map":"cp_snakewater_final1","folder":"tf","game":"Team Fortress","app_id":440,"player_count":0,"max_players":24,"Bots":0,"server_type":"Dedicated","server_os":"Linux","password":true,"vac":true,"version":"7708610","steam_id":85568392924964314,"keywords":["cp","nocrits","nodmgspread","uncletopia"],"game_id":440,"stv_port":0,"stv_name":"","players":null},{"server_id":41,"name":"Uncletopia | London | 8 | Community","name_short":"lon-8","host":"lon-1.uk.uncletopia.com","port":27085,"enabled":true,"region":"eu","cc":"gb","latitude":51.509865,"longitude":-0.118092,"reserved":0,"last_update":"0001-01-01T00:00:00Z","name_a2s":"Uncletopia | London | 8 | Community","protocol":17,"map":"workshop/cp_overgrown_rc7b.ugc503939302","folder":"tf","game":"Team Fortress","app_id":440,"player_count":0,"max_players":24,"Bots":0,"server_type":"Dedicated","server_os":"Linux","password":true,"vac":true,"version":"7708610","steam_id":85568392924964315,"keywords":["cp","nocrits","nodmgspread","uncletopia"],"game_id":440,"stv_port":27086,"stv_name":"Uncletopia | London | 8 | Community | STV","players":null},{"server_id":300,"name":"Uncletopia | Montr√©al | 1 | All Maps","name_short":"mtl-1","host":"mtl-1.ca.uncletopia.com","port":27015,"enabled":true,"region":"us-east","cc":"ca","latitude":45.50889,"longitude":-73.56167,"reserved":0,"last_update":"0001-01-01T00:00:00Z","name_a2s":"Uncletopia | Montr√©al | 1 | All Maps","protocol":17,"map":"pl_barnblitz","folder":"tf","game":"Team Fortress","app_id":440,"player_count":0,"max_players":24,"Bots":0,"server_type":"Dedicated","server_os":"Linux","password":true,"vac":true,"version":"7708610","steam_id":85568392924500087,"keywords":["nocrits","nodmgspread","payload","uncletopia"],"game_id":440,"stv_port":0,"stv_name":"","players":null},{"server_id":301,"name":"Uncletopia | Montr√©al | 2 | All Maps","name_short":"mtl-2","host":"mtl-1.ca.uncletopia.com","port":27025,"enabled":true,"region":"us-east","cc":"ca","latitude":45.50889,"longitude":-73.56167,"reserved":0,"last_update":"0001-01-01T00:00:00Z","name_a2s":"Uncletopia | Montr√©al | 2 | All Maps","protocol":17,"map":"pl_frontier_final","folder":"tf","game":"Team Fortress","app_id":440,"player_count":0,"max_players":24,"Bots":0,"server_type":"Dedicated","server_os":"Linux","password":true,"vac":true,"version":"7708610","steam_id":85568392924500088,"keywords":["nocrits","nodmgspread","payload","uncletopia"],"game_id":440,"stv_port":0,"stv_name":"","players":null},{"server_id":302,"name":"Uncletopia | Montr√©al | 3 | All Maps","name_short":"mtl-3","host":"mtl-1.ca.uncletopia.com","port":27035,"enabled":true,"region":"us-east","cc":"ca","latitude":45.50889,"longitude":-73.56167,"reserved":0,"last_update":"0001-01-01T00:00:00Z","name_a2s":"Uncletopia | Montr√©al | 3 | All Maps","protocol":17,"map":"pl_snowycoast","folder":"tf","game":"Team Fortress","app_id":440,"player_count":0,"max_players":24,"Bots":0,"server_type":"Dedicated","server_os":"Linux","password":true,"vac":true,"version":"7708610","steam_id":85568392924500089,"keywords":["nocrits","nodmgspread","payload","uncletopia"],"game_id":440,"stv_port":0,"stv_name":"","players":null},{"server_id":303,"name":"Uncletopia | Montr√©al | 4 | No Payload","name_short":"mtl-4","host":"mtl-1.ca.uncletopia.com","port":27045,"enabled":true,"region":"us-east","cc":"ca","latitude":45.50889,"longitude":-73.56167,"reserved":0,"last_update":"0001-01-01T00:00:00Z","name_a2s":"Uncletopia | Montr√©al | 4 | No Payload","protocol":17,"map":"pl_frontier_final","folder":"tf","game":"Team Fortress","app_id":440,"player_count":0,"max_players":24,"Bots":0,"server_type":"Dedicated","server_os":"Linux","password":true,"vac":true,"version":"7708610","steam_id":85568392924500090,"keywords":["nocrits","nodmgspread","payload","uncletopia"],"game_id":440,"stv_port":0,"stv_name":"","players":null},{"server_id":13,"name":"Uncletopia | New York City | 1 | All Maps","name_short":"nyc-1","host":"nyc-1.us.uncletopia.com","port":27015,"enabled":true,"region":"us-east","cc":"us","latitude":40.73061,"longitude":-73.93524,"reserved":0,"last_update":"0001-01-01T00:00:00Z","name_a2s":"Uncletopia | New York City | 1 | All Maps","protocol":17,"map":"koth_highpass","folder":"tf","game":"Team Fortress","app_id":440,"player_count":0,"max_players":24,"Bots":0,"server_type":"Dedicated","server_os":"Linux","password":true,"vac":true,"version":"7708610","steam_id":85568392924469993,"keywords":["cp","nocrits","nodmgspread","uncletopia"],"game_id":440,"stv_port":27016,"stv_name":"Uncletopia | New York City | 1 | All Maps | STV","players":null},{"server_id":14,"name":"Uncletopia | New York City | 2 | All Maps","name_short":"nyc-2","host":"nyc-1.us.uncletopia.com","port":27025,"enabled":true,"region":"us-east","cc":"us","latitude":40.73061,"longitude":-73.93524,"reserved":0,"last_update":"0001-01-01T00:00:00Z","name_a2s":"Uncletopia | New York City | 2 | All Maps","protocol":17,"map":"cp_sunshine","folder":"tf","game":"Team Fortress","app_id":440,"player_count":0,"max_players":24,"Bots":0,"server_type":"Dedicated","server_os":"Linux","password":true,"vac":true,"version":"7708610","steam_id":85568392924469994,"keywords":["cp","nocrits","nodmgspread","uncletopia"],"game_id":440,"stv_port":27026,"stv_name":"Uncletopia | New York City | 2 | All Maps | STV","players":null},{"server_id":15,"name":"Uncletopia | New York City | 3 | All Maps","name_short":"nyc-3","host":"nyc-1.us.uncletopia.com","port":27035,"enabled":true,"region":"us-east","cc":"us","latitude":40.73061,"longitude":-73.93524,"reserved":0,"last_update":"0001-01-01T00:00:00Z","name_a2s":"Uncletopia | New York City | 3 | All Maps","protocol":17,"map":"cp_sunshine","folder":"tf","game":"Team Fortress","app_id":440,"player_count":0,"max_players":24,"Bots":0,"server_type":"Dedicated","server_os":"Linux","password":true,"vac":true,"version":"7708610","steam_id":85568392924742820,"keywords":["cp","nocrits","nodmgspread","uncletopia"],"game_id":440,"stv_port":0,"stv_name":"","players":null},{"server_id":16,"name":"Uncletopia | New York City | 4 | Community","name_short":"nyc-4","host":"nyc-1.us.uncletopia.com","port":27045,"enabled":true,"region":"us-east","cc":"us","latitude":40.73061,"longitude":-73.93524,"reserved":0,"last_update":"0001-01-01T00:00:00Z","name_a2s":"Uncletopia | New York City | 4 | Community","protocol":17,"map":"pl_badwater","folder":"tf","game":"Team Fortress","app_id":440,"player_count":0,"max_players":24,"Bots":0,"server_type":"Dedicated","server_os":"Linux","password":true,"vac":true,"version":"7708610","steam_id":85568392924742821,"keywords":["nocrits","nodmgspread","payload","uncletopia"],"game_id":440,"stv_port":0,"stv_name":"","players":null},{"server_id":142,"name":"Uncletopia | S√£o Paulo | 1 | All Maps","name_short":"sao-1","host":"sao-1.br.uncletopia.com","port":27015,"enabled":true,"region":"sa","cc":"br","latitude":-23.533773,"longitude":-46.62529,"reserved":0,"last_update":"0001-01-01T00:00:00Z","name_a2s":"Uncletopia | S√£o Paulo | 1 | All Maps","protocol":17,"map":"koth_cascade","folder":"tf","game":"Team Fortress","app_id":440,"player_count":0,"max_players":24,"Bots":0,"server_type":"Dedicated","server_os":"Linux","password":true,"vac":true,"version":"7708610","steam_id":85568392924469996,"keywords":["cp","nocrits","nodmgspread","uncletopia"],"game_id":440,"stv_port":27016,"stv_name":"Uncletopia | S√£o Paulo | 1 | All Maps | STV","players":null},{"server_id":143,"name":"Uncletopia | S√£o Paulo | 2 | All Maps","name_short":"sao-2","host":"sao-2.br.uncletopia.com","port":27015,"enabled":true,"region":"sa","cc":"br","latitude":-23.533773,"longitude":-46.62529,"reserved":0,"last_update":"0001-01-01T00:00:00Z","name_a2s":"Uncletopia | S√£o Paulo | 2 | All Maps","protocol":17,"map":"koth_lakeside_final","folder":"tf","game":"Team Fortress","app_id":440,"player_count":0,"max_players":24,"Bots":0,"server_type":"Dedicated","server_os":"Linux","password":true,"vac":true,"version":"7708610","steam_id":85568392924485349,"keywords":["cp","nocrits","nodmgspread","uncletopia"],"game_id":440,"stv_port":0,"stv_name":"","players":null},{"server_id":7,"name":"Uncletopia | Seattle | 1 | All Maps","name_short":"sea-1","host":"sea-1.us.uncletopia.com","port":27015,"enabled":true,"region":"us-west","cc":"us","latitude":47.608013,"longitude":-122.33517,"reserved":0,"last_update":"0001-01-01T00:00:00Z","name_a2s":"Uncletopia | Seattle | 1 | All Maps","protocol":17,"map":"koth_cascade","folder":"tf","game":"Team Fortress","app_id":440,"player_count":0,"max_players":24,"Bots":0,"server_type":"Dedicated","server_os":"Linux","password":true,"vac":true,"version":"7708610","steam_id":85568392924469997,"keywords":["cp","nocrits","nodmgspread","uncletopia"],"game_id":440,"stv_port":0,"stv_name":"","players":null},{"server_id":119,"name":"Uncletopia | Seattle | 2 | All Maps","name_short":"sea-2","host":"sea-1.us.uncletopia.com","port":27025,"enabled":true,"region":"us-west","cc":"us","latitude":47.608013,"longitude":-122.33517,"reserved":0,"last_update":"0001-01-01T00:00:00Z","name_a2s":"Uncletopia | Seattle | 2 | All Maps","protocol":17,"map":"cp_process_final","folder":"tf","game":"Team Fortress","app_id":440,"player_count":0,"max_players":24,"Bots":0,"server_type":"Dedicated","server_os":"Linux","password":true,"vac":true,"version":"7708610","steam_id":85568392924469998,"keywords":["cp","nocrits","nodmgspread","uncletopia"],"game_id":440,"stv_port":0,"stv_name":"","players":null},{"server_id":17,"name":"Uncletopia | San Francisco | 1 | All Maps","name_short":"sfo-1","host":"sfo-1.us.uncletopia.com","port":27015,"enabled":true,"region":"us-west","cc":"us","latitude":37.77397,"longitude":-122.4313,"reserved":0,"last_update":"0001-01-01T00:00:00Z","name_a2s":"Uncletopia | San Francisco | 1 | All Maps","protocol":17,"map":"cp_sunshine","folder":"tf","game":"Team Fortress","app_id":440,"player_count":0,"max_players":24,"Bots":0,"server_type":"Dedicated","server_os":"Linux","password":true,"vac":true,"version":"7708610","steam_id":85568392924469999,"keywords":["cp","nocrits","nodmgspread","uncletopia"],"game_id":440,"stv_port":0,"stv_name":"","players":null},{"server_id":18,"name":"Uncletopia | San Francisco | 2 | All Maps","name_short":"sfo-2","host":"sfo-1.us.uncletopia.com","port":27025,"enabled":true,"region":"us-west","cc":"us","latitude":37.77397,"longitude":-122.4313,"reserved":0,"last_update":"0001-01-01T00:00:00Z","name_a2s":"Uncletopia | San Francisco | 2 | All Maps","protocol":17,"map":"koth_cascade","folder":"tf","game":"Team Fortress","app_id":440,"player_count":0,"max_players":24,"Bots":0,"server_type":"Dedicated","server_os":"Linux","password":true,"vac":true,"version":"7708610","steam_id":85568392924470000,"keywords":["cp","nocrits","nodmgspread","uncletopia"],"game_id":440,"stv_port":0,"stv_name":"","players":null},{"server_id":19,"name":"Uncletopia | San Francisco | 3 | No Payload","name_short":"sfo-3","host":"sfo-1.us.uncletopia.com","port":27035,"enabled":true,"region":"us-west","cc":"us","latitude":37.77397,"longitude":-122.4313,"reserved":0,"last_update":"0001-01-01T00:00:00Z","name_a2s":"Uncletopia | San Francisco | 3 | No Payload","protocol":17,"map":"cp_snakewater_final1","folder":"tf","game":"Team Fortress","app_id":440,"player_count":0,"max_players":24,"Bots":0,"server_type":"Dedicated","server_os":"Linux","password":true,"vac":true,"version":"7708610","steam_id":85568392924742824,"keywords":["cp","nocrits","nodmgspread","uncletopia"],"game_id":440,"stv_port":0,"stv_name":"","players":null},{"server_id":20,"name":"Uncletopia | San Francisco | 4 | Community","name_short":"sfo-4","host":"sfo-1.us.uncletopia.com","port":27045,"enabled":true,"region":"us-west","cc":"us","latitude":37.77397,"longitude":-122.4313,"reserved":0,"last_update":"0001-01-01T00:00:00Z","name_a2s":"Uncletopia | San Francisco | 4 | Community","protocol":17,"map":"pl_barnblitz","folder":"tf","game":"Team Fortress","app_id":440,"player_count":0,"max_players":24,"Bots":0,"server_type":"Dedicated","server_os":"Linux","password":true,"vac":true,"version":"7708610","steam_id":85568392924742826,"keywords":["nocrits","nodmgspread","payload","uncletopia"],"game_id":440,"stv_port":0,"stv_name":"","players":null},{"server_id":141,"name":"Uncletopia | Sydney | 1 | All Maps","name_short":"syd-1","host":"syd-1.au.uncletopia.com","port":27015,"enabled":true,"region":"au","cc":"au","latitude":-33.865143,"longitude":151.2099,"reserved":0,"last_update":"0001-01-01T00:00:00Z","name_a2s":"Uncletopia | Sydney | 1 | All Maps","protocol":17,"map":"koth_highpass","folder":"tf","game":"Team Fortress","app_id":440,"player_count":17,"max_players":24,"Bots":0,"server_type":"Dedicated","server_os":"Linux","password":true,"vac":true,"version":"7708610","steam_id":85568392924470001,"keywords":["cp","nocrits","nodmgspread","uncletopia"],"game_id":440,"stv_port":27016,"stv_name":"Uncletopia | Sydney | 1 | All Maps | STV","players":[{"user_id":868,"name":"Flakey","steam_id":76561198021618682,"connected_time":1992000000000,"state":"active","ping":57},{"user_id":866,"name":"NeoSiah","steam_id":76561198331361845,"connected_time":2164000000000,"state":"active","ping":142},{"user_id":879,"name":"chimken","steam_id":76561199111538215,"connected_time":1151000000000,"state":"active","ping":48},{"user_id":813,"name":"April","steam_id":76561198848287180,"connected_time":6774000000000,"state":"active","ping":45},{"user_id":870,"name":"NaCl","steam_id":76561198176111621,"connected_time":1845000000000,"state":"active","ping":125},{"user_id":891,"name":"Scary Perry","steam_id":76561198237464516,"connected_time":182000000000,"state":"active","ping":346},{"user_id":752,"name":"hive","steam_id":76561199099744527,"connected_time":11955000000000,"state":"active","ping":48},{"user_id":880,"name":"jeff","steam_id":76561198327306842,"connected_time":1106000000000,"state":"active","ping":125},{"user_id":876,"name":"¬øeTheRealMe?","steam_id":76561198033297147,"connected_time":1426000000000,"state":"active","ping":97},{"user_id":861,"name":"adam sir john C sharp","steam_id":76561198133041525,"connected_time":2504000000000,"state":"active","ping":95},{"user_id":892,"name":"Clutch Powers","steam_id":76561198038832530,"connected_time":119000000000,"state":"active","ping":72},{"user_id":893,"name":"[-ScarPe-]","steam_id":76561199379429440,"connected_time":106000000000,"state":"active","ping":55},{"user_id":852,"name":"VIVA","steam_id":76561198048017265,"connected_time":3149000000000,"state":"active","ping":48},{"user_id":853,"name":"Haste","steam_id":76561198173155142,"connected_time":3143000000000,"state":"active","ping":60},{"user_id":758,"name":"Rogue (Anti-fire)","steam_id":76561198055404248,"connected_time":11689000000000,"state":"active","ping":45},{"user_id":865,"name":"eonbonkKou","steam_id":76561198086662653,"connected_time":2181000000000,"state":"active","ping":46},{"user_id":888,"name":"burfdae boi","steam_id":76561199000827969,"connected_time":796000000000,"state":"active","ping":40}]},{"server_id":123,"name":"Uncletopia | Sydney | 2 | All Maps","name_short":"syd-2","host":"syd-1.au.uncletopia.com","port":27025,"enabled":true,"region":"au","cc":"au","latitude":-33.865143,"longitude":151.2099,"reserved":0,"last_update":"0001-01-01T00:00:00Z","name_a2s":"Uncletopia | Sydney | 2 | All Maps","protocol":17,"map":"koth_cascade","folder":"tf","game":"Team Fortress","app_id":440,"player_count":0,"max_players":24,"Bots":0,"server_type":"Dedicated","server_os":"Linux","password":true,"vac":true,"version":"7708610","steam_id":85568392924470002,"keywords":["cp","nocrits","nodmgspread","uncletopia"],"game_id":440,"stv_port":27026,"stv_name":"Uncletopia | Sydney | 2 | All Maps | STV","players":null},{"server_id":395,"name":"Uncletopia | Sydney | 3 | All Maps","name_short":"syd-3","host":"syd-1.au.uncletopia.com","port":27035,"enabled":true,"region":"au","cc":"au","latitude":-33.865143,"longitude":151.2099,"reserved":0,"last_update":"0001-01-01T00:00:00Z","name_a2s":"Uncletopia | Sydney | 3 | All Maps","protocol":17,"map":"koth_viaduct","folder":"tf","game":"Team Fortress","app_id":440,"player_count":0,"max_players":24,"Bots":0,"server_type":"Dedicated","server_os":"Linux","password":true,"vac":true,"version":"7708610","steam_id":85568392925194467,"keywords":["cp","nocrits","nodmgspread","uncletopia"],"game_id":440,"stv_port":27036,"stv_name":"Uncletopia | Sydney | 3 | All Maps | STV","players":null},{"server_id":396,"name":"Uncletopia | Sydney | 4 | All Maps","name_short":"syd-4","host":"syd-1.au.uncletopia.com","port":27045,"enabled":true,"region":"au","cc":"au","latitude":-33.865143,"longitude":151.2099,"reserved":0,"last_update":"0001-01-01T00:00:00Z","name_a2s":"Uncletopia | Sydney | 4 | All Maps","protocol":17,"map":"pl_barnblitz","folder":"tf","game":"Team Fortress","app_id":440,"player_count":0,"max_players":24,"Bots":0,"server_type":"Dedicated","server_os":"Linux","password":true,"vac":true,"version":"7708610","steam_id":85568392925397958,"keywords":["nocrits","nodmgspread","payload","uncletopia"],"game_id":440,"stv_port":27046,"stv_name":"Uncletopia | Sydney | 4 | All Maps | STV","players":null},{"server_id":58,"name":"Uncletopia | Sydney | 5 | No Payload","name_short":"syd-5","host":"syd-1.au.uncletopia.com","port":27055,"enabled":true,"region":"au","cc":"au","latitude":-33.865143,"longitude":151.2099,"reserved":0,"last_update":"0001-01-01T00:00:00Z","name_a2s":"Uncletopia | Sydney | 5 | No Payload","protocol":17,"map":"koth_cascade","folder":"tf","game":"Team Fortress","app_id":440,"player_count":0,"max_players":24,"Bots":0,"server_type":"Dedicated","server_os":"Linux","password":true,"vac":true,"version":"7708610","steam_id":85568392925397959,"keywords":["cp","nocrits","nodmgspread","uncletopia"],"game_id":440,"stv_port":0,"stv_name":"","players":null},{"server_id":59,"name":"Uncletopia | Sydney | 6 | Community","name_short":"syd-6","host":"syd-1.au.uncletopia.com","port":27065,"enabled":true,"region":"au","cc":"au","latitude":-33.865143,"longitude":151.2099,"reserved":0,"last_update":"0001-01-01T00:00:00Z","name_a2s":"Uncletopia | Sydney | 6 | Community","protocol":17,"map":"workshop/koth_synthetic_rc6a.ugc1549817316","folder":"tf","game":"Team Fortress","app_id":440,"player_count":0,"max_players":24,"Bots":0,"server_type":"Dedicated","server_os":"Linux","password":true,"vac":true,"version":"7708610","steam_id":85568392925397960,"keywords":["cp","nocrits","nodmgspread","uncletopia"],"game_id":440,"stv_port":27066,"stv_name":"Uncletopia | Sydney | 6 | Community | STV","players":null},{"server_id":49,"name":"Uncletopia | Warsaw | 1 | All Maps","name_short":"waw-1","host":"waw-1.pl.uncletopia.com","port":27015,"enabled":true,"region":"eu","cc":"pl","latitude":52.2297,"longitude":21.017532,"reserved":0,"last_update":"0001-01-01T00:00:00Z","name_a2s":"Uncletopia | Warsaw | 1 | All Maps","protocol":17,"map":"cp_mountainlab","folder":"tf","game":"Team Fortress","app_id":440,"player_count":0,"max_players":24,"Bots":0,"server_type":"Dedicated","server_os":"Linux","password":true,"vac":true,"version":"7708610","steam_id":85568392925397850,"keywords":["cp","nocrits","nodmgspread","uncletopia"],"game_id":440,"stv_port":0,"stv_name":"","players":null},{"server_id":50,"name":"Uncletopia | Warsaw | 2 | All Maps","name_short":"waw-2","host":"waw-1.pl.uncletopia.com","port":27025,"enabled":true,"region":"eu","cc":"pl","latitude":52.2297,"longitude":21.017532,"reserved":0,"last_update":"0001-01-01T00:00:00Z","name_a2s":"Uncletopia | Warsaw | 2 | All Maps","protocol":17,"map":"koth_highpass","folder":"tf","game":"Team Fortress","app_id":440,"player_count":0,"max_players":24,"Bots":0,"server_type":"Dedicated","server_os":"Linux","password":true,"vac":true,"version":"7708610","steam_id":85568392925397851,"keywords":["cp","nocrits","nodmgspread","uncletopia"],"game_id":440,"stv_port":27026,"stv_name":"Uncletopia | Warsaw | 2 | All Maps | STV","players":null},{"server_id":51,"name":"Uncletopia | Warsaw | 3 | All Maps","name_short":"waw-3","host":"waw-1.pl.uncletopia.com","port":27035,"enabled":true,"region":"eu","cc":"pl","latitude":52.2297,"longitude":21.017532,"reserved":0,"last_update":"0001-01-01T00:00:00Z","name_a2s":"Uncletopia | Warsaw | 3 | All Maps","protocol":17,"map":"koth_cascade","folder":"tf","game":"Team Fortress","app_id":440,"player_count":0,"max_players":24,"Bots":0,"server_type":"Dedicated","server_os":"Linux","password":true,"vac":true,"version":"7708610","steam_id":85568392925397852,"keywords":["cp","nocrits","nodmgspread","uncletopia"],"game_id":440,"stv_port":0,"stv_name":"","players":null},{"server_id":52,"name":"Uncletopia | Warsaw | 4 | All Maps","name_short":"waw-4","host":"waw-1.pl.uncletopia.com","port":27045,"enabled":true,"region":"eu","cc":"pl","latitude":52.2297,"longitude":21.017532,"reserved":0,"last_update":"0001-01-01T00:00:00Z","name_a2s":"Uncletopia | Warsaw | 4 | All Maps","protocol":17,"map":"cp_dustbowl","folder":"tf","game":"Team Fortress","app_id":440,"player_count":0,"max_players":24,"Bots":0,"server_type":"Dedicated","server_os":"Linux","password":true,"vac":true,"version":"7708610","steam_id":85568392925397853,"keywords":["cp","nocrits","nodmgspread","uncletopia"],"game_id":440,"stv_port":27046,"stv_name":"Uncletopia | Warsaw | 4 | All Maps | STV","players":null},{"server_id":53,"name":"Uncletopia | Warsaw | 5 | No Payload","name_short":"waw-5","host":"waw-1.pl.uncletopia.com","port":27055,"enabled":true,"region":"eu","cc":"pl","latitude":52.2297,"longitude":21.017532,"reserved":0,"last_update":"0001-01-01T00:00:00Z","name_a2s":"Uncletopia | Warsaw | 5 | No Payload","protocol":17,"map":"koth_nucleus","folder":"tf","game":"Team Fortress","app_id":440,"player_count":0,"max_players":24,"Bots":0,"server_type":"Dedicated","server_os":"Linux","password":true,"vac":true,"version":"7708610","steam_id":85568392925397854,"keywords":["cp","nocrits","nodmgspread","uncletopia"],"game_id":440,"stv_port":27056,"stv_name":"Uncletopia | Warsaw | 5 | No Payload | STV","players":null},{"server_id":54,"name":"Uncletopia | Warsaw | 6 | Community","name_short":"waw-6","host":"waw-1.pl.uncletopia.com","port":27065,"enabled":true,"region":"eu","cc":"pl","latitude":52.2297,"longitude":21.017532,"reserved":0,"last_update":"0001-01-01T00:00:00Z","name_a2s":"Uncletopia | Warsaw | 6 | Community","protocol":17,"map":"koth_highpass","folder":"tf","game":"Team Fortress","app_id":440,"player_count":0,"max_players":24,"Bots":0,"server_type":"Dedicated","server_os":"Linux","password":true,"vac":true,"version":"7708610","steam_id":85568392925397856,"keywords":["cp","nocrits","nodmgspread","uncletopia"],"game_id":440,"stv_port":0,"stv_name":"","players":null}]}