{"status":true,"message":"","result":[{"server_id":9,"name":"Uncletopia | Atlanta | 1 | All Maps","name_short":"atl-1","host":"atl-1.us.uncletopia.com","port":27015,"enabled":true,"region":"us-east","cc":"us","latitude":33.753746,"longitude":-84.38633,"reserved":0,"last_update":"0001-01-01T00:00:00Z","name_a2s":"Uncletopia | Atlanta | 1 | All Maps","protocol":17,"map":"koth_harvest_final","folder":"tf","game":"Team Fortress","app_id":440,"player_count":22,"max_players":24,"Bots":0,"server_type":"Dedicated","server_os":"Linux","password":true,"vac":true,"version":"7757534","steam_id":85568392924469982,"keywords":["cp","nocrits","nodmgspread","uncletopia"],"game_id":440,"stv_port":27016,"stv_name":"Uncletopia | Atlanta | 1 | All Maps | STV","players":[{"user_id":244,"name":"William Wallace","steam_id":76561199343316814,"connected_time":865000000000,"state":"active","ping":54},{"user_id":245,"name":"Deeply","steam_id":76561199000786530,"connected_time":834000000000,"state":"active","ping":92},{"user_id":263,"name":"Pizza Wario","steam_id":76561199031172409,"connected_time":202000000000,"state":"active","ping":83},{"user_id":257,"name":"Caoticaos","steam_id":76561198114800227,"connected_time":603000000000,"state":"active","ping":132},{"user_id":264,"name":"Zelumie","steam_id":76561198147335801,"connected_time":59000000000,"state":"active","ping":76},{"user_id":234,"name":"Wengatang","steam_id":76561198021747059,"connected_time":1994000000000,"state":"active","ping":60},{"user_id":210,"name":"Argo","steam_id":76561198353725622,"connected_time":3782000000000,"state":"active","ping":87},{"user_id":236,"name":"Taco","steam_id":76561198034670953,"connected_time":1603000000000,"state":"active","ping":74},{"user_id":254,"name":"Soundproof","steam_id":76561198133392504,"connected_time":661000000000,"state":"active","ping":91},{"user_id":265,"name":"FREAKONALEASH","steam_id":76561199228347398,"connected_time":47000000000,"state":"active","ping":114},{"user_id":248,"name":"Gibby","steam_id":76561199336569123,"connected_time":807000000000,"state":"active","ping":103},{"user_id":251,"name":"Spore_Captain","steam_id":76561198060839271,"connected_time":754000000000,"state":"active","ping":66},{"user_id":258,"name":"Towns","steam_id":76561198984662863,"connected_time":534000000000,"state":"active","ping":59},{"user_id":233,"name":"MadEye","steam_id":76561198972627948,"connected_time":2341000000000,"state":"active","ping":52},{"user_id":241,"name":"hoboways","steam_id":76561198168035195,"connected_time":1115000000000,"state":"active","ping":131},{"user_id":253,"name":"CPUnit","steam_id":76561198162881878,"connected_time":718000000000,"state":"active","ping":60},{"user_id":255,"name":"indi","steam_id":76561198045917538,"connected_time":644000000000,"state":"active","ping":63},{"user_id":235,"name":"AmC","steam_id":76561198109731140,"connected_time":1977000000000,"state":"active","ping":112},{"user_id":223,"name":"nup noodle","steam_id":76561198101278181,"connected_time":3342000000000,"state":"active","ping":81},{"user_id":181,"name":"Ashes!","steam_id":76561197998475441,"connected_time":6609000000000,"state":"active","ping":75},{"user_id":261,"name":"GoldenSongbird","steam_id":76561198337535669,"connected_time":318000000000,"state":"active","ping":88},{"user_id":262,"name":"lu","steam_id":76561198080731872,"connected_time":317000000000,"state":"active","ping":74}]},{"server_id":104,"name":"Uncletopia | Atlanta | 2 | All Maps","name_short":"atl-2","host":"atl-1.us.uncletopia.com","port":27025,"enabled":true,"region":"us-east","cc":"us","latitude":33.753746,"longitude":-84.38633,"reserved":0,"last_update":"0001-01-01T00:00:00Z","name_a2s":"Uncletopia | Atlanta | 2 | All Maps","protocol":17,"map":"koth_badlands","folder":"tf","game":"Team Fortress","app_id":440,"player_count":1,"max_players":24,"Bots":0,"server_type":"Dedicated","server_os":"Linux","password":true,"vac":true,"version":"7757534","steam_id":85568392924469983,"keywords":["cp","nocrits","nodmgspread","uncletopia"],"game_id":440,"stv_port":27026,"stv_name":"Uncletopia | Atlanta | 2 | All Maps | STV","players":[{"user_id":22,"name":"FOrce of nature","steam_id":76561198390522839,"connected_time":25000000000,"state":"spawning","ping":82}]},{"server_id":400,"name":"Uncletopia | Atlanta | 3 | Community","name_short":"atl-3","host":"atl-1.us.uncletopia.com","port":27035,"enabled":true,"region":"us-east","cc":"us","latitude":33.753746,"longitude":-84.38633,"reserved":0,"last_update":"0001-01-01T00:00:00Z","name_a2s":"Uncletopia | Atlanta | 3 | Community","protocol":17,"map":"workshop/koth_synthetic_rc6a.ugc1549817316","folder":"tf","game":"Team Fortress","app_id":440,"player_count":0,"max_players":24,"Bots":0,"server_type":"Dedicated","server_os":"Linux","password":true,"vac":true,"version":"7757534","steam_id":85568392924515187,"keywords":["cp","nocrits","nodmgspread","uncletopia"],"game_id":440,"stv_port":27036,"stv_name":"Uncletopia | Atlanta | 3 | Community | STV","players":null},{"server_id":401,"name":"Uncletopia | Atlanta | 4 | No Payload","name_short":"atl-4","host":"atl-1.us.uncletopia.com","port":27045,"enabled":true,"region":"us-east","cc":"us","latitude":33.753746,"longitude":-84.38633,"reserved":0,"last_update":"0001-01-01T00:00:00Z","name_a2s":"","protocol":0,"map":"","folder":"","game":"","app_id":0,"player_count":0,"max_players":0,"Bots":0,"server_type":"","server_os":"","password":false,"vac":false,"version":"","steam_id":0,"keywords":null,"game_id":0,"stv_port":0,"stv_name":"","players":null},{"server_id":2,"name":"Uncletopia | Chicago | 1 | All Maps","name_short":"chi-1","host":"chi-1.us.uncletopia.com","port":27015,"enabled":true,"region":"us-central","cc":"us","latitude":41.881832,"longitude":-87.62318,"reserved":0,"last_update":"0001-01-01T00:00:00Z","name_a2s":"Uncletopia | Chicago | 1 | All Maps","protocol":17,"map":"pl_barnblitz","folder":"tf","game":"Team Fortress","app_id":440,"player_count":24,"max_players":24,"Bots":0,"server_type":"Dedicated","server_os":"Linux","password":true,"vac":true,"version":"7757534","steam_id":85568392924469984,"keywords":["nocrits","nodmgspread","payload","uncletopia"],"game_id":440,"stv_port":27016,"stv_name":"Uncletopia | Chicago | 1 | All Maps | STV","players":[{"user_id":180,"name":"Don Day el Bano","steam_id":76561198392985381,"connected_time":111000000000,"state":"active","ping":120},{"user_id":178,"name":"Smoky","steam_id":76561198041551259,"connected_time":224000000000,"state":"active","ping":71},{"user_id":181,"name":"RainbowLlama","steam_id":76561198129467214,"connected_time":57000000000,"state":"active","ping":80},{"user_id":152,"name":"heisenburger","steam_id":76561198986534519,"connected_time":2603000000000,"state":"active","ping":89},{"user_id":127,"name":"i ate a bee","steam_id":76561198138983695,"connected_time":3966000000000,"state":"active","ping":79},{"user_id":179,"name":"THE GLONG!","steam_id":76561199097050224,"connected_time":165000000000,"state":"active","ping":84},{"user_id":182,"name":"bananalover5","steam_id":76561199143854578,"connected_time":52000000000,"state":"active","ping":88},{"user_id":175,"name":"charm quark","steam_id":76561198098770777,"connected_time":297000000000,"state":"active","ping":100},{"user_id":157,"name":"› snow","steam_id":76561198109783729,"connected_time":2372000000000,"state":"active","ping":47},{"user_id":168,"name":"DRACULA MOUNTAIN.","steam_id":76561198111259720,"connected_time":965000000000,"state":"active","ping":62},{"user_id":163,"name":"tyg","steam_id":76561198056246867,"connected_time":1621000000000,"state":"active","ping":66},{"user_id":162,"name":"quint","steam_id":76561198046797995,"connected_time":1654000000000,"state":"active","ping":81},{"user_id":183,"name":"Bon Gripper","steam_id":76561198090074621,"connected_time":45000000000,"state":"active","ping":61},{"user_id":23,"name":"grimp gromp","steam_id":76561199267535506,"connected_time":12541000000000,"state":"active","ping":69},{"user_id":112,"name":"Ejaculation Zach","steam_id":76561198203765200,"connected_time":5272000000000,"state":"active","ping":60},{"user_id":184,"name":"felted","steam_id":76561198099507130,"connected_time":37000000000,"state":"active","ping":83},{"user_id":29,"name":"177013","steam_id":76561198072303290,"connected_time":12334000000000,"state":"active","ping":62},{"user_id":115,"name":"heavy guy","steam_id":76561197984047460,"connected_time":4809000000000,"state":"active","ping":55},{"user_id":160,"name":"Crazed Gunman loose in Walmart","steam_id":76561198413125750,"connected_time":1760000000000,"state":"active","ping":61},{"user_id":159,"name":"Jared In Target","steam_id":76561198372449718,"connected_time":2088000000000,"state":"active","ping":68},{"user_id":156,"name":"tablepiN","steam_id":76561198348930428,"connected_time":2535000000000,"state":"active","ping":67},{"user_id":145,"name":"Rornir","steam_id":76561198081829615,"connected_time":2964000000000,"state":"active","ping":42},{"user_id":185,"name":"Mr. Dick™","steam_id":76561198047309044,"connected_time":36000000000,"state":"active","ping":60},{"user_id":146,"name":"DonutDinner54","steam_id":76561199010542612,"connected_time":2959000000000,"state":"active","ping":99}]},{"server_id":106,"name":"Uncletopia | Chicago | 2 | All Maps","name_short":"chi-2","host":"chi-1.us.uncletopia.com","port":27025,"enabled":true,"region":"us-central","cc":"us","latitude":41.881832,"longitude":-87.62318,"reserved":0,"last_update":"0001-01-01T00:00:00Z","name_a2s":"Uncletopia | Chicago | 2 | All Maps","protocol":17,"map":"pl_pier","folder":"tf","game":"Team Fortress","app_id":440,"player_count":24,"max_players":24,"Bots":0,"server_type":"Dedicated","server_os":"Linux","password":true,"vac":true,"version":"7757534","steam_id":85568392924469985,"keywords":["nocrits","nodmgspread","payload","uncletopia"],"game_id":440,"stv_port":27026,"stv_name":"Uncletopia | Chicago | 2 | All Maps | STV","players":[{"user_id":168,"name":"Quark","steam_id":76561198328155605,"connected_time":2151000000000,"state":"active","ping":54},{"user_id":154,"name":"Human","steam_id":76561198936412406,"connected_time":3171000000000,"state":"active","ping":87},{"user_id":151,"name":"Kritzburgh","steam_id":76561198149466938,"connected_time":3874000000000,"state":"active","ping":63},{"user_id":172,"name":"comet sooicidy","steam_id":76561198025173479,"connected_time":1813000000000,"state":"active","ping":107},{"user_id":179,"name":"TheGreatDong","steam_id":76561198000634178,"connected_time":927000000000,"state":"active","ping":90},{"user_id":165,"name":"Craven_Canary","steam_id":76561198088191503,"connected_time":2500000000000,"state":"active","ping":72},{"user_id":74,"name":"Cliff Uppercut","steam_id":76561197999439391,"connected_time":9918000000000,"state":"active","ping":82},{"user_id":182,"name":"Skinny Pete","steam_id":76561198801608576,"connected_time":403000000000,"state":"active","ping":74},{"user_id":157,"name":"bussy destroyer","steam_id":76561199471715987,"connected_time":2942000000000,"state":"active","ping":70},{"user_id":178,"name":"catrinaisahuman","steam_id":76561198281355729,"connected_time":1012000000000,"state":"active","ping":73},{"user_id":158,"name":"Sad Henry Crying","steam_id":76561199253937434,"connected_time":2866000000000,"state":"active","ping":71},{"user_id":175,"name":"D_10.Shin","steam_id":76561198209278033,"connected_time":1105000000000,"state":"active","ping":132},{"user_id":153,"name":"\u003c`)))))\u003c fish","steam_id":76561198410078962,"connected_time":3182000000000,"state":"active","ping":87},{"user_id":184,"name":"Deiler","steam_id":76561198988955474,"connected_time":299000000000,"state":"active","ping":61},{"user_id":169,"name":"Doom Cart","steam_id":76561198158543955,"connected_time":2039000000000,"state":"active","ping":46},{"user_id":164,"name":"Blitz3k","steam_id":76561198055758741,"connected_time":2675000000000,"state":"active","ping":62},{"user_id":176,"name":"thebestman982","steam_id":76561199001698710,"connected_time":1081000000000,"state":"active","ping":93},{"user_id":145,"name":"Drachma","steam_id":76561198007310514,"connected_time":4169000000000,"state":"active","ping":57},{"user_id":183,"name":"golem","steam_id":76561198355040593,"connected_time":323000000000,"state":"active","ping":74},{"user_id":98,"name":"Ajax","steam_id":76561197962240140,"connected_time":8711000000000,"state":"active","ping":71},{"user_id":181,"name":"AnonymousCritter","steam_id":76561198864475187,"connected_time":732000000000,"state":"active","ping":53},{"user_id":185,"name":"Shaby_Frost","steam_id":76561198401334563,"connected_time":292000000000,"state":"active","ping":45},{"user_id":166,"name":"Slingwolf","steam_id":76561198132720460,"connected_time":2336000000000,"state":"active","ping":103},{"user_id":171,"name":"Red","steam_id":76561198082958231,"connected_time":1896000000000,"state":"active","ping":61}]},{"server_id":402,"name":"Uncletopia | Chicago | 3 | All Maps","name_short":"chi-3","host":"chi-1.us.uncletopia.com","port":27035,"enabled":true,"region":"us-central","cc":"us","latitude":41.881832,"longitude":-87.62318,"reserved":0,"last_update":"0001-01-01T00:00:00Z","name_a2s":"Uncletopia | Chicago | 3 | All Maps","protocol":17,"map":"cp_sunshine","folder":"tf","game":"Team Fortress","app_id":440,"player_count":0,"max_players":24,"Bots":0,"server_type":"Dedicated","server_os":"Linux","password":true,"vac":true,"version":"7757534","steam_id":85568392924515191,"keywords":["cp","nocrits","nodmgspread","uncletopia"],"game_id":440,"stv_port":27036,"stv_name":"Uncletopia | Chicago | 3 | All Maps | STV","players":null},{"server_id":403,"name":"Uncletopia | Chicago | 4 | All Maps","name_short":"chi-4","host":"chi-1.us.uncletopia.com","port":27045,"enabled":true,"region":"us-central","cc":"us","latitude":41.881832,"longitude":-87.62318,"reserved":0,"last_update":"0001-01-01T00:00:00Z","name_a2s":"Uncletopia | Chicago | 4 | All Maps","protocol":17,"map":"pl_upward","folder":"tf","game":"Team Fortress","app_id":440,"player_count":24,"max_players":24,"Bots":0,"server_type":"Dedicated","server_os":"Linux","password":true,"vac":true,"version":"7757534","steam_id":85568392924515193,"keywords":["nocrits","nodmgspread","payload","uncletopia"],"game_id":440,"stv_port":27046,"stv_name":"Uncletopia | Chicago | 4 | All Maps | STV","players":[{"user_id":24,"name":"bad bitch lover","steam_id":76561199065645094,"connected_time":1394000000000,"state":"active","ping":70},{"user_id":11,"name":"Bumblebutt","steam_id":76561198057457396,"connected_time":2518000000000,"state":"active","ping":86},{"user_id":39,"name":"GamerMan","steam_id":76561199058616824,"connected_time":674000000000,"state":"active","ping":73},{"user_id":12,"name":"Nelson Your F2p Friend","steam_id":76561198850327678,"connected_time":2218000000000,"state":"active","ping":91},{"user_id":53,"name":"Pillow","steam_id":76561198307628709,"connected_time":6000000000,"state":"spawning","ping":72},{"user_id":50,"name":"penguinlord","steam_id":76561198305192692,"connected_time":137000000000,"state":"active","ping":62},{"user_id":42,"name":"Katy","steam_id":76561198079395814,"connected_time":615000000000,"state":"active","ping":73},{"user_id":18,"name":"name420","steam_id":76561198129374525,"connected_time":1748000000000,"state":"active","ping":60},{"user_id":38,"name":"LovingKindnesz","steam_id":76561199064932372,"connected_time":764000000000,"state":"active","ping":100},{"user_id":47,"name":"Zandzz","steam_id":76561198083918902,"connected_time":224000000000,"state":"active","ping":56},{"user_id":40,"name":"feenman","steam_id":76561199383834799,"connected_time":648000000000,"state":"active","ping":101},{"user_id":41,"name":"Mikeonut","steam_id":76561198305752102,"connected_time":647000000000,"state":"active","ping":98},{"user_id":52,"name":"Jeff the Christmas Duck","steam_id":76561198048479863,"connected_time":40000000000,"state":"spawning","ping":51},{"user_id":43,"name":"juhg, koop","steam_id":76561198388955908,"connected_time":598000000000,"state":"active","ping":72},{"user_id":27,"name":"Jaydyn","steam_id":76561198140326797,"connected_time":1339000000000,"state":"active","ping":85},{"user_id":28,"name":"jamyw2010","steam_id":76561199477897380,"connected_time":1334000000000,"state":"active","ping":63},{"user_id":36,"name":"Cheesi","steam_id":76561199417190840,"connected_time":1138000000000,"state":"active","ping":55},{"user_id":30,"name":"kiracaroso","steam_id":76561198165859543,"connected_time":1281000000000,"state":"active","ping":98},{"user_id":31,"name":"Parker","steam_id":76561198046044893,"connected_time":1262000000000,"state":"active","ping":46},{"user_id":32,"name":"Judy Hopps™ Simp","steam_id":76561198029322539,"connected_time":1214000000000,"state":"active","ping":100},{"user_id":48,"name":"urine trouble","steam_id":76561199013266640,"connected_time":174000000000,"state":"active","ping":46},{"user_id":49,"name":"Sh/7 Stain","steam_id":76561198408817739,"connected_time":168000000000,"state":"active","ping":60},{"user_id":35,"name":"Deltaco","steam_id":76561198094572694,"connected_time":1152000000000,"state":"active","ping":118},{"user_id":37,"name":"Heroofchaos","steam_id":76561199106660090,"connected_time":1126000000000,"state":"active","ping":76}]},{"server_id":36,"name":"Uncletopia | Chicago | 5 | All Maps","name_short":"chi-5","host":"chi-2.us.uncletopia.com","port":27015,"enabled":true,"region":"us-central","cc":"us","latitude":41.881832,"longitude":-87.62318,"reserved":0,"last_update":"0001-01-01T00:00:00Z","name_a2s":"Uncletopia | Chicago | 5 | All Maps","protocol":17,"map":"koth_cascade","folder":"tf","game":"Team Fortress","app_id":440,"player_count":0,"max_players":24,"Bots":0,"server_type":"Dedicated","server_os":"Linux","password":true,"vac":true,"version":"7757534","steam_id":85568392924866362,"keywords":["cp","nocrits","nodmgspread","uncletopia"],"game_id":440,"stv_port":27016,"stv_name":"Uncletopia | Chicago | 5 | All Maps | STV","players":null},{"server_id":37,"name":"Uncletopia | Chicago | 6 | All Maps","name_short":"chi-6","host":"chi-2.us.uncletopia.com","port":27025,"enabled":true,"region":"us-central","cc":"us","latitude":41.881832,"longitude":-87.62318,"reserved":0,"last_update":"0001-01-01T00:00:00Z","name_a2s":"Uncletopia | Chicago | 6 | All Maps","protocol":17,"map":"cp_dustbowl","folder":"tf","game":"Team Fortress","app_id":440,"player_count":0,"max_players":24,"Bots":0,"server_type":"Dedicated","server_os":"Linux","password":true,"vac":true,"version":"7757534","steam_id":85568392924866363,"keywords":["cp","nocrits","nodmgspread","uncletopia"],"game_id":440,"stv_port":27026,"stv_name":"Uncletopia | Chicago | 6 | All Maps | STV","players":null},{"server_id":38,"name":"Uncletopia | Chicago | 7 | Stopwatch Beta","name_short":"chi-7","host":"chi-2.us.uncletopia.com","port":27035,"enabled":true,"region":"us-central","cc":"us","latitude":41.881832,"longitude":-87.62318,"reserved":0,"last_update":"0001-01-01T00:00:00Z","name_a2s":"Uncletopia | Chicago | 7 | Stopwatch Beta","protocol":17,"map":"pl_barnblitz","folder":"tf","game":"Team Fortress","app_id":440,"player_count":0,"max_players":24,"Bots":0,"server_type":"Dedicated","server_os":"Linux","password":true,"vac":true,"version":"7757534","steam_id":85568392924866364,"keywords":["nocrits","nodmgspread","payload","uncletopia"],"game_id":440,"stv_port":27036,"stv_name":"Uncletopia | Chicago | 7 | Stopwatch Beta | STV","players":null},{"server_id":39,"name":"Uncletopia | Chicago | 8 | Community","name_short":"chi-8","host":"chi-2.us.uncletopia.com","port":27045,"enabled":true,"region":"us-central","cc":"us","latitude":41.881832,"longitude":-87.62318,"reserved":0,"last_update":"0001-01-01T00:00:00Z","name_a2s":"Uncletopia | Chicago | 8 | Community","protocol":17,"map":"koth_cascade","folder":"tf","game":"Team Fortress","app_id":440,"player_count":0,"max_players":24,"Bots":0,"server_type":"Dedicated","server_os":"Linux","password":true,"vac":true,"version":"7757534","steam_id":85568392924866365,"keywords":["cp","nocrits","nodmgspread","uncletopia"],"game_id":440,"stv_port":27046,"stv_name":"Uncletopia | Chicago | 8 | Community | STV","players":null},{"server_id":8,"name":"Uncletopia | Dallas | 1 | All Maps","name_short":"dal-1","host":"dal-1.us.uncletopia.com","port":27015,"enabled":true,"region":"us-central","cc":"us","latitude":32.779167,"longitude":-96.80889,"reserved":0,"last_update":"0001-01-01T00:00:00Z","name_a2s":"Uncletopia | Dallas | 1 | All Maps","protocol":17,"map":"pl_upward","folder":"tf","game":"Team Fortress","app_id":440,"player_count":24,"max_players":24,"Bots":0,"server_type":"Dedicated","server_os":"Linux","password":true,"vac":true,"version":"7757534","steam_id":85568392924469986,"keywords":["nocrits","nodmgspread","payload","uncletopia"],"game_id":440,"stv_port":27016,"stv_name":"Uncletopia | Dallas | 1 | All Maps | STV","players":[{"user_id":30,"name":"Goldensliv","steam_id":76561198161673891,"connected_time":352000000000,"state":"active","ping":63},{"user_id":23,"name":"carp","steam_id":76561198262554336,"connected_time":516000000000,"state":"active","ping":185},{"user_id":12,"name":"Gossamer","steam_id":76561198046948498,"connected_time":2082000000000,"state":"active","ping":62},{"user_id":13,"name":"Engineer Gaming","steam_id":76561198840761529,"connected_time":1786000000000,"state":"active","ping":60},{"user_id":33,"name":"Surgicalsubset","steam_id":76561198983418107,"connected_time":231000000000,"state":"active","ping":87},{"user_id":21,"name":"Jack O'Lantern","steam_id":76561199122368370,"connected_time":708000000000,"state":"active","ping":161},{"user_id":19,"name":"stboncho","steam_id":76561198172275301,"connected_time":875000000000,"state":"active","ping":101},{"user_id":24,"name":"parmesan","steam_id":76561198118304061,"connected_time":506000000000,"state":"active","ping":74},{"user_id":28,"name":"KDOT","steam_id":76561199136405397,"connected_time":407000000000,"state":"active","ping":87},{"user_id":27,"name":"g00bur","steam_id":76561197993622520,"connected_time":448000000000,"state":"active","ping":87},{"user_id":29,"name":"Cutcleaner","steam_id":76561199000925667,"connected_time":399000000000,"state":"active","ping":101},{"user_id":31,"name":"(_!_) Guinea Pirate .j2","steam_id":76561197993863967,"connected_time":345000000000,"state":"active","ping":116},{"user_id":32,"name":"Pathara44","steam_id":76561198048238620,"connected_time":318000000000,"state":"active","ping":74},{"user_id":34,"name":"god gamer","steam_id":76561198168149434,"connected_time":226000000000,"state":"active","ping":132},{"user_id":43,"name":"Lord GabeN","steam_id":76561198140862723,"connected_time":89000000000,"state":"active","ping":90},{"user_id":36,"name":"just your usual scout F2P","steam_id":76561199274405344,"connected_time":218000000000,"state":"active","ping":113},{"user_id":45,"name":"VixianUwU ッ ❤","steam_id":76561198948815060,"connected_time":49000000000,"state":"active","ping":76},{"user_id":38,"name":"SKINGRAPH","steam_id":76561198082933650,"connected_time":160000000000,"state":"active","ping":85},{"user_id":39,"name":"wiiblob","steam_id":76561198109106242,"connected_time":140000000000,"state":"active","ping":139},{"user_id":40,"name":"Batio 37","steam_id":76561199108534943,"connected_time":140000000000,"state":"active","ping":201},{"user_id":41,"name":"VerdantSunset","steam_id":76561198062313478,"connected_time":120000000000,"state":"active","ping":69},{"user_id":42,"name":"Eden","steam_id":76561198081284664,"connected_time":118000000000,"state":"active","ping":80},{"user_id":46,"name":"bunceian","steam_id":76561198975662918,"connected_time":40000000000,"state":"active","ping":85},{"user_id":47,"name":"[DEEP] offrow","steam_id":76561198123596791,"connected_time":13000000000,"state":"active","ping":82}]},{"server_id":108,"name":"Uncletopia | Dallas | 2 | All Maps","name_short":"dal-2","host":"dal-1.us.uncletopia.com","port":27025,"enabled":true,"region":"us-central","cc":"us","latitude":32.779167,"longitude":-96.80889,"reserved":0,"last_update":"0001-01-01T00:00:00Z","name_a2s":"Uncletopia | Dallas | 2 | All Maps","protocol":17,"map":"cp_mountainlab","folder":"tf","game":"Team Fortress","app_id":440,"player_count":0,"max_players":24,"Bots":0,"server_type":"Dedicated","server_os":"Linux","password":true,"vac":true,"version":"7757534","steam_id":85568392924469988,"keywords":["cp","nocrits","nodmgspread","uncletopia"],"game_id":440,"stv_port":27026,"stv_name":"Uncletopia | Dallas | 2 | All Maps | STV","players":null},{"server_id":5,"name":"Uncletopia | Frankfurt | 1 | All Maps","name_short":"frk-1","host":"frk-1.de.uncletopia.com","port":27015,"enabled":true,"region":"eu","cc":"de","latitude":50.110924,"longitude":8.682127,"reserved":0,"last_update":"0001-01-01T00:00:00Z","name_a2s":"Uncletopia | Frankfurt | 1 | All Maps","protocol":17,"map":"cp_snakewater_final1","folder":"tf","game":"Team Fortress","app_id":440,"player_count":21,"max_players":24,"Bots":0,"server_type":"Dedicated","server_os":"Linux","password":true,"vac":true,"version":"7757534","steam_id":85568392924469989,"keywords":["cp","nocrits","nodmgspread","uncletopia"],"game_id":440,"stv_port":27016,"stv_name":"Uncletopia | Frankfurt | 1 | All Maps | STV","players":[{"user_id":168,"name":"kadayifpro124","steam_id":76561198159462501,"connected_time":168000000000,"state":"active","ping":66},{"user_id":172,"name":"Errrrrm","steam_id":76561198178802211,"connected_time":95000000000,"state":"active","ping":75},{"user_id":158,"name":"gugugu gagaga","steam_id":76561198136959681,"connected_time":520000000000,"state":"active","ping":44},{"user_id":10,"name":"Обсидиан","steam_id":76561198410978891,"connected_time":9559000000000,"state":"active","ping":99},{"user_id":159,"name":"EZPK","steam_id":76561197987474355,"connected_time":427000000000,"state":"active","ping":63},{"user_id":169,"name":"Septicmotion","steam_id":76561199090085056,"connected_time":163000000000,"state":"active","ping":71},{"user_id":173,"name":"Salad's Warband","steam_id":76561198214089583,"connected_time":73000000000,"state":"active","ping":64},{"user_id":162,"name":"KillerQueen (he/they/she)","steam_id":76561199019399725,"connected_time":305000000000,"state":"active","ping":56},{"user_id":163,"name":"Cosmetic brain","steam_id":76561198055936410,"connected_time":305000000000,"state":"active","ping":86},{"user_id":171,"name":"FilipJacobs","steam_id":76561198076501589,"connected_time":123000000000,"state":"active","ping":58},{"user_id":131,"name":"finbar","steam_id":76561198056812396,"connected_time":2329000000000,"state":"active","ping":79},{"user_id":106,"name":"giclure :;","steam_id":76561197986362828,"connected_time":4240000000000,"state":"active","ping":55},{"user_id":164,"name":"willus212","steam_id":76561199182615246,"connected_time":264000000000,"state":"active","ping":82},{"user_id":86,"name":"citronous","steam_id":76561198093290934,"connected_time":5520000000000,"state":"active","ping":53},{"user_id":136,"name":"Husk","steam_id":76561198271808519,"connected_time":2250000000000,"state":"active","ping":59},{"user_id":174,"name":"ocdOWL","steam_id":76561198099635475,"connected_time":66000000000,"state":"active","ping":90},{"user_id":166,"name":"Lorelei","steam_id":76561198056341754,"connected_time":254000000000,"state":"active","ping":46},{"user_id":175,"name":"Lays","steam_id":76561199478616157,"connected_time":31000000000,"state":"active","ping":102},{"user_id":176,"name":"Miss.Sparklez","steam_id":76561198101745576,"connected_time":28000000000,"state":"active","ping":67},{"user_id":177,"name":"kokii","steam_id":76561198164675078,"connected_time":23000000000,"state":"spawning","ping":55},{"user_id":125,"name":"clouds","steam_id":76561198111134021,"connected_time":2989000000000,"state":"active","ping":75}]},{"server_id":110,"name":"Uncletopia | Frankfurt | 2 | All Maps","name_short":"frk-2","host":"frk-1.de.uncletopia.com","port":27025,"enabled":true,"region":"eu","cc":"de","latitude":50.110924,"longitude":8.682127,"reserved":0,"last_update":"0001-01-01T00:00:00Z","name_a2s":"Uncletopia | Frankfurt | 2 | All Maps","protocol":17,"map":"koth_lakeside_final","folder":"tf","game":"Team Fortress","app_id":440,"player_count":0,"max_players":24,"Bots":0,"server_type":"Dedicated","server_os":"Linux","password":true,"vac":true,"version":"7757534","steam_id":85568392924469990,"keywords":["cp","nocrits","nodmgspread","uncletopia"],"game_id":440,"stv_port":27026,"stv_name":"Uncletopia | Frankfurt | 2 | All Maps | STV","players":null},{"server_id":308,"name":"Uncletopia | Frankfurt | 3 | All Maps","name_short":"frk-3","host":"frk-1.de.uncletopia.com","port":27035,"enabled":true,"region":"eu","cc":"de","latitude":50.110924,"longitude":8.682127,"reserved":0,"last_update":"0001-01-01T00:00:00Z","name_a2s":"Uncletopia | Frankfurt | 3 | All Maps","protocol":17,"map":"pl_badwater","folder":"tf","game":"Team Fortress","app_id":440,"player_count":24,"max_players":24,"Bots":0,"server_type":"Dedicated","server_os":"Linux","password":true,"vac":true,"version":"7757534","steam_id":85568392924504274,"keywords":["nocrits","nodmgspread","payload","uncletopia"],"game_id":440,"stv_port":27036,"stv_name":"Uncletopia | Frankfurt | 3 | All Maps | STV","players":[{"user_id":326,"name":"Gorogaz","steam_id":76561198207157679,"connected_time":5938000000000,"state":"active","ping":59},{"user_id":401,"name":"Milosz52","steam_id":76561199060940204,"connected_time":205000000000,"state":"active","ping":79},{"user_id":402,"name":"Ooze","steam_id":76561198039642637,"connected_time":165000000000,"state":"active","ping":71},{"user_id":403,"name":"The Fabian Strategy","steam_id":76561198052753473,"connected_time":163000000000,"state":"active","ping":74},{"user_id":359,"name":"bread","steam_id":76561198111097313,"connected_time":3654000000000,"state":"active","ping":56},{"user_id":407,"name":"369","steam_id":76561198149967445,"connected_time":55000000000,"state":"active","ping":45},{"user_id":391,"name":"Rambi","steam_id":76561199058078505,"connected_time":891000000000,"state":"active","ping":149},{"user_id":357,"name":"Marcos","steam_id":76561198798925721,"connected_time":3736000000000,"state":"active","ping":75},{"user_id":356,"name":"Alice","steam_id":76561198208927047,"connected_time":3748000000000,"state":"active","ping":62},{"user_id":387,"name":"Usame bin Muhammed","steam_id":76561199198844185,"connected_time":1706000000000,"state":"active","ping":80},{"user_id":389,"name":"CiVillain","steam_id":76561198059617732,"connected_time":1328000000000,"state":"active","ping":60},{"user_id":395,"name":"Gravel Mercenary","steam_id":76561199019412162,"connected_time":597000000000,"state":"active","ping":54},{"user_id":408,"name":"poo brother","steam_id":76561199368726811,"connected_time":51000000000,"state":"active","ping":84},{"user_id":400,"name":"HOT LOIS","steam_id":76561198302623594,"connected_time":217000000000,"state":"active","ping":94},{"user_id":405,"name":"Ghost","steam_id":76561198110914180,"connected_time":103000000000,"state":"active","ping":110},{"user_id":366,"name":"Solymr ibn Wali Barad","steam_id":76561198044008976,"connected_time":2930000000000,"state":"active","ping":71},{"user_id":404,"name":"hbivnm","steam_id":76561197996468677,"connected_time":151000000000,"state":"active","ping":54},{"user_id":384,"name":"Fridge","steam_id":76561198071665589,"connected_time":2083000000000,"state":"active","ping":105},{"user_id":254,"name":"Devil","steam_id":76561198129721935,"connected_time":11014000000000,"state":"active","ping":86},{"user_id":378,"name":"Kneh","steam_id":76561198121744739,"connected_time":2231000000000,"state":"active","ping":65},{"user_id":397,"name":"minitel","steam_id":76561198056336216,"connected_time":295000000000,"state":"active","ping":60},{"user_id":286,"name":"Smoke","steam_id":76561198140627349,"connected_time":8293000000000,"state":"active","ping":151},{"user_id":381,"name":"Palettenbrett","steam_id":76561198124162943,"connected_time":2194000000000,"state":"active","ping":100},{"user_id":394,"name":"Mr_Alex","steam_id":76561198308929418,"connected_time":793000000000,"state":"active","ping":57}]},{"server_id":309,"name":"Uncletopia | Frankfurt | 4 | All Maps","name_short":"frk-4","host":"frk-1.de.uncletopia.com","port":27045,"enabled":true,"region":"eu","cc":"de","latitude":50.110924,"longitude":8.682127,"reserved":0,"last_update":"0001-01-01T00:00:00Z","name_a2s":"Uncletopia | Frankfurt | 4 | All Maps","protocol":17,"map":"koth_viaduct","folder":"tf","game":"Team Fortress","app_id":440,"player_count":0,"max_players":24,"Bots":0,"server_type":"Dedicated","server_os":"Linux","password":true,"vac":true,"version":"7757534","steam_id":85568392924504275,"keywords":["cp","nocrits","nodmgspread","uncletopia"],"game_id":440,"stv_port":27046,"stv_name":"Uncletopia | Frankfurt | 4 | All Maps | STV","players":null},{"server_id":310,"name":"Uncletopia | Frankfurt | 5 | All Maps","name_short":"frk-5","host":"frk-1.de.uncletopia.com","port":27055,"enabled":true,"region":"eu","cc":"de","latitude":50.110924,"longitude":8.682127,"reserved":0,"last_update":"0001-01-01T00:00:00Z","name_a2s":"Uncletopia | Frankfurt | 5 | All Maps","protocol":17,"map":"pl_upward","folder":"tf","game":"Team Fortress","app_id":440,"player_count":24,"max_players":24,"Bots":0,"server_type":"Dedicated","server_os":"Linux","password":true,"vac":true,"version":"7757534","steam_id":85568392924504277,"keywords":["nocrits","nodmgspread","payload","uncletopia"],"game_id":440,"stv_port":27056,"stv_name":"Uncletopia | Frankfurt | 5 | All Maps | STV","players":[{"user_id":308,"name":"midlpsyzl47","steam_id":76561199475972637,"connected_time":146000000000,"state":"active","ping":71},{"user_id":263,"name":"sAmasam","steam_id":76561198114953928,"connected_time":2070000000000,"state":"active","ping":60},{"user_id":309,"name":"hedgeh. OG","steam_id":76561198016896658,"connected_time":145000000000,"state":"active","ping":70},{"user_id":307,"name":"Gabys","steam_id":76561198282892553,"connected_time":198000000000,"state":"active","ping":72},{"user_id":288,"name":"Tekky","steam_id":76561197990987315,"connected_time":987000000000,"state":"active","ping":58},{"user_id":289,"name":"Spieller","steam_id":76561198057197847,"connected_time":984000000000,"state":"active","ping":76},{"user_id":290,"name":"The Fellow Feller","steam_id":76561198188864306,"connected_time":950000000000,"state":"active","ping":69},{"user_id":221,"name":"Moobin","steam_id":76561198099999156,"connected_time":3806000000000,"state":"active","ping":71},{"user_id":267,"name":"t0ksi","steam_id":76561198107240798,"connected_time":1825000000000,"state":"active","ping":72},{"user_id":310,"name":"coffee","steam_id":76561198382387303,"connected_time":132000000000,"state":"active","ping":78},{"user_id":229,"name":"Jar Jar Binkzon","steam_id":76561198057403817,"connected_time":3592000000000,"state":"active","ping":76},{"user_id":301,"name":"WolfmanCZ","steam_id":76561199157141414,"connected_time":682000000000,"state":"active","ping":71},{"user_id":303,"name":"Aximus","steam_id":76561198024575710,"connected_time":638000000000,"state":"active","ping":66},{"user_id":249,"name":"akademia UPO","steam_id":76561199238754087,"connected_time":2637000000000,"state":"active","ping":110},{"user_id":241,"name":"modavak","steam_id":76561198946290908,"connected_time":3184000000000,"state":"active","ping":92},{"user_id":291,"name":"dogburg","steam_id":76561199248912868,"connected_time":944000000000,"state":"active","ping":84},{"user_id":311,"name":"a straight white male","steam_id":76561198381120660,"connected_time":114000000000,"state":"active","ping":88},{"user_id":312,"name":"Comrade Sprinkles","steam_id":76561198035672576,"connected_time":103000000000,"state":"active","ping":70},{"user_id":306,"name":"Xriasp","steam_id":76561198104721321,"connected_time":254000000000,"state":"active","ping":75},{"user_id":294,"name":"Dark Wizart","steam_id":76561198377689439,"connected_time":912000000000,"state":"active","ping":72},{"user_id":296,"name":"imthegerman","steam_id":76561198053401077,"connected_time":859000000000,"state":"active","ping":107},{"user_id":295,"name":"Shynii","steam_id":76561198194682105,"connected_time":903000000000,"state":"active","ping":68},{"user_id":305,"name":"Mental","steam_id":76561198057117092,"connected_time":360000000000,"state":"active","ping":60},{"user_id":283,"name":"ducks","steam_id":76561198166148685,"connected_time":1184000000000,"state":"active","ping":54}]},{"server_id":311,"name":"Uncletopia | Frankfurt | 6 | All Maps","name_short":"frk-6","host":"frk-1.de.uncletopia.com","port":27065,"enabled":true,"region":"eu","cc":"de","latitude":50.110924,"longitude":8.682127,"reserved":0,"last_update":"0001-01-01T00:00:00Z","name_a2s":"Uncletopia | Frankfurt | 6 | All Maps","protocol":17,"map":"pl_barnblitz","folder":"tf","game":"Team Fortress","app_id":440,"player_count":24,"max_players":24,"Bots":0,"server_type":"Dedicated","server_os":"Linux","password":true,"vac":true,"version":"7757534","steam_id":85568392924504278,"keywords":["nocrits","nodmgspread","payload","uncletopia"],"game_id":440,"stv_port":27066,"stv_name":"Uncletopia | Frankfurt | 6 | All Maps | STV","players":[{"user_id":432,"name":"0xDEADBEEF","steam_id":76561199075416111,"connected_time":3377000000000,"state":"active","ping":91},{"user_id":431,"name":"Kati","steam_id":76561198007231088,"connected_time":3537000000000,"state":"active","ping":58},{"user_id":465,"name":"ksg","steam_id":76561198042894236,"connected_time":1679000000000,"state":"active","ping":69},{"user_id":471,"name":"Bonca","steam_id":76561198137503531,"connected_time":1471000000000,"state":"active","ping":79},{"user_id":414,"name":"bibib17","steam_id":76561198143319217,"connected_time":4573000000000,"state":"active","ping":78},{"user_id":478,"name":"Haha?","steam_id":76561198056882245,"connected_time":249000000000,"state":"active","ping":51},{"user_id":477,"name":"Mr.B","steam_id":76561199204478925,"connected_time":353000000000,"state":"active","ping":119},{"user_id":462,"name":"Charged","steam_id":76561199127215130,"connected_time":1903000000000,"state":"active","ping":84},{"user_id":443,"name":"sven5011","steam_id":76561198064398200,"connected_time":2614000000000,"state":"active","ping":60},{"user_id":476,"name":":)","steam_id":76561198039964082,"connected_time":573000000000,"state":"active","ping":59},{"user_id":438,"name":"nairolf","steam_id":76561198007055352,"connected_time":2878000000000,"state":"active","ping":52},{"user_id":434,"name":"walluu","steam_id":76561198121830870,"connected_time":3202000000000,"state":"active","ping":75},{"user_id":481,"name":"sexgod","steam_id":76561198978125535,"connected_time":15000000000,"state":"spawning","ping":58},{"user_id":380,"name":"LOBZIK","steam_id":76561198114830120,"connected_time":7588000000000,"state":"active","ping":77},{"user_id":479,"name":"axl#pizdaaim","steam_id":76561198991661832,"connected_time":238000000000,"state":"active","ping":106},{"user_id":480,"name":"a dollop of bird","steam_id":76561198089003514,"connected_time":164000000000,"state":"active","ping":49},{"user_id":449,"name":"HimpoX","steam_id":76561198043946778,"connected_time":2464000000000,"state":"active","ping":102},{"user_id":421,"name":"night.s","steam_id":76561198326287823,"connected_time":4083000000000,"state":"active","ping":73},{"user_id":427,"name":"Menty","steam_id":76561198036748212,"connected_time":3745000000000,"state":"active","ping":46},{"user_id":411,"name":"RiX","steam_id":76561197969053733,"connected_time":4647000000000,"state":"active","ping":70},{"user_id":475,"name":"Mr. Hunts","steam_id":76561197981910397,"connected_time":1208000000000,"state":"active","ping":75},{"user_id":405,"name":"XPullaHiiri","steam_id":76561198031652375,"connected_time":5133000000000,"state":"active","ping":93},{"user_id":453,"name":"YZO","steam_id":76561198000562317,"connected_time":2314000000000,"state":"active","ping":75},{"user_id":457,"name":"After8","steam_id":76561198090750865,"connected_time":2203000000000,"state":"active","ping":66}]},{"server_id":23,"name":"Uncletopia | Frankfurt | 7 | Stopwatch Beta","name_short":"frk-7","host":"frk-1.de.uncletopia.com","port":27075,"enabled":true,"region":"eu","cc":"de","latitude":50.110924,"longitude":8.682127,"reserved":0,"last_update":"0001-01-01T00:00:00Z","name_a2s":"Uncletopia | Frankfurt | 7 | Stopwatch Beta","protocol":17,"map":"workshop/koth_clearcut_b15.ugc2107050255","folder":"tf","game":"Team Fortress","app_id":440,"player_count":0,"max_players":24,"Bots":0,"server_type":"Dedicated","server_os":"Linux","password":true,"vac":true,"version":"7757534","steam_id":85568392924742827,"keywords":["cp","nocrits","nodmgspread","uncletopia"],"game_id":440,"stv_port":27076,"stv_name":"Uncletopia | Frankfurt | 7 | Stopwatch Beta | STV","players":null},{"server_id":24,"name":"Uncletopia | Frankfurt | 8 | Community","name_short":"frk-8","host":"frk-1.de.uncletopia.com","port":27085,"enabled":true,"region":"eu","cc":"de","latitude":50.110924,"longitude":8.682127,"reserved":0,"last_update":"0001-01-01T00:00:00Z","name_a2s":"Uncletopia | Frankfurt | 8 | Community","protocol":17,"map":"koth_lakeside_final","folder":"tf","game":"Team Fortress","app_id":440,"player_count":1,"max_players":24,"Bots":0,"server_type":"Dedicated","server_os":"Linux","password":true,"vac":true,"version":"7757534","steam_id":85568392924742828,"keywords":["cp","nocrits","nodmgspread","uncletopia"],"game_id":440,"stv_port":27086,"stv_name":"Uncletopia | Frankfurt | 8 | Community | STV","players":[{"user_id":9,"name":"Z0r1t","steam_id":76561199120241220,"connected_time":1107000000000,"state":"active","ping":72}]},{"server_id":202,"name":"Uncletopia | Hong Kong | 1 | All Maps","name_short":"hgk-1","host":"hgk-1.hk.uncletopia.com","port":27015,"enabled":true,"region":"asia","cc":"hk","latitude":22.302711,"longitude":114.177216,"reserved":0,"last_update":"0001-01-01T00:00:00Z","name_a2s":"Uncletopia | Hong Kong | 1 | All Maps","protocol":17,"map":"ctf_2fort","folder":"tf","game":"Team Fortress","app_id":440,"player_count":0,"max_players":24,"Bots":0,"server_type":"Dedicated","server_os":"Linux","password":true,"vac":true,"version":"7757534","steam_id":85568392924494504,"keywords":["ctf","nocrits","nodmgspread","uncletopia"],"game_id":440,"stv_port":27016,"stv_name":"Uncletopia | Hong Kong | 1 | All Maps | STV","players":null},{"server_id":1,"name":"Uncletopia | Los Angeles | 1 | All Maps","name_short":"lax-1","host":"lax-1.us.uncletopia.com","port":27015,"enabled":true,"region":"us-west","cc":"us","latitude":33.94279,"longitude":-118.41004,"reserved":0,"last_update":"0001-01-01T00:00:00Z","name_a2s":"Uncletopia | Los Angeles | 1 | All Maps","protocol":17,"map":"koth_lakeside_final","folder":"tf","game":"Team Fortress","app_id":440,"player_count":0,"max_players":24,"Bots":0,"server_type":"Dedicated","server_os":"Linux","password":true,"vac":true,"version":"7757534","steam_id":85568392924469991,"keywords":["cp","nocrits","nodmgspread","uncletopia"],"game_id":440,"stv_port":27016,"stv_name":"Uncletopia | Los Angeles | 1 | All Maps | STV","players":null},{"server_id":112,"name":"Uncletopia | Los Angeles | 2 | All Maps","name_short":"lax-2","host":"lax-1.us.uncletopia.com","port":27025,"enabled":true,"region":"us-west","cc":"us","latitude":33.94279,"longitude":-118.41004,"reserved":0,"last_update":"0001-01-01T00:00:00Z","name_a2s":"Uncletopia | Los Angeles | 2 | All Maps","protocol":17,"map":"pl_pier","folder":"tf","game":"Team Fortress","app_id":440,"player_count":1,"max_players":24,"Bots":0,"server_type":"Dedicated","server_os":"Linux","password":true,"vac":true,"version":"7757534","steam_id":85568392924469992,"keywords":["nocrits","nodmgspread","payload","uncletopia"],"game_id":440,"stv_port":27026,"stv_name":"Uncletopia | Los Angeles | 2 | All Maps | STV","players":[{"user_id":6,"name":"sillyelijah","steam_id":76561199142699662,"connected_time":1215000000000,"state":"active","ping":39}]},{"server_id":324,"name":"Uncletopia | Los Angeles | 3 | All Maps","name_short":"lax-3","host":"lax-1.us.uncletopia.com","port":27035,"enabled":true,"region":"us-west","cc":"us","latitude":33.94279,"longitude":-118.41004,"reserved":0,"last_update":"0001-01-01T00:00:00Z","name_a2s":"Uncletopia | Los Angeles | 3 | All Maps","protocol":17,"map":"pl_barnblitz","folder":"tf","game":"Team Fortress","app_id":440,"player_count":0,"max_players":24,"Bots":0,"server_type":"Dedicated","server_os":"Linux","password":true,"vac":true,"version":"7757534","steam_id":85568392924510198,"keywords":["nocrits","nodmgspread","payload","uncletopia"],"game_id":440,"stv_port":27036,"stv_name":"Uncletopia | Los Angeles | 3 | All Maps | STV","players":null},{"server_id":25,"name":"Uncletopia | Los Angeles | 4 | Stopwatch Beta","name_short":"lax-4","host":"lax-1.us.uncletopia.com","port":27045,"enabled":true,"region":"us-west","cc":"us","latitude":33.94279,"longitude":-118.41004,"reserved":0,"last_update":"0001-01-01T00:00:00Z","name_a2s":"Uncletopia | Los Angeles | 4 | Stopwatch Beta","protocol":17,"map":"pl_swiftwater_final1","folder":"tf","game":"Team Fortress","app_id":440,"player_count":0,"max_players":24,"Bots":0,"server_type":"Dedicated","server_os":"Linux","password":true,"vac":true,"version":"7757534","steam_id":85568392924510199,"keywords":["nocrits","nodmgspread","payload","uncletopia"],"game_id":440,"stv_port":27046,"stv_name":"Uncletopia | Los Angeles | 4 | Stopwatch Beta | STV","players":null},{"server_id":11,"name":"Uncletopia | London | 1 | All Maps","name_short":"lon-1","host":"lon-1.uk.uncletopia.com","port":27015,"enabled":true,"region":"eu","cc":"gb","latitude":51.509865,"longitude":-0.118092,"reserved":0,"last_update":"0001-01-01T00:00:00Z","name_a2s":"Uncletopia | London | 1 | All Maps","protocol":17,"map":"pl_badwater","folder":"tf","game":"Team Fortress","app_id":440,"player_count":24,"max_players":24,"Bots":0,"server_type":"Dedicated","server_os":"Linux","password":true,"vac":true,"version":"7757534","steam_id":85568392924367362,"keywords":["nocrits","nodmgspread","payload","uncletopia"],"game_id":440,"stv_port":27016,"stv_name":"Uncletopia | London | 1 | All Maps | STV","players":[{"user_id":554,"name":"shop owner dr disrespects wife","steam_id":76561199028670732,"connected_time":1276000000000,"state":"active","ping":62},{"user_id":559,"name":"gGABEsz","steam_id":76561198117199068,"connected_time":747000000000,"state":"active","ping":64},{"user_id":546,"name":"Anonymous47007","steam_id":76561199005211417,"connected_time":1735000000000,"state":"active","ping":86},{"user_id":532,"name":"AsuX","steam_id":76561197990333289,"connected_time":2307000000000,"state":"active","ping":60},{"user_id":538,"name":"WeegeePJ","steam_id":76561199383362382,"connected_time":1941000000000,"state":"active","ping":144},{"user_id":557,"name":"JOHN GAMING (depressed)","steam_id":76561199085822219,"connected_time":841000000000,"state":"active","ping":90},{"user_id":552,"name":"spy","steam_id":76561199438413886,"connected_time":1517000000000,"state":"active","ping":122},{"user_id":558,"name":"astra","steam_id":76561198042980579,"connected_time":813000000000,"state":"active","ping":65},{"user_id":565,"name":"hawkblob","steam_id":76561198803720565,"connected_time":599000000000,"state":"active","ping":71},{"user_id":573,"name":"Xavnɘss","steam_id":76561199114490220,"connected_time":102000000000,"state":"active","ping":100},{"user_id":530,"name":"germinator","steam_id":76561199387893648,"connected_time":2373000000000,"state":"active","ping":104},{"user_id":525,"name":"most sane mentalist","steam_id":76561198310095220,"connected_time":2842000000000,"state":"active","ping":41},{"user_id":504,"name":"Qpangfire","steam_id":76561198094354139,"connected_time":4431000000000,"state":"active","ping":45},{"user_id":562,"name":"Hedge Knight","steam_id":76561198989449047,"connected_time":697000000000,"state":"active","ping":131},{"user_id":555,"name":"Hogichu","steam_id":76561198132354715,"connected_time":1126000000000,"state":"active","ping":38},{"user_id":510,"name":"rz-/Atomic Punch","steam_id":76561199195508541,"connected_time":4245000000000,"state":"active","ping":73},{"user_id":570,"name":"Sputnik","steam_id":76561198138660241,"connected_time":353000000000,"state":"active","ping":82},{"user_id":465,"name":"SnowShot","steam_id":76561198004766638,"connected_time":7135000000000,"state":"active","ping":76},{"user_id":550,"name":"wexes","steam_id":76561198058769738,"connected_time":1618000000000,"state":"active","ping":131},{"user_id":518,"name":"Guru","steam_id":76561198093853069,"connected_time":3608000000000,"state":"active","ping":64},{"user_id":569,"name":"MedicMania","steam_id":76561199013190566,"connected_time":521000000000,"state":"active","ping":51},{"user_id":536,"name":"Economic crisis","steam_id":76561198063562843,"connected_time":2207000000000,"state":"active","ping":65},{"user_id":571,"name":"ブローニャ","steam_id":76561198037810091,"connected_time":348000000000,"state":"active","ping":114},{"user_id":572,"name":"ruskie (fake)","steam_id":76561199106215999,"connected_time":324000000000,"state":"active","ping":131}]},{"server_id":114,"name":"Uncletopia | London | 2 | All Maps","name_short":"lon-2","host":"lon-1.uk.uncletopia.com","port":27025,"enabled":true,"region":"eu","cc":"gb","latitude":51.509865,"longitude":-0.118092,"reserved":0,"last_update":"0001-01-01T00:00:00Z","name_a2s":"Uncletopia | London | 2 | All Maps","protocol":17,"map":"pl_pier","folder":"tf","game":"Team Fortress","app_id":440,"player_count":24,"max_players":24,"Bots":0,"server_type":"Dedicated","server_os":"Linux","password":true,"vac":true,"version":"7757534","steam_id":85568392924470941,"keywords":["nocrits","nodmgspread","payload","uncletopia"],"game_id":440,"stv_port":27026,"stv_name":"Uncletopia | London | 2 | All Maps | STV","players":[{"user_id":188,"name":"2b","steam_id":76561199149307190,"connected_time":1868000000000,"state":"active","ping":89},{"user_id":155,"name":"LivEssense","steam_id":76561198052476979,"connected_time":3817000000000,"state":"active","ping":90},{"user_id":210,"name":"1ggy","steam_id":76561199051285912,"connected_time":1020000000000,"state":"active","ping":90},{"user_id":166,"name":"A Pigeon","steam_id":76561198114090555,"connected_time":2870000000000,"state":"active","ping":74},{"user_id":181,"name":"powej","steam_id":76561198056381418,"connected_time":2197000000000,"state":"active","ping":35},{"user_id":129,"name":"shooer","steam_id":76561198110531281,"connected_time":5026000000000,"state":"active","ping":67},{"user_id":193,"name":"Wat Means?","steam_id":76561197966629582,"connected_time":1660000000000,"state":"active","ping":61},{"user_id":216,"name":"The Godmonkey","steam_id":76561198204670361,"connected_time":254000000000,"state":"active","ping":83},{"user_id":214,"name":"scrumpy","steam_id":76561198218787232,"connected_time":648000000000,"state":"active","ping":52},{"user_id":207,"name":"Zerfesh","steam_id":76561198117534358,"connected_time":1264000000000,"state":"active","ping":89},{"user_id":145,"name":"generic alias","steam_id":76561198271607226,"connected_time":4238000000000,"state":"active","ping":85},{"user_id":179,"name":"Caliban","steam_id":76561197999696839,"connected_time":2386000000000,"state":"active","ping":110},{"user_id":208,"name":"Robbie","steam_id":76561198017504503,"connected_time":1203000000000,"state":"active","ping":47},{"user_id":206,"name":"Hetmanych","steam_id":76561198870926865,"connected_time":1381000000000,"state":"active","ping":34},{"user_id":199,"name":"deno_","steam_id":76561198316520968,"connected_time":1526000000000,"state":"active","ping":67},{"user_id":158,"name":"SlowMode","steam_id":76561198039631442,"connected_time":3584000000000,"state":"active","ping":77},{"user_id":200,"name":"Lyell","steam_id":76561198350329389,"connected_time":1518000000000,"state":"active","ping":76},{"user_id":184,"name":"awesome rat","steam_id":76561198252656316,"connected_time":2139000000000,"state":"active","ping":60},{"user_id":169,"name":"Egtu","steam_id":76561198013757235,"connected_time":2812000000000,"state":"active","ping":75},{"user_id":82,"name":"Nassu","steam_id":76561198147367577,"connected_time":8692000000000,"state":"active","ping":162},{"user_id":175,"name":"WALTER WHITE","steam_id":76561199147666336,"connected_time":2726000000000,"state":"active","ping":67},{"user_id":204,"name":"twitch.tv/vision515","steam_id":76561198065293729,"connected_time":1429000000000,"state":"active","ping":169},{"user_id":205,"name":"gibb (official)","steam_id":76561198074097655,"connected_time":1428000000000,"state":"active","ping":45},{"user_id":212,"name":"akakez","steam_id":76561198095432821,"connected_time":755000000000,"state":"active","ping":117}]},{"server_id":320,"name":"Uncletopia | London | 3 | All Maps","name_short":"lon-3","host":"lon-1.uk.uncletopia.com","port":27035,"enabled":true,"region":"eu","cc":"gb","latitude":51.509865,"longitude":-0.118092,"reserved":0,"last_update":"0001-01-01T00:00:00Z","name_a2s":"Uncletopia | London | 3 | All Maps","protocol":17,"map":"pl_borneo","folder":"tf","game":"Team Fortress","app_id":440,"player_count":24,"max_players":24,"Bots":0,"server_type":"Dedicated","server_os":"Linux","password":true,"vac":true,"version":"7757534","steam_id":85568392924510192,"keywords":["nocrits","nodmgspread","payload","uncletopia"],"game_id":440,"stv_port":27036,"stv_name":"Uncletopia | London | 3 | All Maps | STV","players":[{"user_id":127,"name":"shinji crank that soulja boy","steam_id":76561198099696876,"connected_time":138000000000,"state":"active","ping":75},{"user_id":97,"name":"Perämiehenä","steam_id":76561197968945306,"connected_time":1399000000000,"state":"active","ping":71},{"user_id":123,"name":"Ankle Dane","steam_id":76561198134378108,"connected_time":396000000000,"state":"active","ping":76},{"user_id":95,"name":"Jughead","steam_id":76561198000355410,"connected_time":1499000000000,"state":"active","ping":51},{"user_id":125,"name":"riz","steam_id":76561198055010039,"connected_time":212000000000,"state":"active","ping":75},{"user_id":129,"name":"lactose father","steam_id":76561199408853457,"connected_time":28000000000,"state":"active","ping":78},{"user_id":88,"name":"maakgis","steam_id":76561198851703804,"connected_time":2003000000000,"state":"active","ping":128},{"user_id":104,"name":"✪ Danny","steam_id":76561198104483241,"connected_time":1108000000000,"state":"active","ping":49},{"user_id":105,"name":"Spetse","steam_id":76561197990649972,"connected_time":1089000000000,"state":"active","ping":91},{"user_id":99,"name":"lugi","steam_id":76561198121971994,"connected_time":1282000000000,"state":"active","ping":72},{"user_id":128,"name":"murderwow","steam_id":76561198024566944,"connected_time":99000000000,"state":"active","ping":109},{"user_id":96,"name":"Noob_with_source","steam_id":76561198870362103,"connected_time":1439000000000,"state":"active","ping":54},{"user_id":64,"name":"Nope.avi","steam_id":76561198396687651,"connected_time":3161000000000,"state":"active","ping":90},{"user_id":87,"name":"Lil Ari","steam_id":76561198218178180,"connected_time":2146000000000,"state":"active","ping":82},{"user_id":65,"name":"medic appreciator","steam_id":76561198055389492,"connected_time":3157000000000,"state":"active","ping":39},{"user_id":107,"name":"humpyhump","steam_id":76561198142007160,"connected_time":914000000000,"state":"active","ping":62},{"user_id":93,"name":"Weather Report","steam_id":76561199109494283,"connected_time":1560000000000,"state":"active","ping":123},{"user_id":91,"name":"dar","steam_id":76561198371657696,"connected_time":1743000000000,"state":"active","ping":68},{"user_id":109,"name":"chey","steam_id":76561198035380064,"connected_time":904000000000,"state":"active","ping":45},{"user_id":100,"name":"FlameTheGame","steam_id":76561198841108519,"connected_time":1273000000000,"state":"active","ping":98},{"user_id":111,"name":"TheWandringJew","steam_id":76561198346687617,"connected_time":845000000000,"state":"active","ping":186},{"user_id":71,"name":"Flyingmeadow","steam_id":76561198144687723,"connected_time":2992000000000,"state":"active","ping":133},{"user_id":118,"name":"BRICK TOP","steam_id":76561198014366715,"connected_time":655000000000,"state":"active","ping":46},{"user_id":122,"name":"alan","steam_id":76561198133532980,"connected_time":556000000000,"state":"active","ping":46}]},{"server_id":321,"name":"Uncletopia | London | 4 | All Maps","name_short":"lon-4","host":"lon-1.uk.uncletopia.com","port":27045,"enabled":true,"region":"eu","cc":"gb","latitude":51.509865,"longitude":-0.118092,"reserved":0,"last_update":"0001-01-01T00:00:00Z","name_a2s":"Uncletopia | London | 4 | All Maps","protocol":17,"map":"cp_powerhouse","folder":"tf","game":"Team Fortress","app_id":440,"player_count":24,"max_players":24,"Bots":0,"server_type":"Dedicated","server_os":"Linux","password":true,"vac":true,"version":"7757534","steam_id":85568392924510193,"keywords":["cp","nocrits","nodmgspread","uncletopia"],"game_id":440,"stv_port":27046,"stv_name":"Uncletopia | London | 4 | All Maps | STV","players":[{"user_id":400,"name":"fallen","steam_id":76561197994581000,"connected_time":437000000000,"state":"active","ping":64},{"user_id":396,"name":"ErJu","steam_id":76561198106273165,"connected_time":774000000000,"state":"active","ping":84},{"user_id":401,"name":"nutlube","steam_id":76561198128831131,"connected_time":423000000000,"state":"active","ping":60},{"user_id":365,"name":"Jonathan","steam_id":76561198087988880,"connected_time":2366000000000,"state":"active","ping":58},{"user_id":397,"name":"Depressed","steam_id":76561198154405093,"connected_time":671000000000,"state":"active","ping":78},{"user_id":353,"name":"Topme","steam_id":76561198091734693,"connected_time":4071000000000,"state":"active","ping":61},{"user_id":366,"name":"Lag","steam_id":76561198159360376,"connected_time":2359000000000,"state":"active","ping":49},{"user_id":403,"name":"Xemson","steam_id":76561198394470244,"connected_time":17000000000,"state":"spawning","ping":90},{"user_id":347,"name":"whimsy.","steam_id":76561198878171763,"connected_time":4664000000000,"state":"active","ping":45},{"user_id":301,"name":"Welder","steam_id":76561198355300561,"connected_time":8146000000000,"state":"active","ping":73},{"user_id":318,"name":"LarsInABox","steam_id":76561198028329262,"connected_time":7032000000000,"state":"active","ping":71},{"user_id":398,"name":"Sinny","steam_id":76561197999598422,"connected_time":581000000000,"state":"active","ping":83},{"user_id":374,"name":"elsuedi","steam_id":76561198074722832,"connected_time":1998000000000,"state":"active","ping":60},{"user_id":338,"name":"♥ aura ♥","steam_id":76561198066258544,"connected_time":5570000000000,"state":"active","ping":68},{"user_id":395,"name":"Clitorina","steam_id":76561198077570815,"connected_time":813000000000,"state":"active","ping":42},{"user_id":390,"name":"C.H.E.R.E.P.","steam_id":76561198026938595,"connected_time":998000000000,"state":"active","ping":76},{"user_id":385,"name":"Dispenser","steam_id":76561198088898260,"connected_time":1118000000000,"state":"active","ping":73},{"user_id":368,"name":"wasto-/-™","steam_id":76561198102888038,"connected_time":2341000000000,"state":"active","ping":59},{"user_id":348,"name":"schmick h_stt 0","steam_id":76561198039537958,"connected_time":4657000000000,"state":"active","ping":50},{"user_id":388,"name":"we cannoh replace him...","steam_id":76561199062586342,"connected_time":1015000000000,"state":"active","ping":71},{"user_id":393,"name":"bAdmon","steam_id":76561197961785793,"connected_time":894000000000,"state":"active","ping":50},{"user_id":394,"name":"Wacka Wacka","steam_id":76561198146194820,"connected_time":873000000000,"state":"active","ping":50},{"user_id":377,"name":"SPONGE","steam_id":76561198040933472,"connected_time":1794000000000,"state":"active","ping":60},{"user_id":399,"name":"B@yka","steam_id":76561198986736592,"connected_time":561000000000,"state":"active","ping":69}]},{"server_id":21,"name":"Uncletopia | London | 5 | All Maps","name_short":"lon-5","host":"lon-1.uk.uncletopia.com","port":27055,"enabled":true,"region":"eu","cc":"gb","latitude":51.509865,"longitude":-0.118092,"reserved":0,"last_update":"0001-01-01T00:00:00Z","name_a2s":"Uncletopia | London | 5 | All Maps","protocol":17,"map":"koth_lakeside_final","folder":"tf","game":"Team Fortress","app_id":440,"player_count":0,"max_players":24,"Bots":0,"server_type":"Dedicated","server_os":"Linux","password":true,"vac":true,"version":"7757534","steam_id":85568392924742829,"keywords":["cp","nocrits","nodmgspread","uncletopia"],"game_id":440,"stv_port":27056,"stv_name":"Uncletopia | London | 5 | All Maps | STV","players":null},{"server_id":22,"name":"Uncletopia | London | 6 | All Maps","name_short":"lon-6","host":"lon-1.uk.uncletopia.com","port":27065,"enabled":true,"region":"eu","cc":"gb","latitude":51.509865,"longitude":-0.118092,"reserved":0,"last_update":"0001-01-01T00:00:00Z","name_a2s":"Uncletopia | London | 6 | All Maps","protocol":17,"map":"pl_upward","folder":"tf","game":"Team Fortress","app_id":440,"player_count":0,"max_players":24,"Bots":0,"server_type":"Dedicated","server_os":"Linux","password":true,"vac":true,"version":"7757534","steam_id":85568392924742830,"keywords":["nocrits","nodmgspread","payload","uncletopia"],"game_id":440,"stv_port":27066,"stv_name":"Uncletopia | London | 6 | All Maps | STV","players":null},{"server_id":40,"name":"Uncletopia | London | 7 | No Payload","name_short":"lon-7","host":"lon-1.uk.uncletopia.com","port":27075,"enabled":true,"region":"eu","cc":"gb","latitude":51.509865,"longitude":-0.118092,"reserved":0,"last_update":"0001-01-01T00:00:00Z","name_a2s":"Uncletopia | London | 7 | No Payload","protocol":17,"map":"koth_brazil","folder":"tf","game":"Team Fortress","app_id":440,"player_count":0,"max_players":24,"Bots":0,"server_type":"Dedicated","server_os":"Linux","password":true,"vac":true,"version":"7757534","steam_id":85568392924964314,"keywords":["cp","nocrits","nodmgspread","uncletopia"],"game_id":440,"stv_port":27076,"stv_name":"Uncletopia | London | 7 | No Payload | STV","players":null},{"server_id":41,"name":"Uncletopia | London | 8 | Community","name_short":"lon-8","host":"lon-1.uk.uncletopia.com","port":27085,"enabled":true,"region":"eu","cc":"gb","latitude":51.509865,"longitude":-0.118092,"reserved":0,"last_update":"0001-01-01T00:00:00Z","name_a2s":"Uncletopia | London | 8 | Community","protocol":17,"map":"workshop/pl_barnblitz_pro7.ugc582280235","folder":"tf","game":"Team Fortress","app_id":440,"player_count":6,"max_players":24,"Bots":0,"server_type":"Dedicated","server_os":"Linux","password":true,"vac":true,"version":"7757534","steam_id":85568392924964315,"keywords":["nocrits","nodmgspread","payload","uncletopia"],"game_id":440,"stv_port":27086,"stv_name":"Uncletopia | London | 8 | Community | STV","players":[{"user_id":75,"name":"SaSSolino","steam_id":76561198011308018,"connected_time":2096000000000,"state":"active","ping":61},{"user_id":76,"name":"Pauler le one","steam_id":76561198398152855,"connected_time":1964000000000,"state":"active","ping":81},{"user_id":77,"name":"Wilson","steam_id":76561198804477862,"connected_time":876000000000,"state":"active","ping":50},{"user_id":78,"name":"BlackArrow","steam_id":76561198074317583,"connected_time":870000000000,"state":"active","ping":54},{"user_id":74,"name":"Magirby","steam_id":76561198818777390,"connected_time":2393000000000,"state":"active","ping":99},{"user_id":79,"name":"Kkikok","steam_id":76561198055767709,"connected_time":117000000000,"state":"active","ping":84}]},{"server_id":300,"name":"Uncletopia | Montréal | 1 | All Maps","name_short":"mtl-1","host":"mtl-1.ca.uncletopia.com","port":27015,"enabled":true,"region":"us-east","cc":"ca","latitude":45.50889,"longitude":-73.56167,"reserved":0,"last_update":"0001-01-01T00:00:00Z","name_a2s":"Uncletopia | Montréal | 1 | All Maps","protocol":17,"map":"pl_upward","folder":"tf","game":"Team Fortress","app_id":440,"player_count":0,"max_players":24,"Bots":0,"server_type":"Dedicated","server_os":"Linux","password":true,"vac":true,"version":"7757534","steam_id":85568392924500087,"keywords":["nocrits","nodmgspread","payload","uncletopia"],"game_id":440,"stv_port":27016,"stv_name":"Uncletopia | Montréal | 1 | All Maps | STV","players":null},{"server_id":301,"name":"Uncletopia | Montréal | 2 | All Maps","name_short":"mtl-2","host":"mtl-1.ca.uncletopia.com","port":27025,"enabled":true,"region":"us-east","cc":"ca","latitude":45.50889,"longitude":-73.56167,"reserved":0,"last_update":"0001-01-01T00:00:00Z","name_a2s":"Uncletopia | Montréal | 2 | All Maps","protocol":17,"map":"pl_snowycoast","folder":"tf","game":"Team Fortress","app_id":440,"player_count":0,"max_players":24,"Bots":0,"server_type":"Dedicated","server_os":"Linux","password":true,"vac":true,"version":"7757534","steam_id":85568392924500088,"keywords":["nocrits","nodmgspread","payload","uncletopia"],"game_id":440,"stv_port":27026,"stv_name":"Uncletopia | Montréal | 2 | All Maps | STV","players":null},{"server_id":302,"name":"Uncletopia | Montréal | 3 | All Maps","name_short":"mtl-3","host":"mtl-1.ca.uncletopia.com","port":27035,"enabled":true,"region":"us-east","cc":"ca","latitude":45.50889,"longitude":-73.56167,"reserved":0,"last_update":"0001-01-01T00:00:00Z","name_a2s":"Uncletopia | Montréal | 3 | All Maps","protocol":17,"map":"pl_swiftwater_final1","folder":"tf","game":"Team Fortress","app_id":440,"player_count":0,"max_players":24,"Bots":0,"server_type":"Dedicated","server_os":"Linux","password":true,"vac":true,"version":"7757534","steam_id":85568392924500089,"keywords":["nocrits","nodmgspread","payload","uncletopia"],"game_id":440,"stv_port":27036,"stv_name":"Uncletopia | Montréal | 3 | All Maps | STV","players":null},{"server_id":303,"name":"Uncletopia | Montréal | 4 | No Payload","name_short":"mtl-4","host":"mtl-1.ca.uncletopia.com","port":27045,"enabled":true,"region":"us-east","cc":"ca","latitude":45.50889,"longitude":-73.56167,"reserved":0,"last_update":"0001-01-01T00:00:00Z","name_a2s":"Uncletopia | Montréal | 4 | No Payload","protocol":17,"map":"pl_pier","folder":"tf","game":"Team Fortress","app_id":440,"player_count":0,"max_players":24,"Bots":0,"server_type":"Dedicated","server_os":"Linux","password":true,"vac":true,"version":"7757534","steam_id":85568392924500090,"keywords":["nocrits","nodmgspread","payload","uncletopia"],"game_id":440,"stv_port":27046,"stv_name":"Uncletopia | Montréal | 4 | No Payload | STV","players":null},{"server_id":13,"name":"Uncletopia | New York City | 1 | All Maps","name_short":"nyc-1","host":"nyc-1.us.uncletopia.com","port":27015,"enabled":true,"region":"us-east","cc":"us","latitude":40.73061,"longitude":-73.93524,"reserved":0,"last_update":"0001-01-01T00:00:00Z","name_a2s":"Uncletopia | New York City | 1 | All Maps","protocol":17,"map":"pl_barnblitz","folder":"tf","game":"Team Fortress","app_id":440,"player_count":24,"max_players":24,"Bots":0,"server_type":"Dedicated","server_os":"Linux","password":true,"vac":true,"version":"7757534","steam_id":85568392924469993,"keywords":["nocrits","nodmgspread","payload","uncletopia"],"game_id":440,"stv_port":27016,"stv_name":"Uncletopia | New York City | 1 | All Maps | STV","players":[{"user_id":27,"name":"Mochi","steam_id":76561199151314140,"connected_time":2957000000000,"state":"active","ping":39},{"user_id":28,"name":"minsentry","steam_id":76561199120942803,"connected_time":2863000000000,"state":"active","ping":106},{"user_id":29,"name":"Grimace","steam_id":76561198297216420,"connected_time":2630000000000,"state":"active","ping":47},{"user_id":46,"name":"Ghost","steam_id":76561198426370628,"connected_time":1105000000000,"state":"active","ping":71},{"user_id":31,"name":"urnotpeter","steam_id":76561198109904696,"connected_time":2329000000000,"state":"active","ping":49},{"user_id":47,"name":"JDB05","steam_id":76561198880576642,"connected_time":1086000000000,"state":"active","ping":75},{"user_id":64,"name":"Cool_Dude_909","steam_id":76561198313870988,"connected_time":73000000000,"state":"active","ping":62},{"user_id":49,"name":"『 Ethereal 』","steam_id":76561199385170644,"connected_time":978000000000,"state":"active","ping":74},{"user_id":60,"name":"Indigolake","steam_id":76561198202215807,"connected_time":521000000000,"state":"active","ping":69},{"user_id":37,"name":"ok","steam_id":76561198445140249,"connected_time":1526000000000,"state":"active","ping":77},{"user_id":48,"name":"Vicstand0891","steam_id":76561198292877147,"connected_time":1079000000000,"state":"active","ping":136},{"user_id":41,"name":"Littlebean","steam_id":76561198087597267,"connected_time":1403000000000,"state":"active","ping":64},{"user_id":44,"name":"i forgor","steam_id":76561199120622265,"connected_time":1265000000000,"state":"active","ping":93},{"user_id":45,"name":"PotatoSaladMyDood","steam_id":76561198974226056,"connected_time":1250000000000,"state":"active","ping":69},{"user_id":50,"name":"whitneyscience1","steam_id":76561199405650048,"connected_time":939000000000,"state":"active","ping":129},{"user_id":51,"name":"watchfull","steam_id":76561198433266742,"connected_time":928000000000,"state":"active","ping":108},{"user_id":53,"name":"kowarts","steam_id":76561199185500997,"connected_time":898000000000,"state":"active","ping":147},{"user_id":61,"name":"6t26j","steam_id":76561198278282836,"connected_time":400000000000,"state":"active","ping":56},{"user_id":55,"name":"Firedust19","steam_id":76561198153238631,"connected_time":849000000000,"state":"active","ping":117},{"user_id":56,"name":"Bozanimal","steam_id":76561198044096897,"connected_time":775000000000,"state":"active","ping":44},{"user_id":57,"name":"grif","steam_id":76561198272333800,"connected_time":767000000000,"state":"active","ping":69},{"user_id":58,"name":"coo coo coo cha","steam_id":76561198007792525,"connected_time":756000000000,"state":"active","ping":111},{"user_id":59,"name":"Piccadilly Willy","steam_id":76561198000312126,"connected_time":712000000000,"state":"active","ping":77},{"user_id":63,"name":"Corruptedplatypus","steam_id":76561198193537517,"connected_time":114000000000,"state":"active","ping":62}]},{"server_id":14,"name":"Uncletopia | New York City | 2 | All Maps","name_short":"nyc-2","host":"nyc-1.us.uncletopia.com","port":27025,"enabled":true,"region":"us-east","cc":"us","latitude":40.73061,"longitude":-73.93524,"reserved":0,"last_update":"0001-01-01T00:00:00Z","name_a2s":"Uncletopia | New York City | 2 | All Maps","protocol":17,"map":"cp_badlands","folder":"tf","game":"Team Fortress","app_id":440,"player_count":18,"max_players":24,"Bots":0,"server_type":"Dedicated","server_os":"Linux","password":true,"vac":true,"version":"7757534","steam_id":85568392924469994,"keywords":["cp","nocrits","nodmgspread","uncletopia"],"game_id":440,"stv_port":27026,"stv_name":"Uncletopia | New York City | 2 | All Maps | STV","players":[{"user_id":5,"name":"gurtajwastaken","steam_id":76561199165852862,"connected_time":5383000000000,"state":"active","ping":118},{"user_id":87,"name":"SippinTeaInYoHood","steam_id":76561198310944756,"connected_time":343000000000,"state":"active","ping":45},{"user_id":81,"name":"Femtofarad","steam_id":76561198308583053,"connected_time":811000000000,"state":"active","ping":57},{"user_id":88,"name":"BigBubble42","steam_id":76561198136286123,"connected_time":327000000000,"state":"active","ping":65},{"user_id":89,"name":"MãɾʞóŦħ","steam_id":76561198819418878,"connected_time":133000000000,"state":"active","ping":57},{"user_id":42,"name":"Wahooka","steam_id":76561197962240925,"connected_time":3608000000000,"state":"active","ping":45},{"user_id":90,"name":"t.tv/FamilyGuyFunnyMoments277","steam_id":76561198416047580,"connected_time":55000000000,"state":"active","ping":66},{"user_id":77,"name":"Resistance","steam_id":76561198146782074,"connected_time":1177000000000,"state":"active","ping":61},{"user_id":49,"name":"housefly","steam_id":76561198795402971,"connected_time":3380000000000,"state":"active","ping":104},{"user_id":60,"name":"Tony Pizza","steam_id":76561198044331477,"connected_time":2641000000000,"state":"active","ping":47},{"user_id":66,"name":"ted twenty-two ( Triple T )","steam_id":76561198121316868,"connected_time":2249000000000,"state":"active","ping":87},{"user_id":91,"name":"UWBW","steam_id":76561198007524241,"connected_time":9000000000,"state":"spawning","ping":63},{"user_id":84,"name":"Duncan Idaho","steam_id":76561197988963861,"connected_time":391000000000,"state":"active","ping":54},{"user_id":75,"name":"DualiTea","steam_id":76561198081733870,"connected_time":1821000000000,"state":"active","ping":75},{"user_id":28,"name":"Xx-CostcoShopper-xX","steam_id":76561198066429444,"connected_time":4593000000000,"state":"active","ping":45},{"user_id":72,"name":"Spimtmot733","steam_id":76561199029189825,"connected_time":2030000000000,"state":"active","ping":56},{"user_id":83,"name":"Wooly_Willy69","steam_id":76561198019016944,"connected_time":405000000000,"state":"active","ping":54},{"user_id":80,"name":"Viper_Ray","steam_id":76561199068788737,"connected_time":844000000000,"state":"active","ping":106}]},{"server_id":15,"name":"Uncletopia | New York City | 3 | Stopwatch Beta","name_short":"nyc-3","host":"nyc-1.us.uncletopia.com","port":27035,"enabled":true,"region":"us-east","cc":"us","latitude":40.73061,"longitude":-73.93524,"reserved":0,"last_update":"0001-01-01T00:00:00Z","name_a2s":"Uncletopia | New York City | 3 | Stopwatch Beta","protocol":17,"map":"pl_upward","folder":"tf","game":"Team Fortress","app_id":440,"player_count":0,"max_players":24,"Bots":0,"server_type":"Dedicated","server_os":"Linux","password":true,"vac":true,"version":"7757534","steam_id":85568392924742820,"keywords":["nocrits","nodmgspread","payload","uncletopia"],"game_id":440,"stv_port":27036,"stv_name":"Uncletopia | New York City | 3 | Stopwatch Beta | STV","players":null},{"server_id":16,"name":"Uncletopia | New York City | 4 | Community","name_short":"nyc-4","host":"nyc-1.us.uncletopia.com","port":27045,"enabled":true,"region":"us-east","cc":"us","latitude":40.73061,"longitude":-73.93524,"reserved":0,"last_update":"0001-01-01T00:00:00Z","name_a2s":"Uncletopia | New York City | 4 | Community","protocol":17,"map":"workshop/cp_reckoner_rc6.ugc674719999","folder":"tf","game":"Team Fortress","app_id":440,"player_count":0,"max_players":24,"Bots":0,"server_type":"Dedicated","server_os":"Linux","password":true,"vac":true,"version":"7757534","steam_id":85568392924742821,"keywords":["cp","nocrits","nodmgspread","uncletopia"],"game_id":440,"stv_port":27046,"stv_name":"Uncletopia | New York City | 4 | Community | STV","players":null},{"server_id":142,"name":"Uncletopia | São Paulo | 1 | All Maps","name_short":"sao-1","host":"sao-1.br.uncletopia.com","port":27015,"enabled":true,"region":"sa","cc":"br","latitude":-23.533773,"longitude":-46.62529,"reserved":0,"last_update":"0001-01-01T00:00:00Z","name_a2s":"Uncletopia | São Paulo | 1 | All Maps","protocol":17,"map":"koth_cascade","folder":"tf","game":"Team Fortress","app_id":440,"player_count":0,"max_players":24,"Bots":0,"server_type":"Dedicated","server_os":"Linux","password":true,"vac":true,"version":"7757534","steam_id":85568392924469996,"keywords":["cp","nocrits","nodmgspread","uncletopia"],"game_id":440,"stv_port":27016,"stv_name":"Uncletopia | São Paulo | 1 | All Maps | STV","players":null},{"server_id":143,"name":"Uncletopia | São Paulo | 2 | All Maps","name_short":"sao-2","host":"sao-2.br.uncletopia.com","port":27015,"enabled":true,"region":"sa","cc":"br","latitude":-23.533773,"longitude":-46.62529,"reserved":0,"last_update":"0001-01-01T00:00:00Z","name_a2s":"Uncletopia | São Paulo | 2 | All Maps","protocol":17,"map":"koth_cascade","folder":"tf","game":"Team Fortress","app_id":440,"player_count":0,"max_players":24,"Bots":0,"server_type":"Dedicated","server_os":"Linux","password":true,"vac":true,"version":"7757534","steam_id":85568392924485349,"keywords":["cp","nocrits","nodmgspread","uncletopia"],"game_id":440,"stv_port":27016,"stv_name":"Uncletopia | São Paulo | 2 | All Maps | STV","players":null},{"server_id":7,"name":"Uncletopia | Seattle | 1 | All Maps","name_short":"sea-1","host":"sea-1.us.uncletopia.com","port":27015,"enabled":true,"region":"us-west","cc":"us","latitude":47.608013,"longitude":-122.33517,"reserved":0,"last_update":"0001-01-01T00:00:00Z","name_a2s":"Uncletopia | Seattle | 1 | All Maps","protocol":17,"map":"cp_sunshine","folder":"tf","game":"Team Fortress","app_id":440,"player_count":24,"max_players":24,"Bots":0,"server_type":"Dedicated","server_os":"Linux","password":true,"vac":true,"version":"7757534","steam_id":85568392924469997,"keywords":["cp","nocrits","nodmgspread","uncletopia"],"game_id":440,"stv_port":27016,"stv_name":"Uncletopia | Seattle | 1 | All Maps | STV","players":[{"user_id":193,"name":"weenie hut jr","steam_id":76561198206922028,"connected_time":1251000000000,"state":"active","ping":70},{"user_id":134,"name":"SibilantSerpent","steam_id":76561198154488754,"connected_time":4640000000000,"state":"active","ping":51},{"user_id":106,"name":"Soozy420","steam_id":76561198809074422,"connected_time":6550000000000,"state":"active","ping":73},{"user_id":202,"name":"Perfume Department","steam_id":76561198128299594,"connected_time":536000000000,"state":"active","ping":78},{"user_id":203,"name":"Vimh","steam_id":76561198384938589,"connected_time":482000000000,"state":"active","ping":39},{"user_id":196,"name":"Aeris","steam_id":76561198287271028,"connected_time":784000000000,"state":"active","ping":106},{"user_id":197,"name":"keffers","steam_id":76561198202338796,"connected_time":590000000000,"state":"active","ping":92},{"user_id":184,"name":"rMuralCDLX","steam_id":76561198975798517,"connected_time":2170000000000,"state":"active","ping":95},{"user_id":179,"name":"CreativeUsername","steam_id":76561198186045503,"connected_time":2482000000000,"state":"active","ping":95},{"user_id":144,"name":"SeaBass","steam_id":76561197982949108,"connected_time":4091000000000,"state":"active","ping":127},{"user_id":200,"name":"Lock'd","steam_id":76561198170108230,"connected_time":560000000000,"state":"active","ping":74},{"user_id":91,"name":"Treekincko","steam_id":76561198047995911,"connected_time":7655000000000,"state":"active","ping":45},{"user_id":187,"name":"Tyler\u0026Fingers","steam_id":76561198085154485,"connected_time":1985000000000,"state":"active","ping":137},{"user_id":182,"name":"gretchling","steam_id":76561198046111695,"connected_time":2370000000000,"state":"active","ping":94},{"user_id":201,"name":"spacetoven","steam_id":76561198115821131,"connected_time":558000000000,"state":"active","ping":69},{"user_id":185,"name":"Lovedaddy","steam_id":76561198006569710,"connected_time":2168000000000,"state":"active","ping":133},{"user_id":205,"name":"ark","steam_id":76561198041066271,"connected_time":127000000000,"state":"active","ping":76},{"user_id":49,"name":"Neo Kojiro","steam_id":76561198000967076,"connected_time":11911000000000,"state":"active","ping":149},{"user_id":192,"name":"Imitation Caucasian","steam_id":76561198320536166,"connected_time":1563000000000,"state":"active","ping":94},{"user_id":173,"name":"A Shiny Meat Bicycle","steam_id":76561198358757709,"connected_time":2617000000000,"state":"active","ping":146},{"user_id":195,"name":"brent8382","steam_id":76561198212374755,"connected_time":882000000000,"state":"active","ping":41},{"user_id":183,"name":"my monitor is off","steam_id":76561198074499537,"connected_time":2369000000000,"state":"active","ping":83},{"user_id":166,"name":"Danny Fentanyl","steam_id":76561197970791798,"connected_time":3052000000000,"state":"active","ping":37},{"user_id":189,"name":"mingo","steam_id":76561198308290211,"connected_time":1767000000000,"state":"active","ping":91}]},{"server_id":119,"name":"Uncletopia | Seattle | 2 | All Maps","name_short":"sea-2","host":"sea-1.us.uncletopia.com","port":27025,"enabled":true,"region":"us-west","cc":"us","latitude":47.608013,"longitude":-122.33517,"reserved":0,"last_update":"0001-01-01T00:00:00Z","name_a2s":"Uncletopia | Seattle | 2 | All Maps","protocol":17,"map":"cp_sunshine","folder":"tf","game":"Team Fortress","app_id":440,"player_count":0,"max_players":24,"Bots":0,"server_type":"Dedicated","server_os":"Linux","password":true,"vac":true,"version":"7757534","steam_id":85568392924469998,"keywords":["cp","nocrits","nodmgspread","uncletopia"],"game_id":440,"stv_port":27026,"stv_name":"Uncletopia | Seattle | 2 | All Maps | STV","players":null},{"server_id":406,"name":"Uncletopia | Seattle | 3 | Stopwatch Beta","name_short":"sea-3","host":"sea-1.us.uncletopia.com","port":27035,"enabled":true,"region":"us-west","cc":"us","latitude":47.608013,"longitude":-122.33517,"reserved":0,"last_update":"0001-01-01T00:00:00Z","name_a2s":"Uncletopia | Seattle | 3 | Stopwatch Beta","protocol":17,"map":"cp_dustbowl","folder":"tf","game":"Team Fortress","app_id":440,"player_count":0,"max_players":24,"Bots":0,"server_type":"Dedicated","server_os":"Linux","password":true,"vac":true,"version":"7757534","steam_id":85568392924515217,"keywords":["cp","nocrits","nodmgspread","uncletopia"],"game_id":440,"stv_port":27036,"stv_name":"Uncletopia | Seattle | 3 | Stopwatch Beta | STV","players":null},{"server_id":17,"name":"Uncletopia | San Francisco | 1 | All Maps","name_short":"sfo-1","host":"sfo-1.us.uncletopia.com","port":27015,"enabled":true,"region":"us-west","cc":"us","latitude":37.77397,"longitude":-122.4313,"reserved":0,"last_update":"0001-01-01T00:00:00Z","name_a2s":"Uncletopia | San Francisco | 1 | All Maps","protocol":17,"map":"koth_cascade","folder":"tf","game":"Team Fortress","app_id":440,"player_count":2,"max_players":24,"Bots":0,"server_type":"Dedicated","server_os":"Linux","password":true,"vac":true,"version":"7757534","steam_id":85568392924469999,"keywords":["cp","nocrits","nodmgspread","uncletopia"],"game_id":440,"stv_port":27016,"stv_name":"Uncletopia | San Francisco | 1 | All Maps | STV","players":[{"user_id":26,"name":"Broker gaming","steam_id":76561198050584104,"connected_time":752000000000,"state":"active","ping":170},{"user_id":27,"name":"BoX_hEaD101","steam_id":76561198200875467,"connected_time":502000000000,"state":"active","ping":62}]},{"server_id":18,"name":"Uncletopia | San Francisco | 2 | All Maps","name_short":"sfo-2","host":"sfo-1.us.uncletopia.com","port":27025,"enabled":true,"region":"us-west","cc":"us","latitude":37.77397,"longitude":-122.4313,"reserved":0,"last_update":"0001-01-01T00:00:00Z","name_a2s":"Uncletopia | San Francisco | 2 | All Maps","protocol":17,"map":"koth_highpass","folder":"tf","game":"Team Fortress","app_id":440,"player_count":0,"max_players":24,"Bots":0,"server_type":"Dedicated","server_os":"Linux","password":true,"vac":true,"version":"7757534","steam_id":85568392924470000,"keywords":["cp","nocrits","nodmgspread","uncletopia"],"game_id":440,"stv_port":27026,"stv_name":"Uncletopia | San Francisco | 2 | All Maps | STV","players":null},{"server_id":19,"name":"Uncletopia | San Francisco | 3 | Stopwatch Beta","name_short":"sfo-3","host":"sfo-1.us.uncletopia.com","port":27035,"enabled":true,"region":"us-west","cc":"us","latitude":37.77397,"longitude":-122.4313,"reserved":0,"last_update":"0001-01-01T00:00:00Z","name_a2s":"Uncletopia | San Francisco | 3 | Stopwatch Beta","protocol":17,"map":"koth_lakeside_final","folder":"tf","game":"Team Fortress","app_id":440,"player_count":0,"max_players":24,"Bots":0,"server_type":"Dedicated","server_os":"Linux","password":true,"vac":true,"version":"7757534","steam_id":85568392924742824,"keywords":["cp","nocrits","nodmgspread","uncletopia"],"game_id":440,"stv_port":27036,"stv_name":"Uncletopia | San Francisco | 3 | Stopwatch Beta | STV","players":null},{"server_id":20,"name":"Uncletopia | San Francisco | 4 | Community","name_short":"sfo-4","host":"sfo-1.us.uncletopia.com","port":27045,"enabled":true,"region":"us-west","cc":"us","latitude":37.77397,"longitude":-122.4313,"reserved":0,"last_update":"0001-01-01T00:00:00Z","name_a2s":"Uncletopia | San Francisco | 4 | Community","protocol":17,"map":"cp_altitude","folder":"tf","game":"Team Fortress","app_id":440,"player_count":2,"max_players":24,"Bots":0,"server_type":"Dedicated","server_os":"Linux","password":true,"vac":true,"version":"7757534","steam_id":85568392924742826,"keywords":["cp","nocrits","nodmgspread","uncletopia"],"game_id":440,"stv_port":27046,"stv_name":"Uncletopia | San Francisco | 4 | Community | STV","players":[{"user_id":4,"name":"MiTTal","steam_id":76561199472089992,"connected_time":211000000000,"state":"active","ping":235},{"user_id":5,"name":"darus","steam_id":76561199084179933,"connected_time":196000000000,"state":"active","ping":234}]},{"server_id":141,"name":"Uncletopia | Sydney | 1 | All Maps","name_short":"syd-1","host":"syd-1.au.uncletopia.com","port":27015,"enabled":true,"region":"au","cc":"au","latitude":-33.865143,"longitude":151.2099,"reserved":0,"last_update":"0001-01-01T00:00:00Z","name_a2s":"Uncletopia | Sydney | 1 | All Maps","protocol":17,"map":"pl_frontier_final","folder":"tf","game":"Team Fortress","app_id":440,"player_count":0,"max_players":24,"Bots":0,"server_type":"Dedicated","server_os":"Linux","password":true,"vac":true,"version":"7757534","steam_id":85568392924470001,"keywords":["nocrits","nodmgspread","payload","uncletopia"],"game_id":440,"stv_port":27016,"stv_name":"Uncletopia | Sydney | 1 | All Maps | STV","players":null},{"server_id":123,"name":"Uncletopia | Sydney | 2 | All Maps","name_short":"syd-2","host":"syd-1.au.uncletopia.com","port":27025,"enabled":true,"region":"au","cc":"au","latitude":-33.865143,"longitude":151.2099,"reserved":0,"last_update":"0001-01-01T00:00:00Z","name_a2s":"Uncletopia | Sydney | 2 | All Maps","protocol":17,"map":"cp_snakewater_final1","folder":"tf","game":"Team Fortress","app_id":440,"player_count":0,"max_players":24,"Bots":0,"server_type":"Dedicated","server_os":"Linux","password":true,"vac":true,"version":"7757534","steam_id":85568392924470002,"keywords":["cp","nocrits","nodmgspread","uncletopia"],"game_id":440,"stv_port":27026,"stv_name":"Uncletopia | Sydney | 2 | All Maps | STV","players":null},{"server_id":395,"name":"Uncletopia | Sydney | 3 | All Maps","name_short":"syd-3","host":"syd-1.au.uncletopia.com","port":27035,"enabled":true,"region":"au","cc":"au","latitude":-33.865143,"longitude":151.2099,"reserved":0,"last_update":"0001-01-01T00:00:00Z","name_a2s":"Uncletopia | Sydney | 3 | All Maps","protocol":17,"map":"cp_dustbowl","folder":"tf","game":"Team Fortress","app_id":440,"player_count":0,"max_players":24,"Bots":0,"server_type":"Dedicated","server_os":"Linux","password":true,"vac":true,"version":"7757534","steam_id":85568392925194467,"keywords":["cp","nocrits","nodmgspread","uncletopia"],"game_id":440,"stv_port":27036,"stv_name":"Uncletopia | Sydney | 3 | All Maps | STV","players":null},{"server_id":396,"name":"Uncletopia | Sydney | 4 | All Maps","name_short":"syd-4","host":"syd-1.au.uncletopia.com","port":27045,"enabled":true,"region":"au","cc":"au","latitude":-33.865143,"longitude":151.2099,"reserved":0,"last_update":"0001-01-01T00:00:00Z","name_a2s":"Uncletopia | Sydney | 4 | All Maps","protocol":17,"map":"koth_lakeside_final","folder":"tf","game":"Team Fortress","app_id":440,"player_count":0,"max_players":24,"Bots":0,"server_type":"Dedicated","server_os":"Linux","password":true,"vac":true,"version":"7757534","steam_id":85568392925397958,"keywords":["cp","nocrits","nodmgspread","uncletopia"],"game_id":440,"stv_port":27046,"stv_name":"Uncletopia | Sydney | 4 | All Maps | STV","players":null},{"server_id":58,"name":"Uncletopia | Sydney | 5 | Stopwatch Beta","name_short":"syd-5","host":"syd-1.au.uncletopia.com","port":27055,"enabled":true,"region":"au","cc":"au","latitude":-33.865143,"longitude":151.2099,"reserved":0,"last_update":"0001-01-01T00:00:00Z","name_a2s":"Uncletopia | Sydney | 5 | Stopwatch Beta","protocol":17,"map":"workshop/pl_badwater_pro_v12.ugc2142942074","folder":"tf","game":"Team Fortress","app_id":440,"player_count":0,"max_players":24,"Bots":0,"server_type":"Dedicated","server_os":"Linux","password":true,"vac":true,"version":"7757534","steam_id":85568392925397959,"keywords":["nocrits","nodmgspread","payload","uncletopia"],"game_id":440,"stv_port":27056,"stv_name":"Uncletopia | Sydney | 5 | Stopwatch Beta | STV","players":null},{"server_id":59,"name":"Uncletopia | Sydney | 6 | Community","name_short":"syd-6","host":"syd-1.au.uncletopia.com","port":27065,"enabled":true,"region":"au","cc":"au","latitude":-33.865143,"longitude":151.2099,"reserved":0,"last_update":"0001-01-01T00:00:00Z","name_a2s":"Uncletopia | Sydney | 6 | Community","protocol":17,"map":"workshop/koth_slaughter_rc1.ugc1712845210","folder":"tf","game":"Team Fortress","app_id":440,"player_count":0,"max_players":24,"Bots":0,"server_type":"Dedicated","server_os":"Linux","password":true,"vac":true,"version":"7757534","steam_id":85568392925397960,"keywords":["cp","nocrits","nodmgspread","uncletopia"],"game_id":440,"stv_port":27066,"stv_name":"Uncletopia | Sydney | 6 | Community | STV","players":null},{"server_id":49,"name":"Uncletopia | Warsaw | 1 | All Maps","name_short":"waw-1","host":"waw-1.pl.uncletopia.com","port":27015,"enabled":true,"region":"eu","cc":"pl","latitude":52.2297,"longitude":21.017532,"reserved":0,"last_update":"0001-01-01T00:00:00Z","name_a2s":"","protocol":0,"map":"","folder":"","game":"","app_id":0,"player_count":0,"max_players":0,"Bots":0,"server_type":"","server_os":"","password":false,"vac":false,"version":"","steam_id":0,"keywords":null,"game_id":0,"stv_port":0,"stv_name":"","players":null},{"server_id":50,"name":"Uncletopia | Warsaw | 2 | All Maps","name_short":"waw-2","host":"waw-1.pl.uncletopia.com","port":27025,"enabled":true,"region":"eu","cc":"pl","latitude":52.2297,"longitude":21.017532,"reserved":0,"last_update":"0001-01-01T00:00:00Z","name_a2s":"Uncletopia | Warsaw | 2 | All Maps","protocol":17,"map":"koth_viaduct","folder":"tf","game":"Team Fortress","app_id":440,"player_count":0,"max_players":24,"Bots":0,"server_type":"Dedicated","server_os":"Linux","password":true,"vac":true,"version":"7757534","steam_id":85568392925397851,"keywords":["cp","nocrits","nodmgspread","uncletopia"],"game_id":440,"stv_port":27026,"stv_name":"Uncletopia | Warsaw | 2 | All Maps | STV","players":null},{"server_id":51,"name":"Uncletopia | Warsaw | 3 | All Maps","name_short":"waw-3","host":"waw-1.pl.uncletopia.com","port":27035,"enabled":true,"region":"eu","cc":"pl","latitude":52.2297,"longitude":21.017532,"reserved":0,"last_update":"0001-01-01T00:00:00Z","name_a2s":"Uncletopia | Warsaw | 3 | All Maps","protocol":17,"map":"pl_pier","folder":"tf","game":"Team Fortress","app_id":440,"player_count":0,"max_players":24,"Bots":0,"server_type":"Dedicated","server_os":"Linux","password":true,"vac":true,"version":"7757534","steam_id":85568392925397852,"keywords":["nocrits","nodmgspread","payload","uncletopia"],"game_id":440,"stv_port":27036,"stv_name":"Uncletopia | Warsaw | 3 | All Maps | STV","players":null},{"server_id":52,"name":"Uncletopia | Warsaw | 4 | All Maps","name_short":"waw-4","host":"waw-1.pl.uncletopia.com","port":27045,"enabled":true,"region":"eu","cc":"pl","latitude":52.2297,"longitude":21.017532,"reserved":0,"last_update":"0001-01-01T00:00:00Z","name_a2s":"Uncletopia | Warsaw | 4 | All Maps","protocol":17,"map":"koth_lakeside_final","folder":"tf","game":"Team Fortress","app_id":440,"player_count":0,"max_players":24,"Bots":0,"server_type":"Dedicated","server_os":"Linux","password":true,"vac":true,"version":"7757534","steam_id":85568392925397853,"keywords":["cp","nocrits","nodmgspread","uncletopia"],"game_id":440,"stv_port":27046,"stv_name":"Uncletopia | Warsaw | 4 | All Maps | STV","players":null},{"server_id":53,"name":"Uncletopia | Warsaw | 5 | Stopwatch Beta","name_short":"waw-5","host":"waw-1.pl.uncletopia.com","port":27055,"enabled":true,"region":"eu","cc":"pl","latitude":52.2297,"longitude":21.017532,"reserved":0,"last_update":"0001-01-01T00:00:00Z","name_a2s":"Uncletopia | Warsaw | 5 | Stopwatch Beta","protocol":17,"map":"pl_borneo","folder":"tf","game":"Team Fortress","app_id":440,"player_count":0,"max_players":24,"Bots":0,"server_type":"Dedicated","server_os":"Linux","password":true,"vac":true,"version":"7757534","steam_id":85568392925397854,"keywords":["nocrits","nodmgspread","payload","uncletopia"],"game_id":440,"stv_port":27056,"stv_name":"Uncletopia | Warsaw | 5 | Stopwatch Beta | STV","players":null},{"server_id":54,"name":"Uncletopia | Warsaw | 6 | Community","name_short":"waw-6","host":"waw-1.pl.uncletopia.com","port":27065,"enabled":true,"region":"eu","cc":"pl","latitude":52.2297,"longitude":21.017532,"reserved":0,"last_update":"0001-01-01T00:00:00Z","name_a2s":"Uncletopia | Warsaw | 6 | Community","protocol":17,"map":"workshop/cp_glassworks_rc6a.ugc454118349","folder":"tf","game":"Team Fortress","app_id":440,"player_count":0,"max_players":24,"Bots":0,"server_type":"Dedicated","server_os":"Linux","password":true,"vac":true,"version":"7757534","steam_id":85568392925397856,"keywords":["cp","nocrits","nodmgspread","uncletopia"],"game_id":440,"stv_port":27066,"stv_name":"Uncletopia | Warsaw | 6 | Community | STV","players":null}]}