{"status":true,"message":"","result":[{"server_id":9,"name":"Uncletopia | Atlanta | 1 | All Maps","name_short":"atl-1","host":"atl-1.us.uncletopia.com","port":27015,"enabled":true,"region":"us-east","cc":"us","latitude":33.753746,"longitude":-84.38633,"reserved":0,"last_update":"0001-01-01T00:00:00Z","name_a2s":"Uncletopia | Atlanta | 1 | All Maps","protocol":17,"map":"cp_dustbowl","folder":"tf","game":"Team Fortress","app_id":440,"player_count":24,"max_players":24,"Bots":0,"server_type":"Dedicated","server_os":"Linux","password":true,"vac":true,"version":"7757534","steam_id":85568392924469982,"keywords":["cp","nocrits","nodmgspread","uncletopia"],"game_id":440,"stv_port":27016,"stv_name":"Uncletopia | Atlanta | 1 | All Maps | STV","players":[{"user_id":173,"name":"Snivy64","steam_id":76561198423445376,"connected_time":3908000000000,"state":"active","ping":91},{"user_id":179,"name":"Law","steam_id":76561198169960915,"connected_time":3152000000000,"state":"active","ping":76},{"user_id":230,"name":"robotman5","steam_id":76561197996783330,"connected_time":223000000000,"state":"active","ping":93},{"user_id":200,"name":"squidDMV","steam_id":76561199481268436,"connected_time":2129000000000,"state":"active","ping":74},{"user_id":222,"name":"Sentry","steam_id":76561198275326569,"connected_time":489000000000,"state":"active","ping":141},{"user_id":211,"name":"Tommy Provolone","steam_id":76561198170062377,"connected_time":1235000000000,"state":"active","ping":81},{"user_id":231,"name":"Seojer","steam_id":76561198234965408,"connected_time":222000000000,"state":"active","ping":147},{"user_id":228,"name":"Ashes!","steam_id":76561197998475441,"connected_time":234000000000,"state":"active","ping":68},{"user_id":223,"name":"The_Stomach_Stone_Surgeon","steam_id":76561198044643725,"connected_time":444000000000,"state":"active","ping":52},{"user_id":235,"name":"Sniper","steam_id":76561199482262282,"connected_time":60000000000,"state":"active","ping":93},{"user_id":157,"name":"what do?","steam_id":76561198211451184,"connected_time":4426000000000,"state":"active","ping":113},{"user_id":213,"name":"Kedata","steam_id":76561198047750050,"connected_time":1087000000000,"state":"active","ping":61},{"user_id":216,"name":"Mister Mundy","steam_id":76561198145675134,"connected_time":1004000000000,"state":"active","ping":56},{"user_id":226,"name":"Wren","steam_id":76561198071109787,"connected_time":248000000000,"state":"active","ping":102},{"user_id":225,"name":"Zohan","steam_id":76561198368903376,"connected_time":278000000000,"state":"active","ping":169},{"user_id":185,"name":"Psychosis","steam_id":76561198078659070,"connected_time":2905000000000,"state":"active","ping":60},{"user_id":197,"name":"googy doogy","steam_id":76561199025852100,"connected_time":2252000000000,"state":"active","ping":66},{"user_id":232,"name":"i fell in luv w dah bandz","steam_id":76561198042600523,"connected_time":212000000000,"state":"active","ping":67},{"user_id":233,"name":"SlurpyTheDog","steam_id":76561198799733154,"connected_time":165000000000,"state":"active","ping":60},{"user_id":215,"name":"dzcreeper","steam_id":76561198072250723,"connected_time":1041000000000,"state":"active","ping":117},{"user_id":198,"name":"Kasodani Kyouko","steam_id":76561198023178589,"connected_time":2246000000000,"state":"active","ping":99},{"user_id":172,"name":"Brandonazz","steam_id":76561197994366351,"connected_time":3956000000000,"state":"active","ping":78},{"user_id":210,"name":"Korshal","steam_id":76561198819036121,"connected_time":1268000000000,"state":"active","ping":56},{"user_id":227,"name":"Legit_Jaxer","steam_id":76561198172234053,"connected_time":247000000000,"state":"active","ping":106}]},{"server_id":104,"name":"Uncletopia | Atlanta | 2 | All Maps","name_short":"atl-2","host":"atl-1.us.uncletopia.com","port":27025,"enabled":true,"region":"us-east","cc":"us","latitude":33.753746,"longitude":-84.38633,"reserved":0,"last_update":"0001-01-01T00:00:00Z","name_a2s":"Uncletopia | Atlanta | 2 | All Maps","protocol":17,"map":"pl_snowycoast","folder":"tf","game":"Team Fortress","app_id":440,"player_count":0,"max_players":24,"Bots":0,"server_type":"Dedicated","server_os":"Linux","password":true,"vac":true,"version":"7757534","steam_id":85568392924469983,"keywords":["nocrits","nodmgspread","payload","uncletopia"],"game_id":440,"stv_port":27026,"stv_name":"Uncletopia | Atlanta | 2 | All Maps | STV","players":null},{"server_id":400,"name":"Uncletopia | Atlanta | 3 | Community","name_short":"atl-3","host":"atl-1.us.uncletopia.com","port":27035,"enabled":true,"region":"us-east","cc":"us","latitude":33.753746,"longitude":-84.38633,"reserved":0,"last_update":"0001-01-01T00:00:00Z","name_a2s":"Uncletopia | Atlanta | 3 | Community","protocol":17,"map":"cp_snakewater_final1","folder":"tf","game":"Team Fortress","app_id":440,"player_count":0,"max_players":24,"Bots":0,"server_type":"Dedicated","server_os":"Linux","password":true,"vac":true,"version":"7757534","steam_id":85568392924515187,"keywords":["cp","nocrits","nodmgspread","uncletopia"],"game_id":440,"stv_port":27036,"stv_name":"Uncletopia | Atlanta | 3 | Community | STV","players":null},{"server_id":401,"name":"Uncletopia | Atlanta | 4 | No Payload","name_short":"atl-4","host":"atl-1.us.uncletopia.com","port":27045,"enabled":true,"region":"us-east","cc":"us","latitude":33.753746,"longitude":-84.38633,"reserved":0,"last_update":"0001-01-01T00:00:00Z","name_a2s":"","protocol":0,"map":"","folder":"","game":"","app_id":0,"player_count":0,"max_players":0,"Bots":0,"server_type":"","server_os":"","password":false,"vac":false,"version":"","steam_id":0,"keywords":null,"game_id":0,"stv_port":0,"stv_name":"","players":null},{"server_id":2,"name":"Uncletopia | Chicago | 1 | All Maps","name_short":"chi-1","host":"chi-1.us.uncletopia.com","port":27015,"enabled":true,"region":"us-central","cc":"us","latitude":41.881832,"longitude":-87.62318,"reserved":0,"last_update":"0001-01-01T00:00:00Z","name_a2s":"Uncletopia | Chicago | 1 | All Maps","protocol":17,"map":"cp_process_final","folder":"tf","game":"Team Fortress","app_id":440,"player_count":24,"max_players":24,"Bots":0,"server_type":"Dedicated","server_os":"Linux","password":true,"vac":true,"version":"7757534","steam_id":85568392924469984,"keywords":["cp","nocrits","nodmgspread","uncletopia"],"game_id":440,"stv_port":27016,"stv_name":"Uncletopia | Chicago | 1 | All Maps | STV","players":[{"user_id":336,"name":"Sumtingwong","steam_id":76561198154503584,"connected_time":389000000000,"state":"active","ping":116},{"user_id":329,"name":"heritage","steam_id":76561198108685037,"connected_time":624000000000,"state":"active","ping":71},{"user_id":331,"name":"Spicy Within Reason","steam_id":76561198066700370,"connected_time":585000000000,"state":"active","ping":89},{"user_id":314,"name":"hud_saytext_time 0","steam_id":76561198010327228,"connected_time":1474000000000,"state":"active","ping":169},{"user_id":327,"name":"my singing monsters slut","steam_id":76561198095600494,"connected_time":648000000000,"state":"active","ping":67},{"user_id":321,"name":"0","steam_id":76561198046055673,"connected_time":1033000000000,"state":"active","ping":72},{"user_id":337,"name":"SirKnight5067","steam_id":76561198377306047,"connected_time":385000000000,"state":"active","ping":56},{"user_id":265,"name":"larguu","steam_id":76561197994336210,"connected_time":5793000000000,"state":"active","ping":60},{"user_id":302,"name":"THEDINKY","steam_id":76561198190077399,"connected_time":2610000000000,"state":"active","ping":66},{"user_id":339,"name":"sqerkbo","steam_id":76561198080012700,"connected_time":244000000000,"state":"active","ping":50},{"user_id":334,"name":"Tsukiortu","steam_id":76561198086796109,"connected_time":549000000000,"state":"active","ping":69},{"user_id":324,"name":"capybapy","steam_id":76561198798828328,"connected_time":673000000000,"state":"active","ping":60},{"user_id":300,"name":"Viktir","steam_id":76561198127898517,"connected_time":2882000000000,"state":"active","ping":76},{"user_id":316,"name":"nohbdy","steam_id":76561198815547064,"connected_time":1270000000000,"state":"active","ping":75},{"user_id":295,"name":"Smoky","steam_id":76561198041551259,"connected_time":3446000000000,"state":"active","ping":73},{"user_id":325,"name":"Sunflower","steam_id":76561198081223793,"connected_time":665000000000,"state":"active","ping":61},{"user_id":338,"name":"I'm Going Goblin Mode","steam_id":76561198084167611,"connected_time":384000000000,"state":"active","ping":62},{"user_id":303,"name":"Chestnut","steam_id":76561198078198968,"connected_time":2454000000000,"state":"active","ping":66},{"user_id":310,"name":"pipis","steam_id":76561198140971525,"connected_time":2165000000000,"state":"active","ping":60},{"user_id":289,"name":"Acehay14","steam_id":76561198052373291,"connected_time":3810000000000,"state":"active","ping":55},{"user_id":335,"name":"Veirū Viseris","steam_id":76561197989857176,"connected_time":438000000000,"state":"active","ping":166},{"user_id":340,"name":"Influrrno","steam_id":76561198398893302,"connected_time":156000000000,"state":"active","ping":70},{"user_id":306,"name":"４０ ＦＰＳ","steam_id":76561198272394965,"connected_time":2390000000000,"state":"active","ping":135},{"user_id":333,"name":"twizted","steam_id":76561197960407274,"connected_time":578000000000,"state":"active","ping":72}]},{"server_id":106,"name":"Uncletopia | Chicago | 2 | All Maps","name_short":"chi-2","host":"chi-1.us.uncletopia.com","port":27025,"enabled":true,"region":"us-central","cc":"us","latitude":41.881832,"longitude":-87.62318,"reserved":0,"last_update":"0001-01-01T00:00:00Z","name_a2s":"Uncletopia | Chicago | 2 | All Maps","protocol":17,"map":"koth_viaduct","folder":"tf","game":"Team Fortress","app_id":440,"player_count":0,"max_players":24,"Bots":0,"server_type":"Dedicated","server_os":"Linux","password":true,"vac":true,"version":"7757534","steam_id":85568392924469985,"keywords":["cp","nocrits","nodmgspread","uncletopia"],"game_id":440,"stv_port":27026,"stv_name":"Uncletopia | Chicago | 2 | All Maps | STV","players":null},{"server_id":402,"name":"Uncletopia | Chicago | 3 | All Maps","name_short":"chi-3","host":"chi-1.us.uncletopia.com","port":27035,"enabled":true,"region":"us-central","cc":"us","latitude":41.881832,"longitude":-87.62318,"reserved":0,"last_update":"0001-01-01T00:00:00Z","name_a2s":"Uncletopia | Chicago | 3 | All Maps","protocol":17,"map":"koth_viaduct","folder":"tf","game":"Team Fortress","app_id":440,"player_count":0,"max_players":24,"Bots":0,"server_type":"Dedicated","server_os":"Linux","password":true,"vac":true,"version":"7757534","steam_id":85568392924515191,"keywords":["cp","nocrits","nodmgspread","uncletopia"],"game_id":440,"stv_port":27036,"stv_name":"Uncletopia | Chicago | 3 | All Maps | STV","players":null},{"server_id":403,"name":"Uncletopia | Chicago | 4 | All Maps","name_short":"chi-4","host":"chi-1.us.uncletopia.com","port":27045,"enabled":true,"region":"us-central","cc":"us","latitude":41.881832,"longitude":-87.62318,"reserved":0,"last_update":"0001-01-01T00:00:00Z","name_a2s":"Uncletopia | Chicago | 4 | All Maps","protocol":17,"map":"koth_lakeside_final","folder":"tf","game":"Team Fortress","app_id":440,"player_count":0,"max_players":24,"Bots":0,"server_type":"Dedicated","server_os":"Linux","password":true,"vac":true,"version":"7757534","steam_id":85568392924515193,"keywords":["cp","nocrits","nodmgspread","uncletopia"],"game_id":440,"stv_port":27046,"stv_name":"Uncletopia | Chicago | 4 | All Maps | STV","players":null},{"server_id":36,"name":"Uncletopia | Chicago | 5 | All Maps","name_short":"chi-5","host":"chi-2.us.uncletopia.com","port":27015,"enabled":true,"region":"us-central","cc":"us","latitude":41.881832,"longitude":-87.62318,"reserved":0,"last_update":"0001-01-01T00:00:00Z","name_a2s":"Uncletopia | Chicago | 5 | All Maps","protocol":17,"map":"koth_cascade","folder":"tf","game":"Team Fortress","app_id":440,"player_count":0,"max_players":24,"Bots":0,"server_type":"Dedicated","server_os":"Linux","password":true,"vac":true,"version":"7757534","steam_id":85568392924866362,"keywords":["cp","nocrits","nodmgspread","uncletopia"],"game_id":440,"stv_port":27016,"stv_name":"Uncletopia | Chicago | 5 | All Maps | STV","players":null},{"server_id":37,"name":"Uncletopia | Chicago | 6 | All Maps","name_short":"chi-6","host":"chi-2.us.uncletopia.com","port":27025,"enabled":true,"region":"us-central","cc":"us","latitude":41.881832,"longitude":-87.62318,"reserved":0,"last_update":"0001-01-01T00:00:00Z","name_a2s":"Uncletopia | Chicago | 6 | All Maps","protocol":17,"map":"pl_snowycoast","folder":"tf","game":"Team Fortress","app_id":440,"player_count":24,"max_players":24,"Bots":0,"server_type":"Dedicated","server_os":"Linux","password":true,"vac":true,"version":"7757534","steam_id":85568392924866363,"keywords":["nocrits","nodmgspread","payload","uncletopia"],"game_id":440,"stv_port":27026,"stv_name":"Uncletopia | Chicago | 6 | All Maps | STV","players":[{"user_id":126,"name":"high velocity projectile","steam_id":76561199039152146,"connected_time":889000000000,"state":"active","ping":85},{"user_id":129,"name":"NUt","steam_id":76561198031007966,"connected_time":832000000000,"state":"active","ping":75},{"user_id":92,"name":"combine gaming","steam_id":76561198143371318,"connected_time":4225000000000,"state":"active","ping":104},{"user_id":145,"name":"I Spy","steam_id":76561198046366964,"connected_time":197000000000,"state":"active","ping":51},{"user_id":83,"name":"doom555michael","steam_id":76561198062335663,"connected_time":5297000000000,"state":"active","ping":73},{"user_id":130,"name":"Testiclitz Penischmidt","steam_id":76561198050582941,"connected_time":830000000000,"state":"active","ping":60},{"user_id":138,"name":"LukeLeal","steam_id":76561198049822995,"connected_time":659000000000,"state":"active","ping":165},{"user_id":143,"name":"Piesmartguy","steam_id":76561198209763157,"connected_time":283000000000,"state":"active","ping":84},{"user_id":132,"name":"Asanez3","steam_id":76561198037381436,"connected_time":815000000000,"state":"active","ping":76},{"user_id":118,"name":"Orca?","steam_id":76561198164341099,"connected_time":1880000000000,"state":"active","ping":85},{"user_id":106,"name":"gabbaghoulio","steam_id":76561198013650292,"connected_time":3031000000000,"state":"active","ping":116},{"user_id":81,"name":"Dr Kickass","steam_id":76561198069659186,"connected_time":5322000000000,"state":"active","ping":59},{"user_id":133,"name":"diversity hire","steam_id":76561198022967929,"connected_time":806000000000,"state":"active","ping":90},{"user_id":47,"name":"sklob","steam_id":76561197966804876,"connected_time":9474000000000,"state":"active","ping":88},{"user_id":125,"name":"Konrad Vilulf","steam_id":76561198111124481,"connected_time":1053000000000,"state":"active","ping":91},{"user_id":134,"name":"Arin The Wolf","steam_id":76561198356310973,"connected_time":801000000000,"state":"active","ping":104},{"user_id":119,"name":"Rebi","steam_id":76561199030110402,"connected_time":1879000000000,"state":"active","ping":148},{"user_id":140,"name":"tydogzilla","steam_id":76561198054254518,"connected_time":636000000000,"state":"active","ping":68},{"user_id":139,"name":"LVL 4 Dispenser Gaming","steam_id":76561198044244547,"connected_time":657000000000,"state":"active","ping":79},{"user_id":146,"name":"pancho_TF","steam_id":76561198056543825,"connected_time":196000000000,"state":"active","ping":83},{"user_id":141,"name":"Kzjytsugn","steam_id":76561198130241974,"connected_time":578000000000,"state":"active","ping":92},{"user_id":123,"name":"Jack Celliers","steam_id":76561198060983357,"connected_time":1464000000000,"state":"active","ping":83},{"user_id":144,"name":"faxxy","steam_id":76561198079621240,"connected_time":223000000000,"state":"active","ping":74},{"user_id":95,"name":"-{SL}- Dr. Hoja","steam_id":76561198024601289,"connected_time":4170000000000,"state":"active","ping":70}]},{"server_id":38,"name":"Uncletopia | Chicago | 7 | Stopwatch Beta","name_short":"chi-7","host":"chi-2.us.uncletopia.com","port":27035,"enabled":true,"region":"us-central","cc":"us","latitude":41.881832,"longitude":-87.62318,"reserved":0,"last_update":"0001-01-01T00:00:00Z","name_a2s":"Uncletopia | Chicago | 7 | Stopwatch Beta","protocol":17,"map":"pl_barnblitz","folder":"tf","game":"Team Fortress","app_id":440,"player_count":0,"max_players":24,"Bots":0,"server_type":"Dedicated","server_os":"Linux","password":true,"vac":true,"version":"7757534","steam_id":85568392924866364,"keywords":["nocrits","nodmgspread","payload","uncletopia"],"game_id":440,"stv_port":27036,"stv_name":"Uncletopia | Chicago | 7 | Stopwatch Beta | STV","players":null},{"server_id":39,"name":"Uncletopia | Chicago | 8 | Community","name_short":"chi-8","host":"chi-2.us.uncletopia.com","port":27045,"enabled":true,"region":"us-central","cc":"us","latitude":41.881832,"longitude":-87.62318,"reserved":0,"last_update":"0001-01-01T00:00:00Z","name_a2s":"Uncletopia | Chicago | 8 | Community","protocol":17,"map":"koth_cascade","folder":"tf","game":"Team Fortress","app_id":440,"player_count":0,"max_players":24,"Bots":0,"server_type":"Dedicated","server_os":"Linux","password":true,"vac":true,"version":"7757534","steam_id":85568392924866365,"keywords":["cp","nocrits","nodmgspread","uncletopia"],"game_id":440,"stv_port":27046,"stv_name":"Uncletopia | Chicago | 8 | Community | STV","players":null},{"server_id":8,"name":"Uncletopia | Dallas | 1 | All Maps","name_short":"dal-1","host":"dal-1.us.uncletopia.com","port":27015,"enabled":true,"region":"us-central","cc":"us","latitude":32.779167,"longitude":-96.80889,"reserved":0,"last_update":"0001-01-01T00:00:00Z","name_a2s":"Uncletopia | Dallas | 1 | All Maps","protocol":17,"map":"pl_frontier_final","folder":"tf","game":"Team Fortress","app_id":440,"player_count":22,"max_players":24,"Bots":0,"server_type":"Dedicated","server_os":"Linux","password":true,"vac":true,"version":"7757534","steam_id":85568392924469986,"keywords":["nocrits","nodmgspread","payload","uncletopia"],"game_id":440,"stv_port":27016,"stv_name":"Uncletopia | Dallas | 1 | All Maps | STV","players":[{"user_id":341,"name":"nevermore","steam_id":76561198003954481,"connected_time":1561000000000,"state":"active","ping":83},{"user_id":325,"name":"jeff","steam_id":76561198059450566,"connected_time":2693000000000,"state":"active","ping":75},{"user_id":357,"name":"basilberry","steam_id":76561198145275937,"connected_time":91000000000,"state":"active","ping":54},{"user_id":359,"name":"Sock Lobster","steam_id":76561198072945604,"connected_time":46000000000,"state":"spawning","ping":61},{"user_id":339,"name":"PaD_Ding","steam_id":76561198831202965,"connected_time":1835000000000,"state":"active","ping":170},{"user_id":317,"name":"Legnarius","steam_id":76561198090842475,"connected_time":2852000000000,"state":"active","ping":115},{"user_id":360,"name":"sexyvillain","steam_id":76561198083127707,"connected_time":38000000000,"state":"active","ping":47},{"user_id":361,"name":"josh","steam_id":76561198077902438,"connected_time":6000000000,"state":"spawning","ping":74},{"user_id":356,"name":"kaede","steam_id":76561199474493516,"connected_time":404000000000,"state":"active","ping":76},{"user_id":355,"name":"stigma (Battle Medic)","steam_id":76561197960315263,"connected_time":819000000000,"state":"active","ping":74},{"user_id":354,"name":"Kid named download","steam_id":76561199192074448,"connected_time":838000000000,"state":"active","ping":104},{"user_id":342,"name":"9Bendy9","steam_id":76561198164023601,"connected_time":1532000000000,"state":"active","ping":87},{"user_id":278,"name":"ZekeN0Tech","steam_id":76561198042151365,"connected_time":6082000000000,"state":"active","ping":71},{"user_id":349,"name":"TheEmeraldLiker","steam_id":76561198323926464,"connected_time":1105000000000,"state":"active","ping":110},{"user_id":322,"name":"SomeUnknownThing","steam_id":76561198412163316,"connected_time":2745000000000,"state":"active","ping":70},{"user_id":345,"name":"tcurd10","steam_id":76561198282013957,"connected_time":1495000000000,"state":"active","ping":80},{"user_id":312,"name":"Bawower","steam_id":76561198347769261,"connected_time":3266000000000,"state":"active","ping":98},{"user_id":313,"name":"Acro Banwagon","steam_id":76561198092451804,"connected_time":3264000000000,"state":"active","ping":90},{"user_id":340,"name":"Pyro","steam_id":76561198074493797,"connected_time":1745000000000,"state":"active","ping":59},{"user_id":353,"name":"SuperFresh","steam_id":76561198200723198,"connected_time":872000000000,"state":"active","ping":66},{"user_id":327,"name":"Pan Wizard","steam_id":76561198031939694,"connected_time":2686000000000,"state":"active","ping":90},{"user_id":358,"name":"Lovedaddy","steam_id":76561198006569710,"connected_time":91000000000,"state":"active","ping":101}]},{"server_id":108,"name":"Uncletopia | Dallas | 2 | All Maps","name_short":"dal-2","host":"dal-1.us.uncletopia.com","port":27025,"enabled":true,"region":"us-central","cc":"us","latitude":32.779167,"longitude":-96.80889,"reserved":0,"last_update":"0001-01-01T00:00:00Z","name_a2s":"Uncletopia | Dallas | 2 | All Maps","protocol":17,"map":"pl_badwater","folder":"tf","game":"Team Fortress","app_id":440,"player_count":23,"max_players":24,"Bots":0,"server_type":"Dedicated","server_os":"Linux","password":true,"vac":true,"version":"7757534","steam_id":85568392924469988,"keywords":["nocrits","nodmgspread","payload","uncletopia"],"game_id":440,"stv_port":27026,"stv_name":"Uncletopia | Dallas | 2 | All Maps | STV","players":[{"user_id":61,"name":"Jag_Samurott","steam_id":76561198262036126,"connected_time":540000000000,"state":"active","ping":80},{"user_id":67,"name":"Path","steam_id":76561198106831514,"connected_time":253000000000,"state":"active","ping":90},{"user_id":31,"name":"AMEOBA","steam_id":76561198169315998,"connected_time":2064000000000,"state":"active","ping":92},{"user_id":59,"name":"Prof. Eggnog","steam_id":76561198193389166,"connected_time":814000000000,"state":"active","ping":160},{"user_id":18,"name":"Petrivus","steam_id":76561198202152453,"connected_time":2397000000000,"state":"active","ping":102},{"user_id":53,"name":"Romo","steam_id":76561198243101572,"connected_time":1047000000000,"state":"active","ping":74},{"user_id":20,"name":"Kuyumiester","steam_id":76561198126835302,"connected_time":2315000000000,"state":"active","ping":63},{"user_id":60,"name":"Bigge cheese the 3rd","steam_id":76561198860975325,"connected_time":591000000000,"state":"active","ping":57},{"user_id":68,"name":"The Regional Manager","steam_id":76561198825154890,"connected_time":71000000000,"state":"active","ping":93},{"user_id":50,"name":"SC|Formuoli","steam_id":76561198254354595,"connected_time":1421000000000,"state":"active","ping":58},{"user_id":46,"name":"jams","steam_id":76561198131701290,"connected_time":1541000000000,"state":"active","ping":74},{"user_id":48,"name":"Fantastic Mr. Fox Appreciator","steam_id":76561198096306325,"connected_time":1466000000000,"state":"active","ping":90},{"user_id":69,"name":"Mongee","steam_id":76561198161610684,"connected_time":68000000000,"state":"active","ping":50},{"user_id":47,"name":"RarestGuide","steam_id":76561198050338923,"connected_time":1474000000000,"state":"active","ping":84},{"user_id":28,"name":"Eggwart Niggle Toes","steam_id":76561198962841455,"connected_time":2181000000000,"state":"active","ping":87},{"user_id":30,"name":"[DATS➡] Sugar Meowth","steam_id":76561197995251793,"connected_time":2129000000000,"state":"active","ping":91},{"user_id":66,"name":"Candy Sparkles","steam_id":76561198126871264,"connected_time":452000000000,"state":"active","ping":100},{"user_id":54,"name":"Queen Frau the Round","steam_id":76561197999942134,"connected_time":1015000000000,"state":"active","ping":66},{"user_id":70,"name":"T̵̲̒H̶̪̐E̴͉͂̊M̶̾͆\ufffd","steam_id":76561198091875604,"connected_time":40000000000,"state":"active","ping":70},{"user_id":45,"name":"Hell-0_World","steam_id":76561198109876007,"connected_time":1605000000000,"state":"active","ping":117},{"user_id":65,"name":"-W3E- ILikeLuna","steam_id":76561198140003332,"connected_time":464000000000,"state":"active","ping":66},{"user_id":41,"name":"Burger","steam_id":76561198124642383,"connected_time":1788000000000,"state":"active","ping":77},{"user_id":42,"name":"Kasimir","steam_id":76561198013840333,"connected_time":1758000000000,"state":"active","ping":59}]},{"server_id":5,"name":"Uncletopia | Frankfurt | 1 | All Maps","name_short":"frk-1","host":"frk-1.de.uncletopia.com","port":27015,"enabled":true,"region":"eu","cc":"de","latitude":50.110924,"longitude":8.682127,"reserved":0,"last_update":"0001-01-01T00:00:00Z","name_a2s":"Uncletopia | Frankfurt | 1 | All Maps","protocol":17,"map":"pl_pier","folder":"tf","game":"Team Fortress","app_id":440,"player_count":24,"max_players":24,"Bots":0,"server_type":"Dedicated","server_os":"Linux","password":true,"vac":true,"version":"7757534","steam_id":85568392924469989,"keywords":["nocrits","nodmgspread","payload","uncletopia"],"game_id":440,"stv_port":27016,"stv_name":"Uncletopia | Frankfurt | 1 | All Maps | STV","players":[{"user_id":689,"name":"ุ","steam_id":76561198045466919,"connected_time":3121000000000,"state":"active","ping":65},{"user_id":713,"name":"Sir Kiops","steam_id":76561198022769275,"connected_time":1540000000000,"state":"active","ping":112},{"user_id":709,"name":"KeTlEr","steam_id":76561198100957443,"connected_time":1697000000000,"state":"active","ping":69},{"user_id":711,"name":"Towercat","steam_id":76561198013141793,"connected_time":1564000000000,"state":"active","ping":64},{"user_id":720,"name":"Amazon Prime Pipe Bomb","steam_id":76561198879107565,"connected_time":886000000000,"state":"active","ping":57},{"user_id":724,"name":"gort","steam_id":76561198060339391,"connected_time":455000000000,"state":"active","ping":35},{"user_id":683,"name":"Choirboy (He/Hymn)","steam_id":76561198183949987,"connected_time":3210000000000,"state":"active","ping":65},{"user_id":699,"name":"VOID","steam_id":76561198970542714,"connected_time":2709000000000,"state":"active","ping":87},{"user_id":710,"name":"Michael","steam_id":76561198003146906,"connected_time":1640000000000,"state":"active","ping":55},{"user_id":723,"name":"thussu","steam_id":76561198890409949,"connected_time":524000000000,"state":"active","ping":87},{"user_id":619,"name":"cazador","steam_id":76561198123096922,"connected_time":7079000000000,"state":"active","ping":95},{"user_id":727,"name":"SirSangoor","steam_id":76561198044462559,"connected_time":82000000000,"state":"active","ping":126},{"user_id":714,"name":"MR.CRAB","steam_id":76561198329833659,"connected_time":1519000000000,"state":"active","ping":70},{"user_id":687,"name":"LoboPaciente","steam_id":76561198088870962,"connected_time":3142000000000,"state":"active","ping":93},{"user_id":688,"name":"Raven","steam_id":76561198087296188,"connected_time":3139000000000,"state":"active","ping":72},{"user_id":593,"name":"Drosan ツ","steam_id":76561197960389216,"connected_time":9024000000000,"state":"active","ping":44},{"user_id":725,"name":"bad farter","steam_id":76561198261853441,"connected_time":395000000000,"state":"active","ping":63},{"user_id":728,"name":"Magirby","steam_id":76561198818777390,"connected_time":51000000000,"state":"active","ping":100},{"user_id":722,"name":"Foreskin Gamer","steam_id":76561198283106341,"connected_time":874000000000,"state":"active","ping":70},{"user_id":651,"name":"Homosapien","steam_id":76561197972035953,"connected_time":5460000000000,"state":"active","ping":49},{"user_id":712,"name":"Tomas66","steam_id":76561199123974361,"connected_time":1560000000000,"state":"active","ping":68},{"user_id":694,"name":"Mr. Mietsch","steam_id":76561198077516818,"connected_time":3048000000000,"state":"active","ping":54},{"user_id":705,"name":"Znoz","steam_id":76561198012093928,"connected_time":2102000000000,"state":"active","ping":93},{"user_id":718,"name":"weird gamer","steam_id":76561198047749446,"connected_time":926000000000,"state":"active","ping":59}]},{"server_id":110,"name":"Uncletopia | Frankfurt | 2 | All Maps","name_short":"frk-2","host":"frk-1.de.uncletopia.com","port":27025,"enabled":true,"region":"eu","cc":"de","latitude":50.110924,"longitude":8.682127,"reserved":0,"last_update":"0001-01-01T00:00:00Z","name_a2s":"Uncletopia | Frankfurt | 2 | All Maps","protocol":17,"map":"koth_highpass","folder":"tf","game":"Team Fortress","app_id":440,"player_count":2,"max_players":24,"Bots":0,"server_type":"Dedicated","server_os":"Linux","password":true,"vac":true,"version":"7757534","steam_id":85568392924469990,"keywords":["cp","nocrits","nodmgspread","uncletopia"],"game_id":440,"stv_port":27026,"stv_name":"Uncletopia | Frankfurt | 2 | All Maps | STV","players":[{"user_id":16,"name":"Insane Individual [I.I]","steam_id":76561199073054477,"connected_time":483000000000,"state":"active","ping":76},{"user_id":19,"name":"clipsy11","steam_id":76561199185851191,"connected_time":351000000000,"state":"active","ping":75}]},{"server_id":308,"name":"Uncletopia | Frankfurt | 3 | All Maps","name_short":"frk-3","host":"frk-1.de.uncletopia.com","port":27035,"enabled":true,"region":"eu","cc":"de","latitude":50.110924,"longitude":8.682127,"reserved":0,"last_update":"0001-01-01T00:00:00Z","name_a2s":"Uncletopia | Frankfurt | 3 | All Maps","protocol":17,"map":"pl_snowycoast","folder":"tf","game":"Team Fortress","app_id":440,"player_count":24,"max_players":24,"Bots":0,"server_type":"Dedicated","server_os":"Linux","password":true,"vac":true,"version":"7757534","steam_id":85568392924504274,"keywords":["nocrits","nodmgspread","payload","uncletopia"],"game_id":440,"stv_port":27036,"stv_name":"Uncletopia | Frankfurt | 3 | All Maps | STV","players":[{"user_id":170,"name":"Een schaap zonder slaap","steam_id":76561198084808410,"connected_time":1188000000000,"state":"active","ping":58},{"user_id":190,"name":"I jazzed myself","steam_id":76561198203016603,"connected_time":236000000000,"state":"active","ping":73},{"user_id":126,"name":"Cheers Mate!","steam_id":76561198265192382,"connected_time":4121000000000,"state":"active","ping":57},{"user_id":178,"name":"WolfmanCZ","steam_id":76561199157141414,"connected_time":896000000000,"state":"active","ping":70},{"user_id":153,"name":"Ketich","steam_id":76561198021772703,"connected_time":2708000000000,"state":"active","ping":62},{"user_id":161,"name":"Akisян","steam_id":76561198078706435,"connected_time":2318000000000,"state":"active","ping":75},{"user_id":92,"name":"Ixsus\u003c3","steam_id":76561198094756869,"connected_time":6055000000000,"state":"active","ping":52},{"user_id":189,"name":"Mr. Mundy","steam_id":76561198132008918,"connected_time":259000000000,"state":"active","ping":72},{"user_id":152,"name":"copium addict","steam_id":76561199401665282,"connected_time":2775000000000,"state":"active","ping":102},{"user_id":138,"name":"robsan","steam_id":76561198137375391,"connected_time":3546000000000,"state":"active","ping":74},{"user_id":172,"name":"aisu","steam_id":76561198043768507,"connected_time":1150000000000,"state":"active","ping":176},{"user_id":181,"name":"RussianVesper","steam_id":76561198263326607,"connected_time":717000000000,"state":"active","ping":141},{"user_id":148,"name":"CloudRazor","steam_id":76561198094113223,"connected_time":3123000000000,"state":"active","ping":91},{"user_id":146,"name":"bigwish | bmod.tf","steam_id":76561197997859723,"connected_time":3423000000000,"state":"active","ping":89},{"user_id":187,"name":"Dewotter","steam_id":76561198007653168,"connected_time":324000000000,"state":"active","ping":75},{"user_id":167,"name":"lemon pene","steam_id":76561198206954985,"connected_time":1622000000000,"state":"active","ping":125},{"user_id":183,"name":"DeCypher \u003c3","steam_id":76561198171992619,"connected_time":679000000000,"state":"active","ping":70},{"user_id":103,"name":"OweMeOneCannoli","steam_id":76561198040946676,"connected_time":5612000000000,"state":"active","ping":69},{"user_id":191,"name":"Hey, I´m Andy!","steam_id":76561198060337777,"connected_time":62000000000,"state":"active","ping":72},{"user_id":184,"name":"Hegyi tahó F2P","steam_id":76561199219150356,"connected_time":646000000000,"state":"active","ping":66},{"user_id":185,"name":"Mankor","steam_id":76561198020439322,"connected_time":640000000000,"state":"active","ping":52},{"user_id":188,"name":"piping hot","steam_id":76561198011692496,"connected_time":273000000000,"state":"active","ping":68},{"user_id":168,"name":"Radegast the Brown","steam_id":76561198075489505,"connected_time":1244000000000,"state":"active","ping":60},{"user_id":186,"name":"Dakeyras","steam_id":76561198057069564,"connected_time":628000000000,"state":"active","ping":110}]},{"server_id":309,"name":"Uncletopia | Frankfurt | 4 | All Maps","name_short":"frk-4","host":"frk-1.de.uncletopia.com","port":27045,"enabled":true,"region":"eu","cc":"de","latitude":50.110924,"longitude":8.682127,"reserved":0,"last_update":"0001-01-01T00:00:00Z","name_a2s":"Uncletopia | Frankfurt | 4 | All Maps","protocol":17,"map":"koth_viaduct","folder":"tf","game":"Team Fortress","app_id":440,"player_count":0,"max_players":24,"Bots":0,"server_type":"Dedicated","server_os":"Linux","password":true,"vac":true,"version":"7757534","steam_id":85568392924504275,"keywords":["cp","nocrits","nodmgspread","uncletopia"],"game_id":440,"stv_port":27046,"stv_name":"Uncletopia | Frankfurt | 4 | All Maps | STV","players":null},{"server_id":310,"name":"Uncletopia | Frankfurt | 5 | All Maps","name_short":"frk-5","host":"frk-1.de.uncletopia.com","port":27055,"enabled":true,"region":"eu","cc":"de","latitude":50.110924,"longitude":8.682127,"reserved":0,"last_update":"0001-01-01T00:00:00Z","name_a2s":"Uncletopia | Frankfurt | 5 | All Maps","protocol":17,"map":"koth_lakeside_final","folder":"tf","game":"Team Fortress","app_id":440,"player_count":0,"max_players":24,"Bots":0,"server_type":"Dedicated","server_os":"Linux","password":true,"vac":true,"version":"7757534","steam_id":85568392924504277,"keywords":["cp","nocrits","nodmgspread","uncletopia"],"game_id":440,"stv_port":27056,"stv_name":"Uncletopia | Frankfurt | 5 | All Maps | STV","players":null},{"server_id":311,"name":"Uncletopia | Frankfurt | 6 | All Maps","name_short":"frk-6","host":"frk-1.de.uncletopia.com","port":27065,"enabled":true,"region":"eu","cc":"de","latitude":50.110924,"longitude":8.682127,"reserved":0,"last_update":"0001-01-01T00:00:00Z","name_a2s":"Uncletopia | Frankfurt | 6 | All Maps","protocol":17,"map":"pl_swiftwater_final1","folder":"tf","game":"Team Fortress","app_id":440,"player_count":24,"max_players":24,"Bots":0,"server_type":"Dedicated","server_os":"Linux","password":true,"vac":true,"version":"7757534","steam_id":85568392924504278,"keywords":["nocrits","nodmgspread","payload","uncletopia"],"game_id":440,"stv_port":27066,"stv_name":"Uncletopia | Frankfurt | 6 | All Maps | STV","players":[{"user_id":218,"name":"Uncle Moomin","steam_id":76561198011628656,"connected_time":293000000000,"state":"active","ping":83},{"user_id":208,"name":"schmick h_stt 0","steam_id":76561198039537958,"connected_time":828000000000,"state":"active","ping":60},{"user_id":11,"name":"Jackriz","steam_id":76561198024882111,"connected_time":15341000000000,"state":"active","ping":75},{"user_id":149,"name":"Providence","steam_id":76561198003920270,"connected_time":6474000000000,"state":"active","ping":82},{"user_id":180,"name":"Adib al-asfar","steam_id":76561198095691592,"connected_time":2824000000000,"state":"active","ping":59},{"user_id":154,"name":"KenPendersOfficial","steam_id":76561198065112022,"connected_time":6272000000000,"state":"active","ping":104},{"user_id":209,"name":"pepper","steam_id":76561198059782462,"connected_time":818000000000,"state":"active","ping":49},{"user_id":183,"name":"big poo","steam_id":76561199088284199,"connected_time":2651000000000,"state":"active","ping":60},{"user_id":196,"name":"Jim RocketFinger","steam_id":76561198011690583,"connected_time":1712000000000,"state":"active","ping":82},{"user_id":166,"name":"JaneDoe","steam_id":76561198067081506,"connected_time":4110000000000,"state":"active","ping":91},{"user_id":199,"name":"Burger King Dante","steam_id":76561198390314734,"connected_time":1588000000000,"state":"active","ping":60},{"user_id":191,"name":"Trollstoy","steam_id":76561198072017175,"connected_time":1987000000000,"state":"active","ping":97},{"user_id":216,"name":"Mr.Duck","steam_id":76561197983710667,"connected_time":693000000000,"state":"active","ping":77},{"user_id":219,"name":"The Shotgun","steam_id":76561198044008976,"connected_time":100000000000,"state":"active","ping":74},{"user_id":150,"name":"Creature from the piss drawer","steam_id":76561198055949151,"connected_time":6446000000000,"state":"active","ping":61},{"user_id":211,"name":"eduardo","steam_id":76561198014491925,"connected_time":796000000000,"state":"active","ping":81},{"user_id":213,"name":"Sorky","steam_id":76561198007502339,"connected_time":751000000000,"state":"active","ping":66},{"user_id":159,"name":"Gray","steam_id":76561198014465498,"connected_time":5555000000000,"state":"active","ping":52},{"user_id":188,"name":"Rex Z'Beq","steam_id":76561199300590000,"connected_time":2569000000000,"state":"active","ping":81},{"user_id":214,"name":"PSHH YOBA","steam_id":76561197999869136,"connected_time":721000000000,"state":"active","ping":76},{"user_id":204,"name":"Captain Scrumpe","steam_id":76561198032206577,"connected_time":1215000000000,"state":"active","ping":85},{"user_id":178,"name":"howabe","steam_id":76561197996486818,"connected_time":3268000000000,"state":"active","ping":52},{"user_id":217,"name":"___U_w_U___","steam_id":76561198246939740,"connected_time":556000000000,"state":"active","ping":86},{"user_id":160,"name":"Schizo' Cucumber","steam_id":76561198066341713,"connected_time":5392000000000,"state":"active","ping":51}]},{"server_id":23,"name":"Uncletopia | Frankfurt | 7 | Stopwatch Beta","name_short":"frk-7","host":"frk-1.de.uncletopia.com","port":27075,"enabled":true,"region":"eu","cc":"de","latitude":50.110924,"longitude":8.682127,"reserved":0,"last_update":"0001-01-01T00:00:00Z","name_a2s":"Uncletopia | Frankfurt | 7 | Stopwatch Beta","protocol":17,"map":"workshop/pl_summercoast_rc8e.ugc1761528829","folder":"tf","game":"Team Fortress","app_id":440,"player_count":0,"max_players":24,"Bots":0,"server_type":"Dedicated","server_os":"Linux","password":true,"vac":true,"version":"7757534","steam_id":85568392924742827,"keywords":["nocrits","nodmgspread","payload","uncletopia"],"game_id":440,"stv_port":27076,"stv_name":"Uncletopia | Frankfurt | 7 | Stopwatch Beta | STV","players":null},{"server_id":24,"name":"Uncletopia | Frankfurt | 8 | Community","name_short":"frk-8","host":"frk-1.de.uncletopia.com","port":27085,"enabled":true,"region":"eu","cc":"de","latitude":50.110924,"longitude":8.682127,"reserved":0,"last_update":"0001-01-01T00:00:00Z","name_a2s":"Uncletopia | Frankfurt | 8 | Community","protocol":17,"map":"workshop/cp_kalinka_rc6a.ugc1272700588","folder":"tf","game":"Team Fortress","app_id":440,"player_count":22,"max_players":24,"Bots":0,"server_type":"Dedicated","server_os":"Linux","password":true,"vac":true,"version":"7757534","steam_id":85568392924742828,"keywords":["cp","nocrits","nodmgspread","uncletopia"],"game_id":440,"stv_port":27086,"stv_name":"Uncletopia | Frankfurt | 8 | Community | STV","players":[{"user_id":176,"name":"flr","steam_id":76561198249327786,"connected_time":3139000000000,"state":"active","ping":60},{"user_id":206,"name":"Atzedeich","steam_id":76561198008282367,"connected_time":416000000000,"state":"active","ping":60},{"user_id":210,"name":"Irbynx","steam_id":76561197980421195,"connected_time":135000000000,"state":"active","ping":81},{"user_id":192,"name":"BUREK od Sira","steam_id":76561198092589818,"connected_time":1328000000000,"state":"active","ping":65},{"user_id":212,"name":"lucy","steam_id":76561198261852808,"connected_time":24000000000,"state":"active","ping":40},{"user_id":180,"name":"FruntiSoot","steam_id":76561198375919821,"connected_time":3076000000000,"state":"active","ping":78},{"user_id":140,"name":"zoinks!","steam_id":76561198068645362,"connected_time":4964000000000,"state":"active","ping":58},{"user_id":181,"name":"MajorKlebstoff","steam_id":76561198035489363,"connected_time":3006000000000,"state":"active","ping":49},{"user_id":185,"name":"twpsyn","steam_id":76561198057121917,"connected_time":2339000000000,"state":"active","ping":73},{"user_id":196,"name":"laser","steam_id":76561198036030697,"connected_time":1160000000000,"state":"active","ping":61},{"user_id":182,"name":"Yrjö Koskinen Yrjö-Koskinen","steam_id":76561198368181145,"connected_time":3000000000000,"state":"active","ping":77},{"user_id":211,"name":"Tofu'","steam_id":76561197984621343,"connected_time":96000000000,"state":"active","ping":59},{"user_id":117,"name":"TSx* Osa__PL","steam_id":76561198027016799,"connected_time":6122000000000,"state":"active","ping":74},{"user_id":118,"name":"TSx* Dante","steam_id":76561198139309331,"connected_time":6117000000000,"state":"active","ping":60},{"user_id":119,"name":"TSx* Naxer","steam_id":76561198011986779,"connected_time":6113000000000,"state":"active","ping":69},{"user_id":201,"name":"Gbus","steam_id":76561198072335838,"connected_time":896000000000,"state":"active","ping":60},{"user_id":193,"name":"asdqwer","steam_id":76561198058312220,"connected_time":1254000000000,"state":"active","ping":60},{"user_id":202,"name":"Lycanchik","steam_id":76561198137993238,"connected_time":860000000000,"state":"active","ping":182},{"user_id":203,"name":"BarbÀtrou","steam_id":76561199439141531,"connected_time":810000000000,"state":"active","ping":56},{"user_id":152,"name":"Tails8521","steam_id":76561198051747164,"connected_time":4632000000000,"state":"active","ping":67},{"user_id":208,"name":"ybot23","steam_id":76561199142521512,"connected_time":300000000000,"state":"active","ping":60},{"user_id":184,"name":"Bred Sheeran","steam_id":76561198045692016,"connected_time":2870000000000,"state":"active","ping":49}]},{"server_id":202,"name":"Uncletopia | Hong Kong | 1 | All Maps","name_short":"hgk-1","host":"hgk-1.hk.uncletopia.com","port":27015,"enabled":true,"region":"asia","cc":"hk","latitude":22.302711,"longitude":114.177216,"reserved":0,"last_update":"0001-01-01T00:00:00Z","name_a2s":"Uncletopia | Hong Kong | 1 | All Maps","protocol":17,"map":"koth_highpass","folder":"tf","game":"Team Fortress","app_id":440,"player_count":0,"max_players":24,"Bots":0,"server_type":"Dedicated","server_os":"Linux","password":true,"vac":true,"version":"7757534","steam_id":85568392924494504,"keywords":["cp","nocrits","nodmgspread","uncletopia"],"game_id":440,"stv_port":27016,"stv_name":"Uncletopia | Hong Kong | 1 | All Maps | STV","players":null},{"server_id":1,"name":"Uncletopia | Los Angeles | 1 | All Maps","name_short":"lax-1","host":"lax-1.us.uncletopia.com","port":27015,"enabled":true,"region":"us-west","cc":"us","latitude":33.94279,"longitude":-118.41004,"reserved":0,"last_update":"0001-01-01T00:00:00Z","name_a2s":"Uncletopia | Los Angeles | 1 | All Maps","protocol":17,"map":"koth_lakeside_final","folder":"tf","game":"Team Fortress","app_id":440,"player_count":1,"max_players":24,"Bots":0,"server_type":"Dedicated","server_os":"Linux","password":true,"vac":true,"version":"7757534","steam_id":85568392924469991,"keywords":["cp","nocrits","nodmgspread","uncletopia"],"game_id":440,"stv_port":27016,"stv_name":"Uncletopia | Los Angeles | 1 | All Maps | STV","players":[{"user_id":9,"name":"Trash compactor","steam_id":76561199383047989,"connected_time":0,"state":"spawning","ping":0}]},{"server_id":112,"name":"Uncletopia | Los Angeles | 2 | All Maps","name_short":"lax-2","host":"lax-1.us.uncletopia.com","port":27025,"enabled":true,"region":"us-west","cc":"us","latitude":33.94279,"longitude":-118.41004,"reserved":0,"last_update":"0001-01-01T00:00:00Z","name_a2s":"Uncletopia | Los Angeles | 2 | All Maps","protocol":17,"map":"pl_badwater","folder":"tf","game":"Team Fortress","app_id":440,"player_count":0,"max_players":24,"Bots":0,"server_type":"Dedicated","server_os":"Linux","password":true,"vac":true,"version":"7757534","steam_id":85568392924469992,"keywords":["nocrits","nodmgspread","payload","uncletopia"],"game_id":440,"stv_port":27026,"stv_name":"Uncletopia | Los Angeles | 2 | All Maps | STV","players":null},{"server_id":324,"name":"Uncletopia | Los Angeles | 3 | All Maps","name_short":"lax-3","host":"lax-1.us.uncletopia.com","port":27035,"enabled":true,"region":"us-west","cc":"us","latitude":33.94279,"longitude":-118.41004,"reserved":0,"last_update":"0001-01-01T00:00:00Z","name_a2s":"Uncletopia | Los Angeles | 3 | All Maps","protocol":17,"map":"pl_barnblitz","folder":"tf","game":"Team Fortress","app_id":440,"player_count":0,"max_players":24,"Bots":0,"server_type":"Dedicated","server_os":"Linux","password":true,"vac":true,"version":"7757534","steam_id":85568392924510198,"keywords":["nocrits","nodmgspread","payload","uncletopia"],"game_id":440,"stv_port":27036,"stv_name":"Uncletopia | Los Angeles | 3 | All Maps | STV","players":null},{"server_id":25,"name":"Uncletopia | Los Angeles | 4 | Stopwatch Beta","name_short":"lax-4","host":"lax-1.us.uncletopia.com","port":27045,"enabled":true,"region":"us-west","cc":"us","latitude":33.94279,"longitude":-118.41004,"reserved":0,"last_update":"0001-01-01T00:00:00Z","name_a2s":"Uncletopia | Los Angeles | 4 | Stopwatch Beta","protocol":17,"map":"pl_swiftwater_final1","folder":"tf","game":"Team Fortress","app_id":440,"player_count":0,"max_players":24,"Bots":0,"server_type":"Dedicated","server_os":"Linux","password":true,"vac":true,"version":"7757534","steam_id":85568392924510199,"keywords":["nocrits","nodmgspread","payload","uncletopia"],"game_id":440,"stv_port":27046,"stv_name":"Uncletopia | Los Angeles | 4 | Stopwatch Beta | STV","players":null},{"server_id":11,"name":"Uncletopia | London | 1 | All Maps","name_short":"lon-1","host":"lon-1.uk.uncletopia.com","port":27015,"enabled":true,"region":"eu","cc":"gb","latitude":51.509865,"longitude":-0.118092,"reserved":0,"last_update":"0001-01-01T00:00:00Z","name_a2s":"Uncletopia | London | 1 | All Maps","protocol":17,"map":"pl_swiftwater_final1","folder":"tf","game":"Team Fortress","app_id":440,"player_count":23,"max_players":24,"Bots":0,"server_type":"Dedicated","server_os":"Linux","password":true,"vac":true,"version":"7757534","steam_id":85568392924367362,"keywords":["nocrits","nodmgspread","payload","uncletopia"],"game_id":440,"stv_port":27016,"stv_name":"Uncletopia | London | 1 | All Maps | STV","players":[{"user_id":174,"name":"VK2124 :D","steam_id":76561198111130688,"connected_time":1329000000000,"state":"active","ping":58},{"user_id":117,"name":"dools18","steam_id":76561198880768062,"connected_time":5570000000000,"state":"active","ping":58},{"user_id":163,"name":"kaaos","steam_id":76561198016957692,"connected_time":2452000000000,"state":"active","ping":86},{"user_id":179,"name":"KnugenIV","steam_id":76561198127091993,"connected_time":890000000000,"state":"active","ping":61},{"user_id":183,"name":"Pogmanson","steam_id":76561198919953445,"connected_time":586000000000,"state":"active","ping":36},{"user_id":161,"name":"zhanko1804851","steam_id":76561198118407436,"connected_time":2578000000000,"state":"active","ping":45},{"user_id":148,"name":"Hive","steam_id":76561199480966681,"connected_time":4171000000000,"state":"active","ping":72},{"user_id":159,"name":"| ThePro | People are afraid","steam_id":76561198089330547,"connected_time":2766000000000,"state":"active","ping":57},{"user_id":190,"name":"Prome","steam_id":76561199050383942,"connected_time":343000000000,"state":"active","ping":58},{"user_id":193,"name":"Honest Tom's Discount Beef","steam_id":76561198029971392,"connected_time":31000000000,"state":"spawning","ping":56},{"user_id":114,"name":"♥ aura ♥","steam_id":76561198066258544,"connected_time":5989000000000,"state":"active","ping":60},{"user_id":162,"name":"Cheddar Goblin","steam_id":76561198007891376,"connected_time":2501000000000,"state":"active","ping":105},{"user_id":182,"name":"Qwerty","steam_id":76561198023525894,"connected_time":610000000000,"state":"active","ping":87},{"user_id":164,"name":"shub","steam_id":76561198354608294,"connected_time":2427000000000,"state":"active","ping":58},{"user_id":184,"name":"Cookies and Bakies","steam_id":76561198017442928,"connected_time":560000000000,"state":"active","ping":64},{"user_id":133,"name":"jimmy bob","steam_id":76561198319583692,"connected_time":4821000000000,"state":"active","ping":60},{"user_id":192,"name":"Fwebbie","steam_id":76561199006875621,"connected_time":129000000000,"state":"active","ping":59},{"user_id":186,"name":"CrazyLemon","steam_id":76561198193513153,"connected_time":420000000000,"state":"active","ping":60},{"user_id":181,"name":"slightly drunk","steam_id":76561199184873889,"connected_time":632000000000,"state":"active","ping":66},{"user_id":113,"name":"Topia","steam_id":76561198163571788,"connected_time":6123000000000,"state":"active","ping":95},{"user_id":155,"name":"Dr_Test","steam_id":76561198358915360,"connected_time":3063000000000,"state":"active","ping":67},{"user_id":170,"name":"pensami forte","steam_id":76561198066071855,"connected_time":2146000000000,"state":"active","ping":71},{"user_id":178,"name":"Lix","steam_id":76561198130779816,"connected_time":922000000000,"state":"active","ping":58}]},{"server_id":114,"name":"Uncletopia | London | 2 | All Maps","name_short":"lon-2","host":"lon-1.uk.uncletopia.com","port":27025,"enabled":true,"region":"eu","cc":"gb","latitude":51.509865,"longitude":-0.118092,"reserved":0,"last_update":"0001-01-01T00:00:00Z","name_a2s":"Uncletopia | London | 2 | All Maps","protocol":17,"map":"cp_snakewater_final1","folder":"tf","game":"Team Fortress","app_id":440,"player_count":23,"max_players":24,"Bots":0,"server_type":"Dedicated","server_os":"Linux","password":true,"vac":true,"version":"7757534","steam_id":85568392924470941,"keywords":["cp","nocrits","nodmgspread","uncletopia"],"game_id":440,"stv_port":27026,"stv_name":"Uncletopia | London | 2 | All Maps | STV","players":[{"user_id":332,"name":"gary1239871","steam_id":76561199262295365,"connected_time":3118000000000,"state":"active","ping":51},{"user_id":369,"name":"900T","steam_id":76561198398456732,"connected_time":1593000000000,"state":"active","ping":68},{"user_id":370,"name":"ThatTFguy","steam_id":76561198056794321,"connected_time":1577000000000,"state":"active","ping":59},{"user_id":371,"name":"G(RIZZ)LY","steam_id":76561197973234203,"connected_time":1544000000000,"state":"active","ping":55},{"user_id":372,"name":"CEO of Pen Island","steam_id":76561198037212191,"connected_time":1537000000000,"state":"active","ping":69},{"user_id":376,"name":"gameboy advance secret code","steam_id":76561198183999845,"connected_time":1335000000000,"state":"active","ping":52},{"user_id":365,"name":"klimanso","steam_id":76561199151084760,"connected_time":2001000000000,"state":"active","ping":98},{"user_id":381,"name":"Punchy","steam_id":76561197961020896,"connected_time":617000000000,"state":"active","ping":62},{"user_id":304,"name":"Möwtaü","steam_id":76561197979148699,"connected_time":4220000000000,"state":"active","ping":55},{"user_id":373,"name":"Perämiehenä","steam_id":76561197968945306,"connected_time":1491000000000,"state":"active","ping":79},{"user_id":382,"name":"Dr. Uberschwein","steam_id":76561198111367431,"connected_time":435000000000,"state":"active","ping":60},{"user_id":383,"name":"Milosz52","steam_id":76561199060940204,"connected_time":323000000000,"state":"active","ping":81},{"user_id":337,"name":"Gnarville","steam_id":76561198006373329,"connected_time":2701000000000,"state":"active","ping":49},{"user_id":335,"name":"Stigurna","steam_id":76561198063906822,"connected_time":2825000000000,"state":"active","ping":86},{"user_id":321,"name":"Adolf Potter","steam_id":76561198120554557,"connected_time":3725000000000,"state":"active","ping":60},{"user_id":384,"name":"Nemá Ráda Ivana","steam_id":76561198200187859,"connected_time":276000000000,"state":"active","ping":71},{"user_id":362,"name":"After8","steam_id":76561198090750865,"connected_time":2075000000000,"state":"active","ping":70},{"user_id":223,"name":"finest fucker in dc","steam_id":76561199042470246,"connected_time":8688000000000,"state":"active","ping":60},{"user_id":386,"name":"Nyoom","steam_id":76561198054585002,"connected_time":87000000000,"state":"active","ping":46},{"user_id":324,"name":"lulu","steam_id":76561199147764133,"connected_time":3641000000000,"state":"active","ping":75},{"user_id":385,"name":"keri","steam_id":76561199066513442,"connected_time":271000000000,"state":"active","ping":65},{"user_id":368,"name":"Supershy","steam_id":76561198110223409,"connected_time":1717000000000,"state":"active","ping":110},{"user_id":375,"name":"Cagnus Marlsen","steam_id":76561198077859721,"connected_time":1455000000000,"state":"active","ping":68}]},{"server_id":320,"name":"Uncletopia | London | 3 | All Maps","name_short":"lon-3","host":"lon-1.uk.uncletopia.com","port":27035,"enabled":true,"region":"eu","cc":"gb","latitude":51.509865,"longitude":-0.118092,"reserved":0,"last_update":"0001-01-01T00:00:00Z","name_a2s":"Uncletopia | London | 3 | All Maps","protocol":17,"map":"pl_barnblitz","folder":"tf","game":"Team Fortress","app_id":440,"player_count":24,"max_players":24,"Bots":0,"server_type":"Dedicated","server_os":"Linux","password":true,"vac":true,"version":"7757534","steam_id":85568392924510192,"keywords":["nocrits","nodmgspread","payload","uncletopia"],"game_id":440,"stv_port":27036,"stv_name":"Uncletopia | London | 3 | All Maps | STV","players":[{"user_id":671,"name":"Stańczyk","steam_id":76561197998906563,"connected_time":808000000000,"state":"active","ping":44},{"user_id":596,"name":"Demoflower","steam_id":76561198827103130,"connected_time":5534000000000,"state":"active","ping":45},{"user_id":602,"name":"Dastardly","steam_id":76561198028351509,"connected_time":5382000000000,"state":"active","ping":69},{"user_id":543,"name":"dnljns","steam_id":76561198085091752,"connected_time":8622000000000,"state":"active","ping":91},{"user_id":656,"name":"Lucoa Enjoyer","steam_id":76561198842622419,"connected_time":2481000000000,"state":"active","ping":91},{"user_id":669,"name":"Soerlssoelssöen","steam_id":76561197993060585,"connected_time":888000000000,"state":"active","ping":83},{"user_id":586,"name":"🥑 Avocado 🥑 HM","steam_id":76561199007231261,"connected_time":5993000000000,"state":"active","ping":70},{"user_id":385,"name":"Dr. Mike","steam_id":76561197991205793,"connected_time":19043000000000,"state":"active","ping":76},{"user_id":663,"name":"Doohickey mechanic","steam_id":76561198146180114,"connected_time":1729000000000,"state":"active","ping":89},{"user_id":662,"name":"TheJudgeShot","steam_id":76561198105060723,"connected_time":1732000000000,"state":"active","ping":58},{"user_id":665,"name":"The Death I Deservioli","steam_id":76561198320506848,"connected_time":1582000000000,"state":"active","ping":42},{"user_id":568,"name":"Ape","steam_id":76561198322703872,"connected_time":7184000000000,"state":"active","ping":68},{"user_id":666,"name":"soofoul","steam_id":76561198285862099,"connected_time":1530000000000,"state":"active","ping":32},{"user_id":589,"name":"s a i","steam_id":76561197970379754,"connected_time":5869000000000,"state":"active","ping":62},{"user_id":673,"name":"cuntsman snipper man","steam_id":76561198025916703,"connected_time":766000000000,"state":"active","ping":67},{"user_id":674,"name":"juni","steam_id":76561198036504214,"connected_time":748000000000,"state":"active","ping":56},{"user_id":675,"name":"FoOzTV","steam_id":76561197998636728,"connected_time":738000000000,"state":"active","ping":70},{"user_id":668,"name":"Mannequin","steam_id":76561198128833974,"connected_time":1088000000000,"state":"active","ping":52},{"user_id":680,"name":"little goblin creature","steam_id":76561198208045069,"connected_time":618000000000,"state":"active","ping":46},{"user_id":682,"name":"Daenny","steam_id":76561198053088822,"connected_time":115000000000,"state":"active","ping":51},{"user_id":681,"name":"Femboy Gaming","steam_id":76561199263815798,"connected_time":156000000000,"state":"active","ping":61},{"user_id":677,"name":"Psycho","steam_id":76561198084918608,"connected_time":730000000000,"state":"active","ping":63},{"user_id":667,"name":"Boltingstorm","steam_id":76561199068433052,"connected_time":1525000000000,"state":"active","ping":70},{"user_id":640,"name":"Sylvanas","steam_id":76561198154904165,"connected_time":3731000000000,"state":"active","ping":118}]},{"server_id":321,"name":"Uncletopia | London | 4 | All Maps","name_short":"lon-4","host":"lon-1.uk.uncletopia.com","port":27045,"enabled":true,"region":"eu","cc":"gb","latitude":51.509865,"longitude":-0.118092,"reserved":0,"last_update":"0001-01-01T00:00:00Z","name_a2s":"Uncletopia | London | 4 | All Maps","protocol":17,"map":"cp_altitude","folder":"tf","game":"Team Fortress","app_id":440,"player_count":0,"max_players":24,"Bots":0,"server_type":"Dedicated","server_os":"Linux","password":true,"vac":true,"version":"7757534","steam_id":85568392924510193,"keywords":["cp","nocrits","nodmgspread","uncletopia"],"game_id":440,"stv_port":27046,"stv_name":"Uncletopia | London | 4 | All Maps | STV","players":null},{"server_id":21,"name":"Uncletopia | London | 5 | All Maps","name_short":"lon-5","host":"lon-1.uk.uncletopia.com","port":27055,"enabled":true,"region":"eu","cc":"gb","latitude":51.509865,"longitude":-0.118092,"reserved":0,"last_update":"0001-01-01T00:00:00Z","name_a2s":"Uncletopia | London | 5 | All Maps","protocol":17,"map":"pl_badwater","folder":"tf","game":"Team Fortress","app_id":440,"player_count":24,"max_players":24,"Bots":0,"server_type":"Dedicated","server_os":"Linux","password":true,"vac":true,"version":"7757534","steam_id":85568392924742829,"keywords":["nocrits","nodmgspread","payload","uncletopia"],"game_id":440,"stv_port":27056,"stv_name":"Uncletopia | London | 5 | All Maps | STV","players":[{"user_id":388,"name":"す LightFlight し","steam_id":76561198079007530,"connected_time":859000000000,"state":"active","ping":54},{"user_id":355,"name":"ijustsmokeandcry","steam_id":76561198044189114,"connected_time":3453000000000,"state":"active","ping":63},{"user_id":389,"name":"axl#pizdaaim","steam_id":76561198991661832,"connected_time":836000000000,"state":"active","ping":69},{"user_id":394,"name":"mud","steam_id":76561198141497461,"connected_time":607000000000,"state":"active","ping":71},{"user_id":387,"name":"Jarate Man","steam_id":76561198122801176,"connected_time":861000000000,"state":"active","ping":56},{"user_id":393,"name":"LOBZIK","steam_id":76561198114830120,"connected_time":624000000000,"state":"active","ping":81},{"user_id":321,"name":"Dolcelatte","steam_id":76561198038501770,"connected_time":4874000000000,"state":"active","ping":66},{"user_id":360,"name":"MatPatt","steam_id":76561198970762992,"connected_time":3213000000000,"state":"active","ping":80},{"user_id":374,"name":"Chambersite","steam_id":76561198197022399,"connected_time":1980000000000,"state":"active","ping":76},{"user_id":396,"name":"Kiif","steam_id":76561198175271494,"connected_time":396000000000,"state":"active","ping":89},{"user_id":384,"name":":\u003ezem","steam_id":76561198864329072,"connected_time":1405000000000,"state":"active","ping":95},{"user_id":382,"name":"NeonPixel","steam_id":76561198165901066,"connected_time":1851000000000,"state":"active","ping":60},{"user_id":356,"name":"Dr. Feelgood","steam_id":76561199173885103,"connected_time":3449000000000,"state":"active","ping":139},{"user_id":395,"name":"microwavedelights","steam_id":76561199260959455,"connected_time":590000000000,"state":"active","ping":124},{"user_id":397,"name":"r06u3","steam_id":76561198254099253,"connected_time":391000000000,"state":"active","ping":178},{"user_id":398,"name":"twitch.tv/red_naxela","steam_id":76561197998803950,"connected_time":10000000000,"state":"active","ping":73},{"user_id":378,"name":"Lionball_3","steam_id":76561199084049796,"connected_time":1924000000000,"state":"active","ping":85},{"user_id":350,"name":"MILKY","steam_id":76561199261620682,"connected_time":3684000000000,"state":"active","ping":79},{"user_id":366,"name":"GEP Gun","steam_id":76561197981821003,"connected_time":2925000000000,"state":"active","ping":59},{"user_id":358,"name":"G/3","steam_id":76561198234844188,"connected_time":3332000000000,"state":"active","ping":53},{"user_id":391,"name":"UltraCoolKiddo","steam_id":76561198102025290,"connected_time":707000000000,"state":"active","ping":59},{"user_id":379,"name":"Mean Green Peen","steam_id":76561198228455736,"connected_time":1919000000000,"state":"active","ping":51},{"user_id":357,"name":"pootis sentry","steam_id":76561199225363633,"connected_time":3352000000000,"state":"active","ping":101},{"user_id":381,"name":"A local penguin","steam_id":76561198822076030,"connected_time":1907000000000,"state":"active","ping":66}]},{"server_id":22,"name":"Uncletopia | London | 6 | All Maps","name_short":"lon-6","host":"lon-1.uk.uncletopia.com","port":27065,"enabled":true,"region":"eu","cc":"gb","latitude":51.509865,"longitude":-0.118092,"reserved":0,"last_update":"0001-01-01T00:00:00Z","name_a2s":"Uncletopia | London | 6 | All Maps","protocol":17,"map":"plr_hightower","folder":"tf","game":"Team Fortress","app_id":440,"player_count":19,"max_players":24,"Bots":0,"server_type":"Dedicated","server_os":"Linux","password":true,"vac":true,"version":"7757534","steam_id":85568392924742830,"keywords":["nocrits","nodmgspread","payload","uncletopia"],"game_id":440,"stv_port":27066,"stv_name":"Uncletopia | London | 6 | All Maps | STV","players":[{"user_id":47,"name":"The Potato Romancer","steam_id":76561198204197648,"connected_time":298000000000,"state":"active","ping":180},{"user_id":38,"name":"Round King","steam_id":76561198273185290,"connected_time":1029000000000,"state":"active","ping":170},{"user_id":36,"name":"morgan","steam_id":76561198322124999,"connected_time":1616000000000,"state":"active","ping":83},{"user_id":33,"name":"Man With A Pan","steam_id":76561199138916276,"connected_time":2163000000000,"state":"active","ping":58},{"user_id":34,"name":"RLCrazyCat3","steam_id":76561197983757878,"connected_time":1865000000000,"state":"active","ping":61},{"user_id":46,"name":"piss man (real)","steam_id":76561198839843428,"connected_time":480000000000,"state":"active","ping":114},{"user_id":43,"name":"I am clinically insane","steam_id":76561198347336086,"connected_time":602000000000,"state":"active","ping":59},{"user_id":41,"name":"trolley","steam_id":76561199089765404,"connected_time":887000000000,"state":"active","ping":59},{"user_id":42,"name":"Mardik","steam_id":76561198037669302,"connected_time":831000000000,"state":"active","ping":115},{"user_id":48,"name":"Fogleg Hoghorn","steam_id":76561198024690595,"connected_time":221000000000,"state":"active","ping":155},{"user_id":49,"name":"Big Dick Goth GF","steam_id":76561198033152376,"connected_time":195000000000,"state":"active","ping":157},{"user_id":50,"name":"goz","steam_id":76561198155229347,"connected_time":185000000000,"state":"active","ping":30},{"user_id":51,"name":"Ablativus","steam_id":76561198025698470,"connected_time":176000000000,"state":"active","ping":75},{"user_id":52,"name":"Alexey V","steam_id":76561199072403850,"connected_time":141000000000,"state":"active","ping":336},{"user_id":53,"name":"OneSolidJunky","steam_id":76561199086682942,"connected_time":98000000000,"state":"active","ping":100},{"user_id":54,"name":"Ljubansky","steam_id":76561198012948059,"connected_time":89000000000,"state":"active","ping":62},{"user_id":55,"name":"Clark","steam_id":76561198120498831,"connected_time":73000000000,"state":"active","ping":57},{"user_id":56,"name":"Maślak ♪","steam_id":76561198079075744,"connected_time":51000000000,"state":"active","ping":63},{"user_id":58,"name":"padillacampos","steam_id":76561198161923970,"connected_time":11000000000,"state":"spawning","ping":108}]},{"server_id":40,"name":"Uncletopia | London | 7 | No Payload","name_short":"lon-7","host":"lon-1.uk.uncletopia.com","port":27075,"enabled":true,"region":"eu","cc":"gb","latitude":51.509865,"longitude":-0.118092,"reserved":0,"last_update":"0001-01-01T00:00:00Z","name_a2s":"Uncletopia | London | 7 | No Payload","protocol":17,"map":"cp_egypt_final","folder":"tf","game":"Team Fortress","app_id":440,"player_count":0,"max_players":24,"Bots":0,"server_type":"Dedicated","server_os":"Linux","password":true,"vac":true,"version":"7757534","steam_id":85568392924964314,"keywords":["cp","nocrits","nodmgspread","uncletopia"],"game_id":440,"stv_port":27076,"stv_name":"Uncletopia | London | 7 | No Payload | STV","players":null},{"server_id":41,"name":"Uncletopia | London | 8 | Community","name_short":"lon-8","host":"lon-1.uk.uncletopia.com","port":27085,"enabled":true,"region":"eu","cc":"gb","latitude":51.509865,"longitude":-0.118092,"reserved":0,"last_update":"0001-01-01T00:00:00Z","name_a2s":"Uncletopia | London | 8 | Community","protocol":17,"map":"pl_barnblitz","folder":"tf","game":"Team Fortress","app_id":440,"player_count":0,"max_players":24,"Bots":0,"server_type":"Dedicated","server_os":"Linux","password":true,"vac":true,"version":"7757534","steam_id":85568392924964315,"keywords":["nocrits","nodmgspread","payload","uncletopia"],"game_id":440,"stv_port":27086,"stv_name":"Uncletopia | London | 8 | Community | STV","players":null},{"server_id":300,"name":"Uncletopia | Montréal | 1 | All Maps","name_short":"mtl-1","host":"mtl-1.ca.uncletopia.com","port":27015,"enabled":true,"region":"us-east","cc":"ca","latitude":45.50889,"longitude":-73.56167,"reserved":0,"last_update":"0001-01-01T00:00:00Z","name_a2s":"Uncletopia | Montréal | 1 | All Maps","protocol":17,"map":"cp_process_final","folder":"tf","game":"Team Fortress","app_id":440,"player_count":0,"max_players":24,"Bots":0,"server_type":"Dedicated","server_os":"Linux","password":true,"vac":true,"version":"7757534","steam_id":85568392924500087,"keywords":["cp","nocrits","nodmgspread","uncletopia"],"game_id":440,"stv_port":27016,"stv_name":"Uncletopia | Montréal | 1 | All Maps | STV","players":null},{"server_id":301,"name":"Uncletopia | Montréal | 2 | All Maps","name_short":"mtl-2","host":"mtl-1.ca.uncletopia.com","port":27025,"enabled":true,"region":"us-east","cc":"ca","latitude":45.50889,"longitude":-73.56167,"reserved":0,"last_update":"0001-01-01T00:00:00Z","name_a2s":"Uncletopia | Montréal | 2 | All Maps","protocol":17,"map":"cp_altitude","folder":"tf","game":"Team Fortress","app_id":440,"player_count":0,"max_players":24,"Bots":0,"server_type":"Dedicated","server_os":"Linux","password":true,"vac":true,"version":"7757534","steam_id":85568392924500088,"keywords":["cp","nocrits","nodmgspread","uncletopia"],"game_id":440,"stv_port":27026,"stv_name":"Uncletopia | Montréal | 2 | All Maps | STV","players":null},{"server_id":302,"name":"Uncletopia | Montréal | 3 | All Maps","name_short":"mtl-3","host":"mtl-1.ca.uncletopia.com","port":27035,"enabled":true,"region":"us-east","cc":"ca","latitude":45.50889,"longitude":-73.56167,"reserved":0,"last_update":"0001-01-01T00:00:00Z","name_a2s":"Uncletopia | Montréal | 3 | All Maps","protocol":17,"map":"pl_swiftwater_final1","folder":"tf","game":"Team Fortress","app_id":440,"player_count":0,"max_players":24,"Bots":0,"server_type":"Dedicated","server_os":"Linux","password":true,"vac":true,"version":"7757534","steam_id":85568392924500089,"keywords":["nocrits","nodmgspread","payload","uncletopia"],"game_id":440,"stv_port":27036,"stv_name":"Uncletopia | Montréal | 3 | All Maps | STV","players":null},{"server_id":303,"name":"Uncletopia | Montréal | 4 | No Payload","name_short":"mtl-4","host":"mtl-1.ca.uncletopia.com","port":27045,"enabled":true,"region":"us-east","cc":"ca","latitude":45.50889,"longitude":-73.56167,"reserved":0,"last_update":"0001-01-01T00:00:00Z","name_a2s":"Uncletopia | Montréal | 4 | No Payload","protocol":17,"map":"ctf_landfall","folder":"tf","game":"Team Fortress","app_id":440,"player_count":0,"max_players":24,"Bots":0,"server_type":"Dedicated","server_os":"Linux","password":true,"vac":true,"version":"7757534","steam_id":85568392924500090,"keywords":["ctf","nocrits","nodmgspread","uncletopia"],"game_id":440,"stv_port":27046,"stv_name":"Uncletopia | Montréal | 4 | No Payload | STV","players":null},{"server_id":13,"name":"Uncletopia | New York City | 1 | All Maps","name_short":"nyc-1","host":"nyc-1.us.uncletopia.com","port":27015,"enabled":true,"region":"us-east","cc":"us","latitude":40.73061,"longitude":-73.93524,"reserved":0,"last_update":"0001-01-01T00:00:00Z","name_a2s":"Uncletopia | New York City | 1 | All Maps","protocol":17,"map":"cp_mountainlab","folder":"tf","game":"Team Fortress","app_id":440,"player_count":24,"max_players":24,"Bots":0,"server_type":"Dedicated","server_os":"Linux","password":true,"vac":true,"version":"7757534","steam_id":85568392924469993,"keywords":["cp","nocrits","nodmgspread","uncletopia"],"game_id":440,"stv_port":27016,"stv_name":"Uncletopia | New York City | 1 | All Maps | STV","players":[{"user_id":106,"name":"ArrisTheRound","steam_id":76561198070378360,"connected_time":2976000000000,"state":"active","ping":51},{"user_id":141,"name":"Za Zombie","steam_id":76561198055545262,"connected_time":271000000000,"state":"active","ping":88},{"user_id":120,"name":"BasicPeaches","steam_id":76561198190890150,"connected_time":1760000000000,"state":"active","ping":62},{"user_id":138,"name":"Official© Centrum™ Gummies","steam_id":76561198985929996,"connected_time":657000000000,"state":"active","ping":45},{"user_id":137,"name":"Super D Duper","steam_id":76561198078203677,"connected_time":820000000000,"state":"active","ping":53},{"user_id":39,"name":"^_x","steam_id":76561198986849199,"connected_time":7465000000000,"state":"active","ping":133},{"user_id":92,"name":"Brown_Dream","steam_id":76561198975766145,"connected_time":4226000000000,"state":"active","ping":71},{"user_id":109,"name":"Bl4ckDmon","steam_id":76561198099591549,"connected_time":2923000000000,"state":"active","ping":54},{"user_id":128,"name":"PixelboioYT","steam_id":76561199090703819,"connected_time":1124000000000,"state":"active","ping":65},{"user_id":131,"name":"917-258-3609","steam_id":76561198174436329,"connected_time":999000000000,"state":"active","ping":62},{"user_id":142,"name":"Bone marrow","steam_id":76561198400912361,"connected_time":138000000000,"state":"active","ping":146},{"user_id":101,"name":"Chin","steam_id":76561198247426906,"connected_time":3766000000000,"state":"active","ping":63},{"user_id":132,"name":"Gamer Girl Meth","steam_id":76561199276295259,"connected_time":998000000000,"state":"active","ping":70},{"user_id":133,"name":"Greg","steam_id":76561198155234670,"connected_time":979000000000,"state":"active","ping":80},{"user_id":123,"name":"Flak Maniak","steam_id":76561198005653808,"connected_time":1741000000000,"state":"active","ping":55},{"user_id":144,"name":"scrotal recall","steam_id":76561198135945598,"connected_time":31000000000,"state":"spawning","ping":114},{"user_id":143,"name":"Garfield","steam_id":76561198447358116,"connected_time":136000000000,"state":"active","ping":51},{"user_id":105,"name":"Iman","steam_id":76561198063677510,"connected_time":2986000000000,"state":"active","ping":59},{"user_id":114,"name":"Nic0","steam_id":76561198305690218,"connected_time":2368000000000,"state":"active","ping":57},{"user_id":97,"name":"orcluvr69","steam_id":76561198068712028,"connected_time":3952000000000,"state":"active","ping":64},{"user_id":125,"name":"Ziath","steam_id":76561198094009164,"connected_time":1139000000000,"state":"active","ping":50},{"user_id":139,"name":"Bother","steam_id":76561198336750909,"connected_time":630000000000,"state":"active","ping":36},{"user_id":119,"name":"fleura","steam_id":76561199403319171,"connected_time":2144000000000,"state":"active","ping":121},{"user_id":135,"name":"Wilhelmktx","steam_id":76561198158102295,"connected_time":955000000000,"state":"active","ping":60}]},{"server_id":14,"name":"Uncletopia | New York City | 2 | All Maps","name_short":"nyc-2","host":"nyc-1.us.uncletopia.com","port":27025,"enabled":true,"region":"us-east","cc":"us","latitude":40.73061,"longitude":-73.93524,"reserved":0,"last_update":"0001-01-01T00:00:00Z","name_a2s":"Uncletopia | New York City | 2 | All Maps","protocol":17,"map":"pl_badwater","folder":"tf","game":"Team Fortress","app_id":440,"player_count":0,"max_players":24,"Bots":0,"server_type":"Dedicated","server_os":"Linux","password":true,"vac":true,"version":"7757534","steam_id":85568392924469994,"keywords":["nocrits","nodmgspread","payload","uncletopia"],"game_id":440,"stv_port":27026,"stv_name":"Uncletopia | New York City | 2 | All Maps | STV","players":null},{"server_id":15,"name":"Uncletopia | New York City | 3 | Stopwatch Beta","name_short":"nyc-3","host":"nyc-1.us.uncletopia.com","port":27035,"enabled":true,"region":"us-east","cc":"us","latitude":40.73061,"longitude":-73.93524,"reserved":0,"last_update":"0001-01-01T00:00:00Z","name_a2s":"Uncletopia | New York City | 3 | Stopwatch Beta","protocol":17,"map":"pl_upward","folder":"tf","game":"Team Fortress","app_id":440,"player_count":0,"max_players":24,"Bots":0,"server_type":"Dedicated","server_os":"Linux","password":true,"vac":true,"version":"7757534","steam_id":85568392924742820,"keywords":["nocrits","nodmgspread","payload","uncletopia"],"game_id":440,"stv_port":27036,"stv_name":"Uncletopia | New York City | 3 | Stopwatch Beta | STV","players":null},{"server_id":16,"name":"Uncletopia | New York City | 4 | Community","name_short":"nyc-4","host":"nyc-1.us.uncletopia.com","port":27045,"enabled":true,"region":"us-east","cc":"us","latitude":40.73061,"longitude":-73.93524,"reserved":0,"last_update":"0001-01-01T00:00:00Z","name_a2s":"Uncletopia | New York City | 4 | Community","protocol":17,"map":"pl_swiftwater_final1","folder":"tf","game":"Team Fortress","app_id":440,"player_count":0,"max_players":24,"Bots":0,"server_type":"Dedicated","server_os":"Linux","password":true,"vac":true,"version":"7757534","steam_id":85568392924742821,"keywords":["nocrits","nodmgspread","payload","uncletopia"],"game_id":440,"stv_port":27046,"stv_name":"Uncletopia | New York City | 4 | Community | STV","players":null},{"server_id":142,"name":"Uncletopia | São Paulo | 1 | All Maps","name_short":"sao-1","host":"sao-1.br.uncletopia.com","port":27015,"enabled":true,"region":"sa","cc":"br","latitude":-23.533773,"longitude":-46.62529,"reserved":0,"last_update":"0001-01-01T00:00:00Z","name_a2s":"Uncletopia | São Paulo | 1 | All Maps","protocol":17,"map":"koth_viaduct","folder":"tf","game":"Team Fortress","app_id":440,"player_count":0,"max_players":24,"Bots":0,"server_type":"Dedicated","server_os":"Linux","password":true,"vac":true,"version":"7757534","steam_id":85568392924469996,"keywords":["cp","nocrits","nodmgspread","uncletopia"],"game_id":440,"stv_port":27016,"stv_name":"Uncletopia | São Paulo | 1 | All Maps | STV","players":null},{"server_id":143,"name":"Uncletopia | São Paulo | 2 | All Maps","name_short":"sao-2","host":"sao-2.br.uncletopia.com","port":27015,"enabled":true,"region":"sa","cc":"br","latitude":-23.533773,"longitude":-46.62529,"reserved":0,"last_update":"0001-01-01T00:00:00Z","name_a2s":"Uncletopia | São Paulo | 2 | All Maps","protocol":17,"map":"pl_snowycoast","folder":"tf","game":"Team Fortress","app_id":440,"player_count":0,"max_players":24,"Bots":0,"server_type":"Dedicated","server_os":"Linux","password":true,"vac":true,"version":"7757534","steam_id":85568392924485349,"keywords":["nocrits","nodmgspread","payload","uncletopia"],"game_id":440,"stv_port":27016,"stv_name":"Uncletopia | São Paulo | 2 | All Maps | STV","players":null},{"server_id":7,"name":"Uncletopia | Seattle | 1 | All Maps","name_short":"sea-1","host":"sea-1.us.uncletopia.com","port":27015,"enabled":true,"region":"us-west","cc":"us","latitude":47.608013,"longitude":-122.33517,"reserved":0,"last_update":"0001-01-01T00:00:00Z","name_a2s":"Uncletopia | Seattle | 1 | All Maps","protocol":17,"map":"pl_badwater","folder":"tf","game":"Team Fortress","app_id":440,"player_count":24,"max_players":24,"Bots":0,"server_type":"Dedicated","server_os":"Linux","password":true,"vac":true,"version":"7757534","steam_id":85568392924469997,"keywords":["nocrits","nodmgspread","payload","uncletopia"],"game_id":440,"stv_port":27016,"stv_name":"Uncletopia | Seattle | 1 | All Maps | STV","players":[{"user_id":11,"name":"SibilantSerpent","steam_id":76561198154488754,"connected_time":7927000000000,"state":"active","ping":51},{"user_id":12,"name":"dust | she/it","steam_id":76561198045218909,"connected_time":7627000000000,"state":"active","ping":39},{"user_id":45,"name":"ribbonborn","steam_id":76561198001195423,"connected_time":4050000000000,"state":"active","ping":111},{"user_id":81,"name":"Klone","steam_id":76561198854485605,"connected_time":418000000000,"state":"active","ping":108},{"user_id":64,"name":"oske","steam_id":76561198131526809,"connected_time":1887000000000,"state":"active","ping":65},{"user_id":61,"name":"Polybius","steam_id":76561198072173048,"connected_time":2001000000000,"state":"active","ping":57},{"user_id":59,"name":"soda","steam_id":76561198105924953,"connected_time":2007000000000,"state":"active","ping":75},{"user_id":87,"name":"Apprentice Pybro","steam_id":76561197996353534,"connected_time":9000000000,"state":"spawning","ping":74},{"user_id":65,"name":"Chiki","steam_id":76561198063590320,"connected_time":1780000000000,"state":"active","ping":111},{"user_id":73,"name":"Maid 'n' China","steam_id":76561198423392976,"connected_time":1535000000000,"state":"active","ping":65},{"user_id":26,"name":"CasemanTheBlondeBear","steam_id":76561198144862404,"connected_time":4707000000000,"state":"active","ping":51},{"user_id":67,"name":"PBxJAY","steam_id":76561198402471788,"connected_time":1703000000000,"state":"active","ping":91},{"user_id":28,"name":"Mignyanne :3","steam_id":76561198048754056,"connected_time":4587000000000,"state":"active","ping":60},{"user_id":78,"name":"Drapph","steam_id":76561199384213314,"connected_time":1200000000000,"state":"active","ping":188},{"user_id":86,"name":"toes","steam_id":76561198221151676,"connected_time":166000000000,"state":"active","ping":51},{"user_id":75,"name":"cunt","steam_id":76561198118644686,"connected_time":1446000000000,"state":"active","ping":127},{"user_id":49,"name":"my money washed like george","steam_id":76561198115458307,"connected_time":3739000000000,"state":"active","ping":75},{"user_id":85,"name":"They/Them Rattussy","steam_id":76561198238186628,"connected_time":235000000000,"state":"active","ping":76},{"user_id":71,"name":"Walmus","steam_id":76561198111416393,"connected_time":1588000000000,"state":"active","ping":100},{"user_id":35,"name":"Flesh Eating Turtle","steam_id":76561198116742139,"connected_time":4399000000000,"state":"active","ping":57},{"user_id":80,"name":"KellyKapoor","steam_id":76561198040828123,"connected_time":790000000000,"state":"active","ping":47},{"user_id":79,"name":"Maybe","steam_id":76561198268304564,"connected_time":1164000000000,"state":"active","ping":126},{"user_id":82,"name":"SpinetinglingToast","steam_id":76561198099470670,"connected_time":246000000000,"state":"active","ping":122},{"user_id":84,"name":"lavender","steam_id":76561199069518286,"connected_time":244000000000,"state":"active","ping":68}]},{"server_id":119,"name":"Uncletopia | Seattle | 2 | All Maps","name_short":"sea-2","host":"sea-1.us.uncletopia.com","port":27025,"enabled":true,"region":"us-west","cc":"us","latitude":47.608013,"longitude":-122.33517,"reserved":0,"last_update":"0001-01-01T00:00:00Z","name_a2s":"Uncletopia | Seattle | 2 | All Maps","protocol":17,"map":"pl_badwater","folder":"tf","game":"Team Fortress","app_id":440,"player_count":0,"max_players":24,"Bots":0,"server_type":"Dedicated","server_os":"Linux","password":true,"vac":true,"version":"7757534","steam_id":85568392924469998,"keywords":["nocrits","nodmgspread","payload","uncletopia"],"game_id":440,"stv_port":27026,"stv_name":"Uncletopia | Seattle | 2 | All Maps | STV","players":null},{"server_id":406,"name":"Uncletopia | Seattle | 3 | Stopwatch Beta","name_short":"sea-3","host":"sea-1.us.uncletopia.com","port":27035,"enabled":true,"region":"us-west","cc":"us","latitude":47.608013,"longitude":-122.33517,"reserved":0,"last_update":"0001-01-01T00:00:00Z","name_a2s":"Uncletopia | Seattle | 3 | Stopwatch Beta","protocol":17,"map":"cp_dustbowl","folder":"tf","game":"Team Fortress","app_id":440,"player_count":0,"max_players":24,"Bots":0,"server_type":"Dedicated","server_os":"Linux","password":true,"vac":true,"version":"7757534","steam_id":85568392924515217,"keywords":["cp","nocrits","nodmgspread","uncletopia"],"game_id":440,"stv_port":27036,"stv_name":"Uncletopia | Seattle | 3 | Stopwatch Beta | STV","players":null},{"server_id":17,"name":"Uncletopia | San Francisco | 1 | All Maps","name_short":"sfo-1","host":"sfo-1.us.uncletopia.com","port":27015,"enabled":true,"region":"us-west","cc":"us","latitude":37.77397,"longitude":-122.4313,"reserved":0,"last_update":"0001-01-01T00:00:00Z","name_a2s":"Uncletopia | San Francisco | 1 | All Maps","protocol":17,"map":"cp_mountainlab","folder":"tf","game":"Team Fortress","app_id":440,"player_count":24,"max_players":24,"Bots":0,"server_type":"Dedicated","server_os":"Linux","password":true,"vac":true,"version":"7757534","steam_id":85568392924469999,"keywords":["cp","nocrits","nodmgspread","uncletopia"],"game_id":440,"stv_port":27016,"stv_name":"Uncletopia | San Francisco | 1 | All Maps | STV","players":[{"user_id":190,"name":"WhatsHisName","steam_id":76561198982712556,"connected_time":7169000000000,"state":"active","ping":100},{"user_id":228,"name":"Heavy Scientist","steam_id":76561198158486793,"connected_time":4521000000000,"state":"active","ping":59},{"user_id":272,"name":"TheMagicMrWaffle","steam_id":76561198104357256,"connected_time":1039000000000,"state":"active","ping":53},{"user_id":231,"name":"Daddy Topps","steam_id":76561198203594332,"connected_time":4431000000000,"state":"active","ping":53},{"user_id":274,"name":"Sax","steam_id":76561198055425123,"connected_time":698000000000,"state":"active","ping":72},{"user_id":275,"name":"Atlas Fugged :DD","steam_id":76561198018753989,"connected_time":688000000000,"state":"active","ping":56},{"user_id":250,"name":"salad","steam_id":76561198199055635,"connected_time":2337000000000,"state":"active","ping":86},{"user_id":258,"name":"Baoshan Iron \u0026 Steel Co., Ltd.","steam_id":76561198095313463,"connected_time":1682000000000,"state":"active","ping":97},{"user_id":276,"name":"nylapoot","steam_id":76561199273822633,"connected_time":677000000000,"state":"active","ping":61},{"user_id":277,"name":"oinkpig234","steam_id":76561198883733811,"connected_time":674000000000,"state":"active","ping":89},{"user_id":270,"name":"Practicold","steam_id":76561198179447541,"connected_time":1186000000000,"state":"active","ping":52},{"user_id":260,"name":"echelon","steam_id":76561198139172979,"connected_time":1575000000000,"state":"active","ping":45},{"user_id":171,"name":"ＳＬＶＴＣＨＡＭＰ","steam_id":76561198883157736,"connected_time":8592000000000,"state":"active","ping":77},{"user_id":159,"name":"Cursed Dog","steam_id":76561198090785078,"connected_time":9342000000000,"state":"active","ping":112},{"user_id":265,"name":"StarBrigade","steam_id":76561198150224428,"connected_time":1454000000000,"state":"active","ping":69},{"user_id":225,"name":"Buswolley","steam_id":76561197995205571,"connected_time":4881000000000,"state":"active","ping":44},{"user_id":266,"name":"Password is Taco","steam_id":76561198026092945,"connected_time":1406000000000,"state":"active","ping":105},{"user_id":263,"name":"Love Waffle","steam_id":76561197990077189,"connected_time":1489000000000,"state":"active","ping":83},{"user_id":271,"name":"Xenophile","steam_id":76561198044772435,"connected_time":1166000000000,"state":"active","ping":60},{"user_id":267,"name":"kitty rainbows","steam_id":76561198025215611,"connected_time":1356000000000,"state":"active","ping":95},{"user_id":278,"name":"Good Vibes","steam_id":76561197985206513,"connected_time":649000000000,"state":"active","ping":111},{"user_id":244,"name":"goopshit","steam_id":76561198126489501,"connected_time":3117000000000,"state":"active","ping":99},{"user_id":268,"name":"hieronymus slosh","steam_id":76561198050669103,"connected_time":1305000000000,"state":"active","ping":121},{"user_id":280,"name":"Bryceinator","steam_id":76561198012353833,"connected_time":606000000000,"state":"active","ping":109}]},{"server_id":18,"name":"Uncletopia | San Francisco | 2 | All Maps","name_short":"sfo-2","host":"sfo-1.us.uncletopia.com","port":27025,"enabled":true,"region":"us-west","cc":"us","latitude":37.77397,"longitude":-122.4313,"reserved":0,"last_update":"0001-01-01T00:00:00Z","name_a2s":"Uncletopia | San Francisco | 2 | All Maps","protocol":17,"map":"koth_highpass","folder":"tf","game":"Team Fortress","app_id":440,"player_count":0,"max_players":24,"Bots":0,"server_type":"Dedicated","server_os":"Linux","password":true,"vac":true,"version":"7757534","steam_id":85568392924470000,"keywords":["cp","nocrits","nodmgspread","uncletopia"],"game_id":440,"stv_port":27026,"stv_name":"Uncletopia | San Francisco | 2 | All Maps | STV","players":null},{"server_id":19,"name":"Uncletopia | San Francisco | 3 | Stopwatch Beta","name_short":"sfo-3","host":"sfo-1.us.uncletopia.com","port":27035,"enabled":true,"region":"us-west","cc":"us","latitude":37.77397,"longitude":-122.4313,"reserved":0,"last_update":"0001-01-01T00:00:00Z","name_a2s":"Uncletopia | San Francisco | 3 | Stopwatch Beta","protocol":17,"map":"koth_lakeside_final","folder":"tf","game":"Team Fortress","app_id":440,"player_count":0,"max_players":24,"Bots":0,"server_type":"Dedicated","server_os":"Linux","password":true,"vac":true,"version":"7757534","steam_id":85568392924742824,"keywords":["cp","nocrits","nodmgspread","uncletopia"],"game_id":440,"stv_port":27036,"stv_name":"Uncletopia | San Francisco | 3 | Stopwatch Beta | STV","players":null},{"server_id":20,"name":"Uncletopia | San Francisco | 4 | Community","name_short":"sfo-4","host":"sfo-1.us.uncletopia.com","port":27045,"enabled":true,"region":"us-west","cc":"us","latitude":37.77397,"longitude":-122.4313,"reserved":0,"last_update":"0001-01-01T00:00:00Z","name_a2s":"Uncletopia | San Francisco | 4 | Community","protocol":17,"map":"cp_altitude","folder":"tf","game":"Team Fortress","app_id":440,"player_count":0,"max_players":24,"Bots":0,"server_type":"Dedicated","server_os":"Linux","password":true,"vac":true,"version":"7757534","steam_id":85568392924742826,"keywords":["cp","nocrits","nodmgspread","uncletopia"],"game_id":440,"stv_port":27046,"stv_name":"Uncletopia | San Francisco | 4 | Community | STV","players":null},{"server_id":141,"name":"Uncletopia | Sydney | 1 | All Maps","name_short":"syd-1","host":"syd-1.au.uncletopia.com","port":27015,"enabled":true,"region":"au","cc":"au","latitude":-33.865143,"longitude":151.2099,"reserved":0,"last_update":"0001-01-01T00:00:00Z","name_a2s":"Uncletopia | Sydney | 1 | All Maps","protocol":17,"map":"koth_viaduct","folder":"tf","game":"Team Fortress","app_id":440,"player_count":0,"max_players":24,"Bots":0,"server_type":"Dedicated","server_os":"Linux","password":true,"vac":true,"version":"7757534","steam_id":85568392924470001,"keywords":["cp","nocrits","nodmgspread","uncletopia"],"game_id":440,"stv_port":27016,"stv_name":"Uncletopia | Sydney | 1 | All Maps | STV","players":null},{"server_id":123,"name":"Uncletopia | Sydney | 2 | All Maps","name_short":"syd-2","host":"syd-1.au.uncletopia.com","port":27025,"enabled":true,"region":"au","cc":"au","latitude":-33.865143,"longitude":151.2099,"reserved":0,"last_update":"0001-01-01T00:00:00Z","name_a2s":"Uncletopia | Sydney | 2 | All Maps","protocol":17,"map":"cp_process_final","folder":"tf","game":"Team Fortress","app_id":440,"player_count":0,"max_players":24,"Bots":0,"server_type":"Dedicated","server_os":"Linux","password":true,"vac":true,"version":"7757534","steam_id":85568392924470002,"keywords":["cp","nocrits","nodmgspread","uncletopia"],"game_id":440,"stv_port":27026,"stv_name":"Uncletopia | Sydney | 2 | All Maps | STV","players":null},{"server_id":395,"name":"Uncletopia | Sydney | 3 | All Maps","name_short":"syd-3","host":"syd-1.au.uncletopia.com","port":27035,"enabled":true,"region":"au","cc":"au","latitude":-33.865143,"longitude":151.2099,"reserved":0,"last_update":"0001-01-01T00:00:00Z","name_a2s":"Uncletopia | Sydney | 3 | All Maps","protocol":17,"map":"pl_swiftwater_final1","folder":"tf","game":"Team Fortress","app_id":440,"player_count":0,"max_players":24,"Bots":0,"server_type":"Dedicated","server_os":"Linux","password":true,"vac":true,"version":"7757534","steam_id":85568392925194467,"keywords":["nocrits","nodmgspread","payload","uncletopia"],"game_id":440,"stv_port":27036,"stv_name":"Uncletopia | Sydney | 3 | All Maps | STV","players":null},{"server_id":396,"name":"Uncletopia | Sydney | 4 | All Maps","name_short":"syd-4","host":"syd-1.au.uncletopia.com","port":27045,"enabled":true,"region":"au","cc":"au","latitude":-33.865143,"longitude":151.2099,"reserved":0,"last_update":"0001-01-01T00:00:00Z","name_a2s":"Uncletopia | Sydney | 4 | All Maps","protocol":17,"map":"koth_highpass","folder":"tf","game":"Team Fortress","app_id":440,"player_count":0,"max_players":24,"Bots":0,"server_type":"Dedicated","server_os":"Linux","password":true,"vac":true,"version":"7757534","steam_id":85568392925397958,"keywords":["cp","nocrits","nodmgspread","uncletopia"],"game_id":440,"stv_port":27046,"stv_name":"Uncletopia | Sydney | 4 | All Maps | STV","players":null},{"server_id":58,"name":"Uncletopia | Sydney | 5 | Stopwatch Beta","name_short":"syd-5","host":"syd-1.au.uncletopia.com","port":27055,"enabled":true,"region":"au","cc":"au","latitude":-33.865143,"longitude":151.2099,"reserved":0,"last_update":"0001-01-01T00:00:00Z","name_a2s":"Uncletopia | Sydney | 5 | Stopwatch Beta","protocol":17,"map":"koth_cascade","folder":"tf","game":"Team Fortress","app_id":440,"player_count":0,"max_players":24,"Bots":0,"server_type":"Dedicated","server_os":"Linux","password":true,"vac":true,"version":"7757534","steam_id":85568392925397959,"keywords":["cp","nocrits","nodmgspread","uncletopia"],"game_id":440,"stv_port":27056,"stv_name":"Uncletopia | Sydney | 5 | Stopwatch Beta | STV","players":null},{"server_id":59,"name":"Uncletopia | Sydney | 6 | Community","name_short":"syd-6","host":"syd-1.au.uncletopia.com","port":27065,"enabled":true,"region":"au","cc":"au","latitude":-33.865143,"longitude":151.2099,"reserved":0,"last_update":"0001-01-01T00:00:00Z","name_a2s":"Uncletopia | Sydney | 6 | Community","protocol":17,"map":"cp_snakewater_final1","folder":"tf","game":"Team Fortress","app_id":440,"player_count":0,"max_players":24,"Bots":0,"server_type":"Dedicated","server_os":"Linux","password":true,"vac":true,"version":"7757534","steam_id":85568392925397960,"keywords":["cp","nocrits","nodmgspread","uncletopia"],"game_id":440,"stv_port":27066,"stv_name":"Uncletopia | Sydney | 6 | Community | STV","players":null},{"server_id":49,"name":"Uncletopia | Warsaw | 1 | All Maps","name_short":"waw-1","host":"waw-1.pl.uncletopia.com","port":27015,"enabled":true,"region":"eu","cc":"pl","latitude":52.2297,"longitude":21.017532,"reserved":0,"last_update":"0001-01-01T00:00:00Z","name_a2s":"","protocol":0,"map":"","folder":"","game":"","app_id":0,"player_count":0,"max_players":0,"Bots":0,"server_type":"","server_os":"","password":false,"vac":false,"version":"","steam_id":0,"keywords":null,"game_id":0,"stv_port":0,"stv_name":"","players":null},{"server_id":50,"name":"Uncletopia | Warsaw | 2 | All Maps","name_short":"waw-2","host":"waw-1.pl.uncletopia.com","port":27025,"enabled":true,"region":"eu","cc":"pl","latitude":52.2297,"longitude":21.017532,"reserved":0,"last_update":"0001-01-01T00:00:00Z","name_a2s":"Uncletopia | Warsaw | 2 | All Maps","protocol":17,"map":"koth_lakeside_final","folder":"tf","game":"Team Fortress","app_id":440,"player_count":24,"max_players":24,"Bots":0,"server_type":"Dedicated","server_os":"Linux","password":true,"vac":true,"version":"7757534","steam_id":85568392925397851,"keywords":["cp","nocrits","nodmgspread","uncletopia"],"game_id":440,"stv_port":27026,"stv_name":"Uncletopia | Warsaw | 2 | All Maps | STV","players":[{"user_id":27,"name":"Eskimo","steam_id":76561198259807687,"connected_time":1853000000000,"state":"active","ping":46},{"user_id":46,"name":"static","steam_id":76561198836825741,"connected_time":1211000000000,"state":"active","ping":72},{"user_id":18,"name":"Dor_atar","steam_id":76561198973980542,"connected_time":2701000000000,"state":"active","ping":85},{"user_id":40,"name":"Guru","steam_id":76561198093853069,"connected_time":1465000000000,"state":"active","ping":73},{"user_id":56,"name":"Testicular torsion","steam_id":76561198119547399,"connected_time":821000000000,"state":"active","ping":67},{"user_id":47,"name":"PASTAMANIA!","steam_id":76561197967858558,"connected_time":1187000000000,"state":"active","ping":79},{"user_id":22,"name":"fastest gun on the block","steam_id":76561198413545609,"connected_time":2194000000000,"state":"active","ping":74},{"user_id":23,"name":"big betty boomba clap","steam_id":76561199030229920,"connected_time":2138000000000,"state":"active","ping":84},{"user_id":24,"name":"2 CAKED UP 2 DIE","steam_id":76561198018638320,"connected_time":2136000000000,"state":"active","ping":75},{"user_id":66,"name":"Egor Pomidor","steam_id":76561199175688390,"connected_time":127000000000,"state":"active","ping":97},{"user_id":51,"name":"hora","steam_id":76561198404470526,"connected_time":1024000000000,"state":"active","ping":110},{"user_id":57,"name":"Woman (Real)","steam_id":76561199151823932,"connected_time":780000000000,"state":"active","ping":61},{"user_id":52,"name":"Bacon + pig","steam_id":76561198166597735,"connected_time":975000000000,"state":"active","ping":97},{"user_id":65,"name":"BastLover","steam_id":76561198247062724,"connected_time":299000000000,"state":"active","ping":39},{"user_id":63,"name":"è","steam_id":76561198102074859,"connected_time":340000000000,"state":"active","ping":124},{"user_id":49,"name":"wouris","steam_id":76561198876188003,"connected_time":1083000000000,"state":"active","ping":58},{"user_id":36,"name":"X-tis","steam_id":76561198043837480,"connected_time":1620000000000,"state":"active","ping":69},{"user_id":50,"name":"the voices","steam_id":76561198261627736,"connected_time":1054000000000,"state":"active","ping":111},{"user_id":42,"name":"PK Blizzard","steam_id":76561198039836567,"connected_time":1420000000000,"state":"active","ping":75},{"user_id":44,"name":"Fat Pigeon","steam_id":76561198817940142,"connected_time":1322000000000,"state":"active","ping":75},{"user_id":45,"name":"snorrbrod","steam_id":76561198142389396,"connected_time":1266000000000,"state":"active","ping":94},{"user_id":64,"name":"Nida te leportar","steam_id":76561198449261973,"connected_time":336000000000,"state":"active","ping":63},{"user_id":59,"name":"Dark Wizart","steam_id":76561198377689439,"connected_time":735000000000,"state":"active","ping":55},{"user_id":60,"name":"EININ","steam_id":76561198117199887,"connected_time":707000000000,"state":"active","ping":57}]},{"server_id":51,"name":"Uncletopia | Warsaw | 3 | All Maps","name_short":"waw-3","host":"waw-1.pl.uncletopia.com","port":27035,"enabled":true,"region":"eu","cc":"pl","latitude":52.2297,"longitude":21.017532,"reserved":0,"last_update":"0001-01-01T00:00:00Z","name_a2s":"Uncletopia | Warsaw | 3 | All Maps","protocol":17,"map":"cp_altitude","folder":"tf","game":"Team Fortress","app_id":440,"player_count":0,"max_players":24,"Bots":0,"server_type":"Dedicated","server_os":"Linux","password":true,"vac":true,"version":"7757534","steam_id":85568392925397852,"keywords":["cp","nocrits","nodmgspread","uncletopia"],"game_id":440,"stv_port":27036,"stv_name":"Uncletopia | Warsaw | 3 | All Maps | STV","players":null},{"server_id":52,"name":"Uncletopia | Warsaw | 4 | All Maps","name_short":"waw-4","host":"waw-1.pl.uncletopia.com","port":27045,"enabled":true,"region":"eu","cc":"pl","latitude":52.2297,"longitude":21.017532,"reserved":0,"last_update":"0001-01-01T00:00:00Z","name_a2s":"Uncletopia | Warsaw | 4 | All Maps","protocol":17,"map":"koth_lakeside_final","folder":"tf","game":"Team Fortress","app_id":440,"player_count":0,"max_players":24,"Bots":0,"server_type":"Dedicated","server_os":"Linux","password":true,"vac":true,"version":"7757534","steam_id":85568392925397853,"keywords":["cp","nocrits","nodmgspread","uncletopia"],"game_id":440,"stv_port":27046,"stv_name":"Uncletopia | Warsaw | 4 | All Maps | STV","players":null},{"server_id":53,"name":"Uncletopia | Warsaw | 5 | Stopwatch Beta","name_short":"waw-5","host":"waw-1.pl.uncletopia.com","port":27055,"enabled":true,"region":"eu","cc":"pl","latitude":52.2297,"longitude":21.017532,"reserved":0,"last_update":"0001-01-01T00:00:00Z","name_a2s":"Uncletopia | Warsaw | 5 | Stopwatch Beta","protocol":17,"map":"pl_borneo","folder":"tf","game":"Team Fortress","app_id":440,"player_count":0,"max_players":24,"Bots":0,"server_type":"Dedicated","server_os":"Linux","password":true,"vac":true,"version":"7757534","steam_id":85568392925397854,"keywords":["nocrits","nodmgspread","payload","uncletopia"],"game_id":440,"stv_port":27056,"stv_name":"Uncletopia | Warsaw | 5 | Stopwatch Beta | STV","players":null},{"server_id":54,"name":"Uncletopia | Warsaw | 6 | Community","name_short":"waw-6","host":"waw-1.pl.uncletopia.com","port":27065,"enabled":true,"region":"eu","cc":"pl","latitude":52.2297,"longitude":21.017532,"reserved":0,"last_update":"0001-01-01T00:00:00Z","name_a2s":"Uncletopia | Warsaw | 6 | Community","protocol":17,"map":"koth_lakeside_final","folder":"tf","game":"Team Fortress","app_id":440,"player_count":0,"max_players":24,"Bots":0,"server_type":"Dedicated","server_os":"Linux","password":true,"vac":true,"version":"7757534","steam_id":85568392925397856,"keywords":["cp","nocrits","nodmgspread","uncletopia"],"game_id":440,"stv_port":27066,"stv_name":"Uncletopia | Warsaw | 6 | Community | STV","players":null}]}