{"status":true,"message":"","result":[{"server_id":9,"name":"Uncletopia | Atlanta | 1 | All Maps","name_short":"atl-1","host":"atl-1.us.uncletopia.com","port":27015,"enabled":true,"region":"us-east","cc":"us","latitude":33.753746,"longitude":-84.38633,"reserved":0,"last_update":"0001-01-01T00:00:00Z","name_a2s":"Uncletopia | Atlanta | 1 | All Maps","protocol":17,"map":"koth_viaduct","folder":"tf","game":"Team Fortress","app_id":440,"player_count":12,"max_players":24,"Bots":0,"server_type":"Dedicated","server_os":"Linux","password":true,"vac":true,"version":"7757534","steam_id":85568392924469982,"keywords":["cp","nocrits","nodmgspread","uncletopia"],"game_id":440,"stv_port":27016,"stv_name":"Uncletopia | Atlanta | 1 | All Maps | STV","players":[{"user_id":6,"name":"yomokha","steam_id":76561198063175935,"connected_time":1462000000000,"state":"active","ping":55},{"user_id":10,"name":"Puro","steam_id":76561199440523721,"connected_time":488000000000,"state":"active","ping":80},{"user_id":8,"name":"Samus","steam_id":76561198121933439,"connected_time":1356000000000,"state":"active","ping":66},{"user_id":11,"name":"Xmoonsheep","steam_id":76561198158384685,"connected_time":435000000000,"state":"active","ping":52},{"user_id":12,"name":"asm_ghost","steam_id":76561199205363547,"connected_time":334000000000,"state":"active","ping":151},{"user_id":13,"name":"Genetic Komodo","steam_id":76561198174806758,"connected_time":291000000000,"state":"active","ping":46},{"user_id":14,"name":"The Gremlin","steam_id":76561198419066993,"connected_time":264000000000,"state":"active","ping":116},{"user_id":15,"name":"Eway","steam_id":76561198141614746,"connected_time":233000000000,"state":"active","ping":75},{"user_id":16,"name":"Turtle","steam_id":76561198168630810,"connected_time":134000000000,"state":"active","ping":166},{"user_id":17,"name":"YekkuUwU","steam_id":76561199349215012,"connected_time":108000000000,"state":"active","ping":160},{"user_id":18,"name":"uhooter","steam_id":76561198007829078,"connected_time":25000000000,"state":"active","ping":73},{"user_id":19,"name":"MEDIC!","steam_id":76561198149344029,"connected_time":16000000000,"state":"active","ping":63}]},{"server_id":400,"name":"Uncletopia | Atlanta | 3 | Stopwatch Beta","name_short":"atl-3","host":"atl-1.us.uncletopia.com","port":27035,"enabled":true,"region":"us-east","cc":"us","latitude":33.753746,"longitude":-84.38633,"reserved":0,"last_update":"0001-01-01T00:00:00Z","name_a2s":"Uncletopia | Atlanta | 3 | Stopwatch Beta","protocol":17,"map":"pl_upward","folder":"tf","game":"Team Fortress","app_id":440,"player_count":0,"max_players":24,"Bots":0,"server_type":"Dedicated","server_os":"Linux","password":true,"vac":true,"version":"7757534","steam_id":85568392924515187,"keywords":["nocrits","nodmgspread","payload","uncletopia"],"game_id":440,"stv_port":27036,"stv_name":"Uncletopia | Atlanta | 3 | Stopwatch Beta | STV","players":null},{"server_id":401,"name":"Uncletopia | Atlanta | 4 | No Payload","name_short":"atl-4","host":"atl-1.us.uncletopia.com","port":27045,"enabled":true,"region":"us-east","cc":"us","latitude":33.753746,"longitude":-84.38633,"reserved":0,"last_update":"0001-01-01T00:00:00Z","name_a2s":"Uncletopia | Atlanta | 4 | No Payload","protocol":17,"map":"pl_pier","folder":"tf","game":"Team Fortress","app_id":440,"player_count":0,"max_players":24,"Bots":0,"server_type":"Dedicated","server_os":"Linux","password":true,"vac":true,"version":"7723704","steam_id":85568392924515188,"keywords":["nocrits","nodmgspread","payload","uncletopia"],"game_id":440,"stv_port":27046,"stv_name":"Uncletopia | Atlanta | 4 | No Payload | STV","players":null},{"server_id":2,"name":"Uncletopia | Chicago | 1 | All Maps","name_short":"chi-1","host":"chi-1.us.uncletopia.com","port":27015,"enabled":true,"region":"us-central","cc":"us","latitude":41.881832,"longitude":-87.62318,"reserved":0,"last_update":"0001-01-01T00:00:00Z","name_a2s":"Uncletopia | Chicago | 1 | All Maps","protocol":17,"map":"koth_lakeside_final","folder":"tf","game":"Team Fortress","app_id":440,"player_count":0,"max_players":24,"Bots":0,"server_type":"Dedicated","server_os":"Linux","password":true,"vac":true,"version":"7757534","steam_id":85568392924469984,"keywords":["cp","nocrits","nodmgspread","uncletopia"],"game_id":440,"stv_port":27016,"stv_name":"Uncletopia | Chicago | 1 | All Maps | STV","players":null},{"server_id":106,"name":"Uncletopia | Chicago | 2 | All Maps","name_short":"chi-2","host":"chi-1.us.uncletopia.com","port":27025,"enabled":true,"region":"us-central","cc":"us","latitude":41.881832,"longitude":-87.62318,"reserved":0,"last_update":"0001-01-01T00:00:00Z","name_a2s":"Uncletopia | Chicago | 2 | All Maps","protocol":17,"map":"koth_lakeside_final","folder":"tf","game":"Team Fortress","app_id":440,"player_count":0,"max_players":24,"Bots":0,"server_type":"Dedicated","server_os":"Linux","password":true,"vac":true,"version":"7757534","steam_id":85568392924469985,"keywords":["cp","nocrits","nodmgspread","uncletopia"],"game_id":440,"stv_port":27026,"stv_name":"Uncletopia | Chicago | 2 | All Maps | STV","players":null},{"server_id":402,"name":"Uncletopia | Chicago | 3 | All Maps","name_short":"chi-3","host":"chi-1.us.uncletopia.com","port":27035,"enabled":true,"region":"us-central","cc":"us","latitude":41.881832,"longitude":-87.62318,"reserved":0,"last_update":"0001-01-01T00:00:00Z","name_a2s":"Uncletopia | Chicago | 3 | All Maps","protocol":17,"map":"cp_mountainlab","folder":"tf","game":"Team Fortress","app_id":440,"player_count":0,"max_players":24,"Bots":0,"server_type":"Dedicated","server_os":"Linux","password":true,"vac":true,"version":"7757534","steam_id":85568392924515191,"keywords":["cp","nocrits","nodmgspread","uncletopia"],"game_id":440,"stv_port":27036,"stv_name":"Uncletopia | Chicago | 3 | All Maps | STV","players":null},{"server_id":403,"name":"Uncletopia | Chicago | 4 | All Maps","name_short":"chi-4","host":"chi-1.us.uncletopia.com","port":27045,"enabled":true,"region":"us-central","cc":"us","latitude":41.881832,"longitude":-87.62318,"reserved":0,"last_update":"0001-01-01T00:00:00Z","name_a2s":"Uncletopia | Chicago | 4 | All Maps","protocol":17,"map":"pl_barnblitz","folder":"tf","game":"Team Fortress","app_id":440,"player_count":24,"max_players":24,"Bots":0,"server_type":"Dedicated","server_os":"Linux","password":true,"vac":true,"version":"7757534","steam_id":85568392924515193,"keywords":["nocrits","nodmgspread","payload","uncletopia"],"game_id":440,"stv_port":27046,"stv_name":"Uncletopia | Chicago | 4 | All Maps | STV","players":[{"user_id":250,"name":"Lunchboxx","steam_id":76561198079735916,"connected_time":4427000000000,"state":"active","ping":68},{"user_id":285,"name":"gonk","steam_id":76561198061206732,"connected_time":703000000000,"state":"active","ping":79},{"user_id":282,"name":"Mister36","steam_id":76561198019132100,"connected_time":730000000000,"state":"active","ping":54},{"user_id":218,"name":"Mixomin","steam_id":76561198295061570,"connected_time":6414000000000,"state":"active","ping":240},{"user_id":289,"name":"Samurai Sam","steam_id":76561198274223636,"connected_time":646000000000,"state":"active","ping":89},{"user_id":286,"name":"JustCoffee","steam_id":76561199389473180,"connected_time":668000000000,"state":"active","ping":66},{"user_id":269,"name":"Thog","steam_id":76561198093699060,"connected_time":2584000000000,"state":"active","ping":75},{"user_id":278,"name":"Veir≈´ Viseris","steam_id":76561197989857176,"connected_time":1206000000000,"state":"active","ping":171},{"user_id":295,"name":"Taco","steam_id":76561198158621392,"connected_time":397000000000,"state":"active","ping":54},{"user_id":284,"name":"ÏïîÌò∏ÌôîÏóê ÎÇòÏÅú","steam_id":76561198060447571,"connected_time":713000000000,"state":"active","ping":64},{"user_id":267,"name":"Zen Skye","steam_id":76561198114452552,"connected_time":2749000000000,"state":"active","ping":64},{"user_id":194,"name":"pinglefingle","steam_id":76561198216580197,"connected_time":8638000000000,"state":"active","ping":85},{"user_id":279,"name":"resh","steam_id":76561198066619792,"connected_time":1154000000000,"state":"active","ping":74},{"user_id":287,"name":"Pixeled","steam_id":76561198088917077,"connected_time":664000000000,"state":"active","ping":83},{"user_id":260,"name":"brothax cocho laptop","steam_id":76561197996713526,"connected_time":3456000000000,"state":"active","ping":83},{"user_id":296,"name":"Dezorbo","steam_id":76561197971883897,"connected_time":149000000000,"state":"active","ping":72},{"user_id":294,"name":"me","steam_id":76561199468285784,"connected_time":477000000000,"state":"active","ping":77},{"user_id":291,"name":"LaserClaw","steam_id":76561198227648940,"connected_time":612000000000,"state":"active","ping":45},{"user_id":292,"name":"swag","steam_id":76561198094615739,"connected_time":557000000000,"state":"active","ping":114},{"user_id":166,"name":"Daz","steam_id":76561198041431938,"connected_time":11088000000000,"state":"active","ping":75},{"user_id":266,"name":"sweppy","steam_id":76561198035457667,"connected_time":2874000000000,"state":"active","ping":75},{"user_id":277,"name":"Censing Auto, The Challenger","steam_id":76561198060926681,"connected_time":1281000000000,"state":"active","ping":65},{"user_id":283,"name":"Unknown","steam_id":76561198192450663,"connected_time":726000000000,"state":"active","ping":58},{"user_id":293,"name":"deech","steam_id":76561198066429444,"connected_time":555000000000,"state":"active","ping":72}]},{"server_id":36,"name":"Uncletopia | Chicago | 5 | All Maps","name_short":"chi-5","host":"chi-2.us.uncletopia.com","port":27015,"enabled":true,"region":"us-central","cc":"us","latitude":41.881832,"longitude":-87.62318,"reserved":0,"last_update":"0001-01-01T00:00:00Z","name_a2s":"Uncletopia | Chicago | 5 | All Maps","protocol":17,"map":"koth_cascade","folder":"tf","game":"Team Fortress","app_id":440,"player_count":0,"max_players":24,"Bots":0,"server_type":"Dedicated","server_os":"Linux","password":true,"vac":true,"version":"7757534","steam_id":85568392924866362,"keywords":["cp","nocrits","nodmgspread","uncletopia"],"game_id":440,"stv_port":27016,"stv_name":"Uncletopia | Chicago | 5 | All Maps | STV","players":null},{"server_id":37,"name":"Uncletopia | Chicago | 6 | All Maps","name_short":"chi-6","host":"chi-2.us.uncletopia.com","port":27025,"enabled":true,"region":"us-central","cc":"us","latitude":41.881832,"longitude":-87.62318,"reserved":0,"last_update":"0001-01-01T00:00:00Z","name_a2s":"Uncletopia | Chicago | 6 | All Maps","protocol":17,"map":"pl_swiftwater_final1","folder":"tf","game":"Team Fortress","app_id":440,"player_count":0,"max_players":24,"Bots":0,"server_type":"Dedicated","server_os":"Linux","password":true,"vac":true,"version":"7757534","steam_id":85568392924866363,"keywords":["nocrits","nodmgspread","payload","uncletopia"],"game_id":440,"stv_port":27026,"stv_name":"Uncletopia | Chicago | 6 | All Maps | STV","players":null},{"server_id":38,"name":"Uncletopia | Chicago | 7 | Stopwatch Beta","name_short":"chi-7","host":"chi-2.us.uncletopia.com","port":27035,"enabled":true,"region":"us-central","cc":"us","latitude":41.881832,"longitude":-87.62318,"reserved":0,"last_update":"0001-01-01T00:00:00Z","name_a2s":"Uncletopia | Chicago | 7 | Stopwatch Beta","protocol":17,"map":"pl_borneo","folder":"tf","game":"Team Fortress","app_id":440,"player_count":0,"max_players":24,"Bots":0,"server_type":"Dedicated","server_os":"Linux","password":true,"vac":true,"version":"7757534","steam_id":85568392924866364,"keywords":["nocrits","nodmgspread","payload","uncletopia"],"game_id":440,"stv_port":27036,"stv_name":"Uncletopia | Chicago | 7 | Stopwatch Beta | STV","players":null},{"server_id":39,"name":"Uncletopia | Chicago | 8 | Community","name_short":"chi-8","host":"chi-2.us.uncletopia.com","port":27045,"enabled":true,"region":"us-central","cc":"us","latitude":41.881832,"longitude":-87.62318,"reserved":0,"last_update":"0001-01-01T00:00:00Z","name_a2s":"Uncletopia | Chicago | 8 | Community","protocol":17,"map":"pl_pier","folder":"tf","game":"Team Fortress","app_id":440,"player_count":0,"max_players":24,"Bots":0,"server_type":"Dedicated","server_os":"Linux","password":true,"vac":true,"version":"7757534","steam_id":85568392924866365,"keywords":["nocrits","nodmgspread","payload","uncletopia"],"game_id":440,"stv_port":27046,"stv_name":"Uncletopia | Chicago | 8 | Community | STV","players":null},{"server_id":8,"name":"Uncletopia | Dallas | 1 | All Maps","name_short":"dal-1","host":"dal-1.us.uncletopia.com","port":27015,"enabled":true,"region":"us-central","cc":"us","latitude":32.779167,"longitude":-96.80889,"reserved":0,"last_update":"0001-01-01T00:00:00Z","name_a2s":"Uncletopia | Dallas | 1 | All Maps","protocol":17,"map":"pl_upward","folder":"tf","game":"Team Fortress","app_id":440,"player_count":24,"max_players":24,"Bots":0,"server_type":"Dedicated","server_os":"Linux","password":true,"vac":true,"version":"7757534","steam_id":85568392924469986,"keywords":["nocrits","nodmgspread","payload","uncletopia"],"game_id":440,"stv_port":27016,"stv_name":"Uncletopia | Dallas | 1 | All Maps | STV","players":[{"user_id":3,"name":"dicksnip","steam_id":76561198356515396,"connected_time":6089000000000,"state":"active","ping":81},{"user_id":63,"name":"D(b) Hell","steam_id":76561198067869016,"connected_time":1038000000000,"state":"active","ping":68},{"user_id":50,"name":"HavocGDI","steam_id":76561199388371914,"connected_time":1654000000000,"state":"active","ping":99},{"user_id":57,"name":"Tits","steam_id":76561198073103529,"connected_time":1278000000000,"state":"active","ping":79},{"user_id":17,"name":"rainbow sonic","steam_id":76561198015123424,"connected_time":3362000000000,"state":"active","ping":120},{"user_id":59,"name":"Vinny K","steam_id":76561199080135821,"connected_time":1250000000000,"state":"active","ping":78},{"user_id":10,"name":"Diable Blanc","steam_id":76561198090102186,"connected_time":5269000000000,"state":"active","ping":69},{"user_id":69,"name":"Rat Bastard","steam_id":76561198153443658,"connected_time":438000000000,"state":"active","ping":82},{"user_id":68,"name":"apcsmoore","steam_id":76561199124727793,"connected_time":443000000000,"state":"active","ping":83},{"user_id":67,"name":"LazyDoll","steam_id":76561198053186338,"connected_time":670000000000,"state":"active","ping":80},{"user_id":70,"name":"lost in spaaaaace","steam_id":76561199085974120,"connected_time":290000000000,"state":"active","ping":85},{"user_id":55,"name":"breakcore enthusiast","steam_id":76561199227946025,"connected_time":1298000000000,"state":"active","ping":69},{"user_id":26,"name":"magicbeetle","steam_id":76561199160422863,"connected_time":2445000000000,"state":"active","ping":151},{"user_id":71,"name":"sexo","steam_id":76561199088284199,"connected_time":225000000000,"state":"active","ping":178},{"user_id":30,"name":"Pikatrix","steam_id":76561198850101181,"connected_time":2411000000000,"state":"active","ping":165},{"user_id":56,"name":"177013","steam_id":76561198072303290,"connected_time":1281000000000,"state":"active","ping":89},{"user_id":60,"name":"SCATTER","steam_id":76561198405168492,"connected_time":1245000000000,"state":"active","ping":102},{"user_id":41,"name":"Robo","steam_id":76561199067205204,"connected_time":2099000000000,"state":"active","ping":177},{"user_id":52,"name":"T.w¬≤ | 2 Hours of Sleep","steam_id":76561198128489595,"connected_time":1505000000000,"state":"active","ping":124},{"user_id":64,"name":"Princess Peach","steam_id":76561198260272240,"connected_time":961000000000,"state":"active","ping":170},{"user_id":61,"name":"Mara Roo","steam_id":76561198279341789,"connected_time":1245000000000,"state":"active","ping":119},{"user_id":53,"name":"mikey | I'm Burning Bright!","steam_id":76561198985847893,"connected_time":1503000000000,"state":"active","ping":45},{"user_id":39,"name":"citrus","steam_id":76561198294606679,"connected_time":2190000000000,"state":"active","ping":91},{"user_id":66,"name":"Terrazzle","steam_id":76561197999850393,"connected_time":765000000000,"state":"active","ping":59}]},{"server_id":108,"name":"Uncletopia | Dallas | 2 | All Maps","name_short":"dal-2","host":"dal-1.us.uncletopia.com","port":27025,"enabled":true,"region":"us-central","cc":"us","latitude":32.779167,"longitude":-96.80889,"reserved":0,"last_update":"0001-01-01T00:00:00Z","name_a2s":"Uncletopia | Dallas | 2 | All Maps","protocol":17,"map":"pl_pier","folder":"tf","game":"Team Fortress","app_id":440,"player_count":24,"max_players":24,"Bots":0,"server_type":"Dedicated","server_os":"Linux","password":true,"vac":true,"version":"7757534","steam_id":85568392924469988,"keywords":["nocrits","nodmgspread","payload","uncletopia"],"game_id":440,"stv_port":27026,"stv_name":"Uncletopia | Dallas | 2 | All Maps | STV","players":[{"user_id":122,"name":"Lemon Luke","steam_id":76561199141696546,"connected_time":2060000000000,"state":"active","ping":118},{"user_id":145,"name":"Fogic yo!","steam_id":76561198084624833,"connected_time":952000000000,"state":"active","ping":187},{"user_id":144,"name":"Kingsnake","steam_id":76561198033203389,"connected_time":1283000000000,"state":"active","ping":93},{"user_id":146,"name":"yitz","steam_id":76561198375575841,"connected_time":802000000000,"state":"active","ping":74},{"user_id":9,"name":"A Gamer [F2P]","steam_id":76561198138712892,"connected_time":8788000000000,"state":"active","ping":42},{"user_id":128,"name":"Slugma","steam_id":76561198185573363,"connected_time":1768000000000,"state":"active","ping":97},{"user_id":138,"name":"Stock Medic","steam_id":76561198065479730,"connected_time":1471000000000,"state":"active","ping":61},{"user_id":139,"name":"Wan Shi Tong","steam_id":76561198076441225,"connected_time":1446000000000,"state":"active","ping":88},{"user_id":134,"name":"Alan","steam_id":76561198176618461,"connected_time":1563000000000,"state":"active","ping":65},{"user_id":140,"name":"wire-guided","steam_id":76561198055407168,"connected_time":1445000000000,"state":"active","ping":72},{"user_id":151,"name":"Jerkface","steam_id":76561198130815383,"connected_time":282000000000,"state":"active","ping":85},{"user_id":129,"name":"GrapeGoodra","steam_id":76561198042141579,"connected_time":1759000000000,"state":"active","ping":84},{"user_id":141,"name":"exile","steam_id":76561198052774399,"connected_time":1415000000000,"state":"active","ping":96},{"user_id":133,"name":"scared of weird bug","steam_id":76561198094495920,"connected_time":1647000000000,"state":"active","ping":88},{"user_id":152,"name":"Drako","steam_id":76561198331980026,"connected_time":258000000000,"state":"active","ping":90},{"user_id":75,"name":"VixianUwU","steam_id":76561198948815060,"connected_time":5039000000000,"state":"active","ping":79},{"user_id":130,"name":"BoneZone","steam_id":76561199115316145,"connected_time":1745000000000,"state":"active","ping":65},{"user_id":142,"name":"76561198212421513","steam_id":76561198212421513,"connected_time":1391000000000,"state":"active","ping":75},{"user_id":137,"name":"cynics","steam_id":76561198086719843,"connected_time":1513000000000,"state":"active","ping":90},{"user_id":91,"name":"world machine","steam_id":76561198020689909,"connected_time":3905000000000,"state":"active","ping":75},{"user_id":150,"name":"Perhaps a Slug","steam_id":76561198062956313,"connected_time":315000000000,"state":"active","ping":81},{"user_id":94,"name":"Spooky Pete","steam_id":76561198136247439,"connected_time":3881000000000,"state":"active","ping":114},{"user_id":116,"name":"FG7","steam_id":76561198381197197,"connected_time":2710000000000,"state":"active","ping":104},{"user_id":147,"name":"PigeonGirlMera","steam_id":76561198080830664,"connected_time":635000000000,"state":"active","ping":98}]},{"server_id":5,"name":"Uncletopia | Frankfurt | 1 | All Maps","name_short":"frk-1","host":"frk-1.de.uncletopia.com","port":27015,"enabled":true,"region":"eu","cc":"de","latitude":50.110924,"longitude":8.682127,"reserved":0,"last_update":"0001-01-01T00:00:00Z","name_a2s":"Uncletopia | Frankfurt | 1 | All Maps","protocol":17,"map":"pl_borneo","folder":"tf","game":"Team Fortress","app_id":440,"player_count":24,"max_players":24,"Bots":0,"server_type":"Dedicated","server_os":"Linux","password":true,"vac":true,"version":"7757534","steam_id":85568392924469989,"keywords":["nocrits","nodmgspread","payload","uncletopia"],"game_id":440,"stv_port":27016,"stv_name":"Uncletopia | Frankfurt | 1 | All Maps | STV","players":[{"user_id":300,"name":"s a i","steam_id":76561197970379754,"connected_time":2488000000000,"state":"active","ping":53},{"user_id":331,"name":"scoff","steam_id":76561198121697874,"connected_time":18000000000,"state":"active","ping":97},{"user_id":309,"name":"Admiral Dolphin","steam_id":76561198120947483,"connected_time":1151000000000,"state":"active","ping":88},{"user_id":274,"name":"S.Scary","steam_id":76561198248602386,"connected_time":3473000000000,"state":"active","ping":63},{"user_id":305,"name":"SpeddyMeddy","steam_id":76561197999693825,"connected_time":1925000000000,"state":"active","ping":66},{"user_id":329,"name":"CarBombEnthusiast","steam_id":76561199448185434,"connected_time":44000000000,"state":"active","ping":58},{"user_id":164,"name":"Some Random Guy","steam_id":76561198214459669,"connected_time":7621000000000,"state":"active","ping":81},{"user_id":298,"name":"‡∂ûbominasus 2137  #SaveTF2","steam_id":76561198030062981,"connected_time":2639000000000,"state":"active","ping":63},{"user_id":321,"name":"XeniasPimp","steam_id":76561198126398022,"connected_time":520000000000,"state":"active","ping":74},{"user_id":330,"name":"glyph","steam_id":76561197980736364,"connected_time":40000000000,"state":"active","ping":75},{"user_id":273,"name":"Amoru","steam_id":76561198798161817,"connected_time":3616000000000,"state":"active","ping":80},{"user_id":303,"name":"DanteFromDmc5","steam_id":76561198390314734,"connected_time":2283000000000,"state":"active","ping":60},{"user_id":308,"name":"NoobfromHell","steam_id":76561198394221491,"connected_time":1242000000000,"state":"active","ping":60},{"user_id":328,"name":"Gordon Birdman","steam_id":76561198013382324,"connected_time":373000000000,"state":"active","ping":66},{"user_id":317,"name":"poliakov.noam","steam_id":76561199259322961,"connected_time":938000000000,"state":"active","ping":106},{"user_id":322,"name":"alex47ka","steam_id":76561198117847251,"connected_time":514000000000,"state":"active","ping":73},{"user_id":325,"name":"bAdmon","steam_id":76561197961785793,"connected_time":477000000000,"state":"active","ping":45},{"user_id":307,"name":"Salad's Warband","steam_id":76561198214089583,"connected_time":1280000000000,"state":"active","ping":65},{"user_id":319,"name":"xenia","steam_id":76561198062107879,"connected_time":836000000000,"state":"active","ping":76},{"user_id":320,"name":"man juice","steam_id":76561198126524735,"connected_time":614000000000,"state":"active","ping":73},{"user_id":326,"name":"zak","steam_id":76561197998895428,"connected_time":472000000000,"state":"active","ping":57},{"user_id":323,"name":"Pilorcio","steam_id":76561198036862688,"connected_time":514000000000,"state":"active","ping":75},{"user_id":332,"name":"whatever","steam_id":76561198095943461,"connected_time":8000000000,"state":"active","ping":158},{"user_id":318,"name":"remove poland","steam_id":76561199433578516,"connected_time":938000000000,"state":"active","ping":82}]},{"server_id":110,"name":"Uncletopia | Frankfurt | 2 | All Maps","name_short":"frk-2","host":"frk-1.de.uncletopia.com","port":27025,"enabled":true,"region":"eu","cc":"de","latitude":50.110924,"longitude":8.682127,"reserved":0,"last_update":"0001-01-01T00:00:00Z","name_a2s":"Uncletopia | Frankfurt | 2 | All Maps","protocol":17,"map":"pl_borneo","folder":"tf","game":"Team Fortress","app_id":440,"player_count":21,"max_players":24,"Bots":0,"server_type":"Dedicated","server_os":"Linux","password":true,"vac":true,"version":"7757534","steam_id":85568392924469990,"keywords":["nocrits","nodmgspread","payload","uncletopia"],"game_id":440,"stv_port":27026,"stv_name":"Uncletopia | Frankfurt | 2 | All Maps | STV","players":[{"user_id":85,"name":"full gays","steam_id":76561198111134021,"connected_time":2194000000000,"state":"active","ping":75},{"user_id":109,"name":"‚ò£Strale‚ò£","steam_id":76561198026578820,"connected_time":543000000000,"state":"active","ping":63},{"user_id":64,"name":"Real (Real)","steam_id":76561198323425034,"connected_time":3660000000000,"state":"active","ping":84},{"user_id":96,"name":"Wyremingo","steam_id":76561198314337596,"connected_time":1822000000000,"state":"active","ping":74},{"user_id":102,"name":"penisfinger","steam_id":76561198103904286,"connected_time":1401000000000,"state":"active","ping":74},{"user_id":114,"name":"Duke Fishlord","steam_id":76561198079928327,"connected_time":130000000000,"state":"active","ping":57},{"user_id":89,"name":"ransuS","steam_id":76561198352769801,"connected_time":2104000000000,"state":"active","ping":60},{"user_id":115,"name":"Leibeigener","steam_id":76561199275478305,"connected_time":123000000000,"state":"active","ping":41},{"user_id":111,"name":"Mata_FM11","steam_id":76561198044824504,"connected_time":231000000000,"state":"active","ping":64},{"user_id":116,"name":"Sky","steam_id":76561198087415698,"connected_time":119000000000,"state":"active","ping":61},{"user_id":110,"name":"DeCypher","steam_id":76561198171992619,"connected_time":246000000000,"state":"active","ping":65},{"user_id":117,"name":"wati","steam_id":76561198011762334,"connected_time":94000000000,"state":"active","ping":77},{"user_id":112,"name":"grana padano dop","steam_id":76561198066071855,"connected_time":148000000000,"state":"active","ping":91},{"user_id":94,"name":"Stabbyratbag","steam_id":76561198119531916,"connected_time":1877000000000,"state":"active","ping":56},{"user_id":92,"name":"Kard","steam_id":76561198191894926,"connected_time":2038000000000,"state":"active","ping":101},{"user_id":113,"name":"ToniGAM3S","steam_id":76561198964600883,"connected_time":148000000000,"state":"active","ping":61},{"user_id":105,"name":"Comical Thanos","steam_id":76561198114926172,"connected_time":1365000000000,"state":"active","ping":69},{"user_id":107,"name":"Thors","steam_id":76561197968739075,"connected_time":1214000000000,"state":"active","ping":45},{"user_id":59,"name":"Spoody #JustPassing","steam_id":76561198031523769,"connected_time":4430000000000,"state":"active","ping":52},{"user_id":45,"name":"antlionguard","steam_id":76561198072747143,"connected_time":5273000000000,"state":"active","ping":89},{"user_id":49,"name":"ivanmixo","steam_id":76561198160213989,"connected_time":5060000000000,"state":"active","ping":61}]},{"server_id":308,"name":"Uncletopia | Frankfurt | 3 | All Maps","name_short":"frk-3","host":"frk-1.de.uncletopia.com","port":27035,"enabled":true,"region":"eu","cc":"de","latitude":50.110924,"longitude":8.682127,"reserved":0,"last_update":"0001-01-01T00:00:00Z","name_a2s":"Uncletopia | Frankfurt | 3 | All Maps","protocol":17,"map":"pl_pier","folder":"tf","game":"Team Fortress","app_id":440,"player_count":24,"max_players":24,"Bots":0,"server_type":"Dedicated","server_os":"Linux","password":true,"vac":true,"version":"7757534","steam_id":85568392924504274,"keywords":["nocrits","nodmgspread","payload","uncletopia"],"game_id":440,"stv_port":27036,"stv_name":"Uncletopia | Frankfurt | 3 | All Maps | STV","players":[{"user_id":417,"name":"Sweat Plantation","steam_id":76561198025086883,"connected_time":2362000000000,"state":"active","ping":85},{"user_id":401,"name":"–ê –Ø –Ø –ô","steam_id":76561197996977995,"connected_time":3728000000000,"state":"active","ping":100},{"user_id":389,"name":"ballfondl#05","steam_id":76561199165355017,"connected_time":4593000000000,"state":"active","ping":99},{"user_id":435,"name":"spejs 30fps","steam_id":76561198000513793,"connected_time":521000000000,"state":"active","ping":64},{"user_id":434,"name":"Alfred2.2","steam_id":76561198339314744,"connected_time":525000000000,"state":"active","ping":72},{"user_id":432,"name":"Sakurayashiki","steam_id":76561198004388514,"connected_time":539000000000,"state":"active","ping":1222},{"user_id":383,"name":"FLYING DWARF","steam_id":76561199048614286,"connected_time":4903000000000,"state":"active","ping":102},{"user_id":421,"name":"LOBZIK","steam_id":76561198114830120,"connected_time":2158000000000,"state":"active","ping":77},{"user_id":426,"name":"Penguinmark","steam_id":76561199057089501,"connected_time":1973000000000,"state":"active","ping":131},{"user_id":391,"name":"Martinix","steam_id":76561198823615220,"connected_time":4588000000000,"state":"active","ping":50},{"user_id":336,"name":"KeanuCheems","steam_id":76561198145580689,"connected_time":7002000000000,"state":"active","ping":73},{"user_id":395,"name":"Pls.do.it!","steam_id":76561198211638119,"connected_time":4509000000000,"state":"active","ping":64},{"user_id":437,"name":"Carrot","steam_id":76561198119340863,"connected_time":514000000000,"state":"active","ping":55},{"user_id":436,"name":"Doctor__Mobius","steam_id":76561197971281806,"connected_time":521000000000,"state":"active","ping":65},{"user_id":430,"name":"Lord of the Lockerroom","steam_id":76561198080619697,"connected_time":1215000000000,"state":"active","ping":96},{"user_id":409,"name":"After8","steam_id":76561198090750865,"connected_time":3170000000000,"state":"active","ping":64},{"user_id":418,"name":"luma","steam_id":76561198081649669,"connected_time":2320000000000,"state":"active","ping":63},{"user_id":438,"name":"femboy enjoyer","steam_id":76561198372077936,"connected_time":493000000000,"state":"active","ping":75},{"user_id":431,"name":"Tre3","steam_id":76561198054795379,"connected_time":1210000000000,"state":"active","ping":55},{"user_id":420,"name":"citronous","steam_id":76561198093290934,"connected_time":2177000000000,"state":"active","ping":52},{"user_id":424,"name":"FWDTRKR","steam_id":76561198060369427,"connected_time":2133000000000,"state":"active","ping":153},{"user_id":425,"name":"Combat Wombat","steam_id":76561197994720068,"connected_time":2131000000000,"state":"active","ping":75},{"user_id":427,"name":"blue","steam_id":76561198216200092,"connected_time":1714000000000,"state":"active","ping":63},{"user_id":411,"name":"ricky pee pee","steam_id":76561198152620745,"connected_time":3106000000000,"state":"active","ping":69}]},{"server_id":309,"name":"Uncletopia | Frankfurt | 4 | All Maps","name_short":"frk-4","host":"frk-1.de.uncletopia.com","port":27045,"enabled":true,"region":"eu","cc":"de","latitude":50.110924,"longitude":8.682127,"reserved":0,"last_update":"0001-01-01T00:00:00Z","name_a2s":"Uncletopia | Frankfurt | 4 | All Maps","protocol":17,"map":"koth_lakeside_final","folder":"tf","game":"Team Fortress","app_id":440,"player_count":0,"max_players":24,"Bots":0,"server_type":"Dedicated","server_os":"Linux","password":true,"vac":true,"version":"7757534","steam_id":85568392924504275,"keywords":["cp","nocrits","nodmgspread","uncletopia"],"game_id":440,"stv_port":27046,"stv_name":"Uncletopia | Frankfurt | 4 | All Maps | STV","players":null},{"server_id":310,"name":"Uncletopia | Frankfurt | 5 | All Maps","name_short":"frk-5","host":"frk-1.de.uncletopia.com","port":27055,"enabled":true,"region":"eu","cc":"de","latitude":50.110924,"longitude":8.682127,"reserved":0,"last_update":"0001-01-01T00:00:00Z","name_a2s":"Uncletopia | Frankfurt | 5 | All Maps","protocol":17,"map":"pl_frontier_final","folder":"tf","game":"Team Fortress","app_id":440,"player_count":4,"max_players":24,"Bots":0,"server_type":"Dedicated","server_os":"Linux","password":true,"vac":true,"version":"7757534","steam_id":85568392924504277,"keywords":["nocrits","nodmgspread","payload","uncletopia"],"game_id":440,"stv_port":27056,"stv_name":"Uncletopia | Frankfurt | 5 | All Maps | STV","players":[{"user_id":32,"name":"posht0 ._.","steam_id":76561198106182078,"connected_time":734000000000,"state":"active","ping":104},{"user_id":33,"name":"sabaka jebanoia","steam_id":76561198147249160,"connected_time":725000000000,"state":"active","ping":104},{"user_id":34,"name":"demo is asleep","steam_id":76561199173483544,"connected_time":377000000000,"state":"active","ping":62},{"user_id":35,"name":"ERBLIN011","steam_id":76561198302006065,"connected_time":117000000000,"state":"active","ping":86}]},{"server_id":311,"name":"Uncletopia | Frankfurt | 6 | All Maps","name_short":"frk-6","host":"frk-1.de.uncletopia.com","port":27065,"enabled":true,"region":"eu","cc":"de","latitude":50.110924,"longitude":8.682127,"reserved":0,"last_update":"0001-01-01T00:00:00Z","name_a2s":"Uncletopia | Frankfurt | 6 | All Maps","protocol":17,"map":"pl_swiftwater_final1","folder":"tf","game":"Team Fortress","app_id":440,"player_count":21,"max_players":24,"Bots":0,"server_type":"Dedicated","server_os":"Linux","password":true,"vac":true,"version":"7757534","steam_id":85568392924504278,"keywords":["nocrits","nodmgspread","payload","uncletopia"],"game_id":440,"stv_port":27066,"stv_name":"Uncletopia | Frankfurt | 6 | All Maps | STV","players":[{"user_id":339,"name":"outlaw","steam_id":76561198323805289,"connected_time":316000000000,"state":"active","ping":46},{"user_id":321,"name":"DooWooD","steam_id":76561198335810106,"connected_time":1536000000000,"state":"active","ping":76},{"user_id":303,"name":"full-time b-hopper","steam_id":76561198193357946,"connected_time":2559000000000,"state":"active","ping":120},{"user_id":340,"name":"Spanish Shy Cat","steam_id":76561198808819694,"connected_time":105000000000,"state":"active","ping":49},{"user_id":275,"name":"mumbler","steam_id":76561197970641239,"connected_time":4310000000000,"state":"active","ping":45},{"user_id":341,"name":"Erior","steam_id":76561198039462080,"connected_time":92000000000,"state":"active","ping":92},{"user_id":328,"name":"Wattseyy","steam_id":76561198248567360,"connected_time":651000000000,"state":"active","ping":54},{"user_id":323,"name":"a straight white male","steam_id":76561198381120660,"connected_time":1480000000000,"state":"active","ping":90},{"user_id":342,"name":"Florua","steam_id":76561198182297846,"connected_time":63000000000,"state":"active","ping":58},{"user_id":329,"name":"Sigmar's Weakest Soldier","steam_id":76561198320506848,"connected_time":635000000000,"state":"active","ping":53},{"user_id":337,"name":"Blurry","steam_id":76561198884908952,"connected_time":360000000000,"state":"active","ping":62},{"user_id":312,"name":"jelly donut","steam_id":76561198102947221,"connected_time":2123000000000,"state":"active","ping":78},{"user_id":249,"name":"COLD EXPOSURE ENTHUSIAST","steam_id":76561198119392756,"connected_time":6144000000000,"state":"active","ping":90},{"user_id":316,"name":"Dispenser (Lopata)","steam_id":76561198820264239,"connected_time":1879000000000,"state":"active","ping":91},{"user_id":268,"name":"john fortress","steam_id":76561198013237629,"connected_time":5258000000000,"state":"active","ping":101},{"user_id":332,"name":"p!ke","steam_id":76561198416081952,"connected_time":598000000000,"state":"active","ping":59},{"user_id":280,"name":" Ä«ü«ü”Ñ…®÷Ü","steam_id":76561198084701676,"connected_time":4206000000000,"state":"active","ping":74},{"user_id":338,"name":"giankodinos","steam_id":76561199274213321,"connected_time":353000000000,"state":"active","ping":86},{"user_id":331,"name":"lore","steam_id":76561198120984188,"connected_time":617000000000,"state":"active","ping":72},{"user_id":319,"name":"Rob Rotten","steam_id":76561198170543542,"connected_time":1588000000000,"state":"active","ping":152},{"user_id":335,"name":"MPTF | Trade Bot #3.2x10^16","steam_id":76561197973182789,"connected_time":430000000000,"state":"active","ping":65}]},{"server_id":23,"name":"Uncletopia | Frankfurt | 7 | Stopwatch Beta","name_short":"frk-7","host":"frk-1.de.uncletopia.com","port":27075,"enabled":true,"region":"eu","cc":"de","latitude":50.110924,"longitude":8.682127,"reserved":0,"last_update":"0001-01-01T00:00:00Z","name_a2s":"Uncletopia | Frankfurt | 7 | Stopwatch Beta","protocol":17,"map":"workshop/koth_bagel_rc5.ugc2514036946","folder":"tf","game":"Team Fortress","app_id":440,"player_count":13,"max_players":24,"Bots":0,"server_type":"Dedicated","server_os":"Linux","password":true,"vac":true,"version":"7757534","steam_id":85568392924742827,"keywords":["cp","nocrits","nodmgspread","uncletopia"],"game_id":440,"stv_port":27076,"stv_name":"Uncletopia | Frankfurt | 7 | Stopwatch Beta | STV","players":[{"user_id":15,"name":"ZOMBINŒ£","steam_id":76561198151057964,"connected_time":766000000000,"state":"active","ping":77},{"user_id":6,"name":"fried","steam_id":76561198307522022,"connected_time":2376000000000,"state":"active","ping":51},{"user_id":12,"name":"johncenx","steam_id":76561198366703672,"connected_time":1871000000000,"state":"active","ping":77},{"user_id":16,"name":"–ê—Ä—Ç—ë–º –ö–∞—á–µ–≤–Ω–∏–∫ü§ü","steam_id":76561198966494067,"connected_time":749000000000,"state":"active","ping":88},{"user_id":19,"name":"Grinch Gun","steam_id":76561198097789669,"connected_time":554000000000,"state":"active","ping":58},{"user_id":18,"name":"Mata","steam_id":76561198308191713,"connected_time":708000000000,"state":"active","ping":59},{"user_id":27,"name":"kentir_buh","steam_id":76561198107526456,"connected_time":254000000000,"state":"active","ping":67},{"user_id":25,"name":"usmanov.inc","steam_id":76561198263734652,"connected_time":363000000000,"state":"active","ping":102},{"user_id":22,"name":"baney85377","steam_id":76561199469832530,"connected_time":497000000000,"state":"active","ping":61},{"user_id":32,"name":"Bits\u0026Peices","steam_id":76561199225453607,"connected_time":35000000000,"state":"spawning","ping":409},{"user_id":29,"name":"vert2spooky // RAT TRAP","steam_id":76561198914976373,"connected_time":179000000000,"state":"active","ping":181},{"user_id":26,"name":"Danilka","steam_id":76561199222725839,"connected_time":360000000000,"state":"active","ping":112},{"user_id":31,"name":"Radio_Active!","steam_id":76561199217286835,"connected_time":144000000000,"state":"active","ping":143}]},{"server_id":24,"name":"Uncletopia | Frankfurt | 8 | Community","name_short":"frk-8","host":"frk-1.de.uncletopia.com","port":27085,"enabled":true,"region":"eu","cc":"de","latitude":50.110924,"longitude":8.682127,"reserved":0,"last_update":"0001-01-01T00:00:00Z","name_a2s":"Uncletopia | Frankfurt | 8 | Community","protocol":17,"map":"workshop/cp_caldera_rc2.ugc2834196889","folder":"tf","game":"Team Fortress","app_id":440,"player_count":19,"max_players":24,"Bots":0,"server_type":"Dedicated","server_os":"Linux","password":true,"vac":true,"version":"7757534","steam_id":85568392924742828,"keywords":["cp","nocrits","nodmgspread","uncletopia"],"game_id":440,"stv_port":27086,"stv_name":"Uncletopia | Frankfurt | 8 | Community | STV","players":[{"user_id":172,"name":"NormalMan","steam_id":76561198411005486,"connected_time":1902000000000,"state":"active","ping":133},{"user_id":177,"name":"Banzoi","steam_id":76561198211621756,"connected_time":1401000000000,"state":"active","ping":55},{"user_id":178,"name":"PumpkinMan","steam_id":76561198929162354,"connected_time":1386000000000,"state":"active","ping":84},{"user_id":192,"name":"Azi ‚ò¢","steam_id":76561198124563460,"connected_time":814000000000,"state":"active","ping":64},{"user_id":197,"name":"Hoopty","steam_id":76561198057012442,"connected_time":639000000000,"state":"active","ping":60},{"user_id":181,"name":"sloppy","steam_id":76561198400406140,"connected_time":1343000000000,"state":"active","ping":58},{"user_id":136,"name":"Swedde","steam_id":76561198297296440,"connected_time":3154000000000,"state":"active","ping":76},{"user_id":188,"name":"blazeeight","steam_id":76561198159456502,"connected_time":1115000000000,"state":"active","ping":50},{"user_id":131,"name":"mindelthefish","steam_id":76561199418415559,"connected_time":3368000000000,"state":"active","ping":106},{"user_id":165,"name":"rafak1","steam_id":76561198287887185,"connected_time":2245000000000,"state":"active","ping":142},{"user_id":95,"name":"Tails8521","steam_id":76561198051747164,"connected_time":5484000000000,"state":"active","ping":46},{"user_id":202,"name":"Stype187","steam_id":76561198017455920,"connected_time":105000000000,"state":"active","ping":111},{"user_id":66,"name":"Irbynx","steam_id":76561197980421195,"connected_time":6810000000000,"state":"active","ping":71},{"user_id":196,"name":"Femboy Lilli","steam_id":76561198090146457,"connected_time":662000000000,"state":"active","ping":49},{"user_id":201,"name":"‚ô° ‚ô• HoodedSquid?! ‚ô• ‚ô°","steam_id":76561198079207888,"connected_time":325000000000,"state":"active","ping":43},{"user_id":191,"name":"dustloaf","steam_id":76561198074339302,"connected_time":831000000000,"state":"active","ping":87},{"user_id":155,"name":"Qwerty","steam_id":76561198023525894,"connected_time":2468000000000,"state":"active","ping":91},{"user_id":190,"name":"√°rv√≠zt≈±r≈ë t√ºk√∂rf√∫r√≥g√©p","steam_id":76561198296643061,"connected_time":1032000000000,"state":"active","ping":61},{"user_id":198,"name":"teddyswk","steam_id":76561198404939571,"connected_time":600000000000,"state":"active","ping":77}]},{"server_id":202,"name":"Uncletopia | Hong Kong | 1 | All Maps","name_short":"hgk-1","host":"hgk-1.hk.uncletopia.com","port":27015,"enabled":true,"region":"asia","cc":"hk","latitude":22.302711,"longitude":114.177216,"reserved":0,"last_update":"0001-01-01T00:00:00Z","name_a2s":"Uncletopia | Hong Kong | 1 | All Maps","protocol":17,"map":"cp_altitude","folder":"tf","game":"Team Fortress","app_id":440,"player_count":0,"max_players":24,"Bots":0,"server_type":"Dedicated","server_os":"Linux","password":true,"vac":true,"version":"7757534","steam_id":85568392924494504,"keywords":["cp","nocrits","nodmgspread","uncletopia"],"game_id":440,"stv_port":27016,"stv_name":"Uncletopia | Hong Kong | 1 | All Maps | STV","players":null},{"server_id":1,"name":"Uncletopia | Los Angeles | 1 | All Maps","name_short":"lax-1","host":"lax-1.us.uncletopia.com","port":27015,"enabled":true,"region":"us-west","cc":"us","latitude":33.94279,"longitude":-118.41004,"reserved":0,"last_update":"0001-01-01T00:00:00Z","name_a2s":"Uncletopia | Los Angeles | 1 | All Maps","protocol":17,"map":"cp_dustbowl","folder":"tf","game":"Team Fortress","app_id":440,"player_count":0,"max_players":24,"Bots":0,"server_type":"Dedicated","server_os":"Linux","password":true,"vac":true,"version":"7757534","steam_id":85568392924469991,"keywords":["cp","nocrits","nodmgspread","uncletopia"],"game_id":440,"stv_port":27016,"stv_name":"Uncletopia | Los Angeles | 1 | All Maps | STV","players":null},{"server_id":112,"name":"Uncletopia | Los Angeles | 2 | All Maps","name_short":"lax-2","host":"lax-1.us.uncletopia.com","port":27025,"enabled":true,"region":"us-west","cc":"us","latitude":33.94279,"longitude":-118.41004,"reserved":0,"last_update":"0001-01-01T00:00:00Z","name_a2s":"Uncletopia | Los Angeles | 2 | All Maps","protocol":17,"map":"cp_mountainlab","folder":"tf","game":"Team Fortress","app_id":440,"player_count":0,"max_players":24,"Bots":0,"server_type":"Dedicated","server_os":"Linux","password":true,"vac":true,"version":"7757534","steam_id":85568392924469992,"keywords":["cp","nocrits","nodmgspread","uncletopia"],"game_id":440,"stv_port":27026,"stv_name":"Uncletopia | Los Angeles | 2 | All Maps | STV","players":null},{"server_id":324,"name":"Uncletopia | Los Angeles | 3 | All Maps","name_short":"lax-3","host":"lax-1.us.uncletopia.com","port":27035,"enabled":true,"region":"us-west","cc":"us","latitude":33.94279,"longitude":-118.41004,"reserved":0,"last_update":"0001-01-01T00:00:00Z","name_a2s":"Uncletopia | Los Angeles | 3 | All Maps","protocol":17,"map":"koth_cascade","folder":"tf","game":"Team Fortress","app_id":440,"player_count":0,"max_players":24,"Bots":0,"server_type":"Dedicated","server_os":"Linux","password":true,"vac":true,"version":"7757534","steam_id":85568392924510198,"keywords":["cp","nocrits","nodmgspread","uncletopia"],"game_id":440,"stv_port":27036,"stv_name":"Uncletopia | Los Angeles | 3 | All Maps | STV","players":null},{"server_id":25,"name":"Uncletopia | Los Angeles | 4 | Stopwatch Beta","name_short":"lax-4","host":"lax-1.us.uncletopia.com","port":27045,"enabled":true,"region":"us-west","cc":"us","latitude":33.94279,"longitude":-118.41004,"reserved":0,"last_update":"0001-01-01T00:00:00Z","name_a2s":"Uncletopia | Los Angeles | 4 | Stopwatch Beta","protocol":17,"map":"koth_viaduct","folder":"tf","game":"Team Fortress","app_id":440,"player_count":0,"max_players":24,"Bots":0,"server_type":"Dedicated","server_os":"Linux","password":true,"vac":true,"version":"7757534","steam_id":85568392924510199,"keywords":["cp","nocrits","nodmgspread","uncletopia"],"game_id":440,"stv_port":27046,"stv_name":"Uncletopia | Los Angeles | 4 | Stopwatch Beta | STV","players":null},{"server_id":11,"name":"Uncletopia | London | 1 | All Maps","name_short":"lon-1","host":"lon-1.uk.uncletopia.com","port":27015,"enabled":true,"region":"eu","cc":"gb","latitude":51.509865,"longitude":-0.118092,"reserved":0,"last_update":"0001-01-01T00:00:00Z","name_a2s":"Uncletopia | London | 1 | All Maps","protocol":17,"map":"koth_harvest_final","folder":"tf","game":"Team Fortress","app_id":440,"player_count":23,"max_players":24,"Bots":0,"server_type":"Dedicated","server_os":"Linux","password":true,"vac":true,"version":"7757534","steam_id":85568392924367362,"keywords":["nocrits","nodmgspread","payload","uncletopia"],"game_id":440,"stv_port":27016,"stv_name":"Uncletopia | London | 1 | All Maps | STV","players":[{"user_id":14,"name":"Dr√¶ghy","steam_id":76561198252417898,"connected_time":11582000000000,"state":"connecting","ping":66},{"user_id":166,"name":"KeNNy L.O.L","steam_id":76561198041918418,"connected_time":1655000000000,"state":"connecting","ping":133},{"user_id":178,"name":"Calanim","steam_id":76561198068163854,"connected_time":1100000000000,"state":"connecting","ping":49},{"user_id":185,"name":"Giovine Killjoy","steam_id":76561198059375315,"connected_time":411000000000,"state":"connecting","ping":81},{"user_id":186,"name":"holykyckling","steam_id":76561198040661615,"connected_time":409000000000,"state":"connecting","ping":97},{"user_id":155,"name":"Ameeba100","steam_id":76561199207076969,"connected_time":2932000000000,"state":"connecting","ping":108},{"user_id":182,"name":"Saken","steam_id":76561198049075295,"connected_time":989000000000,"state":"connecting","ping":88},{"user_id":157,"name":"Leaf Mate","steam_id":76561199224645309,"connected_time":2715000000000,"state":"connecting","ping":106},{"user_id":181,"name":":3","steam_id":76561198301481739,"connected_time":1002000000000,"state":"connecting","ping":80},{"user_id":172,"name":"lark","steam_id":76561198091724522,"connected_time":1390000000000,"state":"connecting","ping":72},{"user_id":156,"name":"Joona","steam_id":76561199170438782,"connected_time":2754000000000,"state":"connecting","ping":123},{"user_id":149,"name":"Fell","steam_id":76561197987041054,"connected_time":3381000000000,"state":"connecting","ping":57},{"user_id":135,"name":"Circular","steam_id":76561198001536710,"connected_time":4172000000000,"state":"connecting","ping":63},{"user_id":183,"name":"Hermitcrack","steam_id":76561198149216441,"connected_time":903000000000,"state":"connecting","ping":100},{"user_id":188,"name":"Asfreild","steam_id":76561198055901120,"connected_time":26000000000,"state":"connecting","ping":94},{"user_id":163,"name":"Uncle Owen","steam_id":76561198157999291,"connected_time":2277000000000,"state":"connecting","ping":110},{"user_id":118,"name":"Mr. Luck | SFM","steam_id":76561198088255641,"connected_time":5700000000000,"state":"connecting","ping":129},{"user_id":177,"name":"nudjura","steam_id":76561198281986139,"connected_time":1178000000000,"state":"connecting","ping":34},{"user_id":180,"name":"Egtu","steam_id":76561198013757235,"connected_time":1014000000000,"state":"connecting","ping":90},{"user_id":175,"name":"guyinatophat51","steam_id":76561198180230694,"connected_time":1321000000000,"state":"connecting","ping":175},{"user_id":170,"name":"hmscole09","steam_id":76561198811362788,"connected_time":1568000000000,"state":"connecting","ping":63},{"user_id":171,"name":"John 1:14","steam_id":76561198024959451,"connected_time":1557000000000,"state":"connecting","ping":57}]},{"server_id":114,"name":"Uncletopia | London | 2 | All Maps","name_short":"lon-2","host":"lon-1.uk.uncletopia.com","port":27025,"enabled":true,"region":"eu","cc":"gb","latitude":51.509865,"longitude":-0.118092,"reserved":0,"last_update":"0001-01-01T00:00:00Z","name_a2s":"Uncletopia | London | 2 | All Maps","protocol":17,"map":"pl_pier","folder":"tf","game":"Team Fortress","app_id":440,"player_count":24,"max_players":24,"Bots":0,"server_type":"Dedicated","server_os":"Linux","password":true,"vac":true,"version":"7757534","steam_id":85568392924470941,"keywords":["nocrits","nodmgspread","payload","uncletopia"],"game_id":440,"stv_port":27026,"stv_name":"Uncletopia | London | 2 | All Maps | STV","players":[{"user_id":415,"name":"viktor610126","steam_id":76561198386462300,"connected_time":1319000000000,"state":"active","ping":95},{"user_id":412,"name":"AngryBurrito","steam_id":76561197972778702,"connected_time":1528000000000,"state":"active","ping":59},{"user_id":375,"name":"Pintarolas","steam_id":76561198124839451,"connected_time":3474000000000,"state":"active","ping":99},{"user_id":355,"name":"AnonTron","steam_id":76561199031895493,"connected_time":5036000000000,"state":"active","ping":153},{"user_id":374,"name":"fume.","steam_id":76561197960476801,"connected_time":3790000000000,"state":"active","ping":57},{"user_id":401,"name":"Nish","steam_id":76561197996068735,"connected_time":1798000000000,"state":"active","ping":85},{"user_id":416,"name":"Dr. Jabbinton","steam_id":76561198180007387,"connected_time":1082000000000,"state":"active","ping":43},{"user_id":280,"name":"KlevukaS‚Ñ¢","steam_id":76561198312867604,"connected_time":10570000000000,"state":"active","ping":83},{"user_id":423,"name":"Miss Bari","steam_id":76561198365286092,"connected_time":623000000000,"state":"active","ping":36},{"user_id":387,"name":"Ment√≠","steam_id":76561198354012520,"connected_time":2868000000000,"state":"active","ping":69},{"user_id":421,"name":"Caerot","steam_id":76561198839000676,"connected_time":653000000000,"state":"active","ping":73},{"user_id":425,"name":"Pablo","steam_id":76561198160394046,"connected_time":458000000000,"state":"active","ping":118},{"user_id":419,"name":"–í–∞–¥–∏–º –ö–∞–∫–∞—à–∫–∏–Ω","steam_id":76561198383509320,"connected_time":737000000000,"state":"active","ping":81},{"user_id":411,"name":"LordTrap.exe","steam_id":76561198318089716,"connected_time":1538000000000,"state":"active","ping":51},{"user_id":390,"name":"Whoopi Goldberg","steam_id":76561199378865926,"connected_time":2821000000000,"state":"active","ping":91},{"user_id":400,"name":"snowii","steam_id":76561198836246326,"connected_time":1945000000000,"state":"active","ping":46},{"user_id":426,"name":"Fran","steam_id":76561199070516960,"connected_time":61000000000,"state":"active","ping":69},{"user_id":368,"name":"Zerfesh","steam_id":76561198117534358,"connected_time":4682000000000,"state":"active","ping":91},{"user_id":405,"name":"Vitamin Weee","steam_id":76561199183937747,"connected_time":1677000000000,"state":"active","ping":92},{"user_id":427,"name":"‚Ññrth","steam_id":76561198055365234,"connected_time":29000000000,"state":"active","ping":98},{"user_id":410,"name":"shr1mple","steam_id":76561198173537027,"connected_time":1549000000000,"state":"active","ping":53},{"user_id":406,"name":"Mr. Frog","steam_id":76561198016568920,"connected_time":1670000000000,"state":"active","ping":46},{"user_id":364,"name":"‚úüBlack Stalker‚úü","steam_id":76561198303915364,"connected_time":4912000000000,"state":"active","ping":101},{"user_id":422,"name":"HUGE ANIME TITTIES","steam_id":76561198208316165,"connected_time":652000000000,"state":"active","ping":163}]},{"server_id":320,"name":"Uncletopia | London | 3 | All Maps","name_short":"lon-3","host":"lon-1.uk.uncletopia.com","port":27035,"enabled":true,"region":"eu","cc":"gb","latitude":51.509865,"longitude":-0.118092,"reserved":0,"last_update":"0001-01-01T00:00:00Z","name_a2s":"Uncletopia | London | 3 | All Maps","protocol":17,"map":"koth_highpass","folder":"tf","game":"Team Fortress","app_id":440,"player_count":3,"max_players":24,"Bots":0,"server_type":"Dedicated","server_os":"Linux","password":true,"vac":true,"version":"7757534","steam_id":85568392924510192,"keywords":["cp","nocrits","nodmgspread","uncletopia"],"game_id":440,"stv_port":27036,"stv_name":"Uncletopia | London | 3 | All Maps | STV","players":[{"user_id":10,"name":"AGamer75","steam_id":76561199045267748,"connected_time":870000000000,"state":"active","ping":104},{"user_id":11,"name":"minecrafter","steam_id":76561198797989834,"connected_time":722000000000,"state":"active","ping":39},{"user_id":14,"name":"[Exi] ‚±Øard","steam_id":76561198435276148,"connected_time":126000000000,"state":"active","ping":79}]},{"server_id":321,"name":"Uncletopia | London | 4 | All Maps","name_short":"lon-4","host":"lon-1.uk.uncletopia.com","port":27045,"enabled":true,"region":"eu","cc":"gb","latitude":51.509865,"longitude":-0.118092,"reserved":0,"last_update":"0001-01-01T00:00:00Z","name_a2s":"Uncletopia | London | 4 | All Maps","protocol":17,"map":"cp_mountainlab","folder":"tf","game":"Team Fortress","app_id":440,"player_count":0,"max_players":24,"Bots":0,"server_type":"Dedicated","server_os":"Linux","password":true,"vac":true,"version":"7757534","steam_id":85568392924510193,"keywords":["cp","nocrits","nodmgspread","uncletopia"],"game_id":440,"stv_port":27046,"stv_name":"Uncletopia | London | 4 | All Maps | STV","players":null},{"server_id":21,"name":"Uncletopia | London | 5 | All Maps","name_short":"lon-5","host":"lon-1.uk.uncletopia.com","port":27055,"enabled":true,"region":"eu","cc":"gb","latitude":51.509865,"longitude":-0.118092,"reserved":0,"last_update":"0001-01-01T00:00:00Z","name_a2s":"Uncletopia | London | 5 | All Maps","protocol":17,"map":"cp_snakewater_final1","folder":"tf","game":"Team Fortress","app_id":440,"player_count":22,"max_players":24,"Bots":0,"server_type":"Dedicated","server_os":"Linux","password":true,"vac":true,"version":"7757534","steam_id":85568392924742829,"keywords":["cp","nocrits","nodmgspread","uncletopia"],"game_id":440,"stv_port":27056,"stv_name":"Uncletopia | London | 5 | All Maps | STV","players":[{"user_id":41,"name":"Farmercy","steam_id":76561198000038039,"connected_time":3149000000000,"state":"active","ping":60},{"user_id":69,"name":"Ray","steam_id":76561198053880090,"connected_time":326000000000,"state":"active","ping":83},{"user_id":44,"name":"Cave Johnson","steam_id":76561198366456565,"connected_time":3034000000000,"state":"active","ping":73},{"user_id":80,"name":"subway vergil","steam_id":76561199110064166,"connected_time":96000000000,"state":"active","ping":91},{"user_id":81,"name":"JoJo","steam_id":76561198296920548,"connected_time":86000000000,"state":"spawning","ping":110},{"user_id":82,"name":"suamen_sotilas","steam_id":76561198387004459,"connected_time":35000000000,"state":"active","ping":199},{"user_id":78,"name":"C√©l√©rio","steam_id":76561198088253576,"connected_time":178000000000,"state":"active","ping":44},{"user_id":40,"name":"The Wheel (Live on KEXP)","steam_id":76561199064350902,"connected_time":3160000000000,"state":"active","ping":104},{"user_id":51,"name":"[CiC] FU2Max","steam_id":76561197960282327,"connected_time":2095000000000,"state":"active","ping":36},{"user_id":70,"name":"Frederica Miyamoto","steam_id":76561199052513609,"connected_time":322000000000,"state":"active","ping":121},{"user_id":46,"name":"hnz","steam_id":76561198136606222,"connected_time":2942000000000,"state":"active","ping":62},{"user_id":71,"name":"X45Y","steam_id":76561198112534025,"connected_time":321000000000,"state":"active","ping":59},{"user_id":24,"name":"TimRam","steam_id":76561199026689004,"connected_time":3644000000000,"state":"active","ping":91},{"user_id":64,"name":"Catali","steam_id":76561198054056911,"connected_time":932000000000,"state":"active","ping":86},{"user_id":53,"name":"ThePowerOfJesus","steam_id":76561198400343799,"connected_time":2032000000000,"state":"active","ping":60},{"user_id":72,"name":"Jhin","steam_id":76561198070137469,"connected_time":296000000000,"state":"active","ping":108},{"user_id":73,"name":"skilltissues","steam_id":76561198025828664,"connected_time":295000000000,"state":"active","ping":57},{"user_id":74,"name":"KingTeddy","steam_id":76561198131757499,"connected_time":285000000000,"state":"active","ping":69},{"user_id":35,"name":"niaerniopawrjnko","steam_id":76561198030408772,"connected_time":3268000000000,"state":"active","ping":60},{"user_id":63,"name":"‚ù§ Sparx ‚ù§","steam_id":76561198095009261,"connected_time":1167000000000,"state":"active","ping":75},{"user_id":76,"name":"night.s","steam_id":76561198326287823,"connected_time":262000000000,"state":"active","ping":85},{"user_id":77,"name":"Az","steam_id":76561198351188724,"connected_time":252000000000,"state":"active","ping":45}]},{"server_id":22,"name":"Uncletopia | London | 6 | All Maps","name_short":"lon-6","host":"lon-1.uk.uncletopia.com","port":27065,"enabled":true,"region":"eu","cc":"gb","latitude":51.509865,"longitude":-0.118092,"reserved":0,"last_update":"0001-01-01T00:00:00Z","name_a2s":"Uncletopia | London | 6 | All Maps","protocol":17,"map":"koth_viaduct","folder":"tf","game":"Team Fortress","app_id":440,"player_count":24,"max_players":24,"Bots":0,"server_type":"Dedicated","server_os":"Linux","password":true,"vac":true,"version":"7757534","steam_id":85568392924742830,"keywords":["cp","nocrits","nodmgspread","uncletopia"],"game_id":440,"stv_port":27066,"stv_name":"Uncletopia | London | 6 | All Maps | STV","players":[{"user_id":491,"name":"simon","steam_id":76561198880361394,"connected_time":2947000000000,"state":"active","ping":63},{"user_id":483,"name":"R A S M U S","steam_id":76561198279799226,"connected_time":3904000000000,"state":"active","ping":77},{"user_id":384,"name":"that guy","steam_id":76561198202990635,"connected_time":11900000000000,"state":"active","ping":69},{"user_id":528,"name":"‚òûLaZe‚òú","steam_id":76561198202191400,"connected_time":170000000000,"state":"active","ping":47},{"user_id":527,"name":"dubysa","steam_id":76561198079774530,"connected_time":188000000000,"state":"active","ping":74},{"user_id":524,"name":"Eyae","steam_id":76561199167361456,"connected_time":213000000000,"state":"active","ping":100},{"user_id":499,"name":"Mr Prince","steam_id":76561199006591691,"connected_time":2221000000000,"state":"active","ping":56},{"user_id":502,"name":"Spetse","steam_id":76561197990649972,"connected_time":2108000000000,"state":"active","ping":93},{"user_id":525,"name":"Blacksheep","steam_id":76561198019621063,"connected_time":212000000000,"state":"active","ping":50},{"user_id":526,"name":"Fluffed up Maverick","steam_id":76561198843516708,"connected_time":203000000000,"state":"active","ping":74},{"user_id":515,"name":"DribSitoop","steam_id":76561198020597104,"connected_time":1333000000000,"state":"active","ping":68},{"user_id":511,"name":"A Featherless Biped","steam_id":76561198307904901,"connected_time":1453000000000,"state":"active","ping":42},{"user_id":529,"name":"—Ç–æ–ª—è","steam_id":76561199098518615,"connected_time":156000000000,"state":"active","ping":96},{"user_id":530,"name":"Venisaur165","steam_id":76561198045436253,"connected_time":156000000000,"state":"active","ping":155},{"user_id":522,"name":"Moral","steam_id":76561198130601123,"connected_time":455000000000,"state":"active","ping":62},{"user_id":517,"name":"Penis Contortionist","steam_id":76561198073663784,"connected_time":1285000000000,"state":"active","ping":47},{"user_id":531,"name":"Fellas","steam_id":76561198845162162,"connected_time":114000000000,"state":"active","ping":48},{"user_id":520,"name":"Male gamer (derogatory)","steam_id":76561198074097655,"connected_time":1158000000000,"state":"active","ping":42},{"user_id":532,"name":"BSantos57","steam_id":76561198000597094,"connected_time":104000000000,"state":"active","ping":94},{"user_id":533,"name":"Gio'sMonkey","steam_id":76561198892432223,"connected_time":58000000000,"state":"active","ping":89},{"user_id":534,"name":"Noob_with_source","steam_id":76561198870362103,"connected_time":48000000000,"state":"active","ping":52},{"user_id":480,"name":"Phrog","steam_id":76561197994499500,"connected_time":4133000000000,"state":"active","ping":64},{"user_id":492,"name":"Johnny Cockroach","steam_id":76561198049648277,"connected_time":2944000000000,"state":"active","ping":99},{"user_id":535,"name":"Yachooo","steam_id":76561198085972300,"connected_time":7000000000,"state":"spawning","ping":119}]},{"server_id":40,"name":"Uncletopia | London | 7 | No Payload","name_short":"lon-7","host":"lon-1.uk.uncletopia.com","port":27075,"enabled":true,"region":"eu","cc":"gb","latitude":51.509865,"longitude":-0.118092,"reserved":0,"last_update":"0001-01-01T00:00:00Z","name_a2s":"Uncletopia | London | 7 | No Payload","protocol":17,"map":"cp_fastlane","folder":"tf","game":"Team Fortress","app_id":440,"player_count":0,"max_players":24,"Bots":0,"server_type":"Dedicated","server_os":"Linux","password":true,"vac":true,"version":"7757534","steam_id":85568392924964314,"keywords":["cp","nocrits","nodmgspread","uncletopia"],"game_id":440,"stv_port":27076,"stv_name":"Uncletopia | London | 7 | No Payload | STV","players":null},{"server_id":41,"name":"Uncletopia | London | 8 | Community","name_short":"lon-8","host":"lon-1.uk.uncletopia.com","port":27085,"enabled":true,"region":"eu","cc":"gb","latitude":51.509865,"longitude":-0.118092,"reserved":0,"last_update":"0001-01-01T00:00:00Z","name_a2s":"Uncletopia | London | 8 | Community","protocol":17,"map":"workshop/cp_caldera_rc2.ugc2834196889","folder":"tf","game":"Team Fortress","app_id":440,"player_count":0,"max_players":24,"Bots":0,"server_type":"Dedicated","server_os":"Linux","password":true,"vac":true,"version":"7757534","steam_id":85568392924964315,"keywords":["cp","nocrits","nodmgspread","uncletopia"],"game_id":440,"stv_port":27086,"stv_name":"Uncletopia | London | 8 | Community | STV","players":null},{"server_id":300,"name":"Uncletopia | Montr√©al | 1 | All Maps","name_short":"mtl-1","host":"mtl-1.ca.uncletopia.com","port":27015,"enabled":true,"region":"us-east","cc":"ca","latitude":45.50889,"longitude":-73.56167,"reserved":0,"last_update":"0001-01-01T00:00:00Z","name_a2s":"Uncletopia | Montr√©al | 1 | All Maps","protocol":17,"map":"pl_upward","folder":"tf","game":"Team Fortress","app_id":440,"player_count":0,"max_players":24,"Bots":0,"server_type":"Dedicated","server_os":"Linux","password":true,"vac":true,"version":"7757534","steam_id":85568392924500087,"keywords":["nocrits","nodmgspread","payload","uncletopia"],"game_id":440,"stv_port":27016,"stv_name":"Uncletopia | Montr√©al | 1 | All Maps | STV","players":null},{"server_id":301,"name":"Uncletopia | Montr√©al | 2 | All Maps","name_short":"mtl-2","host":"mtl-1.ca.uncletopia.com","port":27025,"enabled":true,"region":"us-east","cc":"ca","latitude":45.50889,"longitude":-73.56167,"reserved":0,"last_update":"0001-01-01T00:00:00Z","name_a2s":"Uncletopia | Montr√©al | 2 | All Maps","protocol":17,"map":"pl_borneo","folder":"tf","game":"Team Fortress","app_id":440,"player_count":0,"max_players":24,"Bots":0,"server_type":"Dedicated","server_os":"Linux","password":true,"vac":true,"version":"7757534","steam_id":85568392924500088,"keywords":["nocrits","nodmgspread","payload","uncletopia"],"game_id":440,"stv_port":27026,"stv_name":"Uncletopia | Montr√©al | 2 | All Maps | STV","players":null},{"server_id":302,"name":"Uncletopia | Montr√©al | 3 | All Maps","name_short":"mtl-3","host":"mtl-1.ca.uncletopia.com","port":27035,"enabled":true,"region":"us-east","cc":"ca","latitude":45.50889,"longitude":-73.56167,"reserved":0,"last_update":"0001-01-01T00:00:00Z","name_a2s":"Uncletopia | Montr√©al | 3 | All Maps","protocol":17,"map":"cp_sunshine","folder":"tf","game":"Team Fortress","app_id":440,"player_count":0,"max_players":24,"Bots":0,"server_type":"Dedicated","server_os":"Linux","password":true,"vac":true,"version":"7757534","steam_id":85568392924500089,"keywords":["cp","nocrits","nodmgspread","uncletopia"],"game_id":440,"stv_port":27036,"stv_name":"Uncletopia | Montr√©al | 3 | All Maps | STV","players":null},{"server_id":303,"name":"Uncletopia | Montr√©al | 4 | No Payload","name_short":"mtl-4","host":"mtl-1.ca.uncletopia.com","port":27045,"enabled":true,"region":"us-east","cc":"ca","latitude":45.50889,"longitude":-73.56167,"reserved":0,"last_update":"0001-01-01T00:00:00Z","name_a2s":"Uncletopia | Montr√©al | 4 | No Payload","protocol":17,"map":"koth_lakeside_final","folder":"tf","game":"Team Fortress","app_id":440,"player_count":0,"max_players":24,"Bots":0,"server_type":"Dedicated","server_os":"Linux","password":true,"vac":true,"version":"7757534","steam_id":85568392924500090,"keywords":["cp","nocrits","nodmgspread","uncletopia"],"game_id":440,"stv_port":27046,"stv_name":"Uncletopia | Montr√©al | 4 | No Payload | STV","players":null},{"server_id":13,"name":"Uncletopia | New York City | 1 | All Maps","name_short":"nyc-1","host":"nyc-1.us.uncletopia.com","port":27015,"enabled":true,"region":"us-east","cc":"us","latitude":40.73061,"longitude":-73.93524,"reserved":0,"last_update":"0001-01-01T00:00:00Z","name_a2s":"Uncletopia | New York City | 1 | All Maps","protocol":17,"map":"pl_pier","folder":"tf","game":"Team Fortress","app_id":440,"player_count":22,"max_players":24,"Bots":0,"server_type":"Dedicated","server_os":"Linux","password":true,"vac":true,"version":"7757534","steam_id":85568392924469993,"keywords":["nocrits","nodmgspread","payload","uncletopia"],"game_id":440,"stv_port":27016,"stv_name":"Uncletopia | New York City | 1 | All Maps | STV","players":[{"user_id":161,"name":"Walmart Employee","steam_id":76561198840373909,"connected_time":889000000000,"state":"active","ping":96},{"user_id":159,"name":"fi_ji","steam_id":76561198126087725,"connected_time":992000000000,"state":"active","ping":59},{"user_id":160,"name":"ATL1 | LuckyZero-_-","steam_id":76561198139891051,"connected_time":991000000000,"state":"active","ping":85},{"user_id":166,"name":"Toothpick Enthusiast","steam_id":76561198156746320,"connected_time":442000000000,"state":"active","ping":63},{"user_id":119,"name":"Degausser","steam_id":76561198149671307,"connected_time":4066000000000,"state":"active","ping":52},{"user_id":148,"name":"trippingbull419","steam_id":76561199111639935,"connected_time":1245000000000,"state":"active","ping":74},{"user_id":139,"name":"Kurt Biscuitmaker","steam_id":76561198331701823,"connected_time":2088000000000,"state":"active","ping":57},{"user_id":164,"name":"The Horselords and Animal Gods","steam_id":76561197975094050,"connected_time":481000000000,"state":"active","ping":121},{"user_id":157,"name":"Hulkster","steam_id":76561198278156353,"connected_time":1071000000000,"state":"active","ping":81},{"user_id":129,"name":"rathotel","steam_id":76561198208126512,"connected_time":3152000000000,"state":"active","ping":57},{"user_id":163,"name":"fridolin","steam_id":76561198005806915,"connected_time":545000000000,"state":"active","ping":71},{"user_id":134,"name":"fregaropa","steam_id":76561198150806166,"connected_time":2527000000000,"state":"active","ping":150},{"user_id":88,"name":"the owner of a headache","steam_id":76561198862623007,"connected_time":5192000000000,"state":"active","ping":154},{"user_id":149,"name":"Wallish","steam_id":76561198057175636,"connected_time":1243000000000,"state":"active","ping":101},{"user_id":167,"name":"Rein","steam_id":76561198300340427,"connected_time":216000000000,"state":"active","ping":71},{"user_id":150,"name":"Fat Spy with Unusual Pan","steam_id":76561199027576969,"connected_time":1235000000000,"state":"active","ping":168},{"user_id":153,"name":"prismaticJester","steam_id":76561198089369996,"connected_time":1126000000000,"state":"active","ping":55},{"user_id":143,"name":"scrapheap","steam_id":76561198202407087,"connected_time":1556000000000,"state":"active","ping":83},{"user_id":154,"name":"DistantJragon","steam_id":76561198117563641,"connected_time":1124000000000,"state":"active","ping":71},{"user_id":116,"name":"Budder Nubbs","steam_id":76561198353763789,"connected_time":4175000000000,"state":"active","ping":60},{"user_id":168,"name":"donatello „ÉÑ","steam_id":76561198091157081,"connected_time":22000000000,"state":"spawning","ping":77},{"user_id":137,"name":"Tyrone","steam_id":76561198189429665,"connected_time":2331000000000,"state":"active","ping":78}]},{"server_id":14,"name":"Uncletopia | New York City | 2 | All Maps","name_short":"nyc-2","host":"nyc-1.us.uncletopia.com","port":27025,"enabled":true,"region":"us-east","cc":"us","latitude":40.73061,"longitude":-73.93524,"reserved":0,"last_update":"0001-01-01T00:00:00Z","name_a2s":"Uncletopia | New York City | 2 | All Maps","protocol":17,"map":"koth_viaduct","folder":"tf","game":"Team Fortress","app_id":440,"player_count":0,"max_players":24,"Bots":0,"server_type":"Dedicated","server_os":"Linux","password":true,"vac":true,"version":"7757534","steam_id":85568392924469994,"keywords":["cp","nocrits","nodmgspread","uncletopia"],"game_id":440,"stv_port":27026,"stv_name":"Uncletopia | New York City | 2 | All Maps | STV","players":null},{"server_id":15,"name":"Uncletopia | New York City | 3 | Stopwatch Beta","name_short":"nyc-3","host":"nyc-1.us.uncletopia.com","port":27035,"enabled":true,"region":"us-east","cc":"us","latitude":40.73061,"longitude":-73.93524,"reserved":0,"last_update":"0001-01-01T00:00:00Z","name_a2s":"Uncletopia | New York City | 3 | Stopwatch Beta","protocol":17,"map":"koth_lakeside_final","folder":"tf","game":"Team Fortress","app_id":440,"player_count":0,"max_players":24,"Bots":0,"server_type":"Dedicated","server_os":"Linux","password":true,"vac":true,"version":"7757534","steam_id":85568392924742820,"keywords":["cp","nocrits","nodmgspread","uncletopia"],"game_id":440,"stv_port":27036,"stv_name":"Uncletopia | New York City | 3 | Stopwatch Beta | STV","players":null},{"server_id":16,"name":"Uncletopia | New York City | 4 | Community","name_short":"nyc-4","host":"nyc-1.us.uncletopia.com","port":27045,"enabled":true,"region":"us-east","cc":"us","latitude":40.73061,"longitude":-73.93524,"reserved":0,"last_update":"0001-01-01T00:00:00Z","name_a2s":"Uncletopia | New York City | 4 | Community","protocol":17,"map":"pl_borneo","folder":"tf","game":"Team Fortress","app_id":440,"player_count":0,"max_players":24,"Bots":0,"server_type":"Dedicated","server_os":"Linux","password":true,"vac":true,"version":"7757534","steam_id":85568392924742821,"keywords":["nocrits","nodmgspread","payload","uncletopia"],"game_id":440,"stv_port":27046,"stv_name":"Uncletopia | New York City | 4 | Community | STV","players":null},{"server_id":142,"name":"Uncletopia | S√£o Paulo | 1 | All Maps","name_short":"sao-1","host":"sao-1.br.uncletopia.com","port":27015,"enabled":true,"region":"sa","cc":"br","latitude":-23.533773,"longitude":-46.62529,"reserved":0,"last_update":"0001-01-01T00:00:00Z","name_a2s":"Uncletopia | S√£o Paulo | 1 | All Maps","protocol":17,"map":"pl_snowycoast","folder":"tf","game":"Team Fortress","app_id":440,"player_count":0,"max_players":24,"Bots":0,"server_type":"Dedicated","server_os":"Linux","password":true,"vac":true,"version":"7757534","steam_id":85568392924469996,"keywords":["nocrits","nodmgspread","payload","uncletopia"],"game_id":440,"stv_port":27016,"stv_name":"Uncletopia | S√£o Paulo | 1 | All Maps | STV","players":null},{"server_id":143,"name":"Uncletopia | S√£o Paulo | 2 | All Maps","name_short":"sao-2","host":"sao-2.br.uncletopia.com","port":27015,"enabled":true,"region":"sa","cc":"br","latitude":-23.533773,"longitude":-46.62529,"reserved":0,"last_update":"0001-01-01T00:00:00Z","name_a2s":"Uncletopia | S√£o Paulo | 2 | All Maps","protocol":17,"map":"koth_highpass","folder":"tf","game":"Team Fortress","app_id":440,"player_count":0,"max_players":24,"Bots":0,"server_type":"Dedicated","server_os":"Linux","password":true,"vac":true,"version":"7757534","steam_id":85568392924485349,"keywords":["cp","nocrits","nodmgspread","uncletopia"],"game_id":440,"stv_port":27016,"stv_name":"Uncletopia | S√£o Paulo | 2 | All Maps | STV","players":null},{"server_id":7,"name":"Uncletopia | Seattle | 1 | All Maps","name_short":"sea-1","host":"sea-1.us.uncletopia.com","port":27015,"enabled":true,"region":"us-west","cc":"us","latitude":47.608013,"longitude":-122.33517,"reserved":0,"last_update":"0001-01-01T00:00:00Z","name_a2s":"Uncletopia | Seattle | 1 | All Maps","protocol":17,"map":"koth_viaduct","folder":"tf","game":"Team Fortress","app_id":440,"player_count":0,"max_players":24,"Bots":0,"server_type":"Dedicated","server_os":"Linux","password":true,"vac":true,"version":"7757534","steam_id":85568392924469997,"keywords":["cp","nocrits","nodmgspread","uncletopia"],"game_id":440,"stv_port":27016,"stv_name":"Uncletopia | Seattle | 1 | All Maps | STV","players":null},{"server_id":119,"name":"Uncletopia | Seattle | 2 | All Maps","name_short":"sea-2","host":"sea-1.us.uncletopia.com","port":27025,"enabled":true,"region":"us-west","cc":"us","latitude":47.608013,"longitude":-122.33517,"reserved":0,"last_update":"0001-01-01T00:00:00Z","name_a2s":"Uncletopia | Seattle | 2 | All Maps","protocol":17,"map":"cp_process_final","folder":"tf","game":"Team Fortress","app_id":440,"player_count":0,"max_players":24,"Bots":0,"server_type":"Dedicated","server_os":"Linux","password":true,"vac":true,"version":"7757534","steam_id":85568392924469998,"keywords":["cp","nocrits","nodmgspread","uncletopia"],"game_id":440,"stv_port":27026,"stv_name":"Uncletopia | Seattle | 2 | All Maps | STV","players":null},{"server_id":406,"name":"Uncletopia | Seattle | 3 | Stopwatch Beta","name_short":"sea-3","host":"sea-1.us.uncletopia.com","port":27035,"enabled":true,"region":"us-west","cc":"us","latitude":47.608013,"longitude":-122.33517,"reserved":0,"last_update":"0001-01-01T00:00:00Z","name_a2s":"Uncletopia | Seattle | 3 | Stopwatch Beta","protocol":17,"map":"cp_sunshine","folder":"tf","game":"Team Fortress","app_id":440,"player_count":0,"max_players":24,"Bots":0,"server_type":"Dedicated","server_os":"Linux","password":true,"vac":true,"version":"7757534","steam_id":85568392924515217,"keywords":["cp","nocrits","nodmgspread","uncletopia"],"game_id":440,"stv_port":27036,"stv_name":"Uncletopia | Seattle | 3 | Stopwatch Beta | STV","players":null},{"server_id":17,"name":"Uncletopia | San Francisco | 1 | All Maps","name_short":"sfo-1","host":"sfo-1.us.uncletopia.com","port":27015,"enabled":true,"region":"us-west","cc":"us","latitude":37.77397,"longitude":-122.4313,"reserved":0,"last_update":"0001-01-01T00:00:00Z","name_a2s":"Uncletopia | San Francisco | 1 | All Maps","protocol":17,"map":"pl_pier","folder":"tf","game":"Team Fortress","app_id":440,"player_count":0,"max_players":24,"Bots":0,"server_type":"Dedicated","server_os":"Linux","password":true,"vac":true,"version":"7757534","steam_id":85568392924469999,"keywords":["nocrits","nodmgspread","payload","uncletopia"],"game_id":440,"stv_port":27016,"stv_name":"Uncletopia | San Francisco | 1 | All Maps | STV","players":null},{"server_id":18,"name":"Uncletopia | San Francisco | 2 | All Maps","name_short":"sfo-2","host":"sfo-1.us.uncletopia.com","port":27025,"enabled":true,"region":"us-west","cc":"us","latitude":37.77397,"longitude":-122.4313,"reserved":0,"last_update":"0001-01-01T00:00:00Z","name_a2s":"Uncletopia | San Francisco | 2 | All Maps","protocol":17,"map":"pl_pier","folder":"tf","game":"Team Fortress","app_id":440,"player_count":0,"max_players":24,"Bots":0,"server_type":"Dedicated","server_os":"Linux","password":true,"vac":true,"version":"7757534","steam_id":85568392924470000,"keywords":["nocrits","nodmgspread","payload","uncletopia"],"game_id":440,"stv_port":27026,"stv_name":"Uncletopia | San Francisco | 2 | All Maps | STV","players":null},{"server_id":19,"name":"Uncletopia | San Francisco | 3 | Stopwatch Beta","name_short":"sfo-3","host":"sfo-1.us.uncletopia.com","port":27035,"enabled":true,"region":"us-west","cc":"us","latitude":37.77397,"longitude":-122.4313,"reserved":0,"last_update":"0001-01-01T00:00:00Z","name_a2s":"Uncletopia | San Francisco | 3 | Stopwatch Beta","protocol":17,"map":"koth_viaduct","folder":"tf","game":"Team Fortress","app_id":440,"player_count":0,"max_players":24,"Bots":0,"server_type":"Dedicated","server_os":"Linux","password":true,"vac":true,"version":"7757534","steam_id":85568392924742824,"keywords":["cp","nocrits","nodmgspread","uncletopia"],"game_id":440,"stv_port":27036,"stv_name":"Uncletopia | San Francisco | 3 | Stopwatch Beta | STV","players":null},{"server_id":20,"name":"Uncletopia | San Francisco | 4 | Community","name_short":"sfo-4","host":"sfo-1.us.uncletopia.com","port":27045,"enabled":true,"region":"us-west","cc":"us","latitude":37.77397,"longitude":-122.4313,"reserved":0,"last_update":"0001-01-01T00:00:00Z","name_a2s":"Uncletopia | San Francisco | 4 | Community","protocol":17,"map":"pl_borneo","folder":"tf","game":"Team Fortress","app_id":440,"player_count":0,"max_players":24,"Bots":0,"server_type":"Dedicated","server_os":"Linux","password":true,"vac":true,"version":"7757534","steam_id":85568392924742826,"keywords":["nocrits","nodmgspread","payload","uncletopia"],"game_id":440,"stv_port":27046,"stv_name":"Uncletopia | San Francisco | 4 | Community | STV","players":null},{"server_id":141,"name":"Uncletopia | Sydney | 1 | All Maps","name_short":"syd-1","host":"syd-1.au.uncletopia.com","port":27015,"enabled":true,"region":"au","cc":"au","latitude":-33.865143,"longitude":151.2099,"reserved":0,"last_update":"0001-01-01T00:00:00Z","name_a2s":"Uncletopia | Sydney | 1 | All Maps","protocol":17,"map":"pl_badwater","folder":"tf","game":"Team Fortress","app_id":440,"player_count":0,"max_players":24,"Bots":0,"server_type":"Dedicated","server_os":"Linux","password":true,"vac":true,"version":"7757534","steam_id":85568392924470001,"keywords":["nocrits","nodmgspread","payload","uncletopia"],"game_id":440,"stv_port":27016,"stv_name":"Uncletopia | Sydney | 1 | All Maps | STV","players":null},{"server_id":123,"name":"Uncletopia | Sydney | 2 | All Maps","name_short":"syd-2","host":"syd-1.au.uncletopia.com","port":27025,"enabled":true,"region":"au","cc":"au","latitude":-33.865143,"longitude":151.2099,"reserved":0,"last_update":"0001-01-01T00:00:00Z","name_a2s":"Uncletopia | Sydney | 2 | All Maps","protocol":17,"map":"pl_wutville_event","folder":"tf","game":"Team Fortress","app_id":440,"player_count":0,"max_players":24,"Bots":0,"server_type":"Dedicated","server_os":"Linux","password":true,"vac":true,"version":"7757534","steam_id":85568392924470002,"keywords":["nocrits","nodmgspread","payload","uncletopia"],"game_id":440,"stv_port":27026,"stv_name":"Uncletopia | Sydney | 2 | All Maps | STV","players":null},{"server_id":395,"name":"Uncletopia | Sydney | 3 | All Maps","name_short":"syd-3","host":"syd-1.au.uncletopia.com","port":27035,"enabled":true,"region":"au","cc":"au","latitude":-33.865143,"longitude":151.2099,"reserved":0,"last_update":"0001-01-01T00:00:00Z","name_a2s":"Uncletopia | Sydney | 3 | All Maps","protocol":17,"map":"koth_viaduct","folder":"tf","game":"Team Fortress","app_id":440,"player_count":0,"max_players":24,"Bots":0,"server_type":"Dedicated","server_os":"Linux","password":true,"vac":true,"version":"7757534","steam_id":85568392925194467,"keywords":["cp","nocrits","nodmgspread","uncletopia"],"game_id":440,"stv_port":27036,"stv_name":"Uncletopia | Sydney | 3 | All Maps | STV","players":null},{"server_id":396,"name":"Uncletopia | Sydney | 4 | All Maps","name_short":"syd-4","host":"syd-1.au.uncletopia.com","port":27045,"enabled":true,"region":"au","cc":"au","latitude":-33.865143,"longitude":151.2099,"reserved":0,"last_update":"0001-01-01T00:00:00Z","name_a2s":"Uncletopia | Sydney | 4 | All Maps","protocol":17,"map":"cp_snakewater_final1","folder":"tf","game":"Team Fortress","app_id":440,"player_count":0,"max_players":24,"Bots":0,"server_type":"Dedicated","server_os":"Linux","password":true,"vac":true,"version":"7757534","steam_id":85568392925397958,"keywords":["cp","nocrits","nodmgspread","uncletopia"],"game_id":440,"stv_port":27046,"stv_name":"Uncletopia | Sydney | 4 | All Maps | STV","players":null},{"server_id":58,"name":"Uncletopia | Sydney | 5 | Stopwatch Beta","name_short":"syd-5","host":"syd-1.au.uncletopia.com","port":27055,"enabled":true,"region":"au","cc":"au","latitude":-33.865143,"longitude":151.2099,"reserved":0,"last_update":"0001-01-01T00:00:00Z","name_a2s":"Uncletopia | Sydney | 5 | Stopwatch Beta","protocol":17,"map":"pl_barnblitz","folder":"tf","game":"Team Fortress","app_id":440,"player_count":0,"max_players":24,"Bots":0,"server_type":"Dedicated","server_os":"Linux","password":true,"vac":true,"version":"7757534","steam_id":85568392925397959,"keywords":["nocrits","nodmgspread","payload","uncletopia"],"game_id":440,"stv_port":27056,"stv_name":"Uncletopia | Sydney | 5 | Stopwatch Beta | STV","players":null},{"server_id":59,"name":"Uncletopia | Sydney | 6 | Community","name_short":"syd-6","host":"syd-1.au.uncletopia.com","port":27065,"enabled":true,"region":"au","cc":"au","latitude":-33.865143,"longitude":151.2099,"reserved":0,"last_update":"0001-01-01T00:00:00Z","name_a2s":"Uncletopia | Sydney | 6 | Community","protocol":17,"map":"workshop/koth_synthetic_rc6a.ugc1549817316","folder":"tf","game":"Team Fortress","app_id":440,"player_count":0,"max_players":24,"Bots":0,"server_type":"Dedicated","server_os":"Linux","password":true,"vac":true,"version":"7757534","steam_id":85568392925397960,"keywords":["cp","nocrits","nodmgspread","uncletopia"],"game_id":440,"stv_port":27066,"stv_name":"Uncletopia | Sydney | 6 | Community | STV","players":null},{"server_id":49,"name":"Uncletopia | Warsaw | 1 | All Maps","name_short":"waw-1","host":"waw-1.pl.uncletopia.com","port":27015,"enabled":true,"region":"eu","cc":"pl","latitude":52.2297,"longitude":21.017532,"reserved":0,"last_update":"0001-01-01T00:00:00Z","name_a2s":"","protocol":0,"map":"","folder":"","game":"","app_id":0,"player_count":0,"max_players":0,"Bots":0,"server_type":"","server_os":"","password":false,"vac":false,"version":"","steam_id":0,"keywords":null,"game_id":0,"stv_port":0,"stv_name":"","players":null},{"server_id":50,"name":"Uncletopia | Warsaw | 2 | All Maps","name_short":"waw-2","host":"waw-1.pl.uncletopia.com","port":27025,"enabled":true,"region":"eu","cc":"pl","latitude":52.2297,"longitude":21.017532,"reserved":0,"last_update":"0001-01-01T00:00:00Z","name_a2s":"Uncletopia | Warsaw | 2 | All Maps","protocol":17,"map":"koth_harvest_final","folder":"tf","game":"Team Fortress","app_id":440,"player_count":0,"max_players":24,"Bots":0,"server_type":"Dedicated","server_os":"Linux","password":true,"vac":true,"version":"7757534","steam_id":85568392925397851,"keywords":["cp","nocrits","nodmgspread","uncletopia"],"game_id":440,"stv_port":27026,"stv_name":"Uncletopia | Warsaw | 2 | All Maps | STV","players":null},{"server_id":51,"name":"Uncletopia | Warsaw | 3 | All Maps","name_short":"waw-3","host":"waw-1.pl.uncletopia.com","port":27035,"enabled":true,"region":"eu","cc":"pl","latitude":52.2297,"longitude":21.017532,"reserved":0,"last_update":"0001-01-01T00:00:00Z","name_a2s":"Uncletopia | Warsaw | 3 | All Maps","protocol":17,"map":"koth_viaduct","folder":"tf","game":"Team Fortress","app_id":440,"player_count":0,"max_players":24,"Bots":0,"server_type":"Dedicated","server_os":"Linux","password":true,"vac":true,"version":"7757534","steam_id":85568392925397852,"keywords":["cp","nocrits","nodmgspread","uncletopia"],"game_id":440,"stv_port":27036,"stv_name":"Uncletopia | Warsaw | 3 | All Maps | STV","players":null},{"server_id":52,"name":"Uncletopia | Warsaw | 4 | All Maps","name_short":"waw-4","host":"waw-1.pl.uncletopia.com","port":27045,"enabled":true,"region":"eu","cc":"pl","latitude":52.2297,"longitude":21.017532,"reserved":0,"last_update":"0001-01-01T00:00:00Z","name_a2s":"Uncletopia | Warsaw | 4 | All Maps","protocol":17,"map":"cp_sunshine","folder":"tf","game":"Team Fortress","app_id":440,"player_count":0,"max_players":24,"Bots":0,"server_type":"Dedicated","server_os":"Linux","password":true,"vac":true,"version":"7757534","steam_id":85568392925397853,"keywords":["cp","nocrits","nodmgspread","uncletopia"],"game_id":440,"stv_port":27046,"stv_name":"Uncletopia | Warsaw | 4 | All Maps | STV","players":null},{"server_id":53,"name":"Uncletopia | Warsaw | 5 | Stopwatch Beta","name_short":"waw-5","host":"waw-1.pl.uncletopia.com","port":27055,"enabled":true,"region":"eu","cc":"pl","latitude":52.2297,"longitude":21.017532,"reserved":0,"last_update":"0001-01-01T00:00:00Z","name_a2s":"Uncletopia | Warsaw | 5 | Stopwatch Beta","protocol":17,"map":"pl_upward","folder":"tf","game":"Team Fortress","app_id":440,"player_count":0,"max_players":24,"Bots":0,"server_type":"Dedicated","server_os":"Linux","password":true,"vac":true,"version":"7757534","steam_id":85568392925397854,"keywords":["nocrits","nodmgspread","payload","uncletopia"],"game_id":440,"stv_port":27056,"stv_name":"Uncletopia | Warsaw | 5 | Stopwatch Beta | STV","players":null},{"server_id":54,"name":"Uncletopia | Warsaw | 6 | Community","name_short":"waw-6","host":"waw-1.pl.uncletopia.com","port":27065,"enabled":true,"region":"eu","cc":"pl","latitude":52.2297,"longitude":21.017532,"reserved":0,"last_update":"0001-01-01T00:00:00Z","name_a2s":"Uncletopia | Warsaw | 6 | Community","protocol":17,"map":"workshop/cp_overgrown_rc7b.ugc503939302","folder":"tf","game":"Team Fortress","app_id":440,"player_count":0,"max_players":24,"Bots":0,"server_type":"Dedicated","server_os":"Linux","password":true,"vac":true,"version":"7757534","steam_id":85568392925397856,"keywords":["cp","nocrits","nodmgspread","uncletopia"],"game_id":440,"stv_port":27066,"stv_name":"Uncletopia | Warsaw | 6 | Community | STV","players":null}]}