{"status":true,"message":"","result":[{"server_id":9,"name":"Uncletopia | Atlanta | 1 | All Maps","name_short":"atl-1","host":"atl-1.us.uncletopia.com","port":27015,"enabled":true,"region":"us-east","cc":"us","latitude":33.753746,"longitude":-84.38633,"reserved":0,"last_update":"0001-01-01T00:00:00Z","name_a2s":"Uncletopia | Atlanta | 1 | All Maps","protocol":17,"map":"koth_viaduct","folder":"tf","game":"Team Fortress","app_id":440,"player_count":1,"max_players":24,"Bots":0,"server_type":"Dedicated","server_os":"Linux","password":true,"vac":true,"version":"7708610","steam_id":85568392924469982,"keywords":["cp","nocrits","nodmgspread","uncletopia"],"game_id":440,"stv_port":27016,"stv_name":"Uncletopia | Atlanta | 1 | All Maps | STV","players":[{"user_id":10,"name":"Bunt","steam_id":76561198124477567,"connected_time":16000000000,"state":"spawning","ping":1695}]},{"server_id":400,"name":"Uncletopia | Atlanta | 3 | All Maps","name_short":"atl-3","host":"atl-1.us.uncletopia.com","port":27035,"enabled":true,"region":"us-east","cc":"us","latitude":33.753746,"longitude":-84.38633,"reserved":0,"last_update":"0001-01-01T00:00:00Z","name_a2s":"Uncletopia | Atlanta | 3 | All Maps","protocol":17,"map":"cp_snakewater_final1","folder":"tf","game":"Team Fortress","app_id":440,"player_count":0,"max_players":24,"Bots":0,"server_type":"Dedicated","server_os":"Linux","password":true,"vac":true,"version":"7708610","steam_id":85568392924515187,"keywords":["cp","nocrits","nodmgspread","uncletopia"],"game_id":440,"stv_port":27036,"stv_name":"Uncletopia | Atlanta | 3 | All Maps | STV","players":null},{"server_id":401,"name":"Uncletopia | Atlanta | 4 | No Payload","name_short":"atl-4","host":"atl-1.us.uncletopia.com","port":27045,"enabled":true,"region":"us-east","cc":"us","latitude":33.753746,"longitude":-84.38633,"reserved":0,"last_update":"0001-01-01T00:00:00Z","name_a2s":"Uncletopia | Atlanta | 4 | No Payload","protocol":17,"map":"pl_snowycoast","folder":"tf","game":"Team Fortress","app_id":440,"player_count":0,"max_players":24,"Bots":0,"server_type":"Dedicated","server_os":"Linux","password":true,"vac":true,"version":"7708610","steam_id":85568392924515188,"keywords":["nocrits","nodmgspread","payload","uncletopia"],"game_id":440,"stv_port":27046,"stv_name":"Uncletopia | Atlanta | 4 | No Payload | STV","players":null},{"server_id":2,"name":"Uncletopia | Chicago | 1 | All Maps","name_short":"chi-1","host":"chi-1.us.uncletopia.com","port":27015,"enabled":true,"region":"us-central","cc":"us","latitude":41.881832,"longitude":-87.62318,"reserved":0,"last_update":"0001-01-01T00:00:00Z","name_a2s":"Uncletopia | Chicago | 1 | All Maps","protocol":17,"map":"cp_dustbowl","folder":"tf","game":"Team Fortress","app_id":440,"player_count":0,"max_players":24,"Bots":0,"server_type":"Dedicated","server_os":"Linux","password":true,"vac":true,"version":"7708610","steam_id":85568392924469984,"keywords":["cp","nocrits","nodmgspread","uncletopia"],"game_id":440,"stv_port":27016,"stv_name":"Uncletopia | Chicago | 1 | All Maps | STV","players":null},{"server_id":106,"name":"Uncletopia | Chicago | 2 | All Maps","name_short":"chi-2","host":"chi-1.us.uncletopia.com","port":27025,"enabled":true,"region":"us-central","cc":"us","latitude":41.881832,"longitude":-87.62318,"reserved":0,"last_update":"0001-01-01T00:00:00Z","name_a2s":"Uncletopia | Chicago | 2 | All Maps","protocol":17,"map":"pl_frontier_final","folder":"tf","game":"Team Fortress","app_id":440,"player_count":0,"max_players":24,"Bots":0,"server_type":"Dedicated","server_os":"Linux","password":true,"vac":true,"version":"7708610","steam_id":85568392924469985,"keywords":["nocrits","nodmgspread","payload","uncletopia"],"game_id":440,"stv_port":27026,"stv_name":"Uncletopia | Chicago | 2 | All Maps | STV","players":null},{"server_id":402,"name":"Uncletopia | Chicago | 3 | All Maps","name_short":"chi-3","host":"chi-1.us.uncletopia.com","port":27035,"enabled":true,"region":"us-central","cc":"us","latitude":41.881832,"longitude":-87.62318,"reserved":0,"last_update":"0001-01-01T00:00:00Z","name_a2s":"Uncletopia | Chicago | 3 | All Maps","protocol":17,"map":"pl_barnblitz","folder":"tf","game":"Team Fortress","app_id":440,"player_count":0,"max_players":24,"Bots":0,"server_type":"Dedicated","server_os":"Linux","password":true,"vac":true,"version":"7708610","steam_id":85568392924515191,"keywords":["nocrits","nodmgspread","payload","uncletopia"],"game_id":440,"stv_port":27036,"stv_name":"Uncletopia | Chicago | 3 | All Maps | STV","players":null},{"server_id":403,"name":"Uncletopia | Chicago | 4 | All Maps","name_short":"chi-4","host":"chi-1.us.uncletopia.com","port":27045,"enabled":true,"region":"us-central","cc":"us","latitude":41.881832,"longitude":-87.62318,"reserved":0,"last_update":"0001-01-01T00:00:00Z","name_a2s":"Uncletopia | Chicago | 4 | All Maps","protocol":17,"map":"pl_frontier_final","folder":"tf","game":"Team Fortress","app_id":440,"player_count":0,"max_players":24,"Bots":0,"server_type":"Dedicated","server_os":"Linux","password":true,"vac":true,"version":"7708610","steam_id":85568392924515193,"keywords":["nocrits","nodmgspread","payload","uncletopia"],"game_id":440,"stv_port":27046,"stv_name":"Uncletopia | Chicago | 4 | All Maps | STV","players":null},{"server_id":36,"name":"Uncletopia | Chicago | 5 | All Maps","name_short":"chi-5","host":"chi-2.us.uncletopia.com","port":27015,"enabled":true,"region":"us-central","cc":"us","latitude":41.881832,"longitude":-87.62318,"reserved":0,"last_update":"0001-01-01T00:00:00Z","name_a2s":"Uncletopia | Chicago | 5 | All Maps","protocol":17,"map":"koth_lakeside_final","folder":"tf","game":"Team Fortress","app_id":440,"player_count":0,"max_players":24,"Bots":0,"server_type":"Dedicated","server_os":"Linux","password":true,"vac":true,"version":"7708610","steam_id":85568392924866362,"keywords":["cp","nocrits","nodmgspread","uncletopia"],"game_id":440,"stv_port":27016,"stv_name":"Uncletopia | Chicago | 5 | All Maps | STV","players":null},{"server_id":37,"name":"Uncletopia | Chicago | 6 | All Maps","name_short":"chi-6","host":"chi-2.us.uncletopia.com","port":27025,"enabled":true,"region":"us-central","cc":"us","latitude":41.881832,"longitude":-87.62318,"reserved":0,"last_update":"0001-01-01T00:00:00Z","name_a2s":"Uncletopia | Chicago | 6 | All Maps","protocol":17,"map":"pl_barnblitz","folder":"tf","game":"Team Fortress","app_id":440,"player_count":0,"max_players":24,"Bots":0,"server_type":"Dedicated","server_os":"Linux","password":true,"vac":true,"version":"7708610","steam_id":85568392924866363,"keywords":["nocrits","nodmgspread","payload","uncletopia"],"game_id":440,"stv_port":27026,"stv_name":"Uncletopia | Chicago | 6 | All Maps | STV","players":null},{"server_id":38,"name":"Uncletopia | Chicago | 7 | No Payload","name_short":"chi-7","host":"chi-2.us.uncletopia.com","port":27035,"enabled":true,"region":"us-central","cc":"us","latitude":41.881832,"longitude":-87.62318,"reserved":0,"last_update":"0001-01-01T00:00:00Z","name_a2s":"Uncletopia | Chicago | 7 | No Payload","protocol":17,"map":"cp_dustbowl","folder":"tf","game":"Team Fortress","app_id":440,"player_count":0,"max_players":24,"Bots":0,"server_type":"Dedicated","server_os":"Linux","password":true,"vac":true,"version":"7708610","steam_id":85568392924866364,"keywords":["cp","nocrits","nodmgspread","uncletopia"],"game_id":440,"stv_port":27036,"stv_name":"Uncletopia | Chicago | 7 | No Payload | STV","players":null},{"server_id":39,"name":"Uncletopia | Chicago | 8 | Community","name_short":"chi-8","host":"chi-2.us.uncletopia.com","port":27045,"enabled":true,"region":"us-central","cc":"us","latitude":41.881832,"longitude":-87.62318,"reserved":0,"last_update":"0001-01-01T00:00:00Z","name_a2s":"Uncletopia | Chicago | 8 | Community","protocol":17,"map":"cp_dustbowl","folder":"tf","game":"Team Fortress","app_id":440,"player_count":0,"max_players":24,"Bots":0,"server_type":"Dedicated","server_os":"Linux","password":true,"vac":true,"version":"7708610","steam_id":85568392924866365,"keywords":["cp","nocrits","nodmgspread","uncletopia"],"game_id":440,"stv_port":27046,"stv_name":"Uncletopia | Chicago | 8 | Community | STV","players":null},{"server_id":8,"name":"Uncletopia | Dallas | 1 | All Maps","name_short":"dal-1","host":"dal-1.us.uncletopia.com","port":27015,"enabled":true,"region":"us-central","cc":"us","latitude":32.779167,"longitude":-96.80889,"reserved":0,"last_update":"0001-01-01T00:00:00Z","name_a2s":"Uncletopia | Dallas | 1 | All Maps","protocol":17,"map":"cp_mountainlab","folder":"tf","game":"Team Fortress","app_id":440,"player_count":0,"max_players":24,"Bots":0,"server_type":"Dedicated","server_os":"Linux","password":true,"vac":true,"version":"7708610","steam_id":85568392924469986,"keywords":["cp","nocrits","nodmgspread","uncletopia"],"game_id":440,"stv_port":27016,"stv_name":"Uncletopia | Dallas | 1 | All Maps | STV","players":null},{"server_id":108,"name":"Uncletopia | Dallas | 2 | All Maps","name_short":"dal-2","host":"dal-1.us.uncletopia.com","port":27025,"enabled":true,"region":"us-central","cc":"us","latitude":32.779167,"longitude":-96.80889,"reserved":0,"last_update":"0001-01-01T00:00:00Z","name_a2s":"Uncletopia | Dallas | 2 | All Maps","protocol":17,"map":"koth_highpass","folder":"tf","game":"Team Fortress","app_id":440,"player_count":0,"max_players":24,"Bots":0,"server_type":"Dedicated","server_os":"Linux","password":true,"vac":true,"version":"7708610","steam_id":85568392924469988,"keywords":["cp","nocrits","nodmgspread","uncletopia"],"game_id":440,"stv_port":27026,"stv_name":"Uncletopia | Dallas | 2 | All Maps | STV","players":null},{"server_id":5,"name":"Uncletopia | Frankfurt | 1 | All Maps","name_short":"frk-1","host":"frk-1.de.uncletopia.com","port":27015,"enabled":true,"region":"eu","cc":"de","latitude":50.110924,"longitude":8.682127,"reserved":0,"last_update":"0001-01-01T00:00:00Z","name_a2s":"Uncletopia | Frankfurt | 1 | All Maps","protocol":17,"map":"pl_pier","folder":"tf","game":"Team Fortress","app_id":440,"player_count":24,"max_players":24,"Bots":0,"server_type":"Dedicated","server_os":"Linux","password":true,"vac":true,"version":"7708610","steam_id":85568392924469989,"keywords":["nocrits","nodmgspread","payload","uncletopia"],"game_id":440,"stv_port":27016,"stv_name":"Uncletopia | Frankfurt | 1 | All Maps | STV","players":[{"user_id":167,"name":"Yuval","steam_id":76561198241802390,"connected_time":4367000000000,"state":"active","ping":104},{"user_id":217,"name":"Ziltoid","steam_id":76561198020753675,"connected_time":744000000000,"state":"active","ping":65},{"user_id":188,"name":"[P-roc] Cmm Bert","steam_id":76561198016658674,"connected_time":2535000000000,"state":"active","ping":67},{"user_id":169,"name":"R.","steam_id":76561198148030229,"connected_time":4026000000000,"state":"active","ping":84},{"user_id":186,"name":"Yui","steam_id":76561198137106459,"connected_time":2547000000000,"state":"active","ping":64},{"user_id":193,"name":"dongus","steam_id":76561198042774930,"connected_time":2147000000000,"state":"active","ping":78},{"user_id":199,"name":"walluu","steam_id":76561198121830870,"connected_time":1647000000000,"state":"active","ping":68},{"user_id":205,"name":"Common polish hood dweller","steam_id":76561198126524735,"connected_time":1273000000000,"state":"active","ping":69},{"user_id":175,"name":"Yona_Man_Jones","steam_id":76561198986032201,"connected_time":3610000000000,"state":"active","ping":102},{"user_id":161,"name":"ÃNVS DRÃNVS","steam_id":76561198138733015,"connected_time":5013000000000,"state":"active","ping":105},{"user_id":219,"name":"Niah","steam_id":76561198052632801,"connected_time":490000000000,"state":"active","ping":65},{"user_id":198,"name":"fаt cսոt","steam_id":76561198845550388,"connected_time":1649000000000,"state":"active","ping":108},{"user_id":164,"name":"advanced polish lifeform","steam_id":76561198062107879,"connected_time":4591000000000,"state":"active","ping":76},{"user_id":206,"name":"Polish Gym Rat","steam_id":76561198126398022,"connected_time":997000000000,"state":"active","ping":71},{"user_id":129,"name":"Teffg","steam_id":76561198274386094,"connected_time":7025000000000,"state":"active","ping":85},{"user_id":202,"name":"ramedlaV^^","steam_id":76561198074352339,"connected_time":1343000000000,"state":"active","ping":65},{"user_id":220,"name":"Утилизатор","steam_id":76561198001490104,"connected_time":13000000000,"state":"spawning","ping":73},{"user_id":214,"name":"40svartapungar","steam_id":76561199264277168,"connected_time":827000000000,"state":"active","ping":66},{"user_id":216,"name":"Chris \"banana\" Redfield","steam_id":76561198429658370,"connected_time":817000000000,"state":"active","ping":119},{"user_id":207,"name":"Vanadis","steam_id":76561198255557997,"connected_time":898000000000,"state":"active","ping":78},{"user_id":45,"name":"Aprifox","steam_id":76561198022204947,"connected_time":12613000000000,"state":"active","ping":69},{"user_id":196,"name":"NostalgiaGuy","steam_id":76561199006557984,"connected_time":2092000000000,"state":"active","ping":109},{"user_id":173,"name":"we're running out of monster","steam_id":76561199065336628,"connected_time":3697000000000,"state":"active","ping":84},{"user_id":209,"name":"cropping","steam_id":76561198026586456,"connected_time":852000000000,"state":"active","ping":75}]},{"server_id":110,"name":"Uncletopia | Frankfurt | 2 | All Maps","name_short":"frk-2","host":"frk-1.de.uncletopia.com","port":27025,"enabled":true,"region":"eu","cc":"de","latitude":50.110924,"longitude":8.682127,"reserved":0,"last_update":"0001-01-01T00:00:00Z","name_a2s":"Uncletopia | Frankfurt | 2 | All Maps","protocol":17,"map":"pl_borneo","folder":"tf","game":"Team Fortress","app_id":440,"player_count":24,"max_players":24,"Bots":0,"server_type":"Dedicated","server_os":"Linux","password":true,"vac":true,"version":"7708610","steam_id":85568392924469990,"keywords":["nocrits","nodmgspread","payload","uncletopia"],"game_id":440,"stv_port":27026,"stv_name":"Uncletopia | Frankfurt | 2 | All Maps | STV","players":[{"user_id":132,"name":"Him","steam_id":76561198086400484,"connected_time":2693000000000,"state":"active","ping":70},{"user_id":169,"name":"axl","steam_id":76561198991661832,"connected_time":565000000000,"state":"active","ping":63},{"user_id":134,"name":"Rockwell Retro Encabulator","steam_id":76561198420349969,"connected_time":2665000000000,"state":"active","ping":86},{"user_id":177,"name":"Nuuskis","steam_id":76561198084042012,"connected_time":241000000000,"state":"active","ping":76},{"user_id":128,"name":"Bounter","steam_id":76561198072614188,"connected_time":3048000000000,"state":"active","ping":70},{"user_id":95,"name":"Jimbo","steam_id":76561198253507297,"connected_time":4876000000000,"state":"active","ping":122},{"user_id":125,"name":"ciliorkun18","steam_id":76561198228942500,"connected_time":3140000000000,"state":"active","ping":178},{"user_id":151,"name":"Road","steam_id":76561198880940573,"connected_time":1464000000000,"state":"active","ping":80},{"user_id":144,"name":"Dominus.","steam_id":76561199065917088,"connected_time":2051000000000,"state":"active","ping":68},{"user_id":157,"name":"germanhamburgers96","steam_id":76561198044189114,"connected_time":946000000000,"state":"active","ping":56},{"user_id":178,"name":"celt","steam_id":76561198406083426,"connected_time":223000000000,"state":"active","ping":70},{"user_id":153,"name":"FackaYou","steam_id":76561198193036090,"connected_time":1346000000000,"state":"active","ping":72},{"user_id":180,"name":"Deacon Dracul","steam_id":76561198046880663,"connected_time":2000000000,"state":"spawning","ping":109},{"user_id":149,"name":"nobody","steam_id":76561198180637374,"connected_time":1724000000000,"state":"active","ping":85},{"user_id":145,"name":"Mor'du","steam_id":76561198274105878,"connected_time":1964000000000,"state":"active","ping":72},{"user_id":163,"name":"red square","steam_id":76561198295305088,"connected_time":708000000000,"state":"active","ping":53},{"user_id":175,"name":"ɘƚɒ⅃ɘƚɒ⅃ /./ =)(= \\.\\","steam_id":76561198053339372,"connected_time":333000000000,"state":"active","ping":62},{"user_id":109,"name":"fmdi","steam_id":76561199433879329,"connected_time":4131000000000,"state":"active","ping":69},{"user_id":122,"name":"Chris","steam_id":76561199443600515,"connected_time":3278000000000,"state":"active","ping":65},{"user_id":164,"name":"Sophie","steam_id":76561198267463398,"connected_time":705000000000,"state":"active","ping":55},{"user_id":154,"name":"travis","steam_id":76561198138119811,"connected_time":1161000000000,"state":"active","ping":60},{"user_id":96,"name":"Monet","steam_id":76561198087656854,"connected_time":4725000000000,"state":"active","ping":78},{"user_id":130,"name":"dafydd","steam_id":76561198052200325,"connected_time":3020000000000,"state":"active","ping":75},{"user_id":168,"name":"ashley","steam_id":76561198448551449,"connected_time":618000000000,"state":"active","ping":49}]},{"server_id":308,"name":"Uncletopia | Frankfurt | 3 | All Maps","name_short":"frk-3","host":"frk-1.de.uncletopia.com","port":27035,"enabled":true,"region":"eu","cc":"de","latitude":50.110924,"longitude":8.682127,"reserved":0,"last_update":"0001-01-01T00:00:00Z","name_a2s":"Uncletopia | Frankfurt | 3 | All Maps","protocol":17,"map":"pl_badwater","folder":"tf","game":"Team Fortress","app_id":440,"player_count":24,"max_players":24,"Bots":0,"server_type":"Dedicated","server_os":"Linux","password":true,"vac":true,"version":"7708610","steam_id":85568392924504274,"keywords":["nocrits","nodmgspread","payload","uncletopia"],"game_id":440,"stv_port":27036,"stv_name":"Uncletopia | Frankfurt | 3 | All Maps | STV","players":[{"user_id":5,"name":"Refined Pyro","steam_id":76561198998785919,"connected_time":5342000000000,"state":"active","ping":54},{"user_id":58,"name":"Miatthew","steam_id":76561198034102895,"connected_time":2045000000000,"state":"active","ping":56},{"user_id":75,"name":"Sex defender","steam_id":76561198348896492,"connected_time":891000000000,"state":"active","ping":75},{"user_id":78,"name":"Perci","steam_id":76561198097789669,"connected_time":795000000000,"state":"active","ping":59},{"user_id":64,"name":"Kqyt","steam_id":76561198044885742,"connected_time":1789000000000,"state":"active","ping":80},{"user_id":31,"name":"Olaznot","steam_id":76561199111472610,"connected_time":3295000000000,"state":"active","ping":79},{"user_id":92,"name":"Beb","steam_id":76561198106119248,"connected_time":327000000000,"state":"active","ping":66},{"user_id":85,"name":"Poor Fucking Infantry","steam_id":76561198055978522,"connected_time":602000000000,"state":"active","ping":62},{"user_id":93,"name":"yousef10kh","steam_id":76561199229130901,"connected_time":90000000000,"state":"active","ping":159},{"user_id":66,"name":"Cillian","steam_id":76561199046965320,"connected_time":1654000000000,"state":"active","ping":85},{"user_id":80,"name":"give me your baby faces blaster","steam_id":76561199013442982,"connected_time":739000000000,"state":"active","ping":153},{"user_id":70,"name":"Clamor_","steam_id":76561198104368295,"connected_time":1121000000000,"state":"active","ping":85},{"user_id":37,"name":"Enigmus","steam_id":76561197994063627,"connected_time":2931000000000,"state":"active","ping":89},{"user_id":77,"name":"bigwish | bmod.tf","steam_id":76561197997859723,"connected_time":888000000000,"state":"active","ping":68},{"user_id":94,"name":"Duarte™","steam_id":76561198131456324,"connected_time":42000000000,"state":"spawning","ping":93},{"user_id":67,"name":"Tywhip","steam_id":76561199207545191,"connected_time":1651000000000,"state":"active","ping":58},{"user_id":46,"name":"shinji","steam_id":76561198099696876,"connected_time":2533000000000,"state":"active","ping":68},{"user_id":81,"name":"pan","steam_id":76561198829879412,"connected_time":704000000000,"state":"active","ping":65},{"user_id":82,"name":"rajAs","steam_id":76561198035928111,"connected_time":689000000000,"state":"active","ping":74},{"user_id":69,"name":"Windows Vista Cruiser","steam_id":76561198064102233,"connected_time":1413000000000,"state":"active","ping":90},{"user_id":48,"name":"tacker11","steam_id":76561198886244287,"connected_time":2467000000000,"state":"active","ping":63},{"user_id":65,"name":"Star Bright","steam_id":76561198049204840,"connected_time":1711000000000,"state":"active","ping":62},{"user_id":86,"name":"Duck","steam_id":76561198171548330,"connected_time":562000000000,"state":"active","ping":61},{"user_id":90,"name":"Hat Lover","steam_id":76561198312283433,"connected_time":484000000000,"state":"active","ping":85}]},{"server_id":309,"name":"Uncletopia | Frankfurt | 4 | All Maps","name_short":"frk-4","host":"frk-1.de.uncletopia.com","port":27045,"enabled":true,"region":"eu","cc":"de","latitude":50.110924,"longitude":8.682127,"reserved":0,"last_update":"0001-01-01T00:00:00Z","name_a2s":"Uncletopia | Frankfurt | 4 | All Maps","protocol":17,"map":"cp_mountainlab","folder":"tf","game":"Team Fortress","app_id":440,"player_count":0,"max_players":24,"Bots":0,"server_type":"Dedicated","server_os":"Linux","password":true,"vac":true,"version":"7708610","steam_id":85568392924504275,"keywords":["cp","nocrits","nodmgspread","uncletopia"],"game_id":440,"stv_port":27046,"stv_name":"Uncletopia | Frankfurt | 4 | All Maps | STV","players":null},{"server_id":310,"name":"Uncletopia | Frankfurt | 5 | All Maps","name_short":"frk-5","host":"frk-1.de.uncletopia.com","port":27055,"enabled":true,"region":"eu","cc":"de","latitude":50.110924,"longitude":8.682127,"reserved":0,"last_update":"0001-01-01T00:00:00Z","name_a2s":"Uncletopia | Frankfurt | 5 | All Maps","protocol":17,"map":"koth_viaduct","folder":"tf","game":"Team Fortress","app_id":440,"player_count":0,"max_players":24,"Bots":0,"server_type":"Dedicated","server_os":"Linux","password":true,"vac":true,"version":"7708610","steam_id":85568392924504277,"keywords":["cp","nocrits","nodmgspread","uncletopia"],"game_id":440,"stv_port":27056,"stv_name":"Uncletopia | Frankfurt | 5 | All Maps | STV","players":null},{"server_id":311,"name":"Uncletopia | Frankfurt | 6 | All Maps","name_short":"frk-6","host":"frk-1.de.uncletopia.com","port":27065,"enabled":true,"region":"eu","cc":"de","latitude":50.110924,"longitude":8.682127,"reserved":0,"last_update":"0001-01-01T00:00:00Z","name_a2s":"Uncletopia | Frankfurt | 6 | All Maps","protocol":17,"map":"pl_barnblitz","folder":"tf","game":"Team Fortress","app_id":440,"player_count":0,"max_players":24,"Bots":0,"server_type":"Dedicated","server_os":"Linux","password":true,"vac":true,"version":"7708610","steam_id":85568392924504278,"keywords":["nocrits","nodmgspread","payload","uncletopia"],"game_id":440,"stv_port":27066,"stv_name":"Uncletopia | Frankfurt | 6 | All Maps | STV","players":null},{"server_id":23,"name":"Uncletopia | Frankfurt | 7 | No Payload","name_short":"frk-7","host":"frk-1.de.uncletopia.com","port":27075,"enabled":true,"region":"eu","cc":"de","latitude":50.110924,"longitude":8.682127,"reserved":0,"last_update":"0001-01-01T00:00:00Z","name_a2s":"Uncletopia | Frankfurt | 7 | No Payload","protocol":17,"map":"koth_viaduct","folder":"tf","game":"Team Fortress","app_id":440,"player_count":0,"max_players":24,"Bots":0,"server_type":"Dedicated","server_os":"Linux","password":true,"vac":true,"version":"7708610","steam_id":85568392924742827,"keywords":["cp","nocrits","nodmgspread","uncletopia"],"game_id":440,"stv_port":27076,"stv_name":"Uncletopia | Frankfurt | 7 | No Payload | STV","players":null},{"server_id":24,"name":"Uncletopia | Frankfurt | 8 | Community","name_short":"frk-8","host":"frk-1.de.uncletopia.com","port":27085,"enabled":true,"region":"eu","cc":"de","latitude":50.110924,"longitude":8.682127,"reserved":0,"last_update":"0001-01-01T00:00:00Z","name_a2s":"Uncletopia | Frankfurt | 8 | Community","protocol":17,"map":"pl_borneo","folder":"tf","game":"Team Fortress","app_id":440,"player_count":0,"max_players":24,"Bots":0,"server_type":"Dedicated","server_os":"Linux","password":true,"vac":true,"version":"7708610","steam_id":85568392924742828,"keywords":["nocrits","nodmgspread","payload","uncletopia"],"game_id":440,"stv_port":27086,"stv_name":"Uncletopia | Frankfurt | 8 | Community | STV","players":null},{"server_id":202,"name":"Uncletopia | Hong Kong | 1 | All Maps","name_short":"hgk-1","host":"hgk-1.hk.uncletopia.com","port":27015,"enabled":true,"region":"asia","cc":"hk","latitude":22.302711,"longitude":114.177216,"reserved":0,"last_update":"0001-01-01T00:00:00Z","name_a2s":"Uncletopia | Hong Kong | 1 | All Maps","protocol":17,"map":"pl_pier","folder":"tf","game":"Team Fortress","app_id":440,"player_count":24,"max_players":24,"Bots":0,"server_type":"Dedicated","server_os":"Linux","password":true,"vac":true,"version":"7708610","steam_id":85568392924494504,"keywords":["nocrits","nodmgspread","payload","uncletopia"],"game_id":440,"stv_port":27016,"stv_name":"Uncletopia | Hong Kong | 1 | All Maps | STV","players":[{"user_id":415,"name":"雪ノ下雪乃のoppai","steam_id":76561198008307645,"connected_time":1092000000000,"state":"active","ping":77},{"user_id":422,"name":"keingift","steam_id":76561198073466874,"connected_time":888000000000,"state":"active","ping":81},{"user_id":429,"name":"ArcticDolphin","steam_id":76561198203626319,"connected_time":548000000000,"state":"active","ping":128},{"user_id":403,"name":"user140701237","steam_id":76561198412329672,"connected_time":2253000000000,"state":"active","ping":98},{"user_id":433,"name":"Doormann","steam_id":76561199219230108,"connected_time":356000000000,"state":"active","ping":82},{"user_id":432,"name":"Bake Potato Cat","steam_id":76561198220460804,"connected_time":410000000000,"state":"active","ping":125},{"user_id":407,"name":"Milk❤","steam_id":76561198163911560,"connected_time":2024000000000,"state":"active","ping":119},{"user_id":409,"name":"it chrmis time","steam_id":76561198055553140,"connected_time":1824000000000,"state":"active","ping":85},{"user_id":430,"name":"GOD","steam_id":76561198846610729,"connected_time":488000000000,"state":"active","ping":104},{"user_id":393,"name":"everything in its right place","steam_id":76561198339657566,"connected_time":3427000000000,"state":"active","ping":141},{"user_id":411,"name":"gowon","steam_id":76561198194793637,"connected_time":1193000000000,"state":"active","ping":65},{"user_id":423,"name":"yhn","steam_id":76561198413116920,"connected_time":885000000000,"state":"active","ping":78},{"user_id":412,"name":"P","steam_id":76561198304514505,"connected_time":1131000000000,"state":"active","ping":74},{"user_id":420,"name":"Noyour","steam_id":76561198323259830,"connected_time":987000000000,"state":"active","ping":114},{"user_id":390,"name":"TechMaster12(F2P)","steam_id":76561199244754236,"connected_time":3540000000000,"state":"active","ping":100},{"user_id":288,"name":"tiden2000","steam_id":76561198092969425,"connected_time":11482000000000,"state":"active","ping":70},{"user_id":408,"name":"nick","steam_id":76561198400698408,"connected_time":1910000000000,"state":"active","ping":106},{"user_id":413,"name":"Degenerate With Standards!!!!","steam_id":76561199174449723,"connected_time":1131000000000,"state":"active","ping":81},{"user_id":431,"name":"Lateralbeef","steam_id":76561199143243135,"connected_time":464000000000,"state":"active","ping":86},{"user_id":418,"name":"tuxy","steam_id":76561198996816684,"connected_time":1069000000000,"state":"active","ping":70},{"user_id":377,"name":"Pillboi","steam_id":76561198011172886,"connected_time":4884000000000,"state":"active","ping":47},{"user_id":273,"name":"ogey","steam_id":76561198074339034,"connected_time":12576000000000,"state":"active","ping":85},{"user_id":392,"name":"+","steam_id":76561198121311286,"connected_time":3525000000000,"state":"active","ping":78},{"user_id":401,"name":"IFUDGISTICX","steam_id":76561199105415893,"connected_time":2274000000000,"state":"active","ping":77}]},{"server_id":1,"name":"Uncletopia | Los Angeles | 1 | All Maps","name_short":"lax-1","host":"lax-1.us.uncletopia.com","port":27015,"enabled":true,"region":"us-west","cc":"us","latitude":33.94279,"longitude":-118.41004,"reserved":0,"last_update":"0001-01-01T00:00:00Z","name_a2s":"Uncletopia | Los Angeles | 1 | All Maps","protocol":17,"map":"pl_borneo","folder":"tf","game":"Team Fortress","app_id":440,"player_count":0,"max_players":24,"Bots":0,"server_type":"Dedicated","server_os":"Linux","password":true,"vac":true,"version":"7708610","steam_id":85568392924469991,"keywords":["nocrits","nodmgspread","payload","uncletopia"],"game_id":440,"stv_port":27016,"stv_name":"Uncletopia | Los Angeles | 1 | All Maps | STV","players":null},{"server_id":112,"name":"Uncletopia | Los Angeles | 2 | All Maps","name_short":"lax-2","host":"lax-1.us.uncletopia.com","port":27025,"enabled":true,"region":"us-west","cc":"us","latitude":33.94279,"longitude":-118.41004,"reserved":0,"last_update":"0001-01-01T00:00:00Z","name_a2s":"Uncletopia | Los Angeles | 2 | All Maps","protocol":17,"map":"koth_viaduct","folder":"tf","game":"Team Fortress","app_id":440,"player_count":0,"max_players":24,"Bots":0,"server_type":"Dedicated","server_os":"Linux","password":true,"vac":true,"version":"7708610","steam_id":85568392924469992,"keywords":["cp","nocrits","nodmgspread","uncletopia"],"game_id":440,"stv_port":27026,"stv_name":"Uncletopia | Los Angeles | 2 | All Maps | STV","players":null},{"server_id":324,"name":"Uncletopia | Los Angeles | 3 | All Maps","name_short":"lax-3","host":"lax-1.us.uncletopia.com","port":27035,"enabled":true,"region":"us-west","cc":"us","latitude":33.94279,"longitude":-118.41004,"reserved":0,"last_update":"0001-01-01T00:00:00Z","name_a2s":"Uncletopia | Los Angeles | 3 | All Maps","protocol":17,"map":"plr_pipeline","folder":"tf","game":"Team Fortress","app_id":440,"player_count":24,"max_players":24,"Bots":0,"server_type":"Dedicated","server_os":"Linux","password":true,"vac":true,"version":"7708610","steam_id":85568392924510198,"keywords":["nocrits","nodmgspread","payload","uncletopia"],"game_id":440,"stv_port":27036,"stv_name":"Uncletopia | Los Angeles | 3 | All Maps | STV","players":[{"user_id":615,"name":"Kaui","steam_id":76561198052249003,"connected_time":1571000000000,"state":"active","ping":57},{"user_id":617,"name":"bdkaine1","steam_id":76561198133545467,"connected_time":1506000000000,"state":"active","ping":95},{"user_id":589,"name":"MASSIVE HOG","steam_id":76561198079923652,"connected_time":3520000000000,"state":"active","ping":79},{"user_id":555,"name":"catgirl giantess in heat","steam_id":76561198439042583,"connected_time":7166000000000,"state":"active","ping":90},{"user_id":556,"name":"super autism girl","steam_id":76561198008908085,"connected_time":6948000000000,"state":"active","ping":35},{"user_id":631,"name":"Lunchbreak TF2 Enjoyer","steam_id":76561198149063013,"connected_time":709000000000,"state":"active","ping":102},{"user_id":578,"name":"Yoshi","steam_id":76561198073343437,"connected_time":4867000000000,"state":"active","ping":46},{"user_id":586,"name":"mommy HOG","steam_id":76561199230929836,"connected_time":3770000000000,"state":"active","ping":106},{"user_id":619,"name":"The Boy","steam_id":76561198813586588,"connected_time":1298000000000,"state":"active","ping":54},{"user_id":620,"name":"Logoglide","steam_id":76561198068920988,"connected_time":1266000000000,"state":"active","ping":108},{"user_id":635,"name":"› snow","steam_id":76561198109783729,"connected_time":130000000000,"state":"active","ping":95},{"user_id":625,"name":"BIGGEST MAC","steam_id":76561198847517098,"connected_time":821000000000,"state":"active","ping":138},{"user_id":593,"name":"Vanilla","steam_id":76561198242358820,"connected_time":2829000000000,"state":"active","ping":45},{"user_id":564,"name":"chicken grease","steam_id":76561198075758026,"connected_time":6206000000000,"state":"active","ping":119},{"user_id":610,"name":"5-MeO-DMT","steam_id":76561198089527768,"connected_time":1932000000000,"state":"active","ping":89},{"user_id":606,"name":"Societal","steam_id":76561198081531492,"connected_time":2137000000000,"state":"active","ping":108},{"user_id":622,"name":"♠ღ「Loafy」ღ♠","steam_id":76561198294770715,"connected_time":1141000000000,"state":"active","ping":117},{"user_id":612,"name":"Puny Punny","steam_id":76561198060143203,"connected_time":1762000000000,"state":"active","ping":46},{"user_id":626,"name":"ansoonii","steam_id":76561198092494136,"connected_time":804000000000,"state":"active","ping":87},{"user_id":634,"name":"Mrluigi1111111","steam_id":76561198284677119,"connected_time":545000000000,"state":"active","ping":139},{"user_id":636,"name":"0xFUL","steam_id":76561198081684676,"connected_time":80000000000,"state":"active","ping":105},{"user_id":629,"name":"fredpimpstone","steam_id":76561198201872929,"connected_time":776000000000,"state":"active","ping":100},{"user_id":630,"name":"Grandpa Owl  #TF2SP","steam_id":76561198061445083,"connected_time":728000000000,"state":"active","ping":72},{"user_id":633,"name":"obbeymaster19","steam_id":76561199197244143,"connected_time":629000000000,"state":"active","ping":116}]},{"server_id":25,"name":"Uncletopia | Los Angeles | 4 | No Payload","name_short":"lax-4","host":"lax-1.us.uncletopia.com","port":27045,"enabled":true,"region":"us-west","cc":"us","latitude":33.94279,"longitude":-118.41004,"reserved":0,"last_update":"0001-01-01T00:00:00Z","name_a2s":"Uncletopia | Los Angeles | 4 | No Payload","protocol":17,"map":"plr_bananabay","folder":"tf","game":"Team Fortress","app_id":440,"player_count":0,"max_players":24,"Bots":0,"server_type":"Dedicated","server_os":"Linux","password":true,"vac":true,"version":"7708610","steam_id":85568392924510199,"keywords":["nocrits","nodmgspread","payload","uncletopia"],"game_id":440,"stv_port":27046,"stv_name":"Uncletopia | Los Angeles | 4 | No Payload | STV","players":null},{"server_id":11,"name":"Uncletopia | London | 1 | All Maps","name_short":"lon-1","host":"lon-1.uk.uncletopia.com","port":27015,"enabled":true,"region":"eu","cc":"gb","latitude":51.509865,"longitude":-0.118092,"reserved":0,"last_update":"0001-01-01T00:00:00Z","name_a2s":"Uncletopia | London | 1 | All Maps","protocol":17,"map":"pl_badwater","folder":"tf","game":"Team Fortress","app_id":440,"player_count":8,"max_players":24,"Bots":0,"server_type":"Dedicated","server_os":"Linux","password":true,"vac":true,"version":"7708610","steam_id":85568392924367362,"keywords":["nocrits","nodmgspread","payload","uncletopia"],"game_id":440,"stv_port":27016,"stv_name":"Uncletopia | London | 1 | All Maps | STV","players":[{"user_id":27,"name":"GUG (real)","steam_id":76561198405653209,"connected_time":509000000000,"state":"active","ping":60},{"user_id":29,"name":"Venus⚢","steam_id":76561198018602969,"connected_time":170000000000,"state":"active","ping":58},{"user_id":23,"name":"Kahvi","steam_id":76561198723244199,"connected_time":807000000000,"state":"active","ping":75},{"user_id":24,"name":"Christopher","steam_id":76561198108482463,"connected_time":796000000000,"state":"active","ping":71},{"user_id":28,"name":"TK","steam_id":76561199384193338,"connected_time":470000000000,"state":"active","ping":70},{"user_id":30,"name":"Quaker Yotes","steam_id":76561198083068263,"connected_time":166000000000,"state":"active","ping":69},{"user_id":31,"name":"Millero15","steam_id":76561198143105719,"connected_time":64000000000,"state":"active","ping":81},{"user_id":32,"name":"RetKiKimppa","steam_id":76561198109865665,"connected_time":11000000000,"state":"spawning","ping":89}]},{"server_id":114,"name":"Uncletopia | London | 2 | All Maps","name_short":"lon-2","host":"lon-1.uk.uncletopia.com","port":27025,"enabled":true,"region":"eu","cc":"gb","latitude":51.509865,"longitude":-0.118092,"reserved":0,"last_update":"0001-01-01T00:00:00Z","name_a2s":"Uncletopia | London | 2 | All Maps","protocol":17,"map":"koth_cascade","folder":"tf","game":"Team Fortress","app_id":440,"player_count":0,"max_players":24,"Bots":0,"server_type":"Dedicated","server_os":"Linux","password":true,"vac":true,"version":"7708610","steam_id":85568392924470941,"keywords":["cp","nocrits","nodmgspread","uncletopia"],"game_id":440,"stv_port":27026,"stv_name":"Uncletopia | London | 2 | All Maps | STV","players":null},{"server_id":320,"name":"Uncletopia | London | 3 | All Maps","name_short":"lon-3","host":"lon-1.uk.uncletopia.com","port":27035,"enabled":true,"region":"eu","cc":"gb","latitude":51.509865,"longitude":-0.118092,"reserved":0,"last_update":"0001-01-01T00:00:00Z","name_a2s":"Uncletopia | London | 3 | All Maps","protocol":17,"map":"koth_cascade","folder":"tf","game":"Team Fortress","app_id":440,"player_count":0,"max_players":24,"Bots":0,"server_type":"Dedicated","server_os":"Linux","password":true,"vac":true,"version":"7708610","steam_id":85568392924510192,"keywords":["cp","nocrits","nodmgspread","uncletopia"],"game_id":440,"stv_port":27036,"stv_name":"Uncletopia | London | 3 | All Maps | STV","players":null},{"server_id":321,"name":"Uncletopia | London | 4 | All Maps","name_short":"lon-4","host":"lon-1.uk.uncletopia.com","port":27045,"enabled":true,"region":"eu","cc":"gb","latitude":51.509865,"longitude":-0.118092,"reserved":0,"last_update":"0001-01-01T00:00:00Z","name_a2s":"Uncletopia | London | 4 | All Maps","protocol":17,"map":"koth_cascade","folder":"tf","game":"Team Fortress","app_id":440,"player_count":0,"max_players":24,"Bots":0,"server_type":"Dedicated","server_os":"Linux","password":true,"vac":true,"version":"7708610","steam_id":85568392924510193,"keywords":["cp","nocrits","nodmgspread","uncletopia"],"game_id":440,"stv_port":27046,"stv_name":"Uncletopia | London | 4 | All Maps | STV","players":null},{"server_id":21,"name":"Uncletopia | London | 5 | All Maps","name_short":"lon-5","host":"lon-1.uk.uncletopia.com","port":27055,"enabled":true,"region":"eu","cc":"gb","latitude":51.509865,"longitude":-0.118092,"reserved":0,"last_update":"0001-01-01T00:00:00Z","name_a2s":"Uncletopia | London | 5 | All Maps","protocol":17,"map":"pl_badwater","folder":"tf","game":"Team Fortress","app_id":440,"player_count":0,"max_players":24,"Bots":0,"server_type":"Dedicated","server_os":"Linux","password":true,"vac":true,"version":"7708610","steam_id":85568392924742829,"keywords":["nocrits","nodmgspread","payload","uncletopia"],"game_id":440,"stv_port":27056,"stv_name":"Uncletopia | London | 5 | All Maps | STV","players":null},{"server_id":22,"name":"Uncletopia | London | 6 | All Maps","name_short":"lon-6","host":"lon-1.uk.uncletopia.com","port":27065,"enabled":true,"region":"eu","cc":"gb","latitude":51.509865,"longitude":-0.118092,"reserved":0,"last_update":"0001-01-01T00:00:00Z","name_a2s":"Uncletopia | London | 6 | All Maps","protocol":17,"map":"pl_frontier_final","folder":"tf","game":"Team Fortress","app_id":440,"player_count":0,"max_players":24,"Bots":0,"server_type":"Dedicated","server_os":"Linux","password":true,"vac":true,"version":"7708610","steam_id":85568392924742830,"keywords":["nocrits","nodmgspread","payload","uncletopia"],"game_id":440,"stv_port":27066,"stv_name":"Uncletopia | London | 6 | All Maps | STV","players":null},{"server_id":40,"name":"Uncletopia | London | 7 | No Payload","name_short":"lon-7","host":"lon-1.uk.uncletopia.com","port":27075,"enabled":true,"region":"eu","cc":"gb","latitude":51.509865,"longitude":-0.118092,"reserved":0,"last_update":"0001-01-01T00:00:00Z","name_a2s":"Uncletopia | London | 7 | No Payload","protocol":17,"map":"pl_barnblitz","folder":"tf","game":"Team Fortress","app_id":440,"player_count":0,"max_players":24,"Bots":0,"server_type":"Dedicated","server_os":"Linux","password":true,"vac":true,"version":"7708610","steam_id":85568392924964314,"keywords":["nocrits","nodmgspread","payload","uncletopia"],"game_id":440,"stv_port":27076,"stv_name":"Uncletopia | London | 7 | No Payload | STV","players":null},{"server_id":41,"name":"Uncletopia | London | 8 | Community","name_short":"lon-8","host":"lon-1.uk.uncletopia.com","port":27085,"enabled":true,"region":"eu","cc":"gb","latitude":51.509865,"longitude":-0.118092,"reserved":0,"last_update":"0001-01-01T00:00:00Z","name_a2s":"Uncletopia | London | 8 | Community","protocol":17,"map":"pl_pier","folder":"tf","game":"Team Fortress","app_id":440,"player_count":0,"max_players":24,"Bots":0,"server_type":"Dedicated","server_os":"Linux","password":true,"vac":true,"version":"7708610","steam_id":85568392924964315,"keywords":["nocrits","nodmgspread","payload","uncletopia"],"game_id":440,"stv_port":27086,"stv_name":"Uncletopia | London | 8 | Community | STV","players":null},{"server_id":300,"name":"Uncletopia | Montréal | 1 | All Maps","name_short":"mtl-1","host":"mtl-1.ca.uncletopia.com","port":27015,"enabled":true,"region":"us-east","cc":"ca","latitude":45.50889,"longitude":-73.56167,"reserved":0,"last_update":"0001-01-01T00:00:00Z","name_a2s":"Uncletopia | Montréal | 1 | All Maps","protocol":17,"map":"pl_borneo","folder":"tf","game":"Team Fortress","app_id":440,"player_count":0,"max_players":24,"Bots":0,"server_type":"Dedicated","server_os":"Linux","password":true,"vac":true,"version":"7708610","steam_id":85568392924500087,"keywords":["nocrits","nodmgspread","payload","uncletopia"],"game_id":440,"stv_port":27016,"stv_name":"Uncletopia | Montréal | 1 | All Maps | STV","players":null},{"server_id":301,"name":"Uncletopia | Montréal | 2 | All Maps","name_short":"mtl-2","host":"mtl-1.ca.uncletopia.com","port":27025,"enabled":true,"region":"us-east","cc":"ca","latitude":45.50889,"longitude":-73.56167,"reserved":0,"last_update":"0001-01-01T00:00:00Z","name_a2s":"Uncletopia | Montréal | 2 | All Maps","protocol":17,"map":"pl_borneo","folder":"tf","game":"Team Fortress","app_id":440,"player_count":0,"max_players":24,"Bots":0,"server_type":"Dedicated","server_os":"Linux","password":true,"vac":true,"version":"7708610","steam_id":85568392924500088,"keywords":["nocrits","nodmgspread","payload","uncletopia"],"game_id":440,"stv_port":27026,"stv_name":"Uncletopia | Montréal | 2 | All Maps | STV","players":null},{"server_id":302,"name":"Uncletopia | Montréal | 3 | All Maps","name_short":"mtl-3","host":"mtl-1.ca.uncletopia.com","port":27035,"enabled":true,"region":"us-east","cc":"ca","latitude":45.50889,"longitude":-73.56167,"reserved":0,"last_update":"0001-01-01T00:00:00Z","name_a2s":"Uncletopia | Montréal | 3 | All Maps","protocol":17,"map":"cp_snakewater_final1","folder":"tf","game":"Team Fortress","app_id":440,"player_count":0,"max_players":24,"Bots":0,"server_type":"Dedicated","server_os":"Linux","password":true,"vac":true,"version":"7708610","steam_id":85568392924500089,"keywords":["cp","nocrits","nodmgspread","uncletopia"],"game_id":440,"stv_port":27036,"stv_name":"Uncletopia | Montréal | 3 | All Maps | STV","players":null},{"server_id":303,"name":"Uncletopia | Montréal | 4 | No Payload","name_short":"mtl-4","host":"mtl-1.ca.uncletopia.com","port":27045,"enabled":true,"region":"us-east","cc":"ca","latitude":45.50889,"longitude":-73.56167,"reserved":0,"last_update":"0001-01-01T00:00:00Z","name_a2s":"Uncletopia | Montréal | 4 | No Payload","protocol":17,"map":"cp_snakewater_final1","folder":"tf","game":"Team Fortress","app_id":440,"player_count":0,"max_players":24,"Bots":0,"server_type":"Dedicated","server_os":"Linux","password":true,"vac":true,"version":"7708610","steam_id":85568392924500090,"keywords":["cp","nocrits","nodmgspread","uncletopia"],"game_id":440,"stv_port":27046,"stv_name":"Uncletopia | Montréal | 4 | No Payload | STV","players":null},{"server_id":13,"name":"Uncletopia | New York City | 1 | All Maps","name_short":"nyc-1","host":"nyc-1.us.uncletopia.com","port":27015,"enabled":true,"region":"us-east","cc":"us","latitude":40.73061,"longitude":-73.93524,"reserved":0,"last_update":"0001-01-01T00:00:00Z","name_a2s":"Uncletopia | New York City | 1 | All Maps","protocol":17,"map":"pl_barnblitz","folder":"tf","game":"Team Fortress","app_id":440,"player_count":0,"max_players":24,"Bots":0,"server_type":"Dedicated","server_os":"Linux","password":true,"vac":true,"version":"7708610","steam_id":85568392924469993,"keywords":["nocrits","nodmgspread","payload","uncletopia"],"game_id":440,"stv_port":27016,"stv_name":"Uncletopia | New York City | 1 | All Maps | STV","players":null},{"server_id":14,"name":"Uncletopia | New York City | 2 | All Maps","name_short":"nyc-2","host":"nyc-1.us.uncletopia.com","port":27025,"enabled":true,"region":"us-east","cc":"us","latitude":40.73061,"longitude":-73.93524,"reserved":0,"last_update":"0001-01-01T00:00:00Z","name_a2s":"Uncletopia | New York City | 2 | All Maps","protocol":17,"map":"cp_altitude","folder":"tf","game":"Team Fortress","app_id":440,"player_count":0,"max_players":24,"Bots":0,"server_type":"Dedicated","server_os":"Linux","password":true,"vac":true,"version":"7708610","steam_id":85568392924469994,"keywords":["cp","nocrits","nodmgspread","uncletopia"],"game_id":440,"stv_port":27026,"stv_name":"Uncletopia | New York City | 2 | All Maps | STV","players":null},{"server_id":15,"name":"Uncletopia | New York City | 3 | All Maps","name_short":"nyc-3","host":"nyc-1.us.uncletopia.com","port":27035,"enabled":true,"region":"us-east","cc":"us","latitude":40.73061,"longitude":-73.93524,"reserved":0,"last_update":"0001-01-01T00:00:00Z","name_a2s":"Uncletopia | New York City | 3 | All Maps","protocol":17,"map":"cp_mountainlab","folder":"tf","game":"Team Fortress","app_id":440,"player_count":0,"max_players":24,"Bots":0,"server_type":"Dedicated","server_os":"Linux","password":true,"vac":true,"version":"7708610","steam_id":85568392924742820,"keywords":["cp","nocrits","nodmgspread","uncletopia"],"game_id":440,"stv_port":27036,"stv_name":"Uncletopia | New York City | 3 | All Maps | STV","players":null},{"server_id":16,"name":"Uncletopia | New York City | 4 | Community","name_short":"nyc-4","host":"nyc-1.us.uncletopia.com","port":27045,"enabled":true,"region":"us-east","cc":"us","latitude":40.73061,"longitude":-73.93524,"reserved":0,"last_update":"0001-01-01T00:00:00Z","name_a2s":"Uncletopia | New York City | 4 | Community","protocol":17,"map":"pl_barnblitz","folder":"tf","game":"Team Fortress","app_id":440,"player_count":0,"max_players":24,"Bots":0,"server_type":"Dedicated","server_os":"Linux","password":true,"vac":true,"version":"7708610","steam_id":85568392924742821,"keywords":["nocrits","nodmgspread","payload","uncletopia"],"game_id":440,"stv_port":27046,"stv_name":"Uncletopia | New York City | 4 | Community | STV","players":null},{"server_id":142,"name":"Uncletopia | São Paulo | 1 | All Maps","name_short":"sao-1","host":"sao-1.br.uncletopia.com","port":27015,"enabled":true,"region":"sa","cc":"br","latitude":-23.533773,"longitude":-46.62529,"reserved":0,"last_update":"0001-01-01T00:00:00Z","name_a2s":"Uncletopia | São Paulo | 1 | All Maps","protocol":17,"map":"pl_pier","folder":"tf","game":"Team Fortress","app_id":440,"player_count":0,"max_players":24,"Bots":0,"server_type":"Dedicated","server_os":"Linux","password":true,"vac":true,"version":"7708610","steam_id":85568392924469996,"keywords":["nocrits","nodmgspread","payload","uncletopia"],"game_id":440,"stv_port":27016,"stv_name":"Uncletopia | São Paulo | 1 | All Maps | STV","players":null},{"server_id":143,"name":"Uncletopia | São Paulo | 2 | All Maps","name_short":"sao-2","host":"sao-2.br.uncletopia.com","port":27015,"enabled":true,"region":"sa","cc":"br","latitude":-23.533773,"longitude":-46.62529,"reserved":0,"last_update":"0001-01-01T00:00:00Z","name_a2s":"Uncletopia | São Paulo | 2 | All Maps","protocol":17,"map":"koth_viaduct","folder":"tf","game":"Team Fortress","app_id":440,"player_count":0,"max_players":24,"Bots":0,"server_type":"Dedicated","server_os":"Linux","password":true,"vac":true,"version":"7708610","steam_id":85568392924485349,"keywords":["cp","nocrits","nodmgspread","uncletopia"],"game_id":440,"stv_port":27016,"stv_name":"Uncletopia | São Paulo | 2 | All Maps | STV","players":null},{"server_id":7,"name":"Uncletopia | Seattle | 1 | All Maps","name_short":"sea-1","host":"sea-1.us.uncletopia.com","port":27015,"enabled":true,"region":"us-west","cc":"us","latitude":47.608013,"longitude":-122.33517,"reserved":0,"last_update":"0001-01-01T00:00:00Z","name_a2s":"Uncletopia | Seattle | 1 | All Maps","protocol":17,"map":"pl_barnblitz","folder":"tf","game":"Team Fortress","app_id":440,"player_count":23,"max_players":24,"Bots":0,"server_type":"Dedicated","server_os":"Linux","password":true,"vac":true,"version":"7708610","steam_id":85568392924469997,"keywords":["nocrits","nodmgspread","payload","uncletopia"],"game_id":440,"stv_port":27016,"stv_name":"Uncletopia | Seattle | 1 | All Maps | STV","players":[{"user_id":493,"name":"Sir Galahad","steam_id":76561198195999859,"connected_time":5079000000000,"state":"active","ping":47},{"user_id":545,"name":"C O M F Y","steam_id":76561198072101210,"connected_time":478000000000,"state":"active","ping":134},{"user_id":526,"name":"Zorlovo","steam_id":76561198006443283,"connected_time":1740000000000,"state":"active","ping":76},{"user_id":546,"name":"DennisPlays #STOPTHEWAR","steam_id":76561198083063005,"connected_time":346000000000,"state":"active","ping":175},{"user_id":544,"name":"hamo456","steam_id":76561198111939938,"connected_time":512000000000,"state":"active","ping":63},{"user_id":547,"name":"Dura","steam_id":76561198334676366,"connected_time":237000000000,"state":"active","ping":114},{"user_id":548,"name":"AWRD","steam_id":76561198110350838,"connected_time":133000000000,"state":"active","ping":68},{"user_id":495,"name":"Soap","steam_id":76561198074619142,"connected_time":4963000000000,"state":"active","ping":102},{"user_id":549,"name":"TrilliousGaming","steam_id":76561199396374069,"connected_time":104000000000,"state":"active","ping":137},{"user_id":537,"name":"the fool","steam_id":76561198133933158,"connected_time":1335000000000,"state":"active","ping":67},{"user_id":529,"name":"Game Of Life","steam_id":76561198262361438,"connected_time":1627000000000,"state":"active","ping":100},{"user_id":530,"name":"Lord_Manship","steam_id":76561198045168765,"connected_time":1571000000000,"state":"active","ping":119},{"user_id":531,"name":"SLOPPY BLOWJOB DEVIL","steam_id":76561198819545533,"connected_time":1521000000000,"state":"active","ping":99},{"user_id":532,"name":"{907}DarkestFury","steam_id":76561198103662458,"connected_time":1445000000000,"state":"active","ping":75},{"user_id":500,"name":"Jacasola","steam_id":76561198055460402,"connected_time":4405000000000,"state":"active","ping":70},{"user_id":533,"name":"Sou1Eater7","steam_id":76561198011330131,"connected_time":1420000000000,"state":"active","ping":106},{"user_id":520,"name":"rlty","steam_id":76561198009395055,"connected_time":2300000000000,"state":"active","ping":119},{"user_id":550,"name":"icecxld","steam_id":76561198079018805,"connected_time":72000000000,"state":"active","ping":106},{"user_id":534,"name":"dartwing","steam_id":76561197998575360,"connected_time":1390000000000,"state":"active","ping":50},{"user_id":536,"name":"myk","steam_id":76561198039019472,"connected_time":1375000000000,"state":"active","ping":63},{"user_id":538,"name":"pandaxe","steam_id":76561198088032105,"connected_time":1325000000000,"state":"active","ping":73},{"user_id":543,"name":"mumbles","steam_id":76561197994528974,"connected_time":858000000000,"state":"active","ping":87},{"user_id":540,"name":"Evil","steam_id":76561198070894577,"connected_time":1193000000000,"state":"active","ping":71}]},{"server_id":119,"name":"Uncletopia | Seattle | 2 | All Maps","name_short":"sea-2","host":"sea-1.us.uncletopia.com","port":27025,"enabled":true,"region":"us-west","cc":"us","latitude":47.608013,"longitude":-122.33517,"reserved":0,"last_update":"0001-01-01T00:00:00Z","name_a2s":"Uncletopia | Seattle | 2 | All Maps","protocol":17,"map":"koth_highpass","folder":"tf","game":"Team Fortress","app_id":440,"player_count":0,"max_players":24,"Bots":0,"server_type":"Dedicated","server_os":"Linux","password":true,"vac":true,"version":"7708610","steam_id":85568392924469998,"keywords":["cp","nocrits","nodmgspread","uncletopia"],"game_id":440,"stv_port":27026,"stv_name":"Uncletopia | Seattle | 2 | All Maps | STV","players":null},{"server_id":17,"name":"Uncletopia | San Francisco | 1 | All Maps","name_short":"sfo-1","host":"sfo-1.us.uncletopia.com","port":27015,"enabled":true,"region":"us-west","cc":"us","latitude":37.77397,"longitude":-122.4313,"reserved":0,"last_update":"0001-01-01T00:00:00Z","name_a2s":"Uncletopia | San Francisco | 1 | All Maps","protocol":17,"map":"koth_viaduct","folder":"tf","game":"Team Fortress","app_id":440,"player_count":0,"max_players":24,"Bots":0,"server_type":"Dedicated","server_os":"Linux","password":true,"vac":true,"version":"7708610","steam_id":85568392924469999,"keywords":["cp","nocrits","nodmgspread","uncletopia"],"game_id":440,"stv_port":27016,"stv_name":"Uncletopia | San Francisco | 1 | All Maps | STV","players":null},{"server_id":18,"name":"Uncletopia | San Francisco | 2 | All Maps","name_short":"sfo-2","host":"sfo-1.us.uncletopia.com","port":27025,"enabled":true,"region":"us-west","cc":"us","latitude":37.77397,"longitude":-122.4313,"reserved":0,"last_update":"0001-01-01T00:00:00Z","name_a2s":"Uncletopia | San Francisco | 2 | All Maps","protocol":17,"map":"koth_harvest_final","folder":"tf","game":"Team Fortress","app_id":440,"player_count":0,"max_players":24,"Bots":0,"server_type":"Dedicated","server_os":"Linux","password":true,"vac":true,"version":"7708610","steam_id":85568392924470000,"keywords":["cp","nocrits","nodmgspread","uncletopia"],"game_id":440,"stv_port":27026,"stv_name":"Uncletopia | San Francisco | 2 | All Maps | STV","players":null},{"server_id":19,"name":"Uncletopia | San Francisco | 3 | No Payload","name_short":"sfo-3","host":"sfo-1.us.uncletopia.com","port":27035,"enabled":true,"region":"us-west","cc":"us","latitude":37.77397,"longitude":-122.4313,"reserved":0,"last_update":"0001-01-01T00:00:00Z","name_a2s":"Uncletopia | San Francisco | 3 | No Payload","protocol":17,"map":"ctf_sawmill","folder":"tf","game":"Team Fortress","app_id":440,"player_count":0,"max_players":24,"Bots":0,"server_type":"Dedicated","server_os":"Linux","password":true,"vac":true,"version":"7708610","steam_id":85568392924742824,"keywords":["ctf","nocrits","nodmgspread","uncletopia"],"game_id":440,"stv_port":27036,"stv_name":"Uncletopia | San Francisco | 3 | No Payload | STV","players":null},{"server_id":20,"name":"Uncletopia | San Francisco | 4 | Community","name_short":"sfo-4","host":"sfo-1.us.uncletopia.com","port":27045,"enabled":true,"region":"us-west","cc":"us","latitude":37.77397,"longitude":-122.4313,"reserved":0,"last_update":"0001-01-01T00:00:00Z","name_a2s":"Uncletopia | San Francisco | 4 | Community","protocol":17,"map":"workshop/rd_asteroid_redux_rc9.ugc2154902912","folder":"tf","game":"Team Fortress","app_id":440,"player_count":0,"max_players":24,"Bots":0,"server_type":"Dedicated","server_os":"Linux","password":true,"vac":true,"version":"7708610","steam_id":85568392924742826,"keywords":["beta","nocrits","nodmgspread","rd","uncletopia"],"game_id":440,"stv_port":27046,"stv_name":"Uncletopia | San Francisco | 4 | Community | STV","players":null},{"server_id":141,"name":"Uncletopia | Sydney | 1 | All Maps","name_short":"syd-1","host":"syd-1.au.uncletopia.com","port":27015,"enabled":true,"region":"au","cc":"au","latitude":-33.865143,"longitude":151.2099,"reserved":0,"last_update":"0001-01-01T00:00:00Z","name_a2s":"Uncletopia | Sydney | 1 | All Maps","protocol":17,"map":"pl_swiftwater_final1","folder":"tf","game":"Team Fortress","app_id":440,"player_count":24,"max_players":24,"Bots":0,"server_type":"Dedicated","server_os":"Linux","password":true,"vac":true,"version":"7708610","steam_id":85568392924470001,"keywords":["nocrits","nodmgspread","payload","uncletopia"],"game_id":440,"stv_port":27016,"stv_name":"Uncletopia | Sydney | 1 | All Maps | STV","players":[{"user_id":523,"name":"Floppy","steam_id":76561198296769665,"connected_time":2343000000000,"state":"active","ping":159},{"user_id":528,"name":"mooxe","steam_id":76561198158163093,"connected_time":2277000000000,"state":"active","ping":51},{"user_id":538,"name":"Shotgun","steam_id":76561198277428767,"connected_time":1464000000000,"state":"active","ping":64},{"user_id":536,"name":"Wet Wizard","steam_id":76561198277879991,"connected_time":1566000000000,"state":"active","ping":51},{"user_id":539,"name":"Fuzzy","steam_id":76561198081319798,"connected_time":1300000000000,"state":"active","ping":56},{"user_id":561,"name":"twitch.tv/xtswagg","steam_id":76561199009912335,"connected_time":329000000000,"state":"active","ping":59},{"user_id":534,"name":"Milk Man","steam_id":76561198882677157,"connected_time":1708000000000,"state":"active","ping":48},{"user_id":549,"name":"Kouroboros","steam_id":76561198141283669,"connected_time":604000000000,"state":"active","ping":67},{"user_id":525,"name":"Marleynator","steam_id":76561198042517985,"connected_time":2335000000000,"state":"active","ping":78},{"user_id":526,"name":"Farron","steam_id":76561198202709811,"connected_time":2326000000000,"state":"active","ping":60},{"user_id":527,"name":"Moldy","steam_id":76561198824771774,"connected_time":2325000000000,"state":"active","ping":55},{"user_id":529,"name":"toehunter","steam_id":76561198106341655,"connected_time":2274000000000,"state":"active","ping":58},{"user_id":537,"name":"Tee","steam_id":76561198167322000,"connected_time":1527000000000,"state":"active","ping":46},{"user_id":541,"name":"Winky","steam_id":76561199059450243,"connected_time":1034000000000,"state":"active","ping":125},{"user_id":554,"name":"Yes'Tir'Day","steam_id":76561198091798037,"connected_time":441000000000,"state":"active","ping":150},{"user_id":563,"name":"Charm","steam_id":76561198028891054,"connected_time":284000000000,"state":"active","ping":61},{"user_id":552,"name":"Zexhyz","steam_id":76561198308652621,"connected_time":574000000000,"state":"active","ping":90},{"user_id":553,"name":"Brett","steam_id":76561199061514656,"connected_time":557000000000,"state":"active","ping":64},{"user_id":566,"name":"Glenda","steam_id":76561198046760183,"connected_time":45000000000,"state":"spawning","ping":129},{"user_id":556,"name":"blicky","steam_id":76561198029829077,"connected_time":375000000000,"state":"active","ping":90},{"user_id":564,"name":"man ahhh","steam_id":76561198129577552,"connected_time":282000000000,"state":"active","ping":78},{"user_id":558,"name":"Bloxors","steam_id":76561198040639258,"connected_time":353000000000,"state":"active","ping":90},{"user_id":559,"name":"invidia","steam_id":76561198096251579,"connected_time":346000000000,"state":"active","ping":65},{"user_id":562,"name":"penis muncher","steam_id":76561198288259746,"connected_time":327000000000,"state":"active","ping":61}]},{"server_id":123,"name":"Uncletopia | Sydney | 2 | All Maps","name_short":"syd-2","host":"syd-1.au.uncletopia.com","port":27025,"enabled":true,"region":"au","cc":"au","latitude":-33.865143,"longitude":151.2099,"reserved":0,"last_update":"0001-01-01T00:00:00Z","name_a2s":"Uncletopia | Sydney | 2 | All Maps","protocol":17,"map":"pl_pier","folder":"tf","game":"Team Fortress","app_id":440,"player_count":9,"max_players":24,"Bots":0,"server_type":"Dedicated","server_os":"Linux","password":true,"vac":true,"version":"7708610","steam_id":85568392924470002,"keywords":["nocrits","nodmgspread","payload","uncletopia"],"game_id":440,"stv_port":27026,"stv_name":"Uncletopia | Sydney | 2 | All Maps | STV","players":[{"user_id":584,"name":"Pigmop","steam_id":76561199096494193,"connected_time":89000000000,"state":"active","ping":45},{"user_id":583,"name":"ericacummins","steam_id":76561198946280912,"connected_time":141000000000,"state":"active","ping":81},{"user_id":577,"name":"xfol","steam_id":76561197973048879,"connected_time":475000000000,"state":"active","ping":56},{"user_id":544,"name":"Juan Bolsa","steam_id":76561198225848740,"connected_time":2537000000000,"state":"active","ping":45},{"user_id":572,"name":"Lovres","steam_id":76561198058740774,"connected_time":649000000000,"state":"active","ping":76},{"user_id":565,"name":"Elves","steam_id":76561198010873624,"connected_time":1060000000000,"state":"active","ping":53},{"user_id":542,"name":"Eduardo","steam_id":76561198110238382,"connected_time":2671000000000,"state":"active","ping":45},{"user_id":547,"name":"CamelGamer123","steam_id":76561198901906480,"connected_time":2268000000000,"state":"active","ping":50},{"user_id":509,"name":"Don Eladio","steam_id":76561198869066545,"connected_time":5026000000000,"state":"active","ping":33}]},{"server_id":395,"name":"Uncletopia | Sydney | 3 | All Maps","name_short":"syd-3","host":"syd-1.au.uncletopia.com","port":27035,"enabled":true,"region":"au","cc":"au","latitude":-33.865143,"longitude":151.2099,"reserved":0,"last_update":"0001-01-01T00:00:00Z","name_a2s":"Uncletopia | Sydney | 3 | All Maps","protocol":17,"map":"cp_dustbowl","folder":"tf","game":"Team Fortress","app_id":440,"player_count":1,"max_players":24,"Bots":0,"server_type":"Dedicated","server_os":"Linux","password":true,"vac":true,"version":"7708610","steam_id":85568392925194467,"keywords":["cp","nocrits","nodmgspread","uncletopia"],"game_id":440,"stv_port":27036,"stv_name":"Uncletopia | Sydney | 3 | All Maps | STV","players":[{"user_id":143,"name":"Johngamer2418","steam_id":76561198377832282,"connected_time":499000000000,"state":"active","ping":95}]},{"server_id":396,"name":"Uncletopia | Sydney | 4 | All Maps","name_short":"syd-4","host":"syd-1.au.uncletopia.com","port":27045,"enabled":true,"region":"au","cc":"au","latitude":-33.865143,"longitude":151.2099,"reserved":0,"last_update":"0001-01-01T00:00:00Z","name_a2s":"Uncletopia | Sydney | 4 | All Maps","protocol":17,"map":"pl_barnblitz","folder":"tf","game":"Team Fortress","app_id":440,"player_count":0,"max_players":24,"Bots":0,"server_type":"Dedicated","server_os":"Linux","password":true,"vac":true,"version":"7708610","steam_id":85568392925397958,"keywords":["nocrits","nodmgspread","payload","uncletopia"],"game_id":440,"stv_port":27046,"stv_name":"Uncletopia | Sydney | 4 | All Maps | STV","players":null},{"server_id":58,"name":"Uncletopia | Sydney | 5 | No Payload","name_short":"syd-5","host":"syd-1.au.uncletopia.com","port":27055,"enabled":true,"region":"au","cc":"au","latitude":-33.865143,"longitude":151.2099,"reserved":0,"last_update":"0001-01-01T00:00:00Z","name_a2s":"Uncletopia | Sydney | 5 | No Payload","protocol":17,"map":"koth_suijin","folder":"tf","game":"Team Fortress","app_id":440,"player_count":5,"max_players":24,"Bots":0,"server_type":"Dedicated","server_os":"Linux","password":true,"vac":true,"version":"7708610","steam_id":85568392925397959,"keywords":["cp","nocrits","nodmgspread","uncletopia"],"game_id":440,"stv_port":27056,"stv_name":"Uncletopia | Sydney | 5 | No Payload | STV","players":[{"user_id":17,"name":"Rajab","steam_id":76561198236077918,"connected_time":959000000000,"state":"active","ping":47},{"user_id":18,"name":"Stinke","steam_id":76561198973797001,"connected_time":921000000000,"state":"active","ping":58},{"user_id":19,"name":"dudepooter","steam_id":76561198256765153,"connected_time":897000000000,"state":"active","ping":76},{"user_id":20,"name":"floop flub","steam_id":76561198418968979,"connected_time":157000000000,"state":"active","ping":110},{"user_id":21,"name":"qeuvl","steam_id":76561198170727659,"connected_time":98000000000,"state":"active","ping":61}]},{"server_id":59,"name":"Uncletopia | Sydney | 6 | Community","name_short":"syd-6","host":"syd-1.au.uncletopia.com","port":27065,"enabled":true,"region":"au","cc":"au","latitude":-33.865143,"longitude":151.2099,"reserved":0,"last_update":"0001-01-01T00:00:00Z","name_a2s":"Uncletopia | Sydney | 6 | Community","protocol":17,"map":"workshop/koth_ashville_final.ugc2130459942","folder":"tf","game":"Team Fortress","app_id":440,"player_count":0,"max_players":24,"Bots":0,"server_type":"Dedicated","server_os":"Linux","password":true,"vac":true,"version":"7708610","steam_id":85568392925397960,"keywords":["cp","nocrits","nodmgspread","uncletopia"],"game_id":440,"stv_port":27066,"stv_name":"Uncletopia | Sydney | 6 | Community | STV","players":null},{"server_id":49,"name":"Uncletopia | Warsaw | 1 | All Maps","name_short":"waw-1","host":"waw-1.pl.uncletopia.com","port":27015,"enabled":true,"region":"eu","cc":"pl","latitude":52.2297,"longitude":21.017532,"reserved":0,"last_update":"0001-01-01T00:00:00Z","name_a2s":"Uncletopia | Warsaw | 1 | All Maps","protocol":17,"map":"pl_barnblitz","folder":"tf","game":"Team Fortress","app_id":440,"player_count":0,"max_players":24,"Bots":0,"server_type":"Dedicated","server_os":"Linux","password":true,"vac":true,"version":"7708610","steam_id":85568392925397850,"keywords":["nocrits","nodmgspread","payload","uncletopia"],"game_id":440,"stv_port":27016,"stv_name":"Uncletopia | Warsaw | 1 | All Maps | STV","players":null},{"server_id":50,"name":"Uncletopia | Warsaw | 2 | All Maps","name_short":"waw-2","host":"waw-1.pl.uncletopia.com","port":27025,"enabled":true,"region":"eu","cc":"pl","latitude":52.2297,"longitude":21.017532,"reserved":0,"last_update":"0001-01-01T00:00:00Z","name_a2s":"Uncletopia | Warsaw | 2 | All Maps","protocol":17,"map":"pl_barnblitz","folder":"tf","game":"Team Fortress","app_id":440,"player_count":0,"max_players":24,"Bots":0,"server_type":"Dedicated","server_os":"Linux","password":true,"vac":true,"version":"7708610","steam_id":85568392925397851,"keywords":["nocrits","nodmgspread","payload","uncletopia"],"game_id":440,"stv_port":27026,"stv_name":"Uncletopia | Warsaw | 2 | All Maps | STV","players":null},{"server_id":51,"name":"Uncletopia | Warsaw | 3 | All Maps","name_short":"waw-3","host":"waw-1.pl.uncletopia.com","port":27035,"enabled":true,"region":"eu","cc":"pl","latitude":52.2297,"longitude":21.017532,"reserved":0,"last_update":"0001-01-01T00:00:00Z","name_a2s":"Uncletopia | Warsaw | 3 | All Maps","protocol":17,"map":"pl_badwater","folder":"tf","game":"Team Fortress","app_id":440,"player_count":0,"max_players":24,"Bots":0,"server_type":"Dedicated","server_os":"Linux","password":true,"vac":true,"version":"7708610","steam_id":85568392925397852,"keywords":["nocrits","nodmgspread","payload","uncletopia"],"game_id":440,"stv_port":27036,"stv_name":"Uncletopia | Warsaw | 3 | All Maps | STV","players":null},{"server_id":52,"name":"Uncletopia | Warsaw | 4 | All Maps","name_short":"waw-4","host":"waw-1.pl.uncletopia.com","port":27045,"enabled":true,"region":"eu","cc":"pl","latitude":52.2297,"longitude":21.017532,"reserved":0,"last_update":"0001-01-01T00:00:00Z","name_a2s":"Uncletopia | Warsaw | 4 | All Maps","protocol":17,"map":"pl_pier","folder":"tf","game":"Team Fortress","app_id":440,"player_count":0,"max_players":24,"Bots":0,"server_type":"Dedicated","server_os":"Linux","password":true,"vac":true,"version":"7708610","steam_id":85568392925397853,"keywords":["nocrits","nodmgspread","payload","uncletopia"],"game_id":440,"stv_port":27046,"stv_name":"Uncletopia | Warsaw | 4 | All Maps | STV","players":null},{"server_id":53,"name":"Uncletopia | Warsaw | 5 | No Payload","name_short":"waw-5","host":"waw-1.pl.uncletopia.com","port":27055,"enabled":true,"region":"eu","cc":"pl","latitude":52.2297,"longitude":21.017532,"reserved":0,"last_update":"0001-01-01T00:00:00Z","name_a2s":"Uncletopia | Warsaw | 5 | No Payload","protocol":17,"map":"pl_borneo","folder":"tf","game":"Team Fortress","app_id":440,"player_count":0,"max_players":24,"Bots":0,"server_type":"Dedicated","server_os":"Linux","password":true,"vac":true,"version":"7708610","steam_id":85568392925397854,"keywords":["nocrits","nodmgspread","payload","uncletopia"],"game_id":440,"stv_port":27056,"stv_name":"Uncletopia | Warsaw | 5 | No Payload | STV","players":null},{"server_id":54,"name":"Uncletopia | Warsaw | 6 | Community","name_short":"waw-6","host":"waw-1.pl.uncletopia.com","port":27065,"enabled":true,"region":"eu","cc":"pl","latitude":52.2297,"longitude":21.017532,"reserved":0,"last_update":"0001-01-01T00:00:00Z","name_a2s":"Uncletopia | Warsaw | 6 | Community","protocol":17,"map":"pl_swiftwater_final1","folder":"tf","game":"Team Fortress","app_id":440,"player_count":0,"max_players":24,"Bots":0,"server_type":"Dedicated","server_os":"Linux","password":true,"vac":true,"version":"7708610","steam_id":85568392925397856,"keywords":["nocrits","nodmgspread","payload","uncletopia"],"game_id":440,"stv_port":27066,"stv_name":"Uncletopia | Warsaw | 6 | Community | STV","players":null}]}