{"status":true,"message":"","result":[{"server_id":9,"name":"Uncletopia | Atlanta | 1 | All Maps","name_short":"atl-1","host":"atl-1.us.uncletopia.com","port":27015,"enabled":true,"region":"us-east","cc":"us","latitude":33.753746,"longitude":-84.38633,"reserved":0,"last_update":"0001-01-01T00:00:00Z","name_a2s":"Uncletopia | Atlanta | 1 | All Maps","protocol":17,"map":"cp_sunshine","folder":"tf","game":"Team Fortress","app_id":440,"player_count":2,"max_players":24,"Bots":0,"server_type":"Dedicated","server_os":"Linux","password":true,"vac":true,"version":"7961495","steam_id":85568392924469982,"keywords":["cp","nocrits","nodmgspread","uncletopia"],"game_id":440,"stv_port":27016,"stv_name":"Uncletopia | Atlanta | 1 | All Maps | STV","players":[{"user_id":775,"name":"Mot40344","steam_id":76561198082152037,"connected_time":119000000000,"state":"active","ping":49},{"user_id":776,"name":"dill","steam_id":76561198102178090,"connected_time":71000000000,"state":"active","ping":58}]},{"server_id":104,"name":"Uncletopia | Atlanta | 2 | All Maps","name_short":"atl-2","host":"atl-1.us.uncletopia.com","port":27025,"enabled":true,"region":"us-east","cc":"us","latitude":33.753746,"longitude":-84.38633,"reserved":0,"last_update":"0001-01-01T00:00:00Z","name_a2s":"Uncletopia | Atlanta | 2 | All Maps","protocol":17,"map":"pl_badwater","folder":"tf","game":"Team Fortress","app_id":440,"player_count":17,"max_players":24,"Bots":0,"server_type":"Dedicated","server_os":"Linux","password":true,"vac":true,"version":"7961495","steam_id":85568392924469983,"keywords":["nocrits","nodmgspread","payload","uncletopia"],"game_id":440,"stv_port":27026,"stv_name":"Uncletopia | Atlanta | 2 | All Maps | STV","players":[{"user_id":528,"name":"lalman","steam_id":76561198196605887,"connected_time":1139000000000,"state":"active","ping":65},{"user_id":534,"name":"SeasonedCrab","steam_id":76561198310229755,"connected_time":608000000000,"state":"active","ping":82},{"user_id":533,"name":"Gaming","steam_id":76561198107080532,"connected_time":880000000000,"state":"active","ping":67},{"user_id":536,"name":"knee surgery","steam_id":76561199487086586,"connected_time":435000000000,"state":"active","ping":78},{"user_id":538,"name":"The Horselords and Animal Gods","steam_id":76561197975094050,"connected_time":315000000000,"state":"active","ping":104},{"user_id":471,"name":"Hipster_Giraffe","steam_id":76561198069701092,"connected_time":6925000000000,"state":"active","ping":85},{"user_id":513,"name":"The Notorious T.A.F.T.","steam_id":76561198073012352,"connected_time":2129000000000,"state":"active","ping":73},{"user_id":521,"name":"thugshaker6000","steam_id":76561198120458036,"connected_time":1545000000000,"state":"active","ping":75},{"user_id":514,"name":"YaBoyUlyssesG","steam_id":76561198042482742,"connected_time":2095000000000,"state":"active","ping":92},{"user_id":537,"name":"WitheringLeo","steam_id":76561198046722918,"connected_time":365000000000,"state":"active","ping":82},{"user_id":526,"name":"Foolie","steam_id":76561198291741747,"connected_time":1402000000000,"state":"active","ping":77},{"user_id":518,"name":"Steve (from Minecraft)","steam_id":76561198232026076,"connected_time":1923000000000,"state":"active","ping":68},{"user_id":539,"name":"babywhoa","steam_id":76561198070854627,"connected_time":305000000000,"state":"active","ping":107},{"user_id":540,"name":"\u003e-\u003c","steam_id":76561199207033448,"connected_time":201000000000,"state":"active","ping":188},{"user_id":541,"name":"Pink fluoride","steam_id":76561198055337107,"connected_time":191000000000,"state":"active","ping":66},{"user_id":543,"name":"1000 Ping","steam_id":76561198098330939,"connected_time":94000000000,"state":"active","ping":124},{"user_id":544,"name":"tek lintowe fan","steam_id":76561198206177593,"connected_time":46000000000,"state":"active","ping":90}]},{"server_id":400,"name":"Uncletopia | Atlanta | 3 | Stopwatch","name_short":"atl-3","host":"atl-1.us.uncletopia.com","port":27035,"enabled":true,"region":"us-east","cc":"us","latitude":33.753746,"longitude":-84.38633,"reserved":0,"last_update":"0001-01-01T00:00:00Z","name_a2s":"Uncletopia | Atlanta | 3 | Stopwatch","protocol":17,"map":"koth_highpass","folder":"tf","game":"Team Fortress","app_id":440,"player_count":0,"max_players":24,"Bots":0,"server_type":"Dedicated","server_os":"Linux","password":true,"vac":true,"version":"7961495","steam_id":85568392924515187,"keywords":["cp","nocrits","nodmgspread","uncletopia"],"game_id":440,"stv_port":27036,"stv_name":"Uncletopia | Atlanta | 3 | Stopwatch | STV","players":null},{"server_id":401,"name":"Uncletopia | Atlanta | 4 | Community","name_short":"atl-4","host":"atl-1.us.uncletopia.com","port":27045,"enabled":true,"region":"us-east","cc":"us","latitude":33.753746,"longitude":-84.38633,"reserved":0,"last_update":"0001-01-01T00:00:00Z","name_a2s":"Uncletopia | Atlanta | 4 | Community","protocol":17,"map":"workshop/cp_indulge.ugc528106646","folder":"tf","game":"Team Fortress","app_id":440,"player_count":0,"max_players":24,"Bots":0,"server_type":"Dedicated","server_os":"Linux","password":true,"vac":true,"version":"7961495","steam_id":85568392924515188,"keywords":["cp","nocrits","nodmgspread","uncletopia"],"game_id":440,"stv_port":27046,"stv_name":"Uncletopia | Atlanta | 4 | Community | STV","players":null},{"server_id":2,"name":"Uncletopia | Chicago | 1 | All Maps","name_short":"chi-1","host":"chi-1.us.uncletopia.com","port":27015,"enabled":true,"region":"us-central","cc":"us","latitude":41.881832,"longitude":-87.62318,"reserved":0,"last_update":"0001-01-01T00:00:00Z","name_a2s":"Uncletopia | Chicago | 1 | All Maps","protocol":17,"map":"pl_pier","folder":"tf","game":"Team Fortress","app_id":440,"player_count":24,"max_players":24,"Bots":0,"server_type":"Dedicated","server_os":"Linux","password":true,"vac":true,"version":"7961495","steam_id":85568392924469984,"keywords":["nocrits","nodmgspread","payload","uncletopia"],"game_id":440,"stv_port":27016,"stv_name":"Uncletopia | Chicago | 1 | All Maps | STV","players":[{"user_id":697,"name":"Chocc-_-","steam_id":76561198068070211,"connected_time":1804000000000,"state":"active","ping":103},{"user_id":705,"name":"Censure","steam_id":76561198850891374,"connected_time":1488000000000,"state":"active","ping":63},{"user_id":670,"name":"Am Da Best","steam_id":76561198163825955,"connected_time":2947000000000,"state":"active","ping":124},{"user_id":669,"name":"rose","steam_id":76561198048882285,"connected_time":2984000000000,"state":"active","ping":60},{"user_id":710,"name":"frog from pond","steam_id":76561198184900753,"connected_time":596000000000,"state":"active","ping":53},{"user_id":666,"name":"ms. capgras","steam_id":76561199080209996,"connected_time":3084000000000,"state":"active","ping":51},{"user_id":696,"name":"pah","steam_id":76561198065040540,"connected_time":1940000000000,"state":"active","ping":75},{"user_id":706,"name":"CF-TF2","steam_id":76561198145893044,"connected_time":1392000000000,"state":"active","ping":79},{"user_id":686,"name":"gyat","steam_id":76561198043684960,"connected_time":2425000000000,"state":"active","ping":72},{"user_id":668,"name":"Sophie","steam_id":76561198170408057,"connected_time":3019000000000,"state":"active","ping":60},{"user_id":681,"name":"Poopisviel Von Einzbern","steam_id":76561198259260433,"connected_time":2550000000000,"state":"active","ping":85},{"user_id":605,"name":"robot with human hair","steam_id":76561198018691308,"connected_time":7327000000000,"state":"active","ping":80},{"user_id":659,"name":"exa*âœ©â€§â‚ŠËš","steam_id":76561198044511912,"connected_time":3225000000000,"state":"active","ping":100},{"user_id":660,"name":"eBay","steam_id":76561198061214569,"connected_time":3225000000000,"state":"active","ping":93},{"user_id":586,"name":"joseph stalin","steam_id":76561199230441293,"connected_time":8161000000000,"state":"active","ping":84},{"user_id":711,"name":"rugbyralph288","steam_id":76561198161475964,"connected_time":451000000000,"state":"active","ping":90},{"user_id":704,"name":"Scrux","steam_id":76561198129763115,"connected_time":1512000000000,"state":"active","ping":109},{"user_id":700,"name":"jayeezy","steam_id":76561198118562391,"connected_time":1717000000000,"state":"active","ping":75},{"user_id":694,"name":"âˆ°","steam_id":76561198064424202,"connected_time":2038000000000,"state":"active","ping":59},{"user_id":713,"name":"cherms","steam_id":76561198060029029,"connected_time":436000000000,"state":"active","ping":88},{"user_id":631,"name":"saucy jack","steam_id":76561198307012859,"connected_time":5711000000000,"state":"active","ping":66},{"user_id":607,"name":"J O S HÂ³Â²","steam_id":76561198122603779,"connected_time":7314000000000,"state":"active","ping":97},{"user_id":707,"name":"AlmondMilk","steam_id":76561198151229725,"connected_time":1354000000000,"state":"active","ping":53},{"user_id":701,"name":"Biscipline","steam_id":76561198019206178,"connected_time":1712000000000,"state":"active","ping":76}]},{"server_id":106,"name":"Uncletopia | Chicago | 2 | All Maps","name_short":"chi-2","host":"chi-1.us.uncletopia.com","port":27025,"enabled":true,"region":"us-central","cc":"us","latitude":41.881832,"longitude":-87.62318,"reserved":0,"last_update":"0001-01-01T00:00:00Z","name_a2s":"Uncletopia | Chicago | 2 | All Maps","protocol":17,"map":"cp_mercenarypark","folder":"tf","game":"Team Fortress","app_id":440,"player_count":18,"max_players":24,"Bots":0,"server_type":"Dedicated","server_os":"Linux","password":true,"vac":true,"version":"7961495","steam_id":85568392924469985,"keywords":["cp","nocrits","nodmgspread","uncletopia"],"game_id":440,"stv_port":27026,"stv_name":"Uncletopia | Chicago | 2 | All Maps | STV","players":[{"user_id":434,"name":"44Ejkej77","steam_id":76561198117717593,"connected_time":1200000000000,"state":"active","ping":160},{"user_id":422,"name":"Gray","steam_id":76561198387827743,"connected_time":2394000000000,"state":"active","ping":90},{"user_id":447,"name":"yerm","steam_id":76561198129982911,"connected_time":44000000000,"state":"spawning","ping":67},{"user_id":436,"name":"misterspud","steam_id":76561198195306218,"connected_time":908000000000,"state":"active","ping":47},{"user_id":430,"name":"Crab","steam_id":76561198067628664,"connected_time":1728000000000,"state":"active","ping":101},{"user_id":446,"name":"Arthur SSJ2","steam_id":76561198043678479,"connected_time":154000000000,"state":"active","ping":44},{"user_id":416,"name":"Octovaitor","steam_id":76561198004658451,"connected_time":2581000000000,"state":"active","ping":60},{"user_id":437,"name":"MILTYNINE","steam_id":76561198085520594,"connected_time":817000000000,"state":"active","ping":67},{"user_id":438,"name":"Twitch.tv/markblood2023tm","steam_id":76561198171746702,"connected_time":786000000000,"state":"active","ping":63},{"user_id":389,"name":"Probably George","steam_id":76561198320099889,"connected_time":4641000000000,"state":"active","ping":92},{"user_id":414,"name":"Gimme your Teeth","steam_id":76561198240523882,"connected_time":2613000000000,"state":"active","ping":91},{"user_id":439,"name":"brioche","steam_id":76561198111547419,"connected_time":749000000000,"state":"active","ping":74},{"user_id":427,"name":"Bruh Bubble","steam_id":76561199072479189,"connected_time":1896000000000,"state":"active","ping":147},{"user_id":440,"name":"Cxxrupt","steam_id":76561198343510062,"connected_time":724000000000,"state":"active","ping":115},{"user_id":441,"name":"Kimmyera","steam_id":76561198060317191,"connected_time":723000000000,"state":"active","ping":50},{"user_id":442,"name":"Hyggin","steam_id":76561198045388653,"connected_time":696000000000,"state":"active","ping":104},{"user_id":443,"name":"TechnoBear2099","steam_id":76561198238863596,"connected_time":685000000000,"state":"active","ping":74},{"user_id":445,"name":"Space-E","steam_id":76561198799417313,"connected_time":343000000000,"state":"active","ping":70}]},{"server_id":402,"name":"Uncletopia | Chicago | 3 | All Maps","name_short":"chi-3","host":"chi-1.us.uncletopia.com","port":27035,"enabled":true,"region":"us-central","cc":"us","latitude":41.881832,"longitude":-87.62318,"reserved":0,"last_update":"0001-01-01T00:00:00Z","name_a2s":"Uncletopia | Chicago | 3 | All Maps","protocol":17,"map":"pl_borneo","folder":"tf","game":"Team Fortress","app_id":440,"player_count":0,"max_players":24,"Bots":0,"server_type":"Dedicated","server_os":"Linux","password":true,"vac":true,"version":"7961495","steam_id":85568392924515191,"keywords":["nocrits","nodmgspread","payload","uncletopia"],"game_id":440,"stv_port":27036,"stv_name":"Uncletopia | Chicago | 3 | All Maps | STV","players":null},{"server_id":403,"name":"Uncletopia | Chicago | 4 | All Maps","name_short":"chi-4","host":"chi-1.us.uncletopia.com","port":27045,"enabled":true,"region":"us-central","cc":"us","latitude":41.881832,"longitude":-87.62318,"reserved":0,"last_update":"0001-01-01T00:00:00Z","name_a2s":"Uncletopia | Chicago | 4 | All Maps","protocol":17,"map":"cp_sunshine","folder":"tf","game":"Team Fortress","app_id":440,"player_count":19,"max_players":24,"Bots":0,"server_type":"Dedicated","server_os":"Linux","password":true,"vac":true,"version":"7961495","steam_id":85568392924515193,"keywords":["cp","nocrits","nodmgspread","uncletopia"],"game_id":440,"stv_port":27046,"stv_name":"Uncletopia | Chicago | 4 | All Maps | STV","players":[{"user_id":718,"name":"Pongallow","steam_id":76561198146876078,"connected_time":1255000000000,"state":"active","ping":44},{"user_id":702,"name":"Hobo Shanker","steam_id":76561198001785187,"connected_time":1831000000000,"state":"active","ping":82},{"user_id":720,"name":"L1Spid","steam_id":76561199029194491,"connected_time":838000000000,"state":"active","ping":75},{"user_id":726,"name":"BOBBYSMOKE","steam_id":76561198201872929,"connected_time":405000000000,"state":"active","ping":59},{"user_id":654,"name":"Kantamoe","steam_id":76561198046661611,"connected_time":5557000000000,"state":"active","ping":80},{"user_id":696,"name":"ouroya","steam_id":76561198269138985,"connected_time":2155000000000,"state":"active","ping":26},{"user_id":624,"name":"zpalmtree","steam_id":76561198134307620,"connected_time":7297000000000,"state":"active","ping":60},{"user_id":703,"name":"EvilPi99let","steam_id":76561197987243470,"connected_time":1815000000000,"state":"active","ping":74},{"user_id":706,"name":"Thunder","steam_id":76561198097721532,"connected_time":1739000000000,"state":"active","ping":102},{"user_id":676,"name":"Nexusuxen","steam_id":76561198117547131,"connected_time":3401000000000,"state":"active","ping":68},{"user_id":722,"name":"Who Am I?","steam_id":76561198098141967,"connected_time":724000000000,"state":"active","ping":108},{"user_id":717,"name":"honked off the bobo","steam_id":76561198123287268,"connected_time":1383000000000,"state":"active","ping":44},{"user_id":727,"name":"Aldatzailea Egitura","steam_id":76561199240547667,"connected_time":241000000000,"state":"active","ping":102},{"user_id":710,"name":"Sinta","steam_id":76561198098398841,"connected_time":1687000000000,"state":"active","ping":59},{"user_id":723,"name":"Gurk","steam_id":76561198103631840,"connected_time":674000000000,"state":"active","ping":84},{"user_id":712,"name":"Echo","steam_id":76561198072092594,"connected_time":1634000000000,"state":"active","ping":73},{"user_id":680,"name":"Mufalito","steam_id":76561198951889482,"connected_time":3272000000000,"state":"active","ping":127},{"user_id":715,"name":"Pen-Y-Darren","steam_id":76561198873399959,"connected_time":1467000000000,"state":"active","ping":41},{"user_id":704,"name":"kol.","steam_id":76561199151398882,"connected_time":1813000000000,"state":"active","ping":74}]},{"server_id":36,"name":"Uncletopia | Chicago | 5 | All Maps","name_short":"chi-5","host":"chi-2.us.uncletopia.com","port":27015,"enabled":true,"region":"us-central","cc":"us","latitude":41.881832,"longitude":-87.62318,"reserved":0,"last_update":"0001-01-01T00:00:00Z","name_a2s":"Uncletopia | Chicago | 5 | All Maps","protocol":17,"map":"ctf_turbine","folder":"tf","game":"Team Fortress","app_id":440,"player_count":0,"max_players":24,"Bots":0,"server_type":"Dedicated","server_os":"Linux","password":true,"vac":true,"version":"7961495","steam_id":85568392924866362,"keywords":["ctf","nocrits","nodmgspread","uncletopia"],"game_id":440,"stv_port":27016,"stv_name":"Uncletopia | Chicago | 5 | All Maps | STV","players":null},{"server_id":37,"name":"Uncletopia | Chicago | 6 | All Maps","name_short":"chi-6","host":"chi-2.us.uncletopia.com","port":27025,"enabled":true,"region":"us-central","cc":"us","latitude":41.881832,"longitude":-87.62318,"reserved":0,"last_update":"0001-01-01T00:00:00Z","name_a2s":"Uncletopia | Chicago | 6 | All Maps","protocol":17,"map":"koth_highpass","folder":"tf","game":"Team Fortress","app_id":440,"player_count":0,"max_players":24,"Bots":0,"server_type":"Dedicated","server_os":"Linux","password":true,"vac":true,"version":"7961495","steam_id":85568392924866363,"keywords":["cp","nocrits","nodmgspread","uncletopia"],"game_id":440,"stv_port":27026,"stv_name":"Uncletopia | Chicago | 6 | All Maps | STV","players":null},{"server_id":38,"name":"Uncletopia | Chicago | 7 | Stopwatch","name_short":"chi-7","host":"chi-2.us.uncletopia.com","port":27035,"enabled":true,"region":"us-central","cc":"us","latitude":41.881832,"longitude":-87.62318,"reserved":0,"last_update":"0001-01-01T00:00:00Z","name_a2s":"Uncletopia | Chicago | 7 | Stopwatch","protocol":17,"map":"workshop/koth_bagel_rc6.ugc2514036946","folder":"tf","game":"Team Fortress","app_id":440,"player_count":0,"max_players":24,"Bots":0,"server_type":"Dedicated","server_os":"Linux","password":true,"vac":true,"version":"7961495","steam_id":85568392924866364,"keywords":["cp","nocrits","nodmgspread","uncletopia"],"game_id":440,"stv_port":27036,"stv_name":"Uncletopia | Chicago | 7 | Stopwatch | STV","players":null},{"server_id":39,"name":"Uncletopia | Chicago | 8 | Community","name_short":"chi-8","host":"chi-2.us.uncletopia.com","port":27045,"enabled":true,"region":"us-central","cc":"us","latitude":41.881832,"longitude":-87.62318,"reserved":0,"last_update":"0001-01-01T00:00:00Z","name_a2s":"Uncletopia | Chicago | 8 | Community","protocol":17,"map":"workshop/koth_ashville_final.ugc2130459942","folder":"tf","game":"Team Fortress","app_id":440,"player_count":0,"max_players":24,"Bots":0,"server_type":"Dedicated","server_os":"Linux","password":true,"vac":true,"version":"7961495","steam_id":85568392924866365,"keywords":["cp","nocrits","nodmgspread","uncletopia"],"game_id":440,"stv_port":27046,"stv_name":"Uncletopia | Chicago | 8 | Community | STV","players":null},{"server_id":8,"name":"Uncletopia | Dallas | 1 | All Maps","name_short":"dal-1","host":"dal-1.us.uncletopia.com","port":27015,"enabled":true,"region":"us-central","cc":"us","latitude":32.779167,"longitude":-96.80889,"reserved":0,"last_update":"0001-01-01T00:00:00Z","name_a2s":"Uncletopia | Dallas | 1 | All Maps","protocol":17,"map":"pl_barnblitz","folder":"tf","game":"Team Fortress","app_id":440,"player_count":2,"max_players":24,"Bots":0,"server_type":"Dedicated","server_os":"Linux","password":true,"vac":true,"version":"7961495","steam_id":85568392924469986,"keywords":["nocrits","nodmgspread","payload","uncletopia"],"game_id":440,"stv_port":27016,"stv_name":"Uncletopia | Dallas | 1 | All Maps | STV","players":[{"user_id":493,"name":"Azazellotl","steam_id":76561198824814392,"connected_time":1469000000000,"state":"active","ping":75},{"user_id":494,"name":"Hyden da kobobl","steam_id":76561198837931725,"connected_time":1113000000000,"state":"active","ping":99}]},{"server_id":108,"name":"Uncletopia | Dallas | 2 | All Maps","name_short":"dal-2","host":"dal-1.us.uncletopia.com","port":27025,"enabled":true,"region":"us-central","cc":"us","latitude":32.779167,"longitude":-96.80889,"reserved":0,"last_update":"0001-01-01T00:00:00Z","name_a2s":"Uncletopia | Dallas | 2 | All Maps","protocol":17,"map":"koth_lakeside_final","folder":"tf","game":"Team Fortress","app_id":440,"player_count":3,"max_players":24,"Bots":0,"server_type":"Dedicated","server_os":"Linux","password":true,"vac":true,"version":"7961495","steam_id":85568392924469988,"keywords":["cp","nocrits","nodmgspread","uncletopia"],"game_id":440,"stv_port":27026,"stv_name":"Uncletopia | Dallas | 2 | All Maps | STV","players":[{"user_id":536,"name":"ShadowBolt","steam_id":76561198061610985,"connected_time":3177000000000,"state":"active","ping":106},{"user_id":539,"name":"Orange","steam_id":76561198169914315,"connected_time":2130000000000,"state":"active","ping":60},{"user_id":540,"name":"DudeBergs","steam_id":76561198399777833,"connected_time":1990000000000,"state":"active","ping":65}]},{"server_id":404,"name":"Uncletopia | Dallas | 3 | All Maps","name_short":"dal-3","host":"dal-1.us.uncletopia.com","port":27035,"enabled":true,"region":"us-central","cc":"us","latitude":32.779167,"longitude":-96.80889,"reserved":0,"last_update":"0001-01-01T00:00:00Z","name_a2s":"Uncletopia | Dallas | 3 | All Maps","protocol":17,"map":"cp_dustbowl","folder":"tf","game":"Team Fortress","app_id":440,"player_count":23,"max_players":24,"Bots":0,"server_type":"Dedicated","server_os":"Linux","password":true,"vac":true,"version":"7961495","steam_id":85568392924515219,"keywords":["cp","nocrits","nodmgspread","uncletopia"],"game_id":440,"stv_port":27036,"stv_name":"Uncletopia | Dallas | 3 | All Maps | STV","players":[{"user_id":879,"name":"U Ï‰ U","steam_id":76561198118802562,"connected_time":1190000000000,"state":"active","ping":93},{"user_id":880,"name":"Stevelonk","steam_id":76561198088224665,"connected_time":1144000000000,"state":"active","ping":88},{"user_id":873,"name":"Lord_Dabbatron","steam_id":76561199058480985,"connected_time":1537000000000,"state":"active","ping":44},{"user_id":883,"name":"mitya.t","steam_id":76561197975079473,"connected_time":540000000000,"state":"active","ping":100},{"user_id":881,"name":"Cheese","steam_id":76561199207081299,"connected_time":1097000000000,"state":"active","ping":103},{"user_id":882,"name":"Full Throttle Axolotl","steam_id":76561198041836477,"connected_time":937000000000,"state":"active","ping":60},{"user_id":884,"name":"Sheep","steam_id":76561198161218914,"connected_time":468000000000,"state":"active","ping":85},{"user_id":846,"name":"Burny Sanders","steam_id":76561197961879048,"connected_time":4276000000000,"state":"active","ping":45},{"user_id":876,"name":"American Dad","steam_id":76561198059711448,"connected_time":1478000000000,"state":"active","ping":91},{"user_id":877,"name":"Gason Homoa","steam_id":76561199000180522,"connected_time":1475000000000,"state":"active","ping":99},{"user_id":878,"name":"Gummy","steam_id":76561199200969139,"connected_time":1469000000000,"state":"active","ping":107},{"user_id":885,"name":"Fray","steam_id":76561198030141282,"connected_time":352000000000,"state":"active","ping":65},{"user_id":836,"name":"ItsYaBoiScooter","steam_id":76561199028427897,"connected_time":4945000000000,"state":"active","ping":90},{"user_id":886,"name":"SaaxoM","steam_id":76561198208256603,"connected_time":347000000000,"state":"active","ping":87},{"user_id":887,"name":"JustANormalOlive-ia","steam_id":76561198809645656,"connected_time":304000000000,"state":"active","ping":72},{"user_id":888,"name":"KiWii","steam_id":76561199013608864,"connected_time":249000000000,"state":"active","ping":59},{"user_id":889,"name":"fluffythemessiah","steam_id":76561199013202758,"connected_time":244000000000,"state":"active","ping":64},{"user_id":890,"name":"ISKI","steam_id":76561198276535064,"connected_time":241000000000,"state":"active","ping":55},{"user_id":891,"name":"Looge","steam_id":76561198155483586,"connected_time":205000000000,"state":"active","ping":69},{"user_id":892,"name":"LuvUrself","steam_id":76561198071049415,"connected_time":197000000000,"state":"active","ping":87},{"user_id":893,"name":"Serris","steam_id":76561198184900670,"connected_time":172000000000,"state":"active","ping":81},{"user_id":853,"name":"Bizsnitch","steam_id":76561198017936794,"connected_time":3932000000000,"state":"active","ping":67},{"user_id":857,"name":"jello_pudding","steam_id":76561198073844467,"connected_time":2475000000000,"state":"active","ping":102}]},{"server_id":405,"name":"Uncletopia | Dallas | 4 | Community","name_short":"dal-4","host":"dal-1.us.uncletopia.com","port":27045,"enabled":true,"region":"us-central","cc":"us","latitude":32.779167,"longitude":-96.80889,"reserved":0,"last_update":"0001-01-01T00:00:00Z","name_a2s":"Uncletopia | Dallas | 4 | Community","protocol":17,"map":"workshop/koth_kemptown_rc1.ugc767410655","folder":"tf","game":"Team Fortress","app_id":440,"player_count":0,"max_players":24,"Bots":0,"server_type":"Dedicated","server_os":"Linux","password":true,"vac":true,"version":"7961495","steam_id":85568392924515220,"keywords":["cp","nocrits","nodmgspread","uncletopia"],"game_id":440,"stv_port":27046,"stv_name":"Uncletopia | Dallas | 4 | Community | STV","players":null},{"server_id":5,"name":"Uncletopia | Frankfurt | 1 | All Maps","name_short":"frk-1","host":"frk-1.de.uncletopia.com","port":27015,"enabled":true,"region":"eu","cc":"de","latitude":50.110924,"longitude":8.682127,"reserved":0,"last_update":"0001-01-01T00:00:00Z","name_a2s":"Uncletopia | Frankfurt | 1 | All Maps","protocol":17,"map":"koth_highpass","folder":"tf","game":"Team Fortress","app_id":440,"player_count":0,"max_players":24,"Bots":0,"server_type":"Dedicated","server_os":"Linux","password":true,"vac":true,"version":"7961495","steam_id":85568392924469989,"keywords":["cp","nocrits","nodmgspread","uncletopia"],"game_id":440,"stv_port":27016,"stv_name":"Uncletopia | Frankfurt | 1 | All Maps | STV","players":null},{"server_id":110,"name":"Uncletopia | Frankfurt | 2 | All Maps","name_short":"frk-2","host":"frk-1.de.uncletopia.com","port":27025,"enabled":true,"region":"eu","cc":"de","latitude":50.110924,"longitude":8.682127,"reserved":0,"last_update":"0001-01-01T00:00:00Z","name_a2s":"Uncletopia | Frankfurt | 2 | All Maps","protocol":17,"map":"cp_dustbowl","folder":"tf","game":"Team Fortress","app_id":440,"player_count":0,"max_players":24,"Bots":0,"server_type":"Dedicated","server_os":"Linux","password":true,"vac":true,"version":"7961495","steam_id":85568392924469990,"keywords":["cp","nocrits","nodmgspread","uncletopia"],"game_id":440,"stv_port":27026,"stv_name":"Uncletopia | Frankfurt | 2 | All Maps | STV","players":null},{"server_id":308,"name":"Uncletopia | Frankfurt | 3 | All Maps","name_short":"frk-3","host":"frk-1.de.uncletopia.com","port":27035,"enabled":true,"region":"eu","cc":"de","latitude":50.110924,"longitude":8.682127,"reserved":0,"last_update":"0001-01-01T00:00:00Z","name_a2s":"Uncletopia | Frankfurt | 3 | All Maps","protocol":17,"map":"pl_swiftwater_final1","folder":"tf","game":"Team Fortress","app_id":440,"player_count":0,"max_players":24,"Bots":0,"server_type":"Dedicated","server_os":"Linux","password":true,"vac":true,"version":"7961495","steam_id":85568392924504274,"keywords":["nocrits","nodmgspread","payload","uncletopia"],"game_id":440,"stv_port":27036,"stv_name":"Uncletopia | Frankfurt | 3 | All Maps | STV","players":null},{"server_id":309,"name":"Uncletopia | Frankfurt | 4 | All Maps","name_short":"frk-4","host":"frk-1.de.uncletopia.com","port":27045,"enabled":true,"region":"eu","cc":"de","latitude":50.110924,"longitude":8.682127,"reserved":0,"last_update":"0001-01-01T00:00:00Z","name_a2s":"Uncletopia | Frankfurt | 4 | All Maps","protocol":17,"map":"koth_highpass","folder":"tf","game":"Team Fortress","app_id":440,"player_count":0,"max_players":24,"Bots":0,"server_type":"Dedicated","server_os":"Linux","password":true,"vac":true,"version":"7961495","steam_id":85568392924504275,"keywords":["cp","nocrits","nodmgspread","uncletopia"],"game_id":440,"stv_port":27046,"stv_name":"Uncletopia | Frankfurt | 4 | All Maps | STV","players":null},{"server_id":310,"name":"Uncletopia | Frankfurt | 5 | All Maps","name_short":"frk-5","host":"frk-1.de.uncletopia.com","port":27055,"enabled":true,"region":"eu","cc":"de","latitude":50.110924,"longitude":8.682127,"reserved":0,"last_update":"0001-01-01T00:00:00Z","name_a2s":"Uncletopia | Frankfurt | 5 | All Maps","protocol":17,"map":"koth_lakeside_final","folder":"tf","game":"Team Fortress","app_id":440,"player_count":1,"max_players":24,"Bots":0,"server_type":"Dedicated","server_os":"Linux","password":true,"vac":true,"version":"7961495","steam_id":85568392924504277,"keywords":["cp","nocrits","nodmgspread","uncletopia"],"game_id":440,"stv_port":27056,"stv_name":"Uncletopia | Frankfurt | 5 | All Maps | STV","players":[{"user_id":4,"name":"GÃ¼Ã§lÃ¼AYraNsAÄž","steam_id":76561199184988396,"connected_time":36000000000,"state":"active","ping":99}]},{"server_id":311,"name":"Uncletopia | Frankfurt | 6 | All Maps","name_short":"frk-6","host":"frk-1.de.uncletopia.com","port":27065,"enabled":true,"region":"eu","cc":"de","latitude":50.110924,"longitude":8.682127,"reserved":0,"last_update":"0001-01-01T00:00:00Z","name_a2s":"Uncletopia | Frankfurt | 6 | All Maps","protocol":17,"map":"pl_borneo","folder":"tf","game":"Team Fortress","app_id":440,"player_count":0,"max_players":24,"Bots":0,"server_type":"Dedicated","server_os":"Linux","password":true,"vac":true,"version":"7961495","steam_id":85568392924504278,"keywords":["nocrits","nodmgspread","payload","uncletopia"],"game_id":440,"stv_port":27066,"stv_name":"Uncletopia | Frankfurt | 6 | All Maps | STV","players":null},{"server_id":23,"name":"Uncletopia | Frankfurt | 7 | Stopwatch","name_short":"frk-7","host":"frk-1.de.uncletopia.com","port":27075,"enabled":true,"region":"eu","cc":"de","latitude":50.110924,"longitude":8.682127,"reserved":0,"last_update":"0001-01-01T00:00:00Z","name_a2s":"Uncletopia | Frankfurt | 7 | Stopwatch","protocol":17,"map":"pl_frontier_final","folder":"tf","game":"Team Fortress","app_id":440,"player_count":0,"max_players":24,"Bots":0,"server_type":"Dedicated","server_os":"Linux","password":true,"vac":true,"version":"7961495","steam_id":85568392924742827,"keywords":["nocrits","nodmgspread","payload","uncletopia"],"game_id":440,"stv_port":27076,"stv_name":"Uncletopia | Frankfurt | 7 | Stopwatch | STV","players":null},{"server_id":24,"name":"Uncletopia | Frankfurt | 8 | Community","name_short":"frk-8","host":"frk-1.de.uncletopia.com","port":27085,"enabled":true,"region":"eu","cc":"de","latitude":50.110924,"longitude":8.682127,"reserved":0,"last_update":"0001-01-01T00:00:00Z","name_a2s":"Uncletopia | Frankfurt | 8 | Community","protocol":17,"map":"workshop/pl_boundary_final1.ugc456799153","folder":"tf","game":"Team Fortress","app_id":440,"player_count":0,"max_players":24,"Bots":0,"server_type":"Dedicated","server_os":"Linux","password":true,"vac":true,"version":"7961495","steam_id":85568392924742828,"keywords":["nocrits","nodmgspread","payload","uncletopia"],"game_id":440,"stv_port":27086,"stv_name":"Uncletopia | Frankfurt | 8 | Community | STV","players":null},{"server_id":202,"name":"Uncletopia | Hong Kong | 1 | All Maps","name_short":"hgk-1","host":"hgk-1.hk.uncletopia.com","port":27015,"enabled":true,"region":"asia","cc":"hk","latitude":22.302711,"longitude":114.177216,"reserved":0,"last_update":"0001-01-01T00:00:00Z","name_a2s":"Uncletopia | Hong Kong | 1 | All Maps","protocol":17,"map":"pl_pier","folder":"tf","game":"Team Fortress","app_id":440,"player_count":0,"max_players":24,"Bots":0,"server_type":"Dedicated","server_os":"Linux","password":true,"vac":true,"version":"7961495","steam_id":85568392924494504,"keywords":["nocrits","nodmgspread","payload","uncletopia"],"game_id":440,"stv_port":27016,"stv_name":"Uncletopia | Hong Kong | 1 | All Maps | STV","players":null},{"server_id":1,"name":"Uncletopia | Los Angeles | 1 | All Maps","name_short":"lax-1","host":"lax-1.us.uncletopia.com","port":27015,"enabled":true,"region":"us-west","cc":"us","latitude":33.94279,"longitude":-118.41004,"reserved":0,"last_update":"0001-01-01T00:00:00Z","name_a2s":"Uncletopia | Los Angeles | 1 | All Maps","protocol":17,"map":"pl_pier","folder":"tf","game":"Team Fortress","app_id":440,"player_count":0,"max_players":24,"Bots":0,"server_type":"Dedicated","server_os":"Linux","password":true,"vac":true,"version":"7961495","steam_id":85568392924469991,"keywords":["nocrits","nodmgspread","payload","uncletopia"],"game_id":440,"stv_port":27016,"stv_name":"Uncletopia | Los Angeles | 1 | All Maps | STV","players":null},{"server_id":112,"name":"Uncletopia | Los Angeles | 2 | All Maps","name_short":"lax-2","host":"lax-1.us.uncletopia.com","port":27025,"enabled":true,"region":"us-west","cc":"us","latitude":33.94279,"longitude":-118.41004,"reserved":0,"last_update":"0001-01-01T00:00:00Z","name_a2s":"Uncletopia | Los Angeles | 2 | All Maps","protocol":17,"map":"ctf_turbine","folder":"tf","game":"Team Fortress","app_id":440,"player_count":21,"max_players":24,"Bots":0,"server_type":"Dedicated","server_os":"Linux","password":true,"vac":true,"version":"7961495","steam_id":85568392924469992,"keywords":["ctf","nocrits","nodmgspread","uncletopia"],"game_id":440,"stv_port":27026,"stv_name":"Uncletopia | Los Angeles | 2 | All Maps | STV","players":[{"user_id":248,"name":"Sterling Nano","steam_id":76561198048580088,"connected_time":1232000000000,"state":"active","ping":69},{"user_id":194,"name":"filtered by cp_steel","steam_id":76561198031409921,"connected_time":5557000000000,"state":"active","ping":45},{"user_id":258,"name":"Dr. Medicine","steam_id":76561198165309820,"connected_time":211000000000,"state":"active","ping":75},{"user_id":240,"name":"Five","steam_id":76561198026640473,"connected_time":2033000000000,"state":"active","ping":45},{"user_id":259,"name":"PeptoBismol","steam_id":76561198082669076,"connected_time":193000000000,"state":"active","ping":57},{"user_id":246,"name":"The Comedian","steam_id":76561198037780226,"connected_time":1958000000000,"state":"active","ping":42},{"user_id":250,"name":"Drive-By-Fish-Guy","steam_id":76561198105513652,"connected_time":706000000000,"state":"active","ping":58},{"user_id":213,"name":"Whisper!","steam_id":76561198119609795,"connected_time":4082000000000,"state":"active","ping":52},{"user_id":260,"name":"otwtomarsoffdabars(spacecore)","steam_id":76561199085974120,"connected_time":168000000000,"state":"active","ping":110},{"user_id":197,"name":"lol","steam_id":76561198026491738,"connected_time":5535000000000,"state":"active","ping":62},{"user_id":244,"name":"FlyingCircus","steam_id":76561198242580912,"connected_time":1971000000000,"state":"active","ping":68},{"user_id":261,"name":"S O U N D W A V E","steam_id":76561198093417449,"connected_time":96000000000,"state":"active","ping":45},{"user_id":202,"name":"Skumpfsklub","steam_id":76561198045782334,"connected_time":5407000000000,"state":"active","ping":59},{"user_id":254,"name":"inoricaM","steam_id":76561199199257149,"connected_time":343000000000,"state":"active","ping":63},{"user_id":255,"name":"Gundam Guy","steam_id":76561198178453993,"connected_time":340000000000,"state":"active","ping":68},{"user_id":231,"name":"Andrew Dice Gay","steam_id":76561198040736821,"connected_time":2639000000000,"state":"active","ping":56},{"user_id":217,"name":"rat ðŸ¥²ðŸ˜¶ðŸŒ«","steam_id":76561198130412963,"connected_time":3829000000000,"state":"active","ping":77},{"user_id":203,"name":"who","steam_id":76561198066091050,"connected_time":5298000000000,"state":"active","ping":87},{"user_id":256,"name":"Rommel2007","steam_id":76561198041744631,"connected_time":334000000000,"state":"active","ping":57},{"user_id":245,"name":"Rennsellaer","steam_id":76561198096207580,"connected_time":1970000000000,"state":"active","ping":52}]},{"server_id":324,"name":"Uncletopia | Los Angeles | 3 | All Maps","name_short":"lax-3","host":"lax-1.us.uncletopia.com","port":27035,"enabled":true,"region":"us-west","cc":"us","latitude":33.94279,"longitude":-118.41004,"reserved":0,"last_update":"0001-01-01T00:00:00Z","name_a2s":"Uncletopia | Los Angeles | 3 | All Maps","protocol":17,"map":"koth_cascade","folder":"tf","game":"Team Fortress","app_id":440,"player_count":0,"max_players":24,"Bots":0,"server_type":"Dedicated","server_os":"Linux","password":true,"vac":true,"version":"7961495","steam_id":85568392924510198,"keywords":["cp","nocrits","nodmgspread","uncletopia"],"game_id":440,"stv_port":27036,"stv_name":"Uncletopia | Los Angeles | 3 | All Maps | STV","players":null},{"server_id":25,"name":"Uncletopia | Los Angeles | 4 | Stopwatch","name_short":"lax-4","host":"lax-1.us.uncletopia.com","port":27045,"enabled":true,"region":"us-west","cc":"us","latitude":33.94279,"longitude":-118.41004,"reserved":0,"last_update":"0001-01-01T00:00:00Z","name_a2s":"Uncletopia | Los Angeles | 4 | Stopwatch","protocol":17,"map":"workshop/koth_ashville_final.ugc2130459942","folder":"tf","game":"Team Fortress","app_id":440,"player_count":0,"max_players":24,"Bots":0,"server_type":"Dedicated","server_os":"Linux","password":true,"vac":true,"version":"7961495","steam_id":85568392924510199,"keywords":["cp","nocrits","nodmgspread","uncletopia"],"game_id":440,"stv_port":27046,"stv_name":"Uncletopia | Los Angeles | 4 | Stopwatch | STV","players":null},{"server_id":11,"name":"Uncletopia | London | 1 | All Maps","name_short":"lon-1","host":"lon-1.uk.uncletopia.com","port":27015,"enabled":true,"region":"eu","cc":"gb","latitude":51.509865,"longitude":-0.118092,"reserved":0,"last_update":"0001-01-01T00:00:00Z","name_a2s":"Uncletopia | London | 1 | All Maps","protocol":17,"map":"pl_pier","folder":"tf","game":"Team Fortress","app_id":440,"player_count":24,"max_players":24,"Bots":0,"server_type":"Dedicated","server_os":"Linux","password":true,"vac":true,"version":"7961495","steam_id":85568392924367362,"keywords":["nocrits","nodmgspread","payload","uncletopia"],"game_id":440,"stv_port":27016,"stv_name":"Uncletopia | London | 1 | All Maps | STV","players":[{"user_id":19,"name":"Ember The Drunk Femboy","steam_id":76561198139630565,"connected_time":3607000000000,"state":"active","ping":48},{"user_id":17,"name":"yuno appreciator","steam_id":76561198083286511,"connected_time":3797000000000,"state":"active","ping":41},{"user_id":33,"name":"kkk [AI]","steam_id":76561198117319649,"connected_time":2157000000000,"state":"active","ping":125},{"user_id":20,"name":"Femboy Foxi","steam_id":76561198108635769,"connected_time":3582000000000,"state":"active","ping":65},{"user_id":25,"name":"geroxe cruo","steam_id":76561199480942903,"connected_time":2914000000000,"state":"active","ping":74},{"user_id":46,"name":"the action gamemaster","steam_id":76561198007494744,"connected_time":1095000000000,"state":"active","ping":49},{"user_id":45,"name":"Vinn0","steam_id":76561198987241284,"connected_time":1307000000000,"state":"active","ping":63},{"user_id":34,"name":"6fx playgreen.","steam_id":76561198363855764,"connected_time":2068000000000,"state":"active","ping":66},{"user_id":23,"name":"76561199218760942","steam_id":76561199218760942,"connected_time":3332000000000,"state":"active","ping":65},{"user_id":58,"name":"Shockwavvve","steam_id":76561198039329263,"connected_time":352000000000,"state":"active","ping":163},{"user_id":48,"name":"John0309","steam_id":76561198447428162,"connected_time":940000000000,"state":"active","ping":76},{"user_id":31,"name":"thatmandan14","steam_id":76561199167911857,"connected_time":2429000000000,"state":"active","ping":38},{"user_id":47,"name":"Jboythemenace","steam_id":76561198102004539,"connected_time":1027000000000,"state":"active","ping":50},{"user_id":50,"name":"Neato!","steam_id":76561198043548668,"connected_time":760000000000,"state":"active","ping":170},{"user_id":37,"name":"Doktor Drip","steam_id":76561198843329045,"connected_time":1924000000000,"state":"active","ping":109},{"user_id":52,"name":"Draugluin","steam_id":76561199219965276,"connected_time":701000000000,"state":"active","ping":61},{"user_id":54,"name":"Always Here for You","steam_id":76561198219252313,"connected_time":558000000000,"state":"active","ping":152},{"user_id":41,"name":"Shadowmann","steam_id":76561198158608309,"connected_time":1640000000000,"state":"active","ping":56},{"user_id":42,"name":"scarybeast","steam_id":76561198927694734,"connected_time":1615000000000,"state":"active","ping":76},{"user_id":57,"name":"Sholunan","steam_id":76561198062435739,"connected_time":466000000000,"state":"active","ping":71},{"user_id":44,"name":"MrXtr","steam_id":76561198966247397,"connected_time":1537000000000,"state":"active","ping":69},{"user_id":55,"name":"Glen","steam_id":76561198987583154,"connected_time":549000000000,"state":"active","ping":85},{"user_id":56,"name":"thekoolest88","steam_id":76561199022415672,"connected_time":505000000000,"state":"active","ping":141},{"user_id":59,"name":"I have 30mins of sniper","steam_id":76561198974553024,"connected_time":341000000000,"state":"active","ping":90}]},{"server_id":114,"name":"Uncletopia | London | 2 | All Maps","name_short":"lon-2","host":"lon-1.uk.uncletopia.com","port":27025,"enabled":true,"region":"eu","cc":"gb","latitude":51.509865,"longitude":-0.118092,"reserved":0,"last_update":"0001-01-01T00:00:00Z","name_a2s":"Uncletopia | London | 2 | All Maps","protocol":17,"map":"koth_lakeside_final","folder":"tf","game":"Team Fortress","app_id":440,"player_count":0,"max_players":24,"Bots":0,"server_type":"Dedicated","server_os":"Linux","password":true,"vac":true,"version":"7961495","steam_id":85568392924470941,"keywords":["cp","nocrits","nodmgspread","uncletopia"],"game_id":440,"stv_port":27026,"stv_name":"Uncletopia | London | 2 | All Maps | STV","players":null},{"server_id":320,"name":"Uncletopia | London | 3 | All Maps","name_short":"lon-3","host":"lon-1.uk.uncletopia.com","port":27035,"enabled":true,"region":"eu","cc":"gb","latitude":51.509865,"longitude":-0.118092,"reserved":0,"last_update":"0001-01-01T00:00:00Z","name_a2s":"Uncletopia | London | 3 | All Maps","protocol":17,"map":"cp_process_final","folder":"tf","game":"Team Fortress","app_id":440,"player_count":0,"max_players":24,"Bots":0,"server_type":"Dedicated","server_os":"Linux","password":true,"vac":true,"version":"7961495","steam_id":85568392924510192,"keywords":["cp","nocrits","nodmgspread","uncletopia"],"game_id":440,"stv_port":27036,"stv_name":"Uncletopia | London | 3 | All Maps | STV","players":null},{"server_id":321,"name":"Uncletopia | London | 4 | All Maps","name_short":"lon-4","host":"lon-1.uk.uncletopia.com","port":27045,"enabled":true,"region":"eu","cc":"gb","latitude":51.509865,"longitude":-0.118092,"reserved":0,"last_update":"0001-01-01T00:00:00Z","name_a2s":"Uncletopia | London | 4 | All Maps","protocol":17,"map":"koth_cascade","folder":"tf","game":"Team Fortress","app_id":440,"player_count":0,"max_players":24,"Bots":0,"server_type":"Dedicated","server_os":"Linux","password":true,"vac":true,"version":"7961495","steam_id":85568392924510193,"keywords":["cp","nocrits","nodmgspread","uncletopia"],"game_id":440,"stv_port":27046,"stv_name":"Uncletopia | London | 4 | All Maps | STV","players":null},{"server_id":21,"name":"Uncletopia | London | 5 | All Maps","name_short":"lon-5","host":"lon-1.uk.uncletopia.com","port":27055,"enabled":true,"region":"eu","cc":"gb","latitude":51.509865,"longitude":-0.118092,"reserved":0,"last_update":"0001-01-01T00:00:00Z","name_a2s":"Uncletopia | London | 5 | All Maps","protocol":17,"map":"koth_lakeside_final","folder":"tf","game":"Team Fortress","app_id":440,"player_count":0,"max_players":24,"Bots":0,"server_type":"Dedicated","server_os":"Linux","password":true,"vac":true,"version":"7961495","steam_id":85568392924742829,"keywords":["cp","nocrits","nodmgspread","uncletopia"],"game_id":440,"stv_port":27056,"stv_name":"Uncletopia | London | 5 | All Maps | STV","players":null},{"server_id":22,"name":"Uncletopia | London | 6 | All Maps","name_short":"lon-6","host":"lon-1.uk.uncletopia.com","port":27065,"enabled":true,"region":"eu","cc":"gb","latitude":51.509865,"longitude":-0.118092,"reserved":0,"last_update":"0001-01-01T00:00:00Z","name_a2s":"Uncletopia | London | 6 | All Maps","protocol":17,"map":"cp_dustbowl","folder":"tf","game":"Team Fortress","app_id":440,"player_count":0,"max_players":24,"Bots":0,"server_type":"Dedicated","server_os":"Linux","password":true,"vac":true,"version":"7961495","steam_id":85568392924742830,"keywords":["cp","nocrits","nodmgspread","uncletopia"],"game_id":440,"stv_port":27066,"stv_name":"Uncletopia | London | 6 | All Maps | STV","players":null},{"server_id":40,"name":"Uncletopia | London | 7 | Stopwatch","name_short":"lon-7","host":"lon-1.uk.uncletopia.com","port":27075,"enabled":true,"region":"eu","cc":"gb","latitude":51.509865,"longitude":-0.118092,"reserved":0,"last_update":"0001-01-01T00:00:00Z","name_a2s":"Uncletopia | London | 7 | Stopwatch","protocol":17,"map":"koth_lakeside_final","folder":"tf","game":"Team Fortress","app_id":440,"player_count":0,"max_players":24,"Bots":0,"server_type":"Dedicated","server_os":"Linux","password":true,"vac":true,"version":"7961495","steam_id":85568392924964314,"keywords":["cp","nocrits","nodmgspread","uncletopia"],"game_id":440,"stv_port":27076,"stv_name":"Uncletopia | London | 7 | Stopwatch | STV","players":null},{"server_id":41,"name":"Uncletopia | London | 8 | Community","name_short":"lon-8","host":"lon-1.uk.uncletopia.com","port":27085,"enabled":true,"region":"eu","cc":"gb","latitude":51.509865,"longitude":-0.118092,"reserved":0,"last_update":"0001-01-01T00:00:00Z","name_a2s":"Uncletopia | London | 8 | Community","protocol":17,"map":"cp_snakewater_final1","folder":"tf","game":"Team Fortress","app_id":440,"player_count":0,"max_players":24,"Bots":0,"server_type":"Dedicated","server_os":"Linux","password":true,"vac":true,"version":"7961495","steam_id":85568392924964315,"keywords":["cp","nocrits","nodmgspread","uncletopia"],"game_id":440,"stv_port":27086,"stv_name":"Uncletopia | London | 8 | Community | STV","players":null},{"server_id":300,"name":"Uncletopia | MontrÃ©al | 1 | One Thousand Uncles","name_short":"mtl-1","host":"mtl-1.ca.uncletopia.com","port":27015,"enabled":true,"region":"us-east","cc":"ca","latitude":45.50889,"longitude":-73.56167,"reserved":0,"last_update":"0001-01-01T00:00:00Z","name_a2s":"","protocol":0,"map":"","folder":"","game":"","app_id":0,"player_count":0,"max_players":0,"Bots":0,"server_type":"","server_os":"","password":false,"vac":false,"version":"","steam_id":0,"keywords":null,"game_id":0,"stv_port":0,"stv_name":"","players":null},{"server_id":301,"name":"Uncletopia | MontrÃ©al | 2 | One Thousand Uncles","name_short":"mtl-2","host":"mtl-1.ca.uncletopia.com","port":27025,"enabled":true,"region":"us-east","cc":"ca","latitude":45.50889,"longitude":-73.56167,"reserved":0,"last_update":"0001-01-01T00:00:00Z","name_a2s":"","protocol":0,"map":"","folder":"","game":"","app_id":0,"player_count":0,"max_players":0,"Bots":0,"server_type":"","server_os":"","password":false,"vac":false,"version":"","steam_id":0,"keywords":null,"game_id":0,"stv_port":0,"stv_name":"","players":null},{"server_id":302,"name":"Uncletopia | MontrÃ©al | 3 | One Thousand Uncles","name_short":"mtl-3","host":"mtl-1.ca.uncletopia.com","port":27035,"enabled":true,"region":"us-east","cc":"ca","latitude":45.50889,"longitude":-73.56167,"reserved":0,"last_update":"0001-01-01T00:00:00Z","name_a2s":"","protocol":0,"map":"","folder":"","game":"","app_id":0,"player_count":0,"max_players":0,"Bots":0,"server_type":"","server_os":"","password":false,"vac":false,"version":"","steam_id":0,"keywords":null,"game_id":0,"stv_port":0,"stv_name":"","players":null},{"server_id":13,"name":"Uncletopia | New York City | 1 | All Maps","name_short":"nyc-1","host":"nyc-1.us.uncletopia.com","port":27015,"enabled":true,"region":"us-east","cc":"us","latitude":40.73061,"longitude":-73.93524,"reserved":0,"last_update":"0001-01-01T00:00:00Z","name_a2s":"Uncletopia | New York City | 1 | All Maps","protocol":17,"map":"koth_highpass","folder":"tf","game":"Team Fortress","app_id":440,"player_count":0,"max_players":24,"Bots":0,"server_type":"Dedicated","server_os":"Linux","password":true,"vac":true,"version":"7961495","steam_id":85568392924469993,"keywords":["cp","nocrits","nodmgspread","uncletopia"],"game_id":440,"stv_port":27016,"stv_name":"Uncletopia | New York City | 1 | All Maps | STV","players":null},{"server_id":14,"name":"Uncletopia | New York City | 2 | All Maps","name_short":"nyc-2","host":"nyc-1.us.uncletopia.com","port":27025,"enabled":true,"region":"us-east","cc":"us","latitude":40.73061,"longitude":-73.93524,"reserved":0,"last_update":"0001-01-01T00:00:00Z","name_a2s":"Uncletopia | New York City | 2 | All Maps","protocol":17,"map":"koth_viaduct","folder":"tf","game":"Team Fortress","app_id":440,"player_count":0,"max_players":24,"Bots":0,"server_type":"Dedicated","server_os":"Linux","password":true,"vac":true,"version":"7961495","steam_id":85568392924469994,"keywords":["cp","nocrits","nodmgspread","uncletopia"],"game_id":440,"stv_port":27026,"stv_name":"Uncletopia | New York City | 2 | All Maps | STV","players":null},{"server_id":15,"name":"Uncletopia | New York City | 3 | Stopwatch","name_short":"nyc-3","host":"nyc-1.us.uncletopia.com","port":27035,"enabled":true,"region":"us-east","cc":"us","latitude":40.73061,"longitude":-73.93524,"reserved":0,"last_update":"0001-01-01T00:00:00Z","name_a2s":"Uncletopia | New York City | 3 | Stopwatch","protocol":17,"map":"pl_upward","folder":"tf","game":"Team Fortress","app_id":440,"player_count":0,"max_players":24,"Bots":0,"server_type":"Dedicated","server_os":"Linux","password":true,"vac":true,"version":"7961495","steam_id":85568392924742820,"keywords":["nocrits","nodmgspread","payload","uncletopia"],"game_id":440,"stv_port":27036,"stv_name":"Uncletopia | New York City | 3 | Stopwatch | STV","players":null},{"server_id":16,"name":"Uncletopia | New York City | 4 | Community","name_short":"nyc-4","host":"nyc-1.us.uncletopia.com","port":27045,"enabled":true,"region":"us-east","cc":"us","latitude":40.73061,"longitude":-73.93524,"reserved":0,"last_update":"0001-01-01T00:00:00Z","name_a2s":"Uncletopia | New York City | 4 | Community","protocol":17,"map":"workshop/koth_bagel_rc6.ugc2514036946","folder":"tf","game":"Team Fortress","app_id":440,"player_count":0,"max_players":24,"Bots":0,"server_type":"Dedicated","server_os":"Linux","password":true,"vac":true,"version":"7961495","steam_id":85568392924742821,"keywords":["cp","nocrits","nodmgspread","uncletopia"],"game_id":440,"stv_port":27046,"stv_name":"Uncletopia | New York City | 4 | Community | STV","players":null},{"server_id":142,"name":"Uncletopia | SÃ£o Paulo | 1 | All Maps","name_short":"sao-1","host":"sao-1.br.uncletopia.com","port":27015,"enabled":true,"region":"sa","cc":"br","latitude":-23.533773,"longitude":-46.62529,"reserved":0,"last_update":"0001-01-01T00:00:00Z","name_a2s":"Uncletopia | SÃ£o Paulo | 1 | All Maps","protocol":17,"map":"koth_highpass","folder":"tf","game":"Team Fortress","app_id":440,"player_count":0,"max_players":24,"Bots":0,"server_type":"Dedicated","server_os":"Linux","password":true,"vac":true,"version":"7961495","steam_id":85568392924469996,"keywords":["cp","nocrits","nodmgspread","uncletopia"],"game_id":440,"stv_port":27016,"stv_name":"Uncletopia | SÃ£o Paulo | 1 | All Maps | STV","players":null},{"server_id":143,"name":"Uncletopia | SÃ£o Paulo | 2 | Community","name_short":"sao-2","host":"sao-2.br.uncletopia.com","port":27015,"enabled":true,"region":"sa","cc":"br","latitude":-23.533773,"longitude":-46.62529,"reserved":0,"last_update":"0001-01-01T00:00:00Z","name_a2s":"Uncletopia | SÃ£o Paulo | 2 | Community","protocol":17,"map":"workshop/koth_bagel_rc6.ugc2514036946","folder":"tf","game":"Team Fortress","app_id":440,"player_count":0,"max_players":24,"Bots":0,"server_type":"Dedicated","server_os":"Linux","password":true,"vac":true,"version":"7961495","steam_id":85568392924485349,"keywords":["cp","nocrits","nodmgspread","uncletopia"],"game_id":440,"stv_port":27016,"stv_name":"Uncletopia | SÃ£o Paulo | 2 | Community | STV","players":null},{"server_id":7,"name":"Uncletopia | Seattle | 1 | All Maps","name_short":"sea-1","host":"sea-1.us.uncletopia.com","port":27015,"enabled":true,"region":"us-west","cc":"us","latitude":47.608013,"longitude":-122.33517,"reserved":0,"last_update":"0001-01-01T00:00:00Z","name_a2s":"Uncletopia | Seattle | 1 | All Maps","protocol":17,"map":"koth_sawmill","folder":"tf","game":"Team Fortress","app_id":440,"player_count":24,"max_players":24,"Bots":0,"server_type":"Dedicated","server_os":"Linux","password":true,"vac":true,"version":"7961495","steam_id":85568392924469997,"keywords":["cp","nocrits","nodmgspread","uncletopia"],"game_id":440,"stv_port":27016,"stv_name":"Uncletopia | Seattle | 1 | All Maps | STV","players":[{"user_id":1073,"name":"NightHawk","steam_id":76561198276385639,"connected_time":454000000000,"state":"active","ping":91},{"user_id":1034,"name":"Dog","steam_id":76561198041841128,"connected_time":4276000000000,"state":"active","ping":74},{"user_id":1074,"name":"fragadelphia","steam_id":76561198066116363,"connected_time":277000000000,"state":"active","ping":45},{"user_id":1067,"name":"nÃ¸bu","steam_id":76561198100614981,"connected_time":1560000000000,"state":"active","ping":57},{"user_id":1062,"name":"Gobbie","steam_id":76561198004352408,"connected_time":2364000000000,"state":"active","ping":37},{"user_id":1065,"name":"Dextersbrain","steam_id":76561198011831579,"connected_time":1687000000000,"state":"active","ping":59},{"user_id":1070,"name":"âœ¿ PoutyBun âœ¿","steam_id":76561197965762847,"connected_time":1013000000000,"state":"active","ping":43},{"user_id":1000,"name":"Cheezbeargur","steam_id":76561198164702899,"connected_time":7312000000000,"state":"active","ping":64},{"user_id":1075,"name":"Spam The Alien","steam_id":76561199122290968,"connected_time":120000000000,"state":"active","ping":55},{"user_id":1010,"name":"Noah1k","steam_id":76561199428633514,"connected_time":6106000000000,"state":"active","ping":53},{"user_id":940,"name":"waggyaggy","steam_id":76561197998241407,"connected_time":12332000000000,"state":"active","ping":77},{"user_id":1026,"name":"you just got dyked on","steam_id":76561198018977723,"connected_time":4888000000000,"state":"active","ping":52},{"user_id":1017,"name":"Hog Rider","steam_id":76561198275999294,"connected_time":5373000000000,"state":"active","ping":59},{"user_id":1008,"name":"Melly","steam_id":76561198045867175,"connected_time":6804000000000,"state":"active","ping":63},{"user_id":1046,"name":"kill me","steam_id":76561198032625036,"connected_time":3210000000000,"state":"active","ping":59},{"user_id":1063,"name":"Warhead","steam_id":76561198067746049,"connected_time":2169000000000,"state":"active","ping":59},{"user_id":1052,"name":"Tuna Man","steam_id":76561198039977972,"connected_time":3015000000000,"state":"active","ping":53},{"user_id":995,"name":"Daz","steam_id":76561198041431938,"connected_time":7822000000000,"state":"active","ping":51},{"user_id":1057,"name":"Mitchell","steam_id":76561197972922328,"connected_time":2767000000000,"state":"active","ping":60},{"user_id":1064,"name":"Arsonist Goose","steam_id":76561198147441830,"connected_time":2149000000000,"state":"active","ping":77},{"user_id":966,"name":"HopeTheNeko","steam_id":76561199159285465,"connected_time":10276000000000,"state":"active","ping":75},{"user_id":1069,"name":"PopcornBucketGames","steam_id":76561199089562026,"connected_time":1186000000000,"state":"active","ping":43},{"user_id":1072,"name":"Grand","steam_id":76561198290143399,"connected_time":566000000000,"state":"active","ping":76},{"user_id":1060,"name":"a","steam_id":76561198074209737,"connected_time":2528000000000,"state":"active","ping":92}]},{"server_id":119,"name":"Uncletopia | Seattle | 2 | All Maps","name_short":"sea-2","host":"sea-1.us.uncletopia.com","port":27025,"enabled":true,"region":"us-west","cc":"us","latitude":47.608013,"longitude":-122.33517,"reserved":0,"last_update":"0001-01-01T00:00:00Z","name_a2s":"Uncletopia | Seattle | 2 | All Maps","protocol":17,"map":"cp_gravelpit","folder":"tf","game":"Team Fortress","app_id":440,"player_count":23,"max_players":24,"Bots":0,"server_type":"Dedicated","server_os":"Linux","password":true,"vac":true,"version":"7961495","steam_id":85568392924469998,"keywords":["cp","nocrits","nodmgspread","uncletopia"],"game_id":440,"stv_port":27026,"stv_name":"Uncletopia | Seattle | 2 | All Maps | STV","players":[{"user_id":322,"name":"Drone #0432 (they/it)\u0026","steam_id":76561198027321950,"connected_time":4046000000000,"state":"active","ping":92},{"user_id":301,"name":"NOT FRIENDLY","steam_id":76561198041327231,"connected_time":5607000000000,"state":"active","ping":45},{"user_id":357,"name":"foxmagic","steam_id":76561198163167495,"connected_time":300000000000,"state":"active","ping":45},{"user_id":358,"name":"ender â™¿","steam_id":76561198163050623,"connected_time":294000000000,"state":"active","ping":43},{"user_id":342,"name":"allahsdroptop (Bag/Chaser)","steam_id":76561198133195238,"connected_time":1382000000000,"state":"active","ping":63},{"user_id":360,"name":"Silly Shark","steam_id":76561198130714378,"connected_time":269000000000,"state":"active","ping":56},{"user_id":366,"name":"Montis","steam_id":76561199130184348,"connected_time":28000000000,"state":"active","ping":69},{"user_id":275,"name":"Breast Expansion Bertha","steam_id":76561198225766444,"connected_time":7434000000000,"state":"active","ping":52},{"user_id":365,"name":"Throat Goat","steam_id":76561198132532519,"connected_time":107000000000,"state":"active","ping":71},{"user_id":345,"name":"Dova","steam_id":76561198079481047,"connected_time":1181000000000,"state":"active","ping":74},{"user_id":367,"name":"buttermilk","steam_id":76561199241946138,"connected_time":8000000000,"state":"spawning","ping":315},{"user_id":346,"name":"Cooked","steam_id":76561198988846527,"connected_time":1121000000000,"state":"active","ping":63},{"user_id":311,"name":"Be Gay, Do Crimes, Smoke Weed!","steam_id":76561198092419868,"connected_time":4831000000000,"state":"active","ping":90},{"user_id":321,"name":"The New Bob","steam_id":76561199122072556,"connected_time":4160000000000,"state":"active","ping":127},{"user_id":347,"name":"Stev the Hypergamous Pebble","steam_id":76561197999442625,"connected_time":1084000000000,"state":"active","ping":52},{"user_id":288,"name":"Facepalm","steam_id":76561198001935226,"connected_time":6906000000000,"state":"active","ping":60},{"user_id":328,"name":"como hacer dinero facil","steam_id":76561198356414514,"connected_time":3638000000000,"state":"active","ping":120},{"user_id":341,"name":"2 Point Tom","steam_id":76561198087617008,"connected_time":1552000000000,"state":"active","ping":58},{"user_id":333,"name":"jasus","steam_id":76561198088035919,"connected_time":2643000000000,"state":"active","ping":43},{"user_id":349,"name":"Bus!","steam_id":76561199082304859,"connected_time":1036000000000,"state":"active","ping":50},{"user_id":353,"name":"[CTC] Dapper","steam_id":76561198103189993,"connected_time":608000000000,"state":"active","ping":83},{"user_id":363,"name":"Kiril","steam_id":76561198051433762,"connected_time":247000000000,"state":"active","ping":88},{"user_id":364,"name":"copper","steam_id":76561198146250533,"connected_time":225000000000,"state":"active","ping":64}]},{"server_id":406,"name":"Uncletopia | Seattle | 3 | Stopwatch","name_short":"sea-3","host":"sea-1.us.uncletopia.com","port":27035,"enabled":true,"region":"us-west","cc":"us","latitude":47.608013,"longitude":-122.33517,"reserved":0,"last_update":"0001-01-01T00:00:00Z","name_a2s":"Uncletopia | Seattle | 3 | Stopwatch","protocol":17,"map":"cp_gullywash_final1","folder":"tf","game":"Team Fortress","app_id":440,"player_count":0,"max_players":24,"Bots":0,"server_type":"Dedicated","server_os":"Linux","password":true,"vac":true,"version":"7961495","steam_id":85568392924515217,"keywords":["cp","nocrits","nodmgspread","uncletopia"],"game_id":440,"stv_port":27036,"stv_name":"Uncletopia | Seattle | 3 | Stopwatch | STV","players":null},{"server_id":17,"name":"Uncletopia | San Francisco | 1 | All Maps","name_short":"sfo-1","host":"sfo-1.us.uncletopia.com","port":27015,"enabled":true,"region":"us-west","cc":"us","latitude":37.77397,"longitude":-122.4313,"reserved":0,"last_update":"0001-01-01T00:00:00Z","name_a2s":"Uncletopia | San Francisco | 1 | All Maps","protocol":17,"map":"pl_badwater","folder":"tf","game":"Team Fortress","app_id":440,"player_count":24,"max_players":24,"Bots":0,"server_type":"Dedicated","server_os":"Linux","password":true,"vac":true,"version":"7961495","steam_id":85568392924469999,"keywords":["nocrits","nodmgspread","payload","uncletopia"],"game_id":440,"stv_port":27016,"stv_name":"Uncletopia | San Francisco | 1 | All Maps | STV","players":[{"user_id":365,"name":"Satori Komeiji","steam_id":76561198158211423,"connected_time":475000000000,"state":"active","ping":53},{"user_id":339,"name":"loco503","steam_id":76561198827495121,"connected_time":2929000000000,"state":"active","ping":57},{"user_id":303,"name":"Poladroid","steam_id":76561198032005291,"connected_time":5350000000000,"state":"active","ping":63},{"user_id":360,"name":"A_Un1t_0","steam_id":76561197966223353,"connected_time":774000000000,"state":"active","ping":52},{"user_id":328,"name":"Mr. Carfox","steam_id":76561198041664428,"connected_time":3610000000000,"state":"active","ping":45},{"user_id":324,"name":"tie dye die guy","steam_id":76561198049845337,"connected_time":3787000000000,"state":"active","ping":66},{"user_id":344,"name":"crazey","steam_id":76561198286510667,"connected_time":2322000000000,"state":"active","ping":56},{"user_id":361,"name":"Meskoozy","steam_id":76561198102394479,"connected_time":753000000000,"state":"active","ping":118},{"user_id":345,"name":"Gawin Goodman","steam_id":76561198192661585,"connected_time":2291000000000,"state":"active","ping":73},{"user_id":298,"name":"Cave Dweller","steam_id":76561198374825685,"connected_time":6348000000000,"state":"active","ping":58},{"user_id":343,"name":"mobtownUSA","steam_id":76561198393054672,"connected_time":2339000000000,"state":"active","ping":74},{"user_id":302,"name":"The Fairy Love Sniper","steam_id":76561198049358645,"connected_time":5362000000000,"state":"active","ping":103},{"user_id":330,"name":"cepi","steam_id":76561198120385184,"connected_time":3532000000000,"state":"active","ping":67},{"user_id":332,"name":"greg","steam_id":76561198878022971,"connected_time":3519000000000,"state":"active","ping":151},{"user_id":366,"name":"self sufficient kitten","steam_id":76561197960592612,"connected_time":392000000000,"state":"active","ping":60},{"user_id":333,"name":"delight","steam_id":76561197980280272,"connected_time":3407000000000,"state":"active","ping":62},{"user_id":363,"name":"Rich Homie Rob","steam_id":76561198046570914,"connected_time":741000000000,"state":"active","ping":49},{"user_id":358,"name":"cajun thotsauce","steam_id":76561198101636066,"connected_time":1625000000000,"state":"active","ping":63},{"user_id":364,"name":"Maid 'n' China","steam_id":76561198423392976,"connected_time":735000000000,"state":"active","ping":58},{"user_id":348,"name":"chesterwnimitz","steam_id":76561198062664377,"connected_time":2165000000000,"state":"active","ping":96},{"user_id":336,"name":"endo","steam_id":76561197995204381,"connected_time":3399000000000,"state":"active","ping":70},{"user_id":355,"name":"Caramel_Chalice","steam_id":76561198307609692,"connected_time":1979000000000,"state":"active","ping":79},{"user_id":315,"name":"darren","steam_id":76561199050155136,"connected_time":4905000000000,"state":"active","ping":54},{"user_id":323,"name":"owl","steam_id":76561198088403016,"connected_time":3967000000000,"state":"active","ping":153}]},{"server_id":18,"name":"Uncletopia | San Francisco | 2 | All Maps","name_short":"sfo-2","host":"sfo-1.us.uncletopia.com","port":27025,"enabled":true,"region":"us-west","cc":"us","latitude":37.77397,"longitude":-122.4313,"reserved":0,"last_update":"0001-01-01T00:00:00Z","name_a2s":"Uncletopia | San Francisco | 2 | All Maps","protocol":17,"map":"cp_altitude","folder":"tf","game":"Team Fortress","app_id":440,"player_count":0,"max_players":24,"Bots":0,"server_type":"Dedicated","server_os":"Linux","password":true,"vac":true,"version":"7961495","steam_id":85568392924470000,"keywords":["cp","nocrits","nodmgspread","uncletopia"],"game_id":440,"stv_port":27026,"stv_name":"Uncletopia | San Francisco | 2 | All Maps | STV","players":null},{"server_id":19,"name":"Uncletopia | San Francisco | 3 | Stopwatch","name_short":"sfo-3","host":"sfo-1.us.uncletopia.com","port":27035,"enabled":true,"region":"us-west","cc":"us","latitude":37.77397,"longitude":-122.4313,"reserved":0,"last_update":"0001-01-01T00:00:00Z","name_a2s":"Uncletopia | San Francisco | 3 | Stopwatch","protocol":17,"map":"workshop/koth_ashville_final.ugc2130459942","folder":"tf","game":"Team Fortress","app_id":440,"player_count":0,"max_players":24,"Bots":0,"server_type":"Dedicated","server_os":"Linux","password":true,"vac":true,"version":"7961495","steam_id":85568392924742824,"keywords":["cp","nocrits","nodmgspread","uncletopia"],"game_id":440,"stv_port":27036,"stv_name":"Uncletopia | San Francisco | 3 | Stopwatch | STV","players":null},{"server_id":20,"name":"Uncletopia | San Francisco | 4 | Community","name_short":"sfo-4","host":"sfo-1.us.uncletopia.com","port":27045,"enabled":true,"region":"us-west","cc":"us","latitude":37.77397,"longitude":-122.4313,"reserved":0,"last_update":"0001-01-01T00:00:00Z","name_a2s":"Uncletopia | San Francisco | 4 | Community","protocol":17,"map":"workshop/koth_bagel_rc6.ugc2514036946","folder":"tf","game":"Team Fortress","app_id":440,"player_count":0,"max_players":24,"Bots":0,"server_type":"Dedicated","server_os":"Linux","password":true,"vac":true,"version":"7961495","steam_id":85568392924742826,"keywords":["cp","nocrits","nodmgspread","uncletopia"],"game_id":440,"stv_port":27046,"stv_name":"Uncletopia | San Francisco | 4 | Community | STV","players":null},{"server_id":141,"name":"Uncletopia | Sydney | 1 | All Maps","name_short":"syd-1","host":"syd-1.au.uncletopia.com","port":27015,"enabled":true,"region":"au","cc":"au","latitude":-33.865143,"longitude":151.2099,"reserved":0,"last_update":"0001-01-01T00:00:00Z","name_a2s":"Uncletopia | Sydney | 1 | All Maps","protocol":17,"map":"pl_frontier_final","folder":"tf","game":"Team Fortress","app_id":440,"player_count":24,"max_players":24,"Bots":0,"server_type":"Dedicated","server_os":"Linux","password":true,"vac":true,"version":"7961495","steam_id":85568392924470001,"keywords":["nocrits","nodmgspread","payload","uncletopia"],"game_id":440,"stv_port":27016,"stv_name":"Uncletopia | Sydney | 1 | All Maps | STV","players":[{"user_id":72,"name":"P. Ness (Length/Girth)","steam_id":76561198037664265,"connected_time":1265000000000,"state":"active","ping":57},{"user_id":75,"name":"Bobby Bigman","steam_id":76561198044679656,"connected_time":1155000000000,"state":"active","ping":61},{"user_id":89,"name":"Bobby Wilkinson (They/She)","steam_id":76561198054985347,"connected_time":296000000000,"state":"active","ping":57},{"user_id":62,"name":"the a million glove!!","steam_id":76561198025225448,"connected_time":1653000000000,"state":"active","ping":76},{"user_id":63,"name":"stuck with me","steam_id":76561198132937542,"connected_time":1645000000000,"state":"active","ping":58},{"user_id":85,"name":"Glassy-Eyed Automaton Exploitin","steam_id":76561198072845816,"connected_time":480000000000,"state":"active","ping":49},{"user_id":31,"name":"Lord Saladman","steam_id":76561199363661936,"connected_time":3231000000000,"state":"active","ping":61},{"user_id":68,"name":"Blondie","steam_id":76561198046977058,"connected_time":1421000000000,"state":"active","ping":66},{"user_id":36,"name":"Skree'kaw","steam_id":76561199415758131,"connected_time":2898000000000,"state":"active","ping":67},{"user_id":38,"name":"Raven","steam_id":76561198428025966,"connected_time":2810000000000,"state":"active","ping":60},{"user_id":88,"name":"diamond","steam_id":76561198206754736,"connected_time":443000000000,"state":"active","ping":53},{"user_id":76,"name":"Overlold","steam_id":76561197978635495,"connected_time":959000000000,"state":"active","ping":83},{"user_id":55,"name":"P","steam_id":76561198304514505,"connected_time":2035000000000,"state":"active","ping":169},{"user_id":46,"name":"Gas Passer (sliced toast)","steam_id":76561199220276252,"connected_time":2447000000000,"state":"active","ping":68},{"user_id":49,"name":"Fresh Produce Gaming","steam_id":76561198358483352,"connected_time":2401000000000,"state":"active","ping":62},{"user_id":83,"name":"john fitzgerald kennedy","steam_id":76561198998542066,"connected_time":504000000000,"state":"active","ping":61},{"user_id":82,"name":"nice lad","steam_id":76561198055333637,"connected_time":512000000000,"state":"active","ping":50},{"user_id":90,"name":"Kerryn's boyfriend","steam_id":76561199124736340,"connected_time":208000000000,"state":"active","ping":79},{"user_id":93,"name":"Andreas Vesalius","steam_id":76561198950692005,"connected_time":89000000000,"state":"active","ping":32},{"user_id":65,"name":"Granoler","steam_id":76561198059129270,"connected_time":1593000000000,"state":"active","ping":67},{"user_id":67,"name":"Scopic","steam_id":76561199236845261,"connected_time":1579000000000,"state":"active","ping":88},{"user_id":78,"name":"webbadon, the horrid á˜›âÌ¤\ufffd\ufffd","steam_id":76561198061998379,"connected_time":833000000000,"state":"active","ping":47},{"user_id":87,"name":"Jrazza","steam_id":76561198195448189,"connected_time":468000000000,"state":"active","ping":42},{"user_id":74,"name":"you can lead a Horace to water","steam_id":76561198301282416,"connected_time":1227000000000,"state":"active","ping":49}]},{"server_id":123,"name":"Uncletopia | Sydney | 2 | All Maps","name_short":"syd-2","host":"syd-1.au.uncletopia.com","port":27025,"enabled":true,"region":"au","cc":"au","latitude":-33.865143,"longitude":151.2099,"reserved":0,"last_update":"0001-01-01T00:00:00Z","name_a2s":"Uncletopia | Sydney | 2 | All Maps","protocol":17,"map":"koth_lakeside_final","folder":"tf","game":"Team Fortress","app_id":440,"player_count":0,"max_players":24,"Bots":0,"server_type":"Dedicated","server_os":"Linux","password":true,"vac":true,"version":"7961495","steam_id":85568392924470002,"keywords":["cp","nocrits","nodmgspread","uncletopia"],"game_id":440,"stv_port":27026,"stv_name":"Uncletopia | Sydney | 2 | All Maps | STV","players":null},{"server_id":395,"name":"Uncletopia | Sydney | 3 | All Maps","name_short":"syd-3","host":"syd-1.au.uncletopia.com","port":27035,"enabled":true,"region":"au","cc":"au","latitude":-33.865143,"longitude":151.2099,"reserved":0,"last_update":"0001-01-01T00:00:00Z","name_a2s":"Uncletopia | Sydney | 3 | All Maps","protocol":17,"map":"pl_frontier_final","folder":"tf","game":"Team Fortress","app_id":440,"player_count":0,"max_players":24,"Bots":0,"server_type":"Dedicated","server_os":"Linux","password":true,"vac":true,"version":"7961495","steam_id":85568392925194467,"keywords":["nocrits","nodmgspread","payload","uncletopia"],"game_id":440,"stv_port":27036,"stv_name":"Uncletopia | Sydney | 3 | All Maps | STV","players":null},{"server_id":396,"name":"Uncletopia | Sydney | 4 | All Maps","name_short":"syd-4","host":"syd-1.au.uncletopia.com","port":27045,"enabled":true,"region":"au","cc":"au","latitude":-33.865143,"longitude":151.2099,"reserved":0,"last_update":"0001-01-01T00:00:00Z","name_a2s":"Uncletopia | Sydney | 4 | All Maps","protocol":17,"map":"cp_mountainlab","folder":"tf","game":"Team Fortress","app_id":440,"player_count":0,"max_players":24,"Bots":0,"server_type":"Dedicated","server_os":"Linux","password":true,"vac":true,"version":"7961495","steam_id":85568392925397958,"keywords":["cp","nocrits","nodmgspread","uncletopia"],"game_id":440,"stv_port":27046,"stv_name":"Uncletopia | Sydney | 4 | All Maps | STV","players":null},{"server_id":58,"name":"Uncletopia | Sydney | 5 | Stopwatch","name_short":"syd-5","host":"syd-1.au.uncletopia.com","port":27055,"enabled":true,"region":"au","cc":"au","latitude":-33.865143,"longitude":151.2099,"reserved":0,"last_update":"0001-01-01T00:00:00Z","name_a2s":"Uncletopia | Sydney | 5 | Stopwatch","protocol":17,"map":"cp_metalworks","folder":"tf","game":"Team Fortress","app_id":440,"player_count":0,"max_players":24,"Bots":0,"server_type":"Dedicated","server_os":"Linux","password":true,"vac":true,"version":"7961495","steam_id":85568392925397959,"keywords":["cp","nocrits","nodmgspread","uncletopia"],"game_id":440,"stv_port":27056,"stv_name":"Uncletopia | Sydney | 5 | Stopwatch | STV","players":null},{"server_id":59,"name":"Uncletopia | Sydney | 6 | Community","name_short":"syd-6","host":"syd-1.au.uncletopia.com","port":27065,"enabled":true,"region":"au","cc":"au","latitude":-33.865143,"longitude":151.2099,"reserved":0,"last_update":"0001-01-01T00:00:00Z","name_a2s":"Uncletopia | Sydney | 6 | Community","protocol":17,"map":"cp_sunshine","folder":"tf","game":"Team Fortress","app_id":440,"player_count":0,"max_players":24,"Bots":0,"server_type":"Dedicated","server_os":"Linux","password":true,"vac":true,"version":"7961495","steam_id":85568392925397960,"keywords":["cp","nocrits","nodmgspread","uncletopia"],"game_id":440,"stv_port":27066,"stv_name":"Uncletopia | Sydney | 6 | Community | STV","players":null},{"server_id":49,"name":"Uncletopia | Warsaw | 1 | One Thousand Uncles","name_short":"waw-1","host":"waw-1.pl.uncletopia.com","port":27015,"enabled":true,"region":"eu","cc":"pl","latitude":52.2297,"longitude":21.017532,"reserved":0,"last_update":"0001-01-01T00:00:00Z","name_a2s":"Uncletopia | Warsaw | 1 | One Thousand Uncles","protocol":17,"map":"pl_hoodoo_final","folder":"tf","game":"Team Fortress","app_id":440,"player_count":0,"max_players":32,"Bots":0,"server_type":"Dedicated","server_os":"Linux","password":true,"vac":true,"version":"7961495","steam_id":85568392925397850,"keywords":["alltalk","danepve","increased_maxplayers","nocrits","norespawntime","payload","uncletopia"],"game_id":440,"stv_port":0,"stv_name":"","players":null},{"server_id":50,"name":"Uncletopia | Warsaw | 2 | One Thousand Uncles","name_short":"waw-2","host":"waw-1.pl.uncletopia.com","port":27025,"enabled":true,"region":"eu","cc":"pl","latitude":52.2297,"longitude":21.017532,"reserved":0,"last_update":"0001-01-01T00:00:00Z","name_a2s":"Uncletopia | Warsaw | 2 | One Thousand Uncles","protocol":17,"map":"pl_goldrush","folder":"tf","game":"Team Fortress","app_id":440,"player_count":0,"max_players":32,"Bots":0,"server_type":"Dedicated","server_os":"Linux","password":true,"vac":true,"version":"7961495","steam_id":85568392925397851,"keywords":["alltalk","danepve","increased_maxplayers","nocrits","norespawntime","payload","uncletopia"],"game_id":440,"stv_port":0,"stv_name":"","players":null},{"server_id":51,"name":"Uncletopia | Warsaw | 3 | All Maps","name_short":"waw-3","host":"waw-1.pl.uncletopia.com","port":27035,"enabled":true,"region":"eu","cc":"pl","latitude":52.2297,"longitude":21.017532,"reserved":0,"last_update":"0001-01-01T00:00:00Z","name_a2s":"Uncletopia | Warsaw | 3 | All Maps","protocol":17,"map":"plr_pipeline","folder":"tf","game":"Team Fortress","app_id":440,"player_count":0,"max_players":24,"Bots":0,"server_type":"Dedicated","server_os":"Linux","password":true,"vac":true,"version":"7961495","steam_id":85568392925397852,"keywords":["nocrits","nodmgspread","payload","uncletopia"],"game_id":440,"stv_port":27036,"stv_name":"Uncletopia | Warsaw | 3 | All Maps | STV","players":null},{"server_id":52,"name":"Uncletopia | Warsaw | 4 | All Maps","name_short":"waw-4","host":"waw-1.pl.uncletopia.com","port":27045,"enabled":true,"region":"eu","cc":"pl","latitude":52.2297,"longitude":21.017532,"reserved":0,"last_update":"0001-01-01T00:00:00Z","name_a2s":"Uncletopia | Warsaw | 4 | All Maps","protocol":17,"map":"cp_coldfront","folder":"tf","game":"Team Fortress","app_id":440,"player_count":0,"max_players":24,"Bots":0,"server_type":"Dedicated","server_os":"Linux","password":true,"vac":true,"version":"7961495","steam_id":85568392925397853,"keywords":["cp","nocrits","nodmgspread","uncletopia"],"game_id":440,"stv_port":27046,"stv_name":"Uncletopia | Warsaw | 4 | All Maps | STV","players":null},{"server_id":53,"name":"Uncletopia | Warsaw | 5 | Stopwatch","name_short":"waw-5","host":"waw-1.pl.uncletopia.com","port":27055,"enabled":true,"region":"eu","cc":"pl","latitude":52.2297,"longitude":21.017532,"reserved":0,"last_update":"0001-01-01T00:00:00Z","name_a2s":"Uncletopia | Warsaw | 5 | Stopwatch","protocol":17,"map":"workshop/koth_bagel_rc6.ugc2514036946","folder":"tf","game":"Team Fortress","app_id":440,"player_count":0,"max_players":24,"Bots":0,"server_type":"Dedicated","server_os":"Linux","password":true,"vac":true,"version":"7961495","steam_id":85568392925397854,"keywords":["cp","nocrits","nodmgspread","uncletopia"],"game_id":440,"stv_port":27056,"stv_name":"Uncletopia | Warsaw | 5 | Stopwatch | STV","players":null},{"server_id":54,"name":"Uncletopia | Warsaw | 6 | Community","name_short":"waw-6","host":"waw-1.pl.uncletopia.com","port":27065,"enabled":true,"region":"eu","cc":"pl","latitude":52.2297,"longitude":21.017532,"reserved":0,"last_update":"0001-01-01T00:00:00Z","name_a2s":"Uncletopia | Warsaw | 6 | Community","protocol":17,"map":"workshop/pl_badwater_pro_v12.ugc2142942074","folder":"tf","game":"Team Fortress","app_id":440,"player_count":0,"max_players":24,"Bots":0,"server_type":"Dedicated","server_os":"Linux","password":true,"vac":true,"version":"7961495","steam_id":85568392925397856,"keywords":["nocrits","nodmgspread","payload","uncletopia"],"game_id":440,"stv_port":27066,"stv_name":"Uncletopia | Warsaw | 6 | Community | STV","players":null}]}