{"status":true,"message":"","result":[{"server_id":9,"name":"Uncletopia | Atlanta | 1 | All Maps","name_short":"atl-1","host":"atl-1.us.uncletopia.com","port":27015,"enabled":true,"region":"us-east","cc":"us","latitude":33.753746,"longitude":-84.38633,"reserved":0,"last_update":"0001-01-01T00:00:00Z","name_a2s":"Uncletopia | Atlanta | 1 | All Maps","protocol":17,"map":"pl_barnblitz","folder":"tf","game":"Team Fortress","app_id":440,"player_count":24,"max_players":24,"Bots":0,"server_type":"Dedicated","server_os":"Linux","password":true,"vac":true,"version":"7742253","steam_id":85568392924469982,"keywords":["nocrits","nodmgspread","payload","uncletopia"],"game_id":440,"stv_port":27016,"stv_name":"Uncletopia | Atlanta | 1 | All Maps | STV","players":[{"user_id":736,"name":"‚òô Corrupt ‚ùß","steam_id":76561197977631915,"connected_time":2095000000000,"state":"active","ping":63},{"user_id":746,"name":"mdharsy","steam_id":76561198065831053,"connected_time":251000000000,"state":"active","ping":89},{"user_id":726,"name":"potato pat","steam_id":76561198025489194,"connected_time":2604000000000,"state":"active","ping":75},{"user_id":739,"name":"NoShen","steam_id":76561198147434663,"connected_time":1363000000000,"state":"active","ping":54},{"user_id":709,"name":"Deku Scrublord","steam_id":76561198036602402,"connected_time":4151000000000,"state":"active","ping":64},{"user_id":710,"name":"Carbon8ed","steam_id":76561198188488341,"connected_time":4143000000000,"state":"active","ping":76},{"user_id":729,"name":"Chechens Spotted","steam_id":76561199028910893,"connected_time":2426000000000,"state":"active","ping":90},{"user_id":745,"name":"Rockgraham101","steam_id":76561198171740458,"connected_time":313000000000,"state":"active","ping":62},{"user_id":740,"name":"new year new personality","steam_id":76561198016121536,"connected_time":1354000000000,"state":"active","ping":82},{"user_id":750,"name":"vermin vendor","steam_id":76561198404178400,"connected_time":133000000000,"state":"active","ping":77},{"user_id":624,"name":"basil","steam_id":76561198075758026,"connected_time":10791000000000,"state":"active","ping":75},{"user_id":748,"name":"Ronin Grinch","steam_id":76561198041439581,"connected_time":179000000000,"state":"active","ping":67},{"user_id":749,"name":"ambrotos","steam_id":76561198042600523,"connected_time":166000000000,"state":"active","ping":71},{"user_id":720,"name":"Grand Wizard Autismo","steam_id":76561198069834979,"connected_time":3371000000000,"state":"active","ping":61},{"user_id":744,"name":"larguu","steam_id":76561197994336210,"connected_time":969000000000,"state":"active","ping":60},{"user_id":742,"name":"Madrox Who?","steam_id":76561197988859134,"connected_time":1243000000000,"state":"active","ping":88},{"user_id":713,"name":"yoodle doodle","steam_id":76561198054897884,"connected_time":4022000000000,"state":"active","ping":63},{"user_id":751,"name":"Aegis","steam_id":76561198272052750,"connected_time":121000000000,"state":"active","ping":75},{"user_id":752,"name":"Dapeep","steam_id":76561198065508243,"connected_time":113000000000,"state":"active","ping":60},{"user_id":685,"name":"Laelaps","steam_id":76561198100061416,"connected_time":5667000000000,"state":"active","ping":59},{"user_id":753,"name":"Rond Gong The Dong Machine","steam_id":76561198283349215,"connected_time":104000000000,"state":"spawning","ping":177},{"user_id":743,"name":"cheated on the pregnancy test","steam_id":76561199107068627,"connected_time":1091000000000,"state":"active","ping":69},{"user_id":733,"name":"MisterDanny8","steam_id":76561198048847182,"connected_time":2361000000000,"state":"active","ping":63},{"user_id":754,"name":"Lil Fuwa Fuw","steam_id":76561198136878117,"connected_time":96000000000,"state":"active","ping":80}]},{"server_id":400,"name":"Uncletopia | Atlanta | 3 | Stopwatch Beta","name_short":"atl-3","host":"atl-1.us.uncletopia.com","port":27035,"enabled":true,"region":"us-east","cc":"us","latitude":33.753746,"longitude":-84.38633,"reserved":0,"last_update":"0001-01-01T00:00:00Z","name_a2s":"Uncletopia | Atlanta | 3 | Stopwatch Beta","protocol":17,"map":"pl_upward","folder":"tf","game":"Team Fortress","app_id":440,"player_count":0,"max_players":24,"Bots":0,"server_type":"Dedicated","server_os":"Linux","password":true,"vac":true,"version":"7742253","steam_id":85568392924515187,"keywords":["nocrits","nodmgspread","payload","uncletopia"],"game_id":440,"stv_port":27036,"stv_name":"Uncletopia | Atlanta | 3 | Stopwatch Beta | STV","players":null},{"server_id":401,"name":"Uncletopia | Atlanta | 4 | No Payload","name_short":"atl-4","host":"atl-1.us.uncletopia.com","port":27045,"enabled":true,"region":"us-east","cc":"us","latitude":33.753746,"longitude":-84.38633,"reserved":0,"last_update":"0001-01-01T00:00:00Z","name_a2s":"Uncletopia | Atlanta | 4 | No Payload","protocol":17,"map":"pl_pier","folder":"tf","game":"Team Fortress","app_id":440,"player_count":0,"max_players":24,"Bots":0,"server_type":"Dedicated","server_os":"Linux","password":true,"vac":true,"version":"7723704","steam_id":85568392924515188,"keywords":["nocrits","nodmgspread","payload","uncletopia"],"game_id":440,"stv_port":27046,"stv_name":"Uncletopia | Atlanta | 4 | No Payload | STV","players":null},{"server_id":2,"name":"Uncletopia | Chicago | 1 | All Maps","name_short":"chi-1","host":"chi-1.us.uncletopia.com","port":27015,"enabled":true,"region":"us-central","cc":"us","latitude":41.881832,"longitude":-87.62318,"reserved":0,"last_update":"0001-01-01T00:00:00Z","name_a2s":"Uncletopia | Chicago | 1 | All Maps","protocol":17,"map":"cp_steel","folder":"tf","game":"Team Fortress","app_id":440,"player_count":15,"max_players":24,"Bots":0,"server_type":"Dedicated","server_os":"Linux","password":true,"vac":true,"version":"7742253","steam_id":85568392924469984,"keywords":["cp","nocrits","nodmgspread","uncletopia"],"game_id":440,"stv_port":27016,"stv_name":"Uncletopia | Chicago | 1 | All Maps | STV","players":[{"user_id":1017,"name":"howtobepker","steam_id":76561198115053865,"connected_time":4453000000000,"state":"active","ping":73},{"user_id":1059,"name":"OsamaBinLadder","steam_id":76561199217703002,"connected_time":470000000000,"state":"active","ping":133},{"user_id":1061,"name":"wordyhook830","steam_id":76561198086538218,"connected_time":367000000000,"state":"active","ping":77},{"user_id":1054,"name":"Eden","steam_id":76561198075587475,"connected_time":831000000000,"state":"active","ping":36},{"user_id":1056,"name":"Rammy","steam_id":76561198155044527,"connected_time":636000000000,"state":"active","ping":64},{"user_id":1021,"name":"CreeperCatBengal","steam_id":76561198213193221,"connected_time":4286000000000,"state":"active","ping":78},{"user_id":1057,"name":"ArnoldGaming","steam_id":76561198040140247,"connected_time":629000000000,"state":"active","ping":98},{"user_id":1062,"name":"WolfManx500","steam_id":76561198411929693,"connected_time":358000000000,"state":"active","ping":74},{"user_id":1022,"name":"FGCYT","steam_id":76561198331166100,"connected_time":4279000000000,"state":"active","ping":79},{"user_id":1064,"name":"mozzie","steam_id":76561198233647680,"connected_time":126000000000,"state":"active","ping":61},{"user_id":1044,"name":"WannaSeeA","steam_id":76561198097701042,"connected_time":2709000000000,"state":"active","ping":63},{"user_id":1032,"name":"Nicolas Cage Kisses Mace Windu","steam_id":76561198046127710,"connected_time":3784000000000,"state":"active","ping":54},{"user_id":1046,"name":"ProbiusSC","steam_id":76561198379167322,"connected_time":2315000000000,"state":"active","ping":73},{"user_id":1042,"name":"Aribari","steam_id":76561198117327938,"connected_time":2819000000000,"state":"active","ping":49}]},{"server_id":106,"name":"Uncletopia | Chicago | 2 | All Maps","name_short":"chi-2","host":"chi-1.us.uncletopia.com","port":27025,"enabled":true,"region":"us-central","cc":"us","latitude":41.881832,"longitude":-87.62318,"reserved":0,"last_update":"0001-01-01T00:00:00Z","name_a2s":"Uncletopia | Chicago | 2 | All Maps","protocol":17,"map":"koth_viaduct","folder":"tf","game":"Team Fortress","app_id":440,"player_count":24,"max_players":24,"Bots":0,"server_type":"Dedicated","server_os":"Linux","password":true,"vac":true,"version":"7742253","steam_id":85568392924469985,"keywords":["cp","nocrits","nodmgspread","uncletopia"],"game_id":440,"stv_port":27026,"stv_name":"Uncletopia | Chicago | 2 | All Maps | STV","players":[{"user_id":729,"name":"She's giving you a WUTVILLE??","steam_id":76561198172792271,"connected_time":789000000000,"state":"active","ping":76},{"user_id":724,"name":"Pride_","steam_id":76561198046446797,"connected_time":1300000000000,"state":"active","ping":65},{"user_id":693,"name":"SketchMeister","steam_id":76561198042362032,"connected_time":3439000000000,"state":"active","ping":57},{"user_id":725,"name":"NotBunsBee","steam_id":76561198144853552,"connected_time":1082000000000,"state":"active","ping":87},{"user_id":743,"name":"Borro","steam_id":76561198331225476,"connected_time":462000000000,"state":"active","ping":74},{"user_id":680,"name":"Uncle Majic the Hip Hop Magicia","steam_id":76561198107924303,"connected_time":4074000000000,"state":"active","ping":66},{"user_id":739,"name":"DeckofDragons","steam_id":76561198057398213,"connected_time":533000000000,"state":"active","ping":67},{"user_id":738,"name":"Bill","steam_id":76561198075391501,"connected_time":585000000000,"state":"active","ping":59},{"user_id":713,"name":"Frank HardWood","steam_id":76561198109364911,"connected_time":2011000000000,"state":"active","ping":84},{"user_id":722,"name":"Paul Badman","steam_id":76561198965289206,"connected_time":1575000000000,"state":"active","ping":123},{"user_id":708,"name":"J3SUS","steam_id":76561198368965383,"connected_time":2215000000000,"state":"active","ping":61},{"user_id":710,"name":"let me cook","steam_id":76561198152818418,"connected_time":2081000000000,"state":"active","ping":80},{"user_id":740,"name":"anthony,","steam_id":76561198095912644,"connected_time":532000000000,"state":"active","ping":55},{"user_id":706,"name":"Tingus Pingus","steam_id":76561198155412348,"connected_time":2329000000000,"state":"active","ping":50},{"user_id":744,"name":"Sovulous","steam_id":76561198045389233,"connected_time":254000000000,"state":"active","ping":59},{"user_id":733,"name":"derdds","steam_id":76561198034339940,"connected_time":705000000000,"state":"active","ping":59},{"user_id":691,"name":"DAG","steam_id":76561198219508244,"connected_time":3466000000000,"state":"active","ping":73},{"user_id":741,"name":"Ghoulish Glizzy Gobbler","steam_id":76561198377285134,"connected_time":532000000000,"state":"active","ping":44},{"user_id":734,"name":"chris","steam_id":76561198056186750,"connected_time":703000000000,"state":"active","ping":48},{"user_id":742,"name":"Oxferd ùìíùìªùì∏ùîÄ","steam_id":76561198096916018,"connected_time":501000000000,"state":"active","ping":97},{"user_id":736,"name":"Freddy","steam_id":76561199246953081,"connected_time":677000000000,"state":"active","ping":163},{"user_id":721,"name":"Scorpsy","steam_id":76561198024477688,"connected_time":1649000000000,"state":"active","ping":70},{"user_id":723,"name":"Wug","steam_id":76561198084112264,"connected_time":1518000000000,"state":"active","ping":78},{"user_id":699,"name":"Reisen","steam_id":76561197968832019,"connected_time":3306000000000,"state":"active","ping":60}]},{"server_id":402,"name":"Uncletopia | Chicago | 3 | All Maps","name_short":"chi-3","host":"chi-1.us.uncletopia.com","port":27035,"enabled":true,"region":"us-central","cc":"us","latitude":41.881832,"longitude":-87.62318,"reserved":0,"last_update":"0001-01-01T00:00:00Z","name_a2s":"Uncletopia | Chicago | 3 | All Maps","protocol":17,"map":"pl_borneo","folder":"tf","game":"Team Fortress","app_id":440,"player_count":0,"max_players":24,"Bots":0,"server_type":"Dedicated","server_os":"Linux","password":true,"vac":true,"version":"7742253","steam_id":85568392924515191,"keywords":["nocrits","nodmgspread","payload","uncletopia"],"game_id":440,"stv_port":27036,"stv_name":"Uncletopia | Chicago | 3 | All Maps | STV","players":null},{"server_id":403,"name":"Uncletopia | Chicago | 4 | All Maps","name_short":"chi-4","host":"chi-1.us.uncletopia.com","port":27045,"enabled":true,"region":"us-central","cc":"us","latitude":41.881832,"longitude":-87.62318,"reserved":0,"last_update":"0001-01-01T00:00:00Z","name_a2s":"Uncletopia | Chicago | 4 | All Maps","protocol":17,"map":"koth_highpass","folder":"tf","game":"Team Fortress","app_id":440,"player_count":0,"max_players":24,"Bots":0,"server_type":"Dedicated","server_os":"Linux","password":true,"vac":true,"version":"7742253","steam_id":85568392924515193,"keywords":["cp","nocrits","nodmgspread","uncletopia"],"game_id":440,"stv_port":27046,"stv_name":"Uncletopia | Chicago | 4 | All Maps | STV","players":null},{"server_id":36,"name":"Uncletopia | Chicago | 5 | All Maps","name_short":"chi-5","host":"chi-2.us.uncletopia.com","port":27015,"enabled":true,"region":"us-central","cc":"us","latitude":41.881832,"longitude":-87.62318,"reserved":0,"last_update":"0001-01-01T00:00:00Z","name_a2s":"Uncletopia | Chicago | 5 | All Maps","protocol":17,"map":"pl_pier","folder":"tf","game":"Team Fortress","app_id":440,"player_count":11,"max_players":24,"Bots":0,"server_type":"Dedicated","server_os":"Linux","password":true,"vac":true,"version":"7742253","steam_id":85568392924866362,"keywords":["nocrits","nodmgspread","payload","uncletopia"],"game_id":440,"stv_port":27016,"stv_name":"Uncletopia | Chicago | 5 | All Maps | STV","players":[{"user_id":655,"name":"Shortround","steam_id":76561197999943914,"connected_time":158000000000,"state":"active","ping":88},{"user_id":658,"name":"ÂÖπÊõºÊ∑∑Ëõã","steam_id":76561199030351024,"connected_time":31000000000,"state":"spawning","ping":142},{"user_id":653,"name":"Room","steam_id":76561199174579733,"connected_time":308000000000,"state":"active","ping":61},{"user_id":623,"name":"Fluffeline","steam_id":76561198352909489,"connected_time":3444000000000,"state":"active","ping":146},{"user_id":651,"name":"Swamp Trash Clause Sr Jr Jr IV","steam_id":76561198152532873,"connected_time":631000000000,"state":"active","ping":55},{"user_id":637,"name":"Katƒ±r","steam_id":76561199466420909,"connected_time":1682000000000,"state":"active","ping":181},{"user_id":621,"name":"YOU","steam_id":76561198068538473,"connected_time":3525000000000,"state":"active","ping":71},{"user_id":640,"name":"fvmilivr","steam_id":76561198094637461,"connected_time":1490000000000,"state":"active","ping":52},{"user_id":630,"name":"Queen Frau the Round","steam_id":76561197999942134,"connected_time":2771000000000,"state":"active","ping":45},{"user_id":650,"name":"Elias","steam_id":76561198106431732,"connected_time":1017000000000,"state":"active","ping":75},{"user_id":626,"name":"Nobody","steam_id":76561198286486517,"connected_time":3236000000000,"state":"active","ping":60}]},{"server_id":37,"name":"Uncletopia | Chicago | 6 | All Maps","name_short":"chi-6","host":"chi-2.us.uncletopia.com","port":27025,"enabled":true,"region":"us-central","cc":"us","latitude":41.881832,"longitude":-87.62318,"reserved":0,"last_update":"0001-01-01T00:00:00Z","name_a2s":"Uncletopia | Chicago | 6 | All Maps","protocol":17,"map":"pl_snowycoast","folder":"tf","game":"Team Fortress","app_id":440,"player_count":2,"max_players":24,"Bots":0,"server_type":"Dedicated","server_os":"Linux","password":true,"vac":true,"version":"7742253","steam_id":85568392924866363,"keywords":["nocrits","nodmgspread","payload","uncletopia"],"game_id":440,"stv_port":27026,"stv_name":"Uncletopia | Chicago | 6 | All Maps | STV","players":[{"user_id":258,"name":"fabilu","steam_id":76561199146319480,"connected_time":724000000000,"state":"active","ping":122},{"user_id":250,"name":"Dang","steam_id":76561198288874083,"connected_time":1953000000000,"state":"active","ping":105}]},{"server_id":38,"name":"Uncletopia | Chicago | 7 | Stopwatch Beta","name_short":"chi-7","host":"chi-2.us.uncletopia.com","port":27035,"enabled":true,"region":"us-central","cc":"us","latitude":41.881832,"longitude":-87.62318,"reserved":0,"last_update":"0001-01-01T00:00:00Z","name_a2s":"Uncletopia | Chicago | 7 | Stopwatch Beta","protocol":17,"map":"workshop/koth_bagel_rc5.ugc2514036946","folder":"tf","game":"Team Fortress","app_id":440,"player_count":0,"max_players":24,"Bots":0,"server_type":"Dedicated","server_os":"Linux","password":true,"vac":true,"version":"7742253","steam_id":85568392924866364,"keywords":["cp","nocrits","nodmgspread","uncletopia"],"game_id":440,"stv_port":27036,"stv_name":"Uncletopia | Chicago | 7 | Stopwatch Beta | STV","players":null},{"server_id":39,"name":"Uncletopia | Chicago | 8 | Community","name_short":"chi-8","host":"chi-2.us.uncletopia.com","port":27045,"enabled":true,"region":"us-central","cc":"us","latitude":41.881832,"longitude":-87.62318,"reserved":0,"last_update":"0001-01-01T00:00:00Z","name_a2s":"Uncletopia | Chicago | 8 | Community","protocol":17,"map":"workshop/cp_villa_b19.ugc2113052569","folder":"tf","game":"Team Fortress","app_id":440,"player_count":0,"max_players":24,"Bots":0,"server_type":"Dedicated","server_os":"Linux","password":true,"vac":true,"version":"7742253","steam_id":85568392924866365,"keywords":["cp","nocrits","nodmgspread","uncletopia"],"game_id":440,"stv_port":27046,"stv_name":"Uncletopia | Chicago | 8 | Community | STV","players":null},{"server_id":8,"name":"Uncletopia | Dallas | 1 | All Maps","name_short":"dal-1","host":"dal-1.us.uncletopia.com","port":27015,"enabled":true,"region":"us-central","cc":"us","latitude":32.779167,"longitude":-96.80889,"reserved":0,"last_update":"0001-01-01T00:00:00Z","name_a2s":"Uncletopia | Dallas | 1 | All Maps","protocol":17,"map":"pl_snowycoast","folder":"tf","game":"Team Fortress","app_id":440,"player_count":0,"max_players":24,"Bots":0,"server_type":"Dedicated","server_os":"Linux","password":true,"vac":true,"version":"7742253","steam_id":85568392924469986,"keywords":["nocrits","nodmgspread","payload","uncletopia"],"game_id":440,"stv_port":27016,"stv_name":"Uncletopia | Dallas | 1 | All Maps | STV","players":null},{"server_id":108,"name":"Uncletopia | Dallas | 2 | All Maps","name_short":"dal-2","host":"dal-1.us.uncletopia.com","port":27025,"enabled":true,"region":"us-central","cc":"us","latitude":32.779167,"longitude":-96.80889,"reserved":0,"last_update":"0001-01-01T00:00:00Z","name_a2s":"Uncletopia | Dallas | 2 | All Maps","protocol":17,"map":"pl_swiftwater_final1","folder":"tf","game":"Team Fortress","app_id":440,"player_count":7,"max_players":24,"Bots":0,"server_type":"Dedicated","server_os":"Linux","password":true,"vac":true,"version":"7742253","steam_id":85568392924469988,"keywords":["nocrits","nodmgspread","payload","uncletopia"],"game_id":440,"stv_port":27026,"stv_name":"Uncletopia | Dallas | 2 | All Maps | STV","players":[{"user_id":558,"name":"ihave80hp","steam_id":76561199251621911,"connected_time":9562000000000,"state":"active","ping":67},{"user_id":673,"name":"[RG]Bacon","steam_id":76561198017654944,"connected_time":976000000000,"state":"active","ping":76},{"user_id":682,"name":"radicalPolio","steam_id":76561197961561855,"connected_time":178000000000,"state":"active","ping":41},{"user_id":678,"name":"epic fail","steam_id":76561198090531755,"connected_time":347000000000,"state":"active","ping":45},{"user_id":676,"name":"Kraftlos","steam_id":76561198074350350,"connected_time":650000000000,"state":"active","ping":90},{"user_id":654,"name":"scruffer","steam_id":76561198044095460,"connected_time":1870000000000,"state":"active","ping":47},{"user_id":668,"name":"Heavy Santa Guy","steam_id":76561198020214066,"connected_time":1121000000000,"state":"active","ping":65}]},{"server_id":5,"name":"Uncletopia | Frankfurt | 1 | All Maps","name_short":"frk-1","host":"frk-1.de.uncletopia.com","port":27015,"enabled":true,"region":"eu","cc":"de","latitude":50.110924,"longitude":8.682127,"reserved":0,"last_update":"0001-01-01T00:00:00Z","name_a2s":"Uncletopia | Frankfurt | 1 | All Maps","protocol":17,"map":"pl_borneo","folder":"tf","game":"Team Fortress","app_id":440,"player_count":0,"max_players":24,"Bots":0,"server_type":"Dedicated","server_os":"Linux","password":true,"vac":true,"version":"7742253","steam_id":85568392924469989,"keywords":["nocrits","nodmgspread","payload","uncletopia"],"game_id":440,"stv_port":27016,"stv_name":"Uncletopia | Frankfurt | 1 | All Maps | STV","players":null},{"server_id":110,"name":"Uncletopia | Frankfurt | 2 | All Maps","name_short":"frk-2","host":"frk-1.de.uncletopia.com","port":27025,"enabled":true,"region":"eu","cc":"de","latitude":50.110924,"longitude":8.682127,"reserved":0,"last_update":"0001-01-01T00:00:00Z","name_a2s":"Uncletopia | Frankfurt | 2 | All Maps","protocol":17,"map":"pl_swiftwater_final1","folder":"tf","game":"Team Fortress","app_id":440,"player_count":0,"max_players":24,"Bots":0,"server_type":"Dedicated","server_os":"Linux","password":true,"vac":true,"version":"7742253","steam_id":85568392924469990,"keywords":["nocrits","nodmgspread","payload","uncletopia"],"game_id":440,"stv_port":27026,"stv_name":"Uncletopia | Frankfurt | 2 | All Maps | STV","players":null},{"server_id":308,"name":"Uncletopia | Frankfurt | 3 | All Maps","name_short":"frk-3","host":"frk-1.de.uncletopia.com","port":27035,"enabled":true,"region":"eu","cc":"de","latitude":50.110924,"longitude":8.682127,"reserved":0,"last_update":"0001-01-01T00:00:00Z","name_a2s":"Uncletopia | Frankfurt | 3 | All Maps","protocol":17,"map":"cp_sunshine","folder":"tf","game":"Team Fortress","app_id":440,"player_count":0,"max_players":24,"Bots":0,"server_type":"Dedicated","server_os":"Linux","password":true,"vac":true,"version":"7742253","steam_id":85568392924504274,"keywords":["cp","nocrits","nodmgspread","uncletopia"],"game_id":440,"stv_port":27036,"stv_name":"Uncletopia | Frankfurt | 3 | All Maps | STV","players":null},{"server_id":309,"name":"Uncletopia | Frankfurt | 4 | All Maps","name_short":"frk-4","host":"frk-1.de.uncletopia.com","port":27045,"enabled":true,"region":"eu","cc":"de","latitude":50.110924,"longitude":8.682127,"reserved":0,"last_update":"0001-01-01T00:00:00Z","name_a2s":"Uncletopia | Frankfurt | 4 | All Maps","protocol":17,"map":"pl_snowycoast","folder":"tf","game":"Team Fortress","app_id":440,"player_count":0,"max_players":24,"Bots":0,"server_type":"Dedicated","server_os":"Linux","password":true,"vac":true,"version":"7742253","steam_id":85568392924504275,"keywords":["nocrits","nodmgspread","payload","uncletopia"],"game_id":440,"stv_port":27046,"stv_name":"Uncletopia | Frankfurt | 4 | All Maps | STV","players":null},{"server_id":310,"name":"Uncletopia | Frankfurt | 5 | All Maps","name_short":"frk-5","host":"frk-1.de.uncletopia.com","port":27055,"enabled":true,"region":"eu","cc":"de","latitude":50.110924,"longitude":8.682127,"reserved":0,"last_update":"0001-01-01T00:00:00Z","name_a2s":"Uncletopia | Frankfurt | 5 | All Maps","protocol":17,"map":"cp_snakewater_final1","folder":"tf","game":"Team Fortress","app_id":440,"player_count":0,"max_players":24,"Bots":0,"server_type":"Dedicated","server_os":"Linux","password":true,"vac":true,"version":"7742253","steam_id":85568392924504277,"keywords":["cp","nocrits","nodmgspread","uncletopia"],"game_id":440,"stv_port":27056,"stv_name":"Uncletopia | Frankfurt | 5 | All Maps | STV","players":null},{"server_id":311,"name":"Uncletopia | Frankfurt | 6 | All Maps","name_short":"frk-6","host":"frk-1.de.uncletopia.com","port":27065,"enabled":true,"region":"eu","cc":"de","latitude":50.110924,"longitude":8.682127,"reserved":0,"last_update":"0001-01-01T00:00:00Z","name_a2s":"Uncletopia | Frankfurt | 6 | All Maps","protocol":17,"map":"koth_lakeside_final","folder":"tf","game":"Team Fortress","app_id":440,"player_count":0,"max_players":24,"Bots":0,"server_type":"Dedicated","server_os":"Linux","password":true,"vac":true,"version":"7742253","steam_id":85568392924504278,"keywords":["cp","nocrits","nodmgspread","uncletopia"],"game_id":440,"stv_port":27066,"stv_name":"Uncletopia | Frankfurt | 6 | All Maps | STV","players":null},{"server_id":23,"name":"Uncletopia | Frankfurt | 7 | Stopwatch Beta","name_short":"frk-7","host":"frk-1.de.uncletopia.com","port":27075,"enabled":true,"region":"eu","cc":"de","latitude":50.110924,"longitude":8.682127,"reserved":0,"last_update":"0001-01-01T00:00:00Z","name_a2s":"Uncletopia | Frankfurt | 7 | Stopwatch Beta","protocol":17,"map":"pl_badwater","folder":"tf","game":"Team Fortress","app_id":440,"player_count":0,"max_players":24,"Bots":0,"server_type":"Dedicated","server_os":"Linux","password":true,"vac":true,"version":"7742253","steam_id":85568392924742827,"keywords":["nocrits","nodmgspread","payload","uncletopia"],"game_id":440,"stv_port":27076,"stv_name":"Uncletopia | Frankfurt | 7 | Stopwatch Beta | STV","players":null},{"server_id":24,"name":"Uncletopia | Frankfurt | 8 | Community","name_short":"frk-8","host":"frk-1.de.uncletopia.com","port":27085,"enabled":true,"region":"eu","cc":"de","latitude":50.110924,"longitude":8.682127,"reserved":0,"last_update":"0001-01-01T00:00:00Z","name_a2s":"Uncletopia | Frankfurt | 8 | Community","protocol":17,"map":"koth_cascade","folder":"tf","game":"Team Fortress","app_id":440,"player_count":0,"max_players":24,"Bots":0,"server_type":"Dedicated","server_os":"Linux","password":true,"vac":true,"version":"7742253","steam_id":85568392924742828,"keywords":["cp","nocrits","nodmgspread","uncletopia"],"game_id":440,"stv_port":27086,"stv_name":"Uncletopia | Frankfurt | 8 | Community | STV","players":null},{"server_id":202,"name":"Uncletopia | Hong Kong | 1 | All Maps","name_short":"hgk-1","host":"hgk-1.hk.uncletopia.com","port":27015,"enabled":true,"region":"asia","cc":"hk","latitude":22.302711,"longitude":114.177216,"reserved":0,"last_update":"0001-01-01T00:00:00Z","name_a2s":"Uncletopia | Hong Kong | 1 | All Maps","protocol":17,"map":"pl_hoodoo_final","folder":"tf","game":"Team Fortress","app_id":440,"player_count":24,"max_players":24,"Bots":0,"server_type":"Dedicated","server_os":"Linux","password":true,"vac":true,"version":"7742253","steam_id":85568392924494504,"keywords":["nocrits","nodmgspread","payload","uncletopia"],"game_id":440,"stv_port":27016,"stv_name":"Uncletopia | Hong Kong | 1 | All Maps | STV","players":[{"user_id":163,"name":"RedBee (Femboy Nurse Èõô)","steam_id":76561198976736971,"connected_time":10832000000000,"state":"active","ping":44},{"user_id":258,"name":"duck1e","steam_id":76561198422098581,"connected_time":728000000000,"state":"active","ping":78},{"user_id":249,"name":"‚úßBaKa BAzooKA‚úß(‚óï‚ñø‚óï )","steam_id":76561198061628689,"connected_time":1565000000000,"state":"active","ping":51},{"user_id":244,"name":"Ratboi7Street","steam_id":76561199222913157,"connected_time":2070000000000,"state":"active","ping":64},{"user_id":252,"name":"r/leroy","steam_id":76561199137927625,"connected_time":1018000000000,"state":"active","ping":154},{"user_id":226,"name":"can we get much higher","steam_id":76561199390507975,"connected_time":3744000000000,"state":"active","ping":48},{"user_id":247,"name":"ÌïòÏΩòÏù¥","steam_id":76561198064205575,"connected_time":1862000000000,"state":"active","ping":83},{"user_id":250,"name":"bocchi the oppai","steam_id":76561198008307645,"connected_time":1369000000000,"state":"active","ping":122},{"user_id":208,"name":"Talkk More","steam_id":76561198305424433,"connected_time":5457000000000,"state":"active","ping":100},{"user_id":138,"name":"P","steam_id":76561198304514505,"connected_time":14706000000000,"state":"active","ping":73},{"user_id":211,"name":"LimitsUP_","steam_id":76561199104828789,"connected_time":4743000000000,"state":"active","ping":103},{"user_id":263,"name":"AmaiToxic","steam_id":76561199122491157,"connected_time":103000000000,"state":"active","ping":121},{"user_id":227,"name":"dxcls","steam_id":76561198240627872,"connected_time":3737000000000,"state":"active","ping":51},{"user_id":215,"name":"p1st0n","steam_id":76561198992723983,"connected_time":4710000000000,"state":"active","ping":93},{"user_id":224,"name":"Male Detected!","steam_id":76561199082459598,"connected_time":3942000000000,"state":"active","ping":108},{"user_id":230,"name":"qb","steam_id":76561198412329672,"connected_time":3495000000000,"state":"active","ping":90},{"user_id":251,"name":"Skullman (can't speak in casual","steam_id":76561199143660601,"connected_time":1054000000000,"state":"active","ping":74},{"user_id":234,"name":"o2","steam_id":76561199262570913,"connected_time":3119000000000,"state":"active","ping":130},{"user_id":253,"name":"uptriste","steam_id":76561198158666692,"connected_time":982000000000,"state":"active","ping":46},{"user_id":254,"name":"Doormann","steam_id":76561199219230108,"connected_time":966000000000,"state":"active","ping":151},{"user_id":256,"name":"Sankyoma","steam_id":76561198154470283,"connected_time":939000000000,"state":"active","ping":88},{"user_id":257,"name":"bad at everything(f2p)","steam_id":76561199378524169,"connected_time":935000000000,"state":"active","ping":125},{"user_id":237,"name":"Waltuh (CEO of Chicanery)","steam_id":76561199257300024,"connected_time":2670000000000,"state":"active","ping":81},{"user_id":261,"name":"Dr. Piss Rat","steam_id":76561199074809838,"connected_time":208000000000,"state":"active","ping":75}]},{"server_id":1,"name":"Uncletopia | Los Angeles | 1 | All Maps","name_short":"lax-1","host":"lax-1.us.uncletopia.com","port":27015,"enabled":true,"region":"us-west","cc":"us","latitude":33.94279,"longitude":-118.41004,"reserved":0,"last_update":"0001-01-01T00:00:00Z","name_a2s":"Uncletopia | Los Angeles | 1 | All Maps","protocol":17,"map":"pl_pier","folder":"tf","game":"Team Fortress","app_id":440,"player_count":24,"max_players":24,"Bots":0,"server_type":"Dedicated","server_os":"Linux","password":true,"vac":true,"version":"7742253","steam_id":85568392924469991,"keywords":["nocrits","nodmgspread","payload","uncletopia"],"game_id":440,"stv_port":27016,"stv_name":"Uncletopia | Los Angeles | 1 | All Maps | STV","players":[{"user_id":337,"name":"Huh?","steam_id":76561198119768703,"connected_time":5360000000000,"state":"active","ping":102},{"user_id":349,"name":"NFL.com","steam_id":76561198113405376,"connected_time":3316000000000,"state":"active","ping":45},{"user_id":379,"name":"en.wikipedia.org/wiki/Nae_Nae","steam_id":76561198418288939,"connected_time":795000000000,"state":"active","ping":54},{"user_id":336,"name":"Pananananananananananananananan","steam_id":76561198018608667,"connected_time":5379000000000,"state":"active","ping":110},{"user_id":375,"name":"the cow from 2fort","steam_id":76561198435910422,"connected_time":1090000000000,"state":"active","ping":96},{"user_id":355,"name":"Cultofthelamblover9668","steam_id":76561198151826836,"connected_time":2961000000000,"state":"active","ping":54},{"user_id":326,"name":"Pog","steam_id":76561198957479336,"connected_time":5954000000000,"state":"active","ping":94},{"user_id":383,"name":"nell","steam_id":76561198136225723,"connected_time":448000000000,"state":"active","ping":77},{"user_id":373,"name":"guappodiablo2","steam_id":76561198132087785,"connected_time":1175000000000,"state":"active","ping":75},{"user_id":384,"name":"Brass beast heavy","steam_id":76561198274197623,"connected_time":418000000000,"state":"active","ping":187},{"user_id":380,"name":"TexNG","steam_id":76561197976341487,"connected_time":786000000000,"state":"active","ping":77},{"user_id":371,"name":"fulices","steam_id":76561198420163702,"connected_time":1847000000000,"state":"active","ping":34},{"user_id":378,"name":"sweaterfan","steam_id":76561199389567214,"connected_time":962000000000,"state":"active","ping":92},{"user_id":372,"name":"grandson","steam_id":76561198304759065,"connected_time":1423000000000,"state":"active","ping":80},{"user_id":328,"name":"Joker's Skull","steam_id":76561199185320627,"connected_time":5838000000000,"state":"active","ping":105},{"user_id":351,"name":"juice","steam_id":76561198161076003,"connected_time":3250000000000,"state":"active","ping":108},{"user_id":385,"name":"Dubbie","steam_id":76561199067557726,"connected_time":295000000000,"state":"active","ping":41},{"user_id":352,"name":"shoes","steam_id":76561198044104086,"connected_time":3236000000000,"state":"active","ping":49},{"user_id":365,"name":"0xFUL","steam_id":76561198081684676,"connected_time":2165000000000,"state":"active","ping":92},{"user_id":386,"name":"‚ô• Mox Amber ‚ô•","steam_id":76561198036966467,"connected_time":86000000000,"state":"active","ping":97},{"user_id":376,"name":"nnobi","steam_id":76561198878729277,"connected_time":1064000000000,"state":"active","ping":107},{"user_id":381,"name":"SparklePawz ‚ô•","steam_id":76561198093703065,"connected_time":546000000000,"state":"active","ping":177},{"user_id":325,"name":"Doctor X (Michiko Daemon)","steam_id":76561199106264424,"connected_time":6066000000000,"state":"active","ping":109},{"user_id":354,"name":"Rodiisss","steam_id":76561198931321068,"connected_time":3019000000000,"state":"active","ping":62}]},{"server_id":112,"name":"Uncletopia | Los Angeles | 2 | All Maps","name_short":"lax-2","host":"lax-1.us.uncletopia.com","port":27025,"enabled":true,"region":"us-west","cc":"us","latitude":33.94279,"longitude":-118.41004,"reserved":0,"last_update":"0001-01-01T00:00:00Z","name_a2s":"Uncletopia | Los Angeles | 2 | All Maps","protocol":17,"map":"koth_lakeside_final","folder":"tf","game":"Team Fortress","app_id":440,"player_count":0,"max_players":24,"Bots":0,"server_type":"Dedicated","server_os":"Linux","password":true,"vac":true,"version":"7742253","steam_id":85568392924469992,"keywords":["cp","nocrits","nodmgspread","uncletopia"],"game_id":440,"stv_port":27026,"stv_name":"Uncletopia | Los Angeles | 2 | All Maps | STV","players":null},{"server_id":324,"name":"Uncletopia | Los Angeles | 3 | All Maps","name_short":"lax-3","host":"lax-1.us.uncletopia.com","port":27035,"enabled":true,"region":"us-west","cc":"us","latitude":33.94279,"longitude":-118.41004,"reserved":0,"last_update":"0001-01-01T00:00:00Z","name_a2s":"Uncletopia | Los Angeles | 3 | All Maps","protocol":17,"map":"pl_snowycoast","folder":"tf","game":"Team Fortress","app_id":440,"player_count":0,"max_players":24,"Bots":0,"server_type":"Dedicated","server_os":"Linux","password":true,"vac":true,"version":"7742253","steam_id":85568392924510198,"keywords":["nocrits","nodmgspread","payload","uncletopia"],"game_id":440,"stv_port":27036,"stv_name":"Uncletopia | Los Angeles | 3 | All Maps | STV","players":null},{"server_id":25,"name":"Uncletopia | Los Angeles | 4 | Stopwatch Beta","name_short":"lax-4","host":"lax-1.us.uncletopia.com","port":27045,"enabled":true,"region":"us-west","cc":"us","latitude":33.94279,"longitude":-118.41004,"reserved":0,"last_update":"0001-01-01T00:00:00Z","name_a2s":"Uncletopia | Los Angeles | 4 | Stopwatch Beta","protocol":17,"map":"koth_highpass","folder":"tf","game":"Team Fortress","app_id":440,"player_count":0,"max_players":24,"Bots":0,"server_type":"Dedicated","server_os":"Linux","password":true,"vac":true,"version":"7742253","steam_id":85568392924510199,"keywords":["cp","nocrits","nodmgspread","uncletopia"],"game_id":440,"stv_port":27046,"stv_name":"Uncletopia | Los Angeles | 4 | Stopwatch Beta | STV","players":null},{"server_id":11,"name":"Uncletopia | London | 1 | All Maps","name_short":"lon-1","host":"lon-1.uk.uncletopia.com","port":27015,"enabled":true,"region":"eu","cc":"gb","latitude":51.509865,"longitude":-0.118092,"reserved":0,"last_update":"0001-01-01T00:00:00Z","name_a2s":"Uncletopia | London | 1 | All Maps","protocol":17,"map":"pl_upward","folder":"tf","game":"Team Fortress","app_id":440,"player_count":24,"max_players":24,"Bots":0,"server_type":"Dedicated","server_os":"Linux","password":true,"vac":true,"version":"7742253","steam_id":85568392924367362,"keywords":["nocrits","nodmgspread","payload","uncletopia"],"game_id":440,"stv_port":27016,"stv_name":"Uncletopia | London | 1 | All Maps | STV","players":[{"user_id":77,"name":"Chrikin","steam_id":76561198416301532,"connected_time":1215000000000,"state":"active","ping":115},{"user_id":83,"name":"Pi","steam_id":76561198009561851,"connected_time":904000000000,"state":"active","ping":45},{"user_id":86,"name":"zoro","steam_id":76561198083657017,"connected_time":783000000000,"state":"active","ping":89},{"user_id":30,"name":"‚í∂","steam_id":76561198417999443,"connected_time":3942000000000,"state":"active","ping":105},{"user_id":52,"name":"Kanye South","steam_id":76561199221958255,"connected_time":2815000000000,"state":"active","ping":111},{"user_id":91,"name":"Shlongulator","steam_id":76561198149779201,"connected_time":25000000000,"state":"active","ping":50},{"user_id":55,"name":"Yassine","steam_id":76561198140565712,"connected_time":2702000000000,"state":"active","ping":47},{"user_id":71,"name":"murderwow","steam_id":76561198024566944,"connected_time":1673000000000,"state":"active","ping":111},{"user_id":79,"name":"k","steam_id":76561198818452217,"connected_time":1210000000000,"state":"active","ping":66},{"user_id":74,"name":"MarioThePlumber","steam_id":76561198314229530,"connected_time":1487000000000,"state":"active","ping":80},{"user_id":72,"name":"scruffy","steam_id":76561198173185541,"connected_time":1671000000000,"state":"active","ping":148},{"user_id":35,"name":"GStudio","steam_id":76561199181882744,"connected_time":3597000000000,"state":"active","ping":139},{"user_id":81,"name":"knyazF","steam_id":76561198163278585,"connected_time":936000000000,"state":"active","ping":75},{"user_id":89,"name":"Spam „Ç¥ „Ç¥","steam_id":76561198038118301,"connected_time":64000000000,"state":"active","ping":85},{"user_id":76,"name":"R8N - Obismal","steam_id":76561198007482714,"connected_time":1224000000000,"state":"active","ping":73},{"user_id":40,"name":"dank pank","steam_id":76561198995052713,"connected_time":3427000000000,"state":"active","ping":62},{"user_id":59,"name":"333res","steam_id":76561198148106704,"connected_time":2533000000000,"state":"active","ping":86},{"user_id":85,"name":"confused","steam_id":76561198216200092,"connected_time":796000000000,"state":"active","ping":45},{"user_id":84,"name":"I Love Coffee","steam_id":76561199028651017,"connected_time":841000000000,"state":"active","ping":53},{"user_id":48,"name":"drew","steam_id":76561198012304706,"connected_time":3236000000000,"state":"active","ping":106},{"user_id":88,"name":"Tank","steam_id":76561199059174576,"connected_time":555000000000,"state":"active","ping":173},{"user_id":62,"name":"Groose","steam_id":76561198261094295,"connected_time":2322000000000,"state":"active","ping":69},{"user_id":67,"name":"(())","steam_id":76561198103299625,"connected_time":1931000000000,"state":"active","ping":42},{"user_id":70,"name":"Vasya_OfficialBOI","steam_id":76561199434790650,"connected_time":1753000000000,"state":"active","ping":167}]},{"server_id":114,"name":"Uncletopia | London | 2 | All Maps","name_short":"lon-2","host":"lon-1.uk.uncletopia.com","port":27025,"enabled":true,"region":"eu","cc":"gb","latitude":51.509865,"longitude":-0.118092,"reserved":0,"last_update":"0001-01-01T00:00:00Z","name_a2s":"Uncletopia | London | 2 | All Maps","protocol":17,"map":"pl_swiftwater_final1","folder":"tf","game":"Team Fortress","app_id":440,"player_count":0,"max_players":24,"Bots":0,"server_type":"Dedicated","server_os":"Linux","password":true,"vac":true,"version":"7742253","steam_id":85568392924470941,"keywords":["nocrits","nodmgspread","payload","uncletopia"],"game_id":440,"stv_port":27026,"stv_name":"Uncletopia | London | 2 | All Maps | STV","players":null},{"server_id":320,"name":"Uncletopia | London | 3 | All Maps","name_short":"lon-3","host":"lon-1.uk.uncletopia.com","port":27035,"enabled":true,"region":"eu","cc":"gb","latitude":51.509865,"longitude":-0.118092,"reserved":0,"last_update":"0001-01-01T00:00:00Z","name_a2s":"Uncletopia | London | 3 | All Maps","protocol":17,"map":"pl_upward","folder":"tf","game":"Team Fortress","app_id":440,"player_count":0,"max_players":24,"Bots":0,"server_type":"Dedicated","server_os":"Linux","password":true,"vac":true,"version":"7742253","steam_id":85568392924510192,"keywords":["nocrits","nodmgspread","payload","uncletopia"],"game_id":440,"stv_port":27036,"stv_name":"Uncletopia | London | 3 | All Maps | STV","players":null},{"server_id":321,"name":"Uncletopia | London | 4 | All Maps","name_short":"lon-4","host":"lon-1.uk.uncletopia.com","port":27045,"enabled":true,"region":"eu","cc":"gb","latitude":51.509865,"longitude":-0.118092,"reserved":0,"last_update":"0001-01-01T00:00:00Z","name_a2s":"Uncletopia | London | 4 | All Maps","protocol":17,"map":"koth_highpass","folder":"tf","game":"Team Fortress","app_id":440,"player_count":0,"max_players":24,"Bots":0,"server_type":"Dedicated","server_os":"Linux","password":true,"vac":true,"version":"7742253","steam_id":85568392924510193,"keywords":["cp","nocrits","nodmgspread","uncletopia"],"game_id":440,"stv_port":27046,"stv_name":"Uncletopia | London | 4 | All Maps | STV","players":null},{"server_id":21,"name":"Uncletopia | London | 5 | All Maps","name_short":"lon-5","host":"lon-1.uk.uncletopia.com","port":27055,"enabled":true,"region":"eu","cc":"gb","latitude":51.509865,"longitude":-0.118092,"reserved":0,"last_update":"0001-01-01T00:00:00Z","name_a2s":"Uncletopia | London | 5 | All Maps","protocol":17,"map":"pl_frontier_final","folder":"tf","game":"Team Fortress","app_id":440,"player_count":0,"max_players":24,"Bots":0,"server_type":"Dedicated","server_os":"Linux","password":true,"vac":true,"version":"7742253","steam_id":85568392924742829,"keywords":["nocrits","nodmgspread","payload","uncletopia"],"game_id":440,"stv_port":27056,"stv_name":"Uncletopia | London | 5 | All Maps | STV","players":null},{"server_id":22,"name":"Uncletopia | London | 6 | All Maps","name_short":"lon-6","host":"lon-1.uk.uncletopia.com","port":27065,"enabled":true,"region":"eu","cc":"gb","latitude":51.509865,"longitude":-0.118092,"reserved":0,"last_update":"0001-01-01T00:00:00Z","name_a2s":"Uncletopia | London | 6 | All Maps","protocol":17,"map":"pl_borneo","folder":"tf","game":"Team Fortress","app_id":440,"player_count":0,"max_players":24,"Bots":0,"server_type":"Dedicated","server_os":"Linux","password":true,"vac":true,"version":"7742253","steam_id":85568392924742830,"keywords":["nocrits","nodmgspread","payload","uncletopia"],"game_id":440,"stv_port":27066,"stv_name":"Uncletopia | London | 6 | All Maps | STV","players":null},{"server_id":40,"name":"Uncletopia | London | 7 | No Payload","name_short":"lon-7","host":"lon-1.uk.uncletopia.com","port":27075,"enabled":true,"region":"eu","cc":"gb","latitude":51.509865,"longitude":-0.118092,"reserved":0,"last_update":"0001-01-01T00:00:00Z","name_a2s":"Uncletopia | London | 7 | No Payload","protocol":17,"map":"koth_viaduct","folder":"tf","game":"Team Fortress","app_id":440,"player_count":0,"max_players":24,"Bots":0,"server_type":"Dedicated","server_os":"Linux","password":true,"vac":true,"version":"7742253","steam_id":85568392924964314,"keywords":["cp","nocrits","nodmgspread","uncletopia"],"game_id":440,"stv_port":27076,"stv_name":"Uncletopia | London | 7 | No Payload | STV","players":null},{"server_id":41,"name":"Uncletopia | London | 8 | Community","name_short":"lon-8","host":"lon-1.uk.uncletopia.com","port":27085,"enabled":true,"region":"eu","cc":"gb","latitude":51.509865,"longitude":-0.118092,"reserved":0,"last_update":"0001-01-01T00:00:00Z","name_a2s":"Uncletopia | London | 8 | Community","protocol":17,"map":"cp_altitude","folder":"tf","game":"Team Fortress","app_id":440,"player_count":0,"max_players":24,"Bots":0,"server_type":"Dedicated","server_os":"Linux","password":true,"vac":true,"version":"7742253","steam_id":85568392924964315,"keywords":["cp","nocrits","nodmgspread","uncletopia"],"game_id":440,"stv_port":27086,"stv_name":"Uncletopia | London | 8 | Community | STV","players":null},{"server_id":300,"name":"Uncletopia | Montr√©al | 1 | All Maps","name_short":"mtl-1","host":"mtl-1.ca.uncletopia.com","port":27015,"enabled":true,"region":"us-east","cc":"ca","latitude":45.50889,"longitude":-73.56167,"reserved":0,"last_update":"0001-01-01T00:00:00Z","name_a2s":"Uncletopia | Montr√©al | 1 | All Maps","protocol":17,"map":"pl_frontier_final","folder":"tf","game":"Team Fortress","app_id":440,"player_count":0,"max_players":24,"Bots":0,"server_type":"Dedicated","server_os":"Linux","password":true,"vac":true,"version":"7742253","steam_id":85568392924500087,"keywords":["nocrits","nodmgspread","payload","uncletopia"],"game_id":440,"stv_port":27016,"stv_name":"Uncletopia | Montr√©al | 1 | All Maps | STV","players":null},{"server_id":301,"name":"Uncletopia | Montr√©al | 2 | All Maps","name_short":"mtl-2","host":"mtl-1.ca.uncletopia.com","port":27025,"enabled":true,"region":"us-east","cc":"ca","latitude":45.50889,"longitude":-73.56167,"reserved":0,"last_update":"0001-01-01T00:00:00Z","name_a2s":"Uncletopia | Montr√©al | 2 | All Maps","protocol":17,"map":"koth_highpass","folder":"tf","game":"Team Fortress","app_id":440,"player_count":0,"max_players":24,"Bots":0,"server_type":"Dedicated","server_os":"Linux","password":true,"vac":true,"version":"7742253","steam_id":85568392924500088,"keywords":["cp","nocrits","nodmgspread","uncletopia"],"game_id":440,"stv_port":27026,"stv_name":"Uncletopia | Montr√©al | 2 | All Maps | STV","players":null},{"server_id":302,"name":"Uncletopia | Montr√©al | 3 | All Maps","name_short":"mtl-3","host":"mtl-1.ca.uncletopia.com","port":27035,"enabled":true,"region":"us-east","cc":"ca","latitude":45.50889,"longitude":-73.56167,"reserved":0,"last_update":"0001-01-01T00:00:00Z","name_a2s":"Uncletopia | Montr√©al | 3 | All Maps","protocol":17,"map":"pl_borneo","folder":"tf","game":"Team Fortress","app_id":440,"player_count":0,"max_players":24,"Bots":0,"server_type":"Dedicated","server_os":"Linux","password":true,"vac":true,"version":"7742253","steam_id":85568392924500089,"keywords":["nocrits","nodmgspread","payload","uncletopia"],"game_id":440,"stv_port":27036,"stv_name":"Uncletopia | Montr√©al | 3 | All Maps | STV","players":null},{"server_id":303,"name":"Uncletopia | Montr√©al | 4 | No Payload","name_short":"mtl-4","host":"mtl-1.ca.uncletopia.com","port":27045,"enabled":true,"region":"us-east","cc":"ca","latitude":45.50889,"longitude":-73.56167,"reserved":0,"last_update":"0001-01-01T00:00:00Z","name_a2s":"Uncletopia | Montr√©al | 4 | No Payload","protocol":17,"map":"plr_pipeline","folder":"tf","game":"Team Fortress","app_id":440,"player_count":0,"max_players":24,"Bots":0,"server_type":"Dedicated","server_os":"Linux","password":true,"vac":true,"version":"7742253","steam_id":85568392924500090,"keywords":["nocrits","nodmgspread","payload","uncletopia"],"game_id":440,"stv_port":27046,"stv_name":"Uncletopia | Montr√©al | 4 | No Payload | STV","players":null},{"server_id":13,"name":"Uncletopia | New York City | 1 | All Maps","name_short":"nyc-1","host":"nyc-1.us.uncletopia.com","port":27015,"enabled":true,"region":"us-east","cc":"us","latitude":40.73061,"longitude":-73.93524,"reserved":0,"last_update":"0001-01-01T00:00:00Z","name_a2s":"Uncletopia | New York City | 1 | All Maps","protocol":17,"map":"pl_upward","folder":"tf","game":"Team Fortress","app_id":440,"player_count":24,"max_players":24,"Bots":0,"server_type":"Dedicated","server_os":"Linux","password":true,"vac":true,"version":"7742253","steam_id":85568392924469993,"keywords":["nocrits","nodmgspread","payload","uncletopia"],"game_id":440,"stv_port":27016,"stv_name":"Uncletopia | New York City | 1 | All Maps | STV","players":[{"user_id":629,"name":"aversa","steam_id":76561198840460101,"connected_time":1867000000000,"state":"active","ping":49},{"user_id":628,"name":"TMP","steam_id":76561197995400066,"connected_time":2070000000000,"state":"active","ping":82},{"user_id":504,"name":"Tikiwiki","steam_id":76561198009777858,"connected_time":14812000000000,"state":"active","ping":116},{"user_id":632,"name":"WildEvieAppears","steam_id":76561198004001828,"connected_time":704000000000,"state":"active","ping":78},{"user_id":577,"name":"Idubidubly","steam_id":76561198041197909,"connected_time":10037000000000,"state":"active","ping":124},{"user_id":521,"name":"Peace Sentinel","steam_id":76561198015278107,"connected_time":13084000000000,"state":"active","ping":103},{"user_id":631,"name":"randomusername","steam_id":76561199078214700,"connected_time":774000000000,"state":"active","ping":68},{"user_id":511,"name":"Bread Cat","steam_id":76561197997483015,"connected_time":14285000000000,"state":"active","ping":109},{"user_id":517,"name":"Space","steam_id":76561197996747097,"connected_time":13440000000000,"state":"active","ping":44},{"user_id":544,"name":"The Guy","steam_id":76561198019917251,"connected_time":11910000000000,"state":"active","ping":105},{"user_id":588,"name":"Kytosai","steam_id":76561198026575351,"connected_time":8260000000000,"state":"active","ping":111},{"user_id":599,"name":"totsuya","steam_id":76561198040490423,"connected_time":7244000000000,"state":"active","ping":62},{"user_id":567,"name":"Bandaid J","steam_id":76561198025009151,"connected_time":11359000000000,"state":"active","ping":52},{"user_id":636,"name":"pigswill","steam_id":76561197999081865,"connected_time":287000000000,"state":"active","ping":66},{"user_id":630,"name":"i'll have what you're having","steam_id":76561198035337657,"connected_time":1816000000000,"state":"active","ping":44},{"user_id":637,"name":"Fishbones","steam_id":76561197981745188,"connected_time":269000000000,"state":"active","ping":113},{"user_id":638,"name":"viscodolante","steam_id":76561198013650292,"connected_time":241000000000,"state":"active","ping":105},{"user_id":620,"name":"Monster Manthing","steam_id":76561198124196490,"connected_time":3642000000000,"state":"active","ping":44},{"user_id":626,"name":"Balze","steam_id":76561197972919960,"connected_time":2144000000000,"state":"active","ping":108},{"user_id":617,"name":"QualityVan","steam_id":76561198005128134,"connected_time":4363000000000,"state":"active","ping":55},{"user_id":595,"name":"Jack Celliers","steam_id":76561198060983357,"connected_time":7843000000000,"state":"active","ping":92},{"user_id":597,"name":"Apple...","steam_id":76561198072746515,"connected_time":7376000000000,"state":"active","ping":58},{"user_id":593,"name":"cyn","steam_id":76561198024692821,"connected_time":8048000000000,"state":"active","ping":120},{"user_id":639,"name":"Adawnby","steam_id":76561198103057295,"connected_time":200000000000,"state":"active","ping":76}]},{"server_id":14,"name":"Uncletopia | New York City | 2 | All Maps","name_short":"nyc-2","host":"nyc-1.us.uncletopia.com","port":27025,"enabled":true,"region":"us-east","cc":"us","latitude":40.73061,"longitude":-73.93524,"reserved":0,"last_update":"0001-01-01T00:00:00Z","name_a2s":"Uncletopia | New York City | 2 | All Maps","protocol":17,"map":"pl_badwater","folder":"tf","game":"Team Fortress","app_id":440,"player_count":0,"max_players":24,"Bots":0,"server_type":"Dedicated","server_os":"Linux","password":true,"vac":true,"version":"7742253","steam_id":85568392924469994,"keywords":["nocrits","nodmgspread","payload","uncletopia"],"game_id":440,"stv_port":27026,"stv_name":"Uncletopia | New York City | 2 | All Maps | STV","players":null},{"server_id":15,"name":"Uncletopia | New York City | 3 | Stopwatch Beta","name_short":"nyc-3","host":"nyc-1.us.uncletopia.com","port":27035,"enabled":true,"region":"us-east","cc":"us","latitude":40.73061,"longitude":-73.93524,"reserved":0,"last_update":"0001-01-01T00:00:00Z","name_a2s":"Uncletopia | New York City | 3 | Stopwatch Beta","protocol":17,"map":"pl_pier","folder":"tf","game":"Team Fortress","app_id":440,"player_count":0,"max_players":24,"Bots":0,"server_type":"Dedicated","server_os":"Linux","password":true,"vac":true,"version":"7742253","steam_id":85568392924742820,"keywords":["nocrits","nodmgspread","payload","uncletopia"],"game_id":440,"stv_port":27036,"stv_name":"Uncletopia | New York City | 3 | Stopwatch Beta | STV","players":null},{"server_id":16,"name":"Uncletopia | New York City | 4 | Community","name_short":"nyc-4","host":"nyc-1.us.uncletopia.com","port":27045,"enabled":true,"region":"us-east","cc":"us","latitude":40.73061,"longitude":-73.93524,"reserved":0,"last_update":"0001-01-01T00:00:00Z","name_a2s":"Uncletopia | New York City | 4 | Community","protocol":17,"map":"workshop/koth_slaughter_rc1.ugc1712845210","folder":"tf","game":"Team Fortress","app_id":440,"player_count":0,"max_players":24,"Bots":0,"server_type":"Dedicated","server_os":"Linux","password":true,"vac":true,"version":"7742253","steam_id":85568392924742821,"keywords":["cp","nocrits","nodmgspread","uncletopia"],"game_id":440,"stv_port":27046,"stv_name":"Uncletopia | New York City | 4 | Community | STV","players":null},{"server_id":142,"name":"Uncletopia | S√£o Paulo | 1 | All Maps","name_short":"sao-1","host":"sao-1.br.uncletopia.com","port":27015,"enabled":true,"region":"sa","cc":"br","latitude":-23.533773,"longitude":-46.62529,"reserved":0,"last_update":"0001-01-01T00:00:00Z","name_a2s":"Uncletopia | S√£o Paulo | 1 | All Maps","protocol":17,"map":"cp_snakewater_final1","folder":"tf","game":"Team Fortress","app_id":440,"player_count":0,"max_players":24,"Bots":0,"server_type":"Dedicated","server_os":"Linux","password":true,"vac":true,"version":"7742253","steam_id":85568392924469996,"keywords":["cp","nocrits","nodmgspread","uncletopia"],"game_id":440,"stv_port":27016,"stv_name":"Uncletopia | S√£o Paulo | 1 | All Maps | STV","players":null},{"server_id":143,"name":"Uncletopia | S√£o Paulo | 2 | All Maps","name_short":"sao-2","host":"sao-2.br.uncletopia.com","port":27015,"enabled":true,"region":"sa","cc":"br","latitude":-23.533773,"longitude":-46.62529,"reserved":0,"last_update":"0001-01-01T00:00:00Z","name_a2s":"Uncletopia | S√£o Paulo | 2 | All Maps","protocol":17,"map":"koth_harvest_final","folder":"tf","game":"Team Fortress","app_id":440,"player_count":0,"max_players":24,"Bots":0,"server_type":"Dedicated","server_os":"Linux","password":true,"vac":true,"version":"7742253","steam_id":85568392924485349,"keywords":["cp","nocrits","nodmgspread","uncletopia"],"game_id":440,"stv_port":27016,"stv_name":"Uncletopia | S√£o Paulo | 2 | All Maps | STV","players":null},{"server_id":7,"name":"Uncletopia | Seattle | 1 | All Maps","name_short":"sea-1","host":"sea-1.us.uncletopia.com","port":27015,"enabled":true,"region":"us-west","cc":"us","latitude":47.608013,"longitude":-122.33517,"reserved":0,"last_update":"0001-01-01T00:00:00Z","name_a2s":"Uncletopia | Seattle | 1 | All Maps","protocol":17,"map":"pl_upward","folder":"tf","game":"Team Fortress","app_id":440,"player_count":24,"max_players":24,"Bots":0,"server_type":"Dedicated","server_os":"Linux","password":true,"vac":true,"version":"7742253","steam_id":85568392924469997,"keywords":["nocrits","nodmgspread","payload","uncletopia"],"game_id":440,"stv_port":27016,"stv_name":"Uncletopia | Seattle | 1 | All Maps | STV","players":[{"user_id":545,"name":"skelly702","steam_id":76561198384117003,"connected_time":232000000000,"state":"active","ping":60},{"user_id":548,"name":"Arsonist Goose","steam_id":76561198147441830,"connected_time":17000000000,"state":"active","ping":142},{"user_id":516,"name":"mean penguin","steam_id":76561198174751517,"connected_time":2377000000000,"state":"active","ping":68},{"user_id":526,"name":"Steve Harvey","steam_id":76561198129988457,"connected_time":887000000000,"state":"active","ping":68},{"user_id":513,"name":"Panckakebro","steam_id":76561198106419992,"connected_time":2477000000000,"state":"active","ping":115},{"user_id":541,"name":"Strikerbolt","steam_id":76561199095622897,"connected_time":435000000000,"state":"active","ping":67},{"user_id":505,"name":"KingTinkerer","steam_id":76561198226856548,"connected_time":3050000000000,"state":"active","ping":75},{"user_id":533,"name":"‚ù§Graphite Muncher‚ù§","steam_id":76561199200969139,"connected_time":782000000000,"state":"active","ping":56},{"user_id":502,"name":"An Old Lady","steam_id":76561198047480318,"connected_time":4112000000000,"state":"active","ping":73},{"user_id":503,"name":"Sly Marbo","steam_id":76561198135271741,"connected_time":4020000000000,"state":"active","ping":55},{"user_id":520,"name":"festive jester","steam_id":76561198079609974,"connected_time":1526000000000,"state":"active","ping":78},{"user_id":347,"name":"General Fisticuffs","steam_id":76561198255721392,"connected_time":16952000000000,"state":"active","ping":100},{"user_id":522,"name":"Vladakus","steam_id":76561198195649605,"connected_time":1286000000000,"state":"active","ping":103},{"user_id":538,"name":"goldhed","steam_id":76561198051751133,"connected_time":544000000000,"state":"active","ping":54},{"user_id":528,"name":"gameringgamer","steam_id":76561198890507219,"connected_time":848000000000,"state":"active","ping":106},{"user_id":477,"name":"profile name","steam_id":76561198032625036,"connected_time":5788000000000,"state":"active","ping":61},{"user_id":461,"name":"rat gets the cheese","steam_id":76561198031234032,"connected_time":7364000000000,"state":"active","ping":94},{"user_id":529,"name":"Google","steam_id":76561198857237473,"connected_time":843000000000,"state":"active","ping":46},{"user_id":542,"name":"Dosario","steam_id":76561198298095535,"connected_time":364000000000,"state":"active","ping":56},{"user_id":539,"name":"gorlab","steam_id":76561198025089694,"connected_time":534000000000,"state":"active","ping":62},{"user_id":547,"name":"ashley","steam_id":76561198448551449,"connected_time":102000000000,"state":"active","ping":168},{"user_id":489,"name":"c h l o √©","steam_id":76561198858926895,"connected_time":5299000000000,"state":"active","ping":38},{"user_id":543,"name":"colorfulg70","steam_id":76561199010363371,"connected_time":355000000000,"state":"active","ping":75},{"user_id":544,"name":"smeasly","steam_id":76561198028718812,"connected_time":305000000000,"state":"active","ping":44}]},{"server_id":119,"name":"Uncletopia | Seattle | 2 | All Maps","name_short":"sea-2","host":"sea-1.us.uncletopia.com","port":27025,"enabled":true,"region":"us-west","cc":"us","latitude":47.608013,"longitude":-122.33517,"reserved":0,"last_update":"0001-01-01T00:00:00Z","name_a2s":"Uncletopia | Seattle | 2 | All Maps","protocol":17,"map":"cp_snakewater_final1","folder":"tf","game":"Team Fortress","app_id":440,"player_count":0,"max_players":24,"Bots":0,"server_type":"Dedicated","server_os":"Linux","password":true,"vac":true,"version":"7742253","steam_id":85568392924469998,"keywords":["cp","nocrits","nodmgspread","uncletopia"],"game_id":440,"stv_port":27026,"stv_name":"Uncletopia | Seattle | 2 | All Maps | STV","players":null},{"server_id":406,"name":"Uncletopia | Seattle | 3 | Stopwatch Beta","name_short":"sea-3","host":"sea-1.us.uncletopia.com","port":27035,"enabled":true,"region":"us-west","cc":"us","latitude":47.608013,"longitude":-122.33517,"reserved":0,"last_update":"0001-01-01T00:00:00Z","name_a2s":"Uncletopia | Seattle | 3 | Stopwatch Beta","protocol":17,"map":"koth_highpass","folder":"tf","game":"Team Fortress","app_id":440,"player_count":0,"max_players":24,"Bots":0,"server_type":"Dedicated","server_os":"Linux","password":true,"vac":true,"version":"7742253","steam_id":85568392924515217,"keywords":["cp","nocrits","nodmgspread","uncletopia"],"game_id":440,"stv_port":27036,"stv_name":"Uncletopia | Seattle | 3 | Stopwatch Beta | STV","players":null},{"server_id":17,"name":"Uncletopia | San Francisco | 1 | All Maps","name_short":"sfo-1","host":"sfo-1.us.uncletopia.com","port":27015,"enabled":true,"region":"us-west","cc":"us","latitude":37.77397,"longitude":-122.4313,"reserved":0,"last_update":"0001-01-01T00:00:00Z","name_a2s":"Uncletopia | San Francisco | 1 | All Maps","protocol":17,"map":"pl_badwater","folder":"tf","game":"Team Fortress","app_id":440,"player_count":24,"max_players":24,"Bots":0,"server_type":"Dedicated","server_os":"Linux","password":true,"vac":true,"version":"7742253","steam_id":85568392924469999,"keywords":["nocrits","nodmgspread","payload","uncletopia"],"game_id":440,"stv_port":27016,"stv_name":"Uncletopia | San Francisco | 1 | All Maps | STV","players":[{"user_id":564,"name":"Breadskate","steam_id":76561198087730803,"connected_time":1028000000000,"state":"active","ping":59},{"user_id":576,"name":"The Muffin Man","steam_id":76561199088286427,"connected_time":4000000000,"state":"spawning","ping":56},{"user_id":565,"name":"Fresh","steam_id":76561198068565728,"connected_time":968000000000,"state":"active","ping":31},{"user_id":569,"name":"Queueue","steam_id":76561198070804012,"connected_time":758000000000,"state":"active","ping":68},{"user_id":532,"name":"Seagoll","steam_id":76561198017953606,"connected_time":2806000000000,"state":"active","ping":71},{"user_id":504,"name":"Louie","steam_id":76561198160534768,"connected_time":4009000000000,"state":"active","ping":114},{"user_id":574,"name":"NeoN","steam_id":76561198117608366,"connected_time":25000000000,"state":"active","ping":72},{"user_id":551,"name":"Drowse","steam_id":76561198029794548,"connected_time":1863000000000,"state":"active","ping":62},{"user_id":521,"name":"a heart attack on a hook","steam_id":76561198287704293,"connected_time":3395000000000,"state":"active","ping":52},{"user_id":571,"name":"Noobot9k","steam_id":76561198067338651,"connected_time":297000000000,"state":"active","ping":78},{"user_id":572,"name":"0rangeJuic√©","steam_id":76561198408593857,"connected_time":272000000000,"state":"active","ping":92},{"user_id":558,"name":"Pizza Party","steam_id":76561198165730754,"connected_time":1717000000000,"state":"active","ping":111},{"user_id":566,"name":"A Can of Arizona Green Tea","steam_id":76561198062481133,"connected_time":960000000000,"state":"active","ping":83},{"user_id":568,"name":"sly1","steam_id":76561198049014977,"connected_time":843000000000,"state":"active","ping":60},{"user_id":538,"name":"Krow Lincoln (she/her)","steam_id":76561198085410622,"connected_time":2564000000000,"state":"active","ping":52},{"user_id":544,"name":"Nugget Nabber","steam_id":76561198155500443,"connected_time":2193000000000,"state":"active","ping":74},{"user_id":563,"name":"Susan","steam_id":76561198045705049,"connected_time":1524000000000,"state":"active","ping":61},{"user_id":556,"name":"Timon's high on crack cocaine!","steam_id":76561198180396430,"connected_time":1812000000000,"state":"active","ping":50},{"user_id":567,"name":"bdrakey1","steam_id":76561199217865228,"connected_time":943000000000,"state":"active","ping":106},{"user_id":546,"name":"Gamut","steam_id":76561199185822800,"connected_time":2005000000000,"state":"active","ping":96},{"user_id":570,"name":"Im feeling it now.","steam_id":76561198034785475,"connected_time":650000000000,"state":"active","ping":64},{"user_id":573,"name":"Mr. Brightside","steam_id":76561198006307713,"connected_time":84000000000,"state":"active","ping":82},{"user_id":549,"name":"checkswing","steam_id":76561198999816132,"connected_time":1921000000000,"state":"active","ping":102},{"user_id":575,"name":"Noxd67","steam_id":76561198962665838,"connected_time":17000000000,"state":"spawning","ping":83}]},{"server_id":18,"name":"Uncletopia | San Francisco | 2 | All Maps","name_short":"sfo-2","host":"sfo-1.us.uncletopia.com","port":27025,"enabled":true,"region":"us-west","cc":"us","latitude":37.77397,"longitude":-122.4313,"reserved":0,"last_update":"0001-01-01T00:00:00Z","name_a2s":"Uncletopia | San Francisco | 2 | All Maps","protocol":17,"map":"pl_borneo","folder":"tf","game":"Team Fortress","app_id":440,"player_count":24,"max_players":24,"Bots":0,"server_type":"Dedicated","server_os":"Linux","password":true,"vac":true,"version":"7742253","steam_id":85568392924470000,"keywords":["nocrits","nodmgspread","payload","uncletopia"],"game_id":440,"stv_port":27026,"stv_name":"Uncletopia | San Francisco | 2 | All Maps | STV","players":[{"user_id":63,"name":"p9 Doctor‚Ñ¢","steam_id":76561198134309750,"connected_time":912000000000,"state":"active","ping":119},{"user_id":52,"name":"wheathin","steam_id":76561198055678934,"connected_time":1561000000000,"state":"active","ping":76},{"user_id":73,"name":"ONETAPMAN","steam_id":76561198195996071,"connected_time":385000000000,"state":"active","ping":82},{"user_id":76,"name":"Pyrotek‚Å¥","steam_id":76561198072747672,"connected_time":156000000000,"state":"active","ping":59},{"user_id":70,"name":"The Foolish Samurai","steam_id":76561198094494945,"connected_time":435000000000,"state":"active","ping":84},{"user_id":74,"name":"KFC‚ò≠","steam_id":76561199206815320,"connected_time":381000000000,"state":"active","ping":57},{"user_id":20,"name":"p9HIGHjorts","steam_id":76561199041179985,"connected_time":5586000000000,"state":"active","ping":78},{"user_id":31,"name":"Mom","steam_id":76561198207936000,"connected_time":3332000000000,"state":"active","ping":54},{"user_id":22,"name":"Florist","steam_id":76561198009121060,"connected_time":5207000000000,"state":"active","ping":72},{"user_id":33,"name":"p9 thunderous prophet","steam_id":76561198131166135,"connected_time":3005000000000,"state":"active","ping":51},{"user_id":60,"name":"Arcane Flame","steam_id":76561198360024422,"connected_time":1314000000000,"state":"active","ping":61},{"user_id":75,"name":"p9 rorynewyear","steam_id":76561198065825165,"connected_time":293000000000,"state":"active","ping":102},{"user_id":69,"name":"deadpixel","steam_id":76561198150249843,"connected_time":477000000000,"state":"active","ping":91},{"user_id":42,"name":"merlin","steam_id":76561198169755734,"connected_time":2097000000000,"state":"active","ping":50},{"user_id":53,"name":"Sad Sapling","steam_id":76561198075612150,"connected_time":1511000000000,"state":"active","ping":62},{"user_id":71,"name":"2 Point Tom","steam_id":76561198087617008,"connected_time":434000000000,"state":"active","ping":73},{"user_id":45,"name":"HOG RIDER","steam_id":76561198298589502,"connected_time":2011000000000,"state":"active","ping":64},{"user_id":46,"name":"Gamehero637","steam_id":76561198880355236,"connected_time":1999000000000,"state":"active","ping":62},{"user_id":61,"name":"–∫–∏–ª–ª–∞","steam_id":76561198055483081,"connected_time":1295000000000,"state":"active","ping":55},{"user_id":72,"name":"ZeritoPower","steam_id":76561198215274576,"connected_time":405000000000,"state":"active","ping":119},{"user_id":55,"name":"-TL- swarm","steam_id":76561198019435762,"connected_time":1490000000000,"state":"active","ping":59},{"user_id":56,"name":"HanakoToast","steam_id":76561198045233131,"connected_time":1486000000000,"state":"active","ping":61},{"user_id":58,"name":"august","steam_id":76561197997271451,"connected_time":1451000000000,"state":"active","ping":109},{"user_id":65,"name":"Mina's Ninas","steam_id":76561198046502179,"connected_time":733000000000,"state":"active","ping":72}]},{"server_id":19,"name":"Uncletopia | San Francisco | 3 | Stopwatch Beta","name_short":"sfo-3","host":"sfo-1.us.uncletopia.com","port":27035,"enabled":true,"region":"us-west","cc":"us","latitude":37.77397,"longitude":-122.4313,"reserved":0,"last_update":"0001-01-01T00:00:00Z","name_a2s":"Uncletopia | San Francisco | 3 | Stopwatch Beta","protocol":17,"map":"workshop/koth_clearcut_b15.ugc2107050255","folder":"tf","game":"Team Fortress","app_id":440,"player_count":4,"max_players":24,"Bots":0,"server_type":"Dedicated","server_os":"Linux","password":true,"vac":true,"version":"7742253","steam_id":85568392924742824,"keywords":["cp","nocrits","nodmgspread","uncletopia"],"game_id":440,"stv_port":27036,"stv_name":"Uncletopia | San Francisco | 3 | Stopwatch Beta | STV","players":[{"user_id":9,"name":"Luigiminer8","steam_id":76561198803438732,"connected_time":287000000000,"state":"active","ping":66},{"user_id":10,"name":"Vegasx702s","steam_id":76561198799772874,"connected_time":219000000000,"state":"active","ping":61},{"user_id":11,"name":"RoboticCrusader","steam_id":76561199254985002,"connected_time":197000000000,"state":"active","ping":68},{"user_id":12,"name":"resh","steam_id":76561198239598834,"connected_time":167000000000,"state":"active","ping":108}]},{"server_id":20,"name":"Uncletopia | San Francisco | 4 | Community","name_short":"sfo-4","host":"sfo-1.us.uncletopia.com","port":27045,"enabled":true,"region":"us-west","cc":"us","latitude":37.77397,"longitude":-122.4313,"reserved":0,"last_update":"0001-01-01T00:00:00Z","name_a2s":"Uncletopia | San Francisco | 4 | Community","protocol":17,"map":"workshop/cp_villa_b19.ugc2113052569","folder":"tf","game":"Team Fortress","app_id":440,"player_count":0,"max_players":24,"Bots":0,"server_type":"Dedicated","server_os":"Linux","password":true,"vac":true,"version":"7742253","steam_id":85568392924742826,"keywords":["cp","nocrits","nodmgspread","uncletopia"],"game_id":440,"stv_port":27046,"stv_name":"Uncletopia | San Francisco | 4 | Community | STV","players":null},{"server_id":141,"name":"Uncletopia | Sydney | 1 | All Maps","name_short":"syd-1","host":"syd-1.au.uncletopia.com","port":27015,"enabled":true,"region":"au","cc":"au","latitude":-33.865143,"longitude":151.2099,"reserved":0,"last_update":"0001-01-01T00:00:00Z","name_a2s":"Uncletopia | Sydney | 1 | All Maps","protocol":17,"map":"pl_pier","folder":"tf","game":"Team Fortress","app_id":440,"player_count":0,"max_players":24,"Bots":0,"server_type":"Dedicated","server_os":"Linux","password":true,"vac":true,"version":"7742253","steam_id":85568392924470001,"keywords":["nocrits","nodmgspread","payload","uncletopia"],"game_id":440,"stv_port":27016,"stv_name":"Uncletopia | Sydney | 1 | All Maps | STV","players":null},{"server_id":123,"name":"Uncletopia | Sydney | 2 | All Maps","name_short":"syd-2","host":"syd-1.au.uncletopia.com","port":27025,"enabled":true,"region":"au","cc":"au","latitude":-33.865143,"longitude":151.2099,"reserved":0,"last_update":"0001-01-01T00:00:00Z","name_a2s":"Uncletopia | Sydney | 2 | All Maps","protocol":17,"map":"cp_snakewater_final1","folder":"tf","game":"Team Fortress","app_id":440,"player_count":21,"max_players":24,"Bots":0,"server_type":"Dedicated","server_os":"Linux","password":true,"vac":true,"version":"7742253","steam_id":85568392924470002,"keywords":["cp","nocrits","nodmgspread","uncletopia"],"game_id":440,"stv_port":27026,"stv_name":"Uncletopia | Sydney | 2 | All Maps | STV","players":[{"user_id":304,"name":"tioblox23","steam_id":76561199190554746,"connected_time":525000000000,"state":"active","ping":145},{"user_id":299,"name":"LeoJoeD","steam_id":76561198161848749,"connected_time":554000000000,"state":"active","ping":40},{"user_id":292,"name":"0-2-5 dart monkey","steam_id":76561199141109305,"connected_time":1004000000000,"state":"active","ping":51},{"user_id":293,"name":"Muffin","steam_id":76561198075391119,"connected_time":1000000000000,"state":"active","ping":59},{"user_id":294,"name":"Gibtruck","steam_id":76561197997903728,"connected_time":840000000000,"state":"active","ping":58},{"user_id":310,"name":"A Purple Swirl","steam_id":76561197994590608,"connected_time":299000000000,"state":"active","ping":42},{"user_id":271,"name":"Enchanted Cat","steam_id":76561198866538028,"connected_time":2232000000000,"state":"active","ping":85},{"user_id":300,"name":"Sherpa","steam_id":76561198018913829,"connected_time":553000000000,"state":"active","ping":53},{"user_id":259,"name":"Kremmen","steam_id":76561198051368641,"connected_time":2625000000000,"state":"active","ping":75},{"user_id":298,"name":"Ozibogan","steam_id":76561198247638348,"connected_time":564000000000,"state":"active","ping":53},{"user_id":312,"name":"pain train tf2","steam_id":76561198059284918,"connected_time":282000000000,"state":"active","ping":48},{"user_id":313,"name":"Plastikt√ºten","steam_id":76561198876246408,"connected_time":173000000000,"state":"active","ping":54},{"user_id":245,"name":"nzdriver","steam_id":76561198041727014,"connected_time":3435000000000,"state":"active","ping":62},{"user_id":302,"name":"L0g","steam_id":76561198127648718,"connected_time":540000000000,"state":"active","ping":45},{"user_id":263,"name":"MikkyD","steam_id":76561198043452962,"connected_time":2508000000000,"state":"active","ping":61},{"user_id":303,"name":"quac ‡∂û","steam_id":76561198171745885,"connected_time":534000000000,"state":"active","ping":94},{"user_id":308,"name":"Breakfast","steam_id":76561197971620881,"connected_time":460000000000,"state":"active","ping":62},{"user_id":314,"name":"Meme Aids","steam_id":76561198847593053,"connected_time":132000000000,"state":"active","ping":52},{"user_id":316,"name":"Solty","steam_id":76561198044062896,"connected_time":112000000000,"state":"active","ping":38},{"user_id":317,"name":"Good Australian Doctor","steam_id":76561198175470231,"connected_time":93000000000,"state":"active","ping":94},{"user_id":216,"name":"4:3 moment","steam_id":76561198170693338,"connected_time":5935000000000,"state":"active","ping":83}]},{"server_id":395,"name":"Uncletopia | Sydney | 3 | All Maps","name_short":"syd-3","host":"syd-1.au.uncletopia.com","port":27035,"enabled":true,"region":"au","cc":"au","latitude":-33.865143,"longitude":151.2099,"reserved":0,"last_update":"0001-01-01T00:00:00Z","name_a2s":"Uncletopia | Sydney | 3 | All Maps","protocol":17,"map":"pl_swiftwater_final1","folder":"tf","game":"Team Fortress","app_id":440,"player_count":3,"max_players":24,"Bots":0,"server_type":"Dedicated","server_os":"Linux","password":true,"vac":true,"version":"7742253","steam_id":85568392925194467,"keywords":["nocrits","nodmgspread","payload","uncletopia"],"game_id":440,"stv_port":27036,"stv_name":"Uncletopia | Sydney | 3 | All Maps | STV","players":[{"user_id":9,"name":"NOTHING","steam_id":76561199071026753,"connected_time":4746000000000,"state":"active","ping":56},{"user_id":16,"name":"salted","steam_id":76561199094870702,"connected_time":595000000000,"state":"active","ping":63},{"user_id":17,"name":"Yeehaw","steam_id":76561198039684922,"connected_time":485000000000,"state":"active","ping":45}]},{"server_id":396,"name":"Uncletopia | Sydney | 4 | All Maps","name_short":"syd-4","host":"syd-1.au.uncletopia.com","port":27045,"enabled":true,"region":"au","cc":"au","latitude":-33.865143,"longitude":151.2099,"reserved":0,"last_update":"0001-01-01T00:00:00Z","name_a2s":"Uncletopia | Sydney | 4 | All Maps","protocol":17,"map":"koth_viaduct","folder":"tf","game":"Team Fortress","app_id":440,"player_count":0,"max_players":24,"Bots":0,"server_type":"Dedicated","server_os":"Linux","password":true,"vac":true,"version":"7742253","steam_id":85568392925397958,"keywords":["cp","nocrits","nodmgspread","uncletopia"],"game_id":440,"stv_port":27046,"stv_name":"Uncletopia | Sydney | 4 | All Maps | STV","players":null},{"server_id":58,"name":"Uncletopia | Sydney | 5 | Stopwatch Beta","name_short":"syd-5","host":"syd-1.au.uncletopia.com","port":27055,"enabled":true,"region":"au","cc":"au","latitude":-33.865143,"longitude":151.2099,"reserved":0,"last_update":"0001-01-01T00:00:00Z","name_a2s":"Uncletopia | Sydney | 5 | Stopwatch Beta","protocol":17,"map":"koth_highpass","folder":"tf","game":"Team Fortress","app_id":440,"player_count":0,"max_players":24,"Bots":0,"server_type":"Dedicated","server_os":"Linux","password":true,"vac":true,"version":"7742253","steam_id":85568392925397959,"keywords":["cp","nocrits","nodmgspread","uncletopia"],"game_id":440,"stv_port":27056,"stv_name":"Uncletopia | Sydney | 5 | Stopwatch Beta | STV","players":null},{"server_id":59,"name":"Uncletopia | Sydney | 6 | Community","name_short":"syd-6","host":"syd-1.au.uncletopia.com","port":27065,"enabled":true,"region":"au","cc":"au","latitude":-33.865143,"longitude":151.2099,"reserved":0,"last_update":"0001-01-01T00:00:00Z","name_a2s":"Uncletopia | Sydney | 6 | Community","protocol":17,"map":"workshop/koth_slaughter_rc1.ugc1712845210","folder":"tf","game":"Team Fortress","app_id":440,"player_count":0,"max_players":24,"Bots":0,"server_type":"Dedicated","server_os":"Linux","password":true,"vac":true,"version":"7742253","steam_id":85568392925397960,"keywords":["cp","nocrits","nodmgspread","uncletopia"],"game_id":440,"stv_port":27066,"stv_name":"Uncletopia | Sydney | 6 | Community | STV","players":null},{"server_id":49,"name":"Uncletopia | Warsaw | 1 | All Maps","name_short":"waw-1","host":"waw-1.pl.uncletopia.com","port":27015,"enabled":true,"region":"eu","cc":"pl","latitude":52.2297,"longitude":21.017532,"reserved":0,"last_update":"0001-01-01T00:00:00Z","name_a2s":"","protocol":0,"map":"","folder":"","game":"","app_id":0,"player_count":0,"max_players":0,"Bots":0,"server_type":"","server_os":"","password":false,"vac":false,"version":"","steam_id":0,"keywords":null,"game_id":0,"stv_port":0,"stv_name":"","players":null},{"server_id":50,"name":"Uncletopia | Warsaw | 2 | All Maps","name_short":"waw-2","host":"waw-1.pl.uncletopia.com","port":27025,"enabled":true,"region":"eu","cc":"pl","latitude":52.2297,"longitude":21.017532,"reserved":0,"last_update":"0001-01-01T00:00:00Z","name_a2s":"Uncletopia | Warsaw | 2 | All Maps","protocol":17,"map":"pl_upward","folder":"tf","game":"Team Fortress","app_id":440,"player_count":0,"max_players":24,"Bots":0,"server_type":"Dedicated","server_os":"Linux","password":true,"vac":true,"version":"7742253","steam_id":85568392925397851,"keywords":["nocrits","nodmgspread","payload","uncletopia"],"game_id":440,"stv_port":27026,"stv_name":"Uncletopia | Warsaw | 2 | All Maps | STV","players":null},{"server_id":51,"name":"Uncletopia | Warsaw | 3 | All Maps","name_short":"waw-3","host":"waw-1.pl.uncletopia.com","port":27035,"enabled":true,"region":"eu","cc":"pl","latitude":52.2297,"longitude":21.017532,"reserved":0,"last_update":"0001-01-01T00:00:00Z","name_a2s":"Uncletopia | Warsaw | 3 | All Maps","protocol":17,"map":"koth_lakeside_final","folder":"tf","game":"Team Fortress","app_id":440,"player_count":0,"max_players":24,"Bots":0,"server_type":"Dedicated","server_os":"Linux","password":true,"vac":true,"version":"7742253","steam_id":85568392925397852,"keywords":["cp","nocrits","nodmgspread","uncletopia"],"game_id":440,"stv_port":27036,"stv_name":"Uncletopia | Warsaw | 3 | All Maps | STV","players":null},{"server_id":52,"name":"Uncletopia | Warsaw | 4 | All Maps","name_short":"waw-4","host":"waw-1.pl.uncletopia.com","port":27045,"enabled":true,"region":"eu","cc":"pl","latitude":52.2297,"longitude":21.017532,"reserved":0,"last_update":"0001-01-01T00:00:00Z","name_a2s":"Uncletopia | Warsaw | 4 | All Maps","protocol":17,"map":"cp_snakewater_final1","folder":"tf","game":"Team Fortress","app_id":440,"player_count":0,"max_players":24,"Bots":0,"server_type":"Dedicated","server_os":"Linux","password":true,"vac":true,"version":"7742253","steam_id":85568392925397853,"keywords":["cp","nocrits","nodmgspread","uncletopia"],"game_id":440,"stv_port":27046,"stv_name":"Uncletopia | Warsaw | 4 | All Maps | STV","players":null},{"server_id":53,"name":"Uncletopia | Warsaw | 5 | Stopwatch Beta","name_short":"waw-5","host":"waw-1.pl.uncletopia.com","port":27055,"enabled":true,"region":"eu","cc":"pl","latitude":52.2297,"longitude":21.017532,"reserved":0,"last_update":"0001-01-01T00:00:00Z","name_a2s":"Uncletopia | Warsaw | 5 | Stopwatch Beta","protocol":17,"map":"pl_swiftwater_final1","folder":"tf","game":"Team Fortress","app_id":440,"player_count":0,"max_players":24,"Bots":0,"server_type":"Dedicated","server_os":"Linux","password":true,"vac":true,"version":"7742253","steam_id":85568392925397854,"keywords":["nocrits","nodmgspread","payload","uncletopia"],"game_id":440,"stv_port":27056,"stv_name":"Uncletopia | Warsaw | 5 | Stopwatch Beta | STV","players":null},{"server_id":54,"name":"Uncletopia | Warsaw | 6 | Community","name_short":"waw-6","host":"waw-1.pl.uncletopia.com","port":27065,"enabled":true,"region":"eu","cc":"pl","latitude":52.2297,"longitude":21.017532,"reserved":0,"last_update":"0001-01-01T00:00:00Z","name_a2s":"Uncletopia | Warsaw | 6 | Community","protocol":17,"map":"koth_highpass","folder":"tf","game":"Team Fortress","app_id":440,"player_count":0,"max_players":24,"Bots":0,"server_type":"Dedicated","server_os":"Linux","password":true,"vac":true,"version":"7742253","steam_id":85568392925397856,"keywords":["cp","nocrits","nodmgspread","uncletopia"],"game_id":440,"stv_port":27066,"stv_name":"Uncletopia | Warsaw | 6 | Community | STV","players":null}]}