{"status":true,"message":"","result":[{"server_id":9,"name":"Uncletopia | Atlanta | 1 | All Maps","name_short":"atl-1","host":"atl-1.us.uncletopia.com","port":27015,"enabled":true,"region":"us-east","cc":"us","latitude":33.753746,"longitude":-84.38633,"reserved":0,"last_update":"0001-01-01T00:00:00Z","name_a2s":"Uncletopia | Atlanta | 1 | All Maps","protocol":17,"map":"pl_upward","folder":"tf","game":"Team Fortress","app_id":440,"player_count":24,"max_players":24,"Bots":0,"server_type":"Dedicated","server_os":"Linux","password":true,"vac":true,"version":"7882260","steam_id":85568392924469982,"keywords":["nocrits","nodmgspread","payload","uncletopia"],"game_id":440,"stv_port":27016,"stv_name":"Uncletopia | Atlanta | 1 | All Maps | STV","players":[{"user_id":405,"name":"Le4n!!!","steam_id":76561198045522596,"connected_time":1424000000000,"state":"active","ping":68},{"user_id":402,"name":"Death = 0 pushups (Dom +1)","steam_id":76561199169985978,"connected_time":1683000000000,"state":"active","ping":83},{"user_id":338,"name":"hi","steam_id":76561198809577048,"connected_time":6643000000000,"state":"spawning","ping":94},{"user_id":412,"name":"‚òÜNebula-Belt‚òÜ","steam_id":76561198151250806,"connected_time":711000000000,"state":"active","ping":143},{"user_id":352,"name":"CheeseLikeSubstance","steam_id":76561197977170646,"connected_time":5657000000000,"state":"active","ping":72},{"user_id":395,"name":"spaghetdude21","steam_id":76561198982820828,"connected_time":2437000000000,"state":"spawning","ping":95},{"user_id":384,"name":"JOVA(no audio/HUD)","steam_id":76561198090333536,"connected_time":3882000000000,"state":"active","ping":67},{"user_id":409,"name":"ooga chaka","steam_id":76561198057076267,"connected_time":757000000000,"state":"active","ping":66},{"user_id":358,"name":"stumped","steam_id":76561198994634058,"connected_time":5428000000000,"state":"active","ping":122},{"user_id":390,"name":"kite","steam_id":76561198346516392,"connected_time":3267000000000,"state":"active","ping":81},{"user_id":399,"name":"dodly6","steam_id":76561199115440432,"connected_time":1929000000000,"state":"active","ping":73},{"user_id":417,"name":"GAMBU","steam_id":76561198320866421,"connected_time":214000000000,"state":"spawning","ping":48},{"user_id":366,"name":"Flint","steam_id":76561198066547582,"connected_time":4432000000000,"state":"active","ping":112},{"user_id":389,"name":"rose","steam_id":76561198048882285,"connected_time":3373000000000,"state":"active","ping":60},{"user_id":393,"name":"ash","steam_id":76561198127890645,"connected_time":2789000000000,"state":"active","ping":68},{"user_id":398,"name":"SparkStorm","steam_id":76561198095817025,"connected_time":1935000000000,"state":"active","ping":38},{"user_id":255,"name":"and i'm javert!","steam_id":76561198117033273,"connected_time":12283000000000,"state":"active","ping":142},{"user_id":400,"name":"bogginwater","steam_id":76561198155547142,"connected_time":1913000000000,"state":"active","ping":65},{"user_id":404,"name":"atl1icyy","steam_id":76561198968001329,"connected_time":1461000000000,"state":"spawning","ping":39},{"user_id":348,"name":"eish","steam_id":76561198089463603,"connected_time":5674000000000,"state":"active","ping":157},{"user_id":401,"name":"Ghetto Smosh Fan","steam_id":76561198097272509,"connected_time":1859000000000,"state":"spawning","ping":43},{"user_id":397,"name":"creeeeeee","steam_id":76561198392539722,"connected_time":2134000000000,"state":"active","ping":125},{"user_id":407,"name":"Crystron","steam_id":76561198880437428,"connected_time":961000000000,"state":"active","ping":82},{"user_id":416,"name":"DFR Wingm4n","steam_id":76561198064127012,"connected_time":466000000000,"state":"active","ping":47}]},{"server_id":104,"name":"Uncletopia | Atlanta | 2 | All Maps","name_short":"atl-2","host":"atl-1.us.uncletopia.com","port":27025,"enabled":true,"region":"us-east","cc":"us","latitude":33.753746,"longitude":-84.38633,"reserved":0,"last_update":"0001-01-01T00:00:00Z","name_a2s":"Uncletopia | Atlanta | 2 | All Maps","protocol":17,"map":"cp_dustbowl","folder":"tf","game":"Team Fortress","app_id":440,"player_count":24,"max_players":24,"Bots":0,"server_type":"Dedicated","server_os":"Linux","password":true,"vac":true,"version":"7882260","steam_id":85568392924469983,"keywords":["cp","nocrits","nodmgspread","uncletopia"],"game_id":440,"stv_port":27026,"stv_name":"Uncletopia | Atlanta | 2 | All Maps | STV","players":[{"user_id":360,"name":"23‚Ñ¢","steam_id":76561198314951185,"connected_time":1021000000000,"state":"active","ping":94},{"user_id":290,"name":"Lee?","steam_id":76561199060892634,"connected_time":5239000000000,"state":"active","ping":70},{"user_id":336,"name":"Oopsie Daisy ‚ùã","steam_id":76561198042144492,"connected_time":2434000000000,"state":"active","ping":54},{"user_id":366,"name":"The Moist Pirate","steam_id":76561198876374669,"connected_time":632000000000,"state":"active","ping":65},{"user_id":359,"name":"Broadsword","steam_id":76561198011160411,"connected_time":1070000000000,"state":"active","ping":64},{"user_id":354,"name":"Denzel McFlurry","steam_id":76561199231296521,"connected_time":1294000000000,"state":"active","ping":75},{"user_id":326,"name":"nebby","steam_id":76561197990815274,"connected_time":2744000000000,"state":"active","ping":59},{"user_id":368,"name":"Macko","steam_id":76561198452005461,"connected_time":348000000000,"state":"active","ping":77},{"user_id":362,"name":"T√ñZI","steam_id":76561198045268695,"connected_time":661000000000,"state":"active","ping":74},{"user_id":365,"name":"Partark","steam_id":76561198010265825,"connected_time":638000000000,"state":"active","ping":43},{"user_id":358,"name":"xen","steam_id":76561198048568188,"connected_time":1133000000000,"state":"active","ping":60},{"user_id":363,"name":"Leus Moose","steam_id":76561198024152565,"connected_time":657000000000,"state":"active","ping":94},{"user_id":335,"name":"WaywardFinn","steam_id":76561198040391296,"connected_time":2509000000000,"state":"active","ping":81},{"user_id":351,"name":"Mcfighter2","steam_id":76561198168073956,"connected_time":1318000000000,"state":"active","ping":71},{"user_id":364,"name":"BoysWhoCryStan","steam_id":76561198106967143,"connected_time":649000000000,"state":"active","ping":85},{"user_id":328,"name":"–ØawrFatcat","steam_id":76561198017698926,"connected_time":2731000000000,"state":"active","ping":84},{"user_id":275,"name":"AwesomeAEA","steam_id":76561198303978260,"connected_time":6068000000000,"state":"active","ping":70},{"user_id":361,"name":"thecal","steam_id":76561198307893384,"connected_time":699000000000,"state":"active","ping":75},{"user_id":355,"name":"Mike Rowe Penis","steam_id":76561198041120471,"connected_time":1288000000000,"state":"active","ping":53},{"user_id":356,"name":"Mike \"Pissboy\" Lindell","steam_id":76561198139202472,"connected_time":1248000000000,"state":"active","ping":57},{"user_id":339,"name":"SpaceLeezerd","steam_id":76561198171026678,"connected_time":2222000000000,"state":"active","ping":73},{"user_id":293,"name":"Vanilla :3","steam_id":76561199106847859,"connected_time":4928000000000,"state":"active","ping":63},{"user_id":303,"name":"Voodo133","steam_id":76561198042670351,"connected_time":4428000000000,"state":"active","ping":82},{"user_id":313,"name":"Transfem Furry \u003c3","steam_id":76561198288036403,"connected_time":3527000000000,"state":"active","ping":106}]},{"server_id":400,"name":"Uncletopia | Atlanta | 3 | Community","name_short":"atl-3","host":"atl-1.us.uncletopia.com","port":27035,"enabled":true,"region":"us-east","cc":"us","latitude":33.753746,"longitude":-84.38633,"reserved":0,"last_update":"0001-01-01T00:00:00Z","name_a2s":"Uncletopia | Atlanta | 3 | Community","protocol":17,"map":"workshop/pl_corrode_rc2.ugc546577989","folder":"tf","game":"Team Fortress","app_id":440,"player_count":25,"max_players":24,"Bots":0,"server_type":"Dedicated","server_os":"Linux","password":true,"vac":true,"version":"7882260","steam_id":85568392924515187,"keywords":["nocrits","nodmgspread","payload","uncletopia"],"game_id":440,"stv_port":27036,"stv_name":"Uncletopia | Atlanta | 3 | Community | STV","players":[{"user_id":134,"name":"stungoperation","steam_id":76561199162409918,"connected_time":50000000000,"state":"spawning","ping":201},{"user_id":115,"name":"L gamer","steam_id":76561198063677510,"connected_time":395000000000,"state":"active","ping":68},{"user_id":116,"name":"PapaPatrick","steam_id":76561199017975241,"connected_time":343000000000,"state":"active","ping":89},{"user_id":117,"name":"Cwiishe","steam_id":76561199482943969,"connected_time":329000000000,"state":"active","ping":54},{"user_id":73,"name":"TheFatNinja","steam_id":76561197998934635,"connected_time":3864000000000,"state":"active","ping":106},{"user_id":87,"name":"THE","steam_id":76561199248859751,"connected_time":1755000000000,"state":"active","ping":118},{"user_id":113,"name":"Gram Tokers Count Doinkula","steam_id":76561198112811565,"connected_time":498000000000,"state":"active","ping":75},{"user_id":118,"name":"Aeront","steam_id":76561198072032723,"connected_time":314000000000,"state":"active","ping":81},{"user_id":103,"name":"=)","steam_id":76561198076598729,"connected_time":898000000000,"state":"active","ping":68},{"user_id":72,"name":"Missing Minus","steam_id":76561198120822928,"connected_time":4036000000000,"state":"active","ping":47},{"user_id":119,"name":"Benwyatt88","steam_id":76561198823755174,"connected_time":266000000000,"state":"active","ping":90},{"user_id":124,"name":"Feel Bad Inc.","steam_id":76561198184523909,"connected_time":203000000000,"state":"active","ping":105},{"user_id":128,"name":"ShamefulShotgun","steam_id":76561198084238578,"connected_time":110000000000,"state":"active","ping":107},{"user_id":121,"name":"chexo4","steam_id":76561198150532531,"connected_time":251000000000,"state":"active","ping":52},{"user_id":86,"name":"Graybard","steam_id":76561198045100497,"connected_time":2245000000000,"state":"active","ping":61},{"user_id":122,"name":"ARP 2600","steam_id":76561198103192069,"connected_time":250000000000,"state":"active","ping":90},{"user_id":106,"name":"Musica Universalis","steam_id":76561198184794174,"connected_time":835000000000,"state":"active","ping":85},{"user_id":71,"name":"LemonZest","steam_id":76561199196369249,"connected_time":4451000000000,"state":"active","ping":75},{"user_id":95,"name":"Avarokin","steam_id":76561199122504993,"connected_time":1659000000000,"state":"active","ping":87},{"user_id":74,"name":"misterspud","steam_id":76561198195306218,"connected_time":3502000000000,"state":"active","ping":64},{"user_id":99,"name":"antknee","steam_id":76561198263793809,"connected_time":1449000000000,"state":"active","ping":76},{"user_id":102,"name":"Se√±or Woofers","steam_id":76561198039120637,"connected_time":1081000000000,"state":"active","ping":65},{"user_id":137,"name":"Rixa","steam_id":76561198059356740,"connected_time":16000000000,"state":"spawning","ping":164},{"user_id":126,"name":"Spectre","steam_id":76561198025652246,"connected_time":190000000000,"state":"active","ping":60},{"user_id":132,"name":"Reverie","steam_id":76561198987005784,"connected_time":75000000000,"state":"spawning","ping":782}]},{"server_id":401,"name":"Uncletopia | Atlanta | 4 | No Payload","name_short":"atl-4","host":"atl-1.us.uncletopia.com","port":27045,"enabled":true,"region":"us-east","cc":"us","latitude":33.753746,"longitude":-84.38633,"reserved":0,"last_update":"0001-01-01T00:00:00Z","name_a2s":"","protocol":0,"map":"","folder":"","game":"","app_id":0,"player_count":0,"max_players":0,"Bots":0,"server_type":"","server_os":"","password":false,"vac":false,"version":"","steam_id":0,"keywords":null,"game_id":0,"stv_port":0,"stv_name":"","players":null},{"server_id":2,"name":"Uncletopia | Chicago | 1 | All Maps","name_short":"chi-1","host":"chi-1.us.uncletopia.com","port":27015,"enabled":true,"region":"us-central","cc":"us","latitude":41.881832,"longitude":-87.62318,"reserved":0,"last_update":"0001-01-01T00:00:00Z","name_a2s":"Uncletopia | Chicago | 1 | All Maps","protocol":17,"map":"cp_gorge","folder":"tf","game":"Team Fortress","app_id":440,"player_count":24,"max_players":24,"Bots":0,"server_type":"Dedicated","server_os":"Linux","password":true,"vac":true,"version":"7882260","steam_id":85568392924469984,"keywords":["cp","nocrits","nodmgspread","uncletopia"],"game_id":440,"stv_port":27016,"stv_name":"Uncletopia | Chicago | 1 | All Maps | STV","players":[{"user_id":529,"name":"Gnarly Shark Bite","steam_id":76561198004058342,"connected_time":1406000000000,"state":"active","ping":78},{"user_id":474,"name":"Mehman","steam_id":76561199020244051,"connected_time":6631000000000,"state":"active","ping":99},{"user_id":521,"name":"Ras","steam_id":76561198123546775,"connected_time":2885000000000,"state":"active","ping":74},{"user_id":524,"name":"dirty30","steam_id":76561198021226566,"connected_time":2005000000000,"state":"active","ping":98},{"user_id":544,"name":"1stLemonAid","steam_id":76561198281567539,"connected_time":847000000000,"state":"active","ping":166},{"user_id":528,"name":"PKBEAST_7","steam_id":76561198177136537,"connected_time":1616000000000,"state":"active","ping":86},{"user_id":515,"name":"blob","steam_id":76561198122375328,"connected_time":3112000000000,"state":"active","ping":59},{"user_id":500,"name":"RiceRiceDesu","steam_id":76561198018568723,"connected_time":4485000000000,"state":"active","ping":57},{"user_id":513,"name":"pee pee poo poo","steam_id":76561198930017260,"connected_time":3119000000000,"state":"active","ping":54},{"user_id":541,"name":"Gabinator32","steam_id":76561198872467183,"connected_time":917000000000,"state":"active","ping":45},{"user_id":542,"name":"Sexual Butt","steam_id":76561198102241399,"connected_time":870000000000,"state":"active","ping":63},{"user_id":520,"name":"flamingcookies","steam_id":76561198280864779,"connected_time":2944000000000,"state":"active","ping":88},{"user_id":492,"name":"1TheExterminator","steam_id":76561198972879727,"connected_time":4841000000000,"state":"active","ping":79},{"user_id":534,"name":"üíõMercyüíõ","steam_id":76561198147095572,"connected_time":943000000000,"state":"active","ping":56},{"user_id":530,"name":"Rein","steam_id":76561198300340427,"connected_time":1171000000000,"state":"active","ping":63},{"user_id":531,"name":"Your Local Queer Librarian","steam_id":76561198013077080,"connected_time":953000000000,"state":"active","ping":57},{"user_id":545,"name":"Astoriae!","steam_id":76561199090168858,"connected_time":687000000000,"state":"active","ping":69},{"user_id":543,"name":"vareh","steam_id":76561197993190926,"connected_time":870000000000,"state":"active","ping":106},{"user_id":514,"name":"jim bob","steam_id":76561198815547064,"connected_time":3114000000000,"state":"active","ping":68},{"user_id":536,"name":"Vox Vulpera","steam_id":76561198796227041,"connected_time":937000000000,"state":"active","ping":117},{"user_id":522,"name":"Gay Weed \u003c3","steam_id":76561198158240142,"connected_time":2481000000000,"state":"active","ping":55},{"user_id":533,"name":"Literal Emu","steam_id":76561198260516158,"connected_time":949000000000,"state":"active","ping":56},{"user_id":538,"name":"Astro Knight","steam_id":76561198062767484,"connected_time":926000000000,"state":"active","ping":84},{"user_id":539,"name":"Capit√°n √Ñxis-Flores","steam_id":76561198353865006,"connected_time":926000000000,"state":"active","ping":72}]},{"server_id":106,"name":"Uncletopia | Chicago | 2 | All Maps","name_short":"chi-2","host":"chi-1.us.uncletopia.com","port":27025,"enabled":true,"region":"us-central","cc":"us","latitude":41.881832,"longitude":-87.62318,"reserved":0,"last_update":"0001-01-01T00:00:00Z","name_a2s":"Uncletopia | Chicago | 2 | All Maps","protocol":17,"map":"plr_hightower","folder":"tf","game":"Team Fortress","app_id":440,"player_count":24,"max_players":24,"Bots":0,"server_type":"Dedicated","server_os":"Linux","password":true,"vac":true,"version":"7882260","steam_id":85568392924469985,"keywords":["nocrits","nodmgspread","payload","uncletopia"],"game_id":440,"stv_port":27026,"stv_name":"Uncletopia | Chicago | 2 | All Maps | STV","players":[{"user_id":667,"name":"Satchamo","steam_id":76561198012968239,"connected_time":698000000000,"state":"active","ping":72},{"user_id":672,"name":"MikeLovesRabbit","steam_id":76561197997742625,"connected_time":391000000000,"state":"active","ping":64},{"user_id":676,"name":"Try Gardening","steam_id":76561198120311340,"connected_time":240000000000,"state":"active","ping":41},{"user_id":650,"name":"VagueOffense","steam_id":76561198820697241,"connected_time":1859000000000,"state":"active","ping":134},{"user_id":498,"name":"0","steam_id":76561198046055673,"connected_time":12144000000000,"state":"active","ping":68},{"user_id":629,"name":"scripy","steam_id":76561199267237541,"connected_time":4497000000000,"state":"active","ping":110},{"user_id":670,"name":"Gad","steam_id":76561198020792373,"connected_time":483000000000,"state":"active","ping":57},{"user_id":662,"name":"SomeFuckingGuy #SAVETF2","steam_id":76561199239165015,"connected_time":1036000000000,"state":"active","ping":90},{"user_id":665,"name":"EliaStar","steam_id":76561198965030150,"connected_time":781000000000,"state":"active","ping":120},{"user_id":632,"name":"The Third Degree Enjoyer","steam_id":76561198929936926,"connected_time":3713000000000,"state":"active","ping":78},{"user_id":651,"name":"Sunfly","steam_id":76561198034307439,"connected_time":1855000000000,"state":"active","ping":44},{"user_id":611,"name":"Enron Hubbard","steam_id":76561198012951411,"connected_time":5975000000000,"state":"active","ping":57},{"user_id":612,"name":"jackhillard83","steam_id":76561199057098390,"connected_time":5935000000000,"state":"active","ping":89},{"user_id":656,"name":"Shimshaw Creamtime","steam_id":76561198087144636,"connected_time":1798000000000,"state":"active","ping":76},{"user_id":663,"name":"oddlyobtuselemon1654","steam_id":76561198877069773,"connected_time":851000000000,"state":"active","ping":85},{"user_id":652,"name":"Ashine","steam_id":76561199001771988,"connected_time":1852000000000,"state":"active","ping":65},{"user_id":607,"name":"femboy foxgirl","steam_id":76561198056432756,"connected_time":6028000000000,"state":"active","ping":55},{"user_id":675,"name":"SnazzyCelestial","steam_id":76561198328763813,"connected_time":332000000000,"state":"active","ping":85},{"user_id":636,"name":"Holdie","steam_id":76561198070378200,"connected_time":3682000000000,"state":"active","ping":45},{"user_id":668,"name":"Yummy Kabobz","steam_id":76561198067661705,"connected_time":690000000000,"state":"active","ping":60},{"user_id":630,"name":"WALKING GOPRO","steam_id":76561198186928885,"connected_time":4174000000000,"state":"active","ping":73},{"user_id":637,"name":"Grilled Jizo","steam_id":76561199250875340,"connected_time":3678000000000,"state":"active","ping":75},{"user_id":661,"name":"exov","steam_id":76561198064513362,"connected_time":1113000000000,"state":"active","ping":151}]},{"server_id":402,"name":"Uncletopia | Chicago | 3 | All Maps","name_short":"chi-3","host":"chi-1.us.uncletopia.com","port":27035,"enabled":true,"region":"us-central","cc":"us","latitude":41.881832,"longitude":-87.62318,"reserved":0,"last_update":"0001-01-01T00:00:00Z","name_a2s":"Uncletopia | Chicago | 3 | All Maps","protocol":17,"map":"pl_badwater","folder":"tf","game":"Team Fortress","app_id":440,"player_count":25,"max_players":24,"Bots":0,"server_type":"Dedicated","server_os":"Linux","password":true,"vac":true,"version":"7882260","steam_id":85568392924515191,"keywords":["nocrits","nodmgspread","payload","uncletopia"],"game_id":440,"stv_port":27036,"stv_name":"Uncletopia | Chicago | 3 | All Maps | STV","players":[{"user_id":392,"name":"ipadkid","steam_id":76561199239446808,"connected_time":4382000000000,"state":"active","ping":218},{"user_id":419,"name":"|WS| Don't_Taze_Me_Bro","steam_id":76561198043289495,"connected_time":1788000000000,"state":"active","ping":68},{"user_id":400,"name":"Mediocre Gaming","steam_id":76561199230467980,"connected_time":3260000000000,"state":"active","ping":63},{"user_id":427,"name":"CFGU || RAWRWAFL","steam_id":76561198032118386,"connected_time":553000000000,"state":"active","ping":87},{"user_id":408,"name":"DistantJragon","steam_id":76561198117563641,"connected_time":3201000000000,"state":"active","ping":50},{"user_id":401,"name":"ArcWorld Tour Nerf Bat","steam_id":76561198257691881,"connected_time":3258000000000,"state":"active","ping":87},{"user_id":420,"name":"Digitic","steam_id":76561198080295536,"connected_time":1736000000000,"state":"active","ping":82},{"user_id":411,"name":"Zoot","steam_id":76561198121944243,"connected_time":2558000000000,"state":"active","ping":75},{"user_id":423,"name":"OpenDown","steam_id":76561198064132688,"connected_time":1155000000000,"state":"active","ping":56},{"user_id":368,"name":"Witch!","steam_id":76561198062763756,"connected_time":6021000000000,"state":"active","ping":50},{"user_id":410,"name":"DoubleX2000","steam_id":76561198164134387,"connected_time":2948000000000,"state":"active","ping":103},{"user_id":380,"name":"goose","steam_id":76561198367551668,"connected_time":5787000000000,"state":"active","ping":54},{"user_id":363,"name":"Lone Dancer","steam_id":76561199096241116,"connected_time":6063000000000,"state":"active","ping":60},{"user_id":370,"name":"get rotated idiot","steam_id":76561198045724540,"connected_time":6006000000000,"state":"active","ping":117},{"user_id":421,"name":"it's peanut time","steam_id":76561198236028020,"connected_time":1731000000000,"state":"active","ping":105},{"user_id":416,"name":"Assitins","steam_id":76561198041572892,"connected_time":2214000000000,"state":"active","ping":74},{"user_id":424,"name":"CHEEKY EUNUCH","steam_id":76561198990825232,"connected_time":801000000000,"state":"active","ping":57},{"user_id":422,"name":"frying pan gaming","steam_id":76561199097866312,"connected_time":1246000000000,"state":"active","ping":119},{"user_id":442,"name":"va l v's melee hit registration","steam_id":76561199039152146,"connected_time":268000000000,"state":"active","ping":89},{"user_id":409,"name":"gaming elliptical","steam_id":76561198013456569,"connected_time":3008000000000,"state":"active","ping":48},{"user_id":394,"name":"Hope","steam_id":76561199182558088,"connected_time":4256000000000,"state":"active","ping":63},{"user_id":405,"name":"Brian","steam_id":76561198077756206,"connected_time":3241000000000,"state":"active","ping":124},{"user_id":406,"name":"bobbymcbobington","steam_id":76561199089411172,"connected_time":3226000000000,"state":"active","ping":121},{"user_id":457,"name":"FrM","steam_id":76561198017539604,"connected_time":8000000000,"state":"spawning","ping":62},{"user_id":425,"name":"Righteou5Dude","steam_id":76561198136291931,"connected_time":801000000000,"state":"active","ping":86}]},{"server_id":403,"name":"Uncletopia | Chicago | 4 | All Maps","name_short":"chi-4","host":"chi-1.us.uncletopia.com","port":27045,"enabled":true,"region":"us-central","cc":"us","latitude":41.881832,"longitude":-87.62318,"reserved":0,"last_update":"0001-01-01T00:00:00Z","name_a2s":"Uncletopia | Chicago | 4 | All Maps","protocol":17,"map":"cp_steel","folder":"tf","game":"Team Fortress","app_id":440,"player_count":24,"max_players":24,"Bots":0,"server_type":"Dedicated","server_os":"Linux","password":true,"vac":true,"version":"7882260","steam_id":85568392924515193,"keywords":["cp","nocrits","nodmgspread","uncletopia"],"game_id":440,"stv_port":27046,"stv_name":"Uncletopia | Chicago | 4 | All Maps | STV","players":[{"user_id":217,"name":"Dr. Stinker PH.D Nuking","steam_id":76561198133616658,"connected_time":1569000000000,"state":"active","ping":99},{"user_id":189,"name":"Rec","steam_id":76561198022813906,"connected_time":3405000000000,"state":"active","ping":49},{"user_id":229,"name":"Jerphf","steam_id":76561198328825964,"connected_time":457000000000,"state":"active","ping":56},{"user_id":220,"name":"bucket head","steam_id":76561199093619156,"connected_time":1036000000000,"state":"active","ping":123},{"user_id":181,"name":"Chode Mode","steam_id":76561198353840477,"connected_time":4472000000000,"state":"active","ping":51},{"user_id":195,"name":"Luke","steam_id":76561198253533632,"connected_time":3101000000000,"state":"active","ping":73},{"user_id":227,"name":"[DEEP] Fitts1099","steam_id":76561198044986906,"connected_time":602000000000,"state":"active","ping":48},{"user_id":224,"name":"Mr_Frosty","steam_id":76561199380389079,"connected_time":781000000000,"state":"active","ping":98},{"user_id":221,"name":"Acro Banwagon","steam_id":76561198092451804,"connected_time":1034000000000,"state":"active","ping":67},{"user_id":161,"name":"Cats in 3D","steam_id":76561198048051416,"connected_time":5751000000000,"state":"active","ping":72},{"user_id":160,"name":"Dr. Robotniks Mean Bean Machine","steam_id":76561198047980627,"connected_time":5894000000000,"state":"active","ping":58},{"user_id":191,"name":"Mindset","steam_id":76561198107074449,"connected_time":3308000000000,"state":"active","ping":54},{"user_id":230,"name":"ShiverBorn","steam_id":76561198384811149,"connected_time":373000000000,"state":"active","ping":80},{"user_id":196,"name":"Tom Cr√∫aich","steam_id":76561197999439911,"connected_time":3030000000000,"state":"active","ping":74},{"user_id":223,"name":"bingle","steam_id":76561198359413453,"connected_time":932000000000,"state":"active","ping":81},{"user_id":212,"name":"6thDog","steam_id":76561198097713905,"connected_time":2080000000000,"state":"active","ping":74},{"user_id":215,"name":"Sprucelass","steam_id":76561197998391724,"connected_time":1791000000000,"state":"active","ping":56},{"user_id":204,"name":"b√ºddeh","steam_id":76561198070735936,"connected_time":2715000000000,"state":"active","ping":59},{"user_id":97,"name":"Zeora","steam_id":76561198799145251,"connected_time":9764000000000,"state":"active","ping":75},{"user_id":226,"name":"Bobato Chaps","steam_id":76561198065103552,"connected_time":659000000000,"state":"active","ping":46},{"user_id":211,"name":"Frantic Slug","steam_id":76561197995607923,"connected_time":2226000000000,"state":"active","ping":74},{"user_id":186,"name":"weeb_whacker","steam_id":76561198187098041,"connected_time":3595000000000,"state":"active","ping":56},{"user_id":228,"name":"illious","steam_id":76561198169925494,"connected_time":559000000000,"state":"active","ping":73},{"user_id":194,"name":"Jak(i)","steam_id":76561198076823144,"connected_time":3116000000000,"state":"active","ping":61}]},{"server_id":36,"name":"Uncletopia | Chicago | 5 | All Maps","name_short":"chi-5","host":"chi-2.us.uncletopia.com","port":27015,"enabled":true,"region":"us-central","cc":"us","latitude":41.881832,"longitude":-87.62318,"reserved":0,"last_update":"0001-01-01T00:00:00Z","name_a2s":"Uncletopia | Chicago | 5 | All Maps","protocol":17,"map":"koth_harvest_final","folder":"tf","game":"Team Fortress","app_id":440,"player_count":24,"max_players":24,"Bots":0,"server_type":"Dedicated","server_os":"Linux","password":true,"vac":true,"version":"7882260","steam_id":85568392924866362,"keywords":["cp","nocrits","nodmgspread","uncletopia"],"game_id":440,"stv_port":27016,"stv_name":"Uncletopia | Chicago | 5 | All Maps | STV","players":[{"user_id":147,"name":"HEAVY PIN","steam_id":76561199060062825,"connected_time":2316000000000,"state":"active","ping":112},{"user_id":63,"name":"Elias","steam_id":76561198106431732,"connected_time":7385000000000,"state":"active","ping":44},{"user_id":167,"name":"Treeckogeek","steam_id":76561198453328078,"connected_time":287000000000,"state":"active","ping":70},{"user_id":150,"name":"nekoknight tf2","steam_id":76561198400058665,"connected_time":1703000000000,"state":"active","ping":79},{"user_id":106,"name":"Cliff Uppercut","steam_id":76561197999439391,"connected_time":4298000000000,"state":"active","ping":80},{"user_id":98,"name":"bought this cart for 15 dollars","steam_id":76561198253731826,"connected_time":4912000000000,"state":"active","ping":54},{"user_id":172,"name":"dr peppah chug!","steam_id":76561198068835693,"connected_time":178000000000,"state":"active","ping":100},{"user_id":128,"name":"Osrio","steam_id":76561198083428069,"connected_time":3249000000000,"state":"active","ping":94},{"user_id":168,"name":"demoknight tf2","steam_id":76561198070393998,"connected_time":284000000000,"state":"active","ping":83},{"user_id":157,"name":"Thicc Goth Girl Haver","steam_id":76561199038566105,"connected_time":1239000000000,"state":"active","ping":114},{"user_id":162,"name":"DonoC","steam_id":76561198274473338,"connected_time":855000000000,"state":"active","ping":85},{"user_id":122,"name":"RaPids","steam_id":76561198082496100,"connected_time":3817000000000,"state":"active","ping":81},{"user_id":166,"name":"val","steam_id":76561198177716494,"connected_time":309000000000,"state":"active","ping":55},{"user_id":160,"name":"hellofreshesports","steam_id":76561198035535731,"connected_time":1071000000000,"state":"active","ping":76},{"user_id":170,"name":"Bored Barred Owl","steam_id":76561198263895597,"connected_time":272000000000,"state":"active","ping":76},{"user_id":136,"name":"TheRiGuy21","steam_id":76561199466243640,"connected_time":2830000000000,"state":"active","ping":85},{"user_id":169,"name":"Deathpill","steam_id":76561197994404793,"connected_time":282000000000,"state":"active","ping":72},{"user_id":165,"name":"drdoofus123","steam_id":76561198016826181,"connected_time":424000000000,"state":"active","ping":78},{"user_id":173,"name":"Noid","steam_id":76561198227804500,"connected_time":129000000000,"state":"active","ping":86},{"user_id":143,"name":"aiming with drawing tablet","steam_id":76561198397662124,"connected_time":2458000000000,"state":"active","ping":82},{"user_id":144,"name":"Bread Zoo","steam_id":76561198013732450,"connected_time":2445000000000,"state":"active","ping":59},{"user_id":121,"name":"Hero","steam_id":76561199239997936,"connected_time":3905000000000,"state":"active","ping":124},{"user_id":124,"name":"Fresh0c0","steam_id":76561198271933283,"connected_time":3513000000000,"state":"active","ping":64},{"user_id":151,"name":"Tsubasa","steam_id":76561198329439995,"connected_time":1694000000000,"state":"active","ping":56}]},{"server_id":37,"name":"Uncletopia | Chicago | 6 | All Maps","name_short":"chi-6","host":"chi-2.us.uncletopia.com","port":27025,"enabled":true,"region":"us-central","cc":"us","latitude":41.881832,"longitude":-87.62318,"reserved":0,"last_update":"0001-01-01T00:00:00Z","name_a2s":"Uncletopia | Chicago | 6 | All Maps","protocol":17,"map":"pl_badwater","folder":"tf","game":"Team Fortress","app_id":440,"player_count":24,"max_players":24,"Bots":0,"server_type":"Dedicated","server_os":"Linux","password":true,"vac":true,"version":"7882260","steam_id":85568392924866363,"keywords":["nocrits","nodmgspread","payload","uncletopia"],"game_id":440,"stv_port":27026,"stv_name":"Uncletopia | Chicago | 6 | All Maps | STV","players":[{"user_id":223,"name":"tinkercrab11","steam_id":76561198881792140,"connected_time":1608000000000,"state":"active","ping":82},{"user_id":201,"name":"StarManMatt","steam_id":76561198125513574,"connected_time":3120000000000,"state":"active","ping":90},{"user_id":199,"name":"Zurog","steam_id":76561198252124994,"connected_time":3329000000000,"state":"active","ping":88},{"user_id":230,"name":"purple diesel","steam_id":76561197976548449,"connected_time":1402000000000,"state":"active","ping":86},{"user_id":184,"name":"Tom Dude","steam_id":76561198093913484,"connected_time":3963000000000,"state":"active","ping":63},{"user_id":238,"name":"Rad Hazard","steam_id":76561198374660243,"connected_time":1070000000000,"state":"active","ping":63},{"user_id":191,"name":"KFC Rat","steam_id":76561198135128086,"connected_time":3555000000000,"state":"active","ping":113},{"user_id":227,"name":"CORGI.EXE","steam_id":76561198077093432,"connected_time":1573000000000,"state":"active","ping":65},{"user_id":206,"name":"ethical games journalist","steam_id":76561198090807130,"connected_time":2922000000000,"state":"active","ping":86},{"user_id":215,"name":"averagesoldiermain","steam_id":76561198158447466,"connected_time":1952000000000,"state":"active","ping":75},{"user_id":209,"name":"level 3","steam_id":76561198053046161,"connected_time":2754000000000,"state":"active","ping":66},{"user_id":193,"name":"riSygneD","steam_id":76561198331618687,"connected_time":3507000000000,"state":"active","ping":98},{"user_id":220,"name":"DeadErebus","steam_id":76561198286117045,"connected_time":1651000000000,"state":"active","ping":39},{"user_id":214,"name":"Bip","steam_id":76561199022962204,"connected_time":1995000000000,"state":"active","ping":66},{"user_id":225,"name":"JollyVG","steam_id":76561198044919633,"connected_time":1598000000000,"state":"active","ping":70},{"user_id":234,"name":"C.R.E.A.M.","steam_id":76561198273966238,"connected_time":1357000000000,"state":"active","ping":56},{"user_id":236,"name":"bobby baccalieri gaming","steam_id":76561198059535856,"connected_time":1131000000000,"state":"active","ping":80},{"user_id":239,"name":"Paleo","steam_id":76561198053493855,"connected_time":932000000000,"state":"active","ping":53},{"user_id":218,"name":"tesagi","steam_id":76561198026664629,"connected_time":1859000000000,"state":"active","ping":52},{"user_id":245,"name":"triangleman","steam_id":76561198972733542,"connected_time":15000000000,"state":"active","ping":58},{"user_id":175,"name":"the worst tf2 player ever","steam_id":76561198330205913,"connected_time":4200000000000,"state":"active","ping":77},{"user_id":243,"name":"The Menace","steam_id":76561199061907503,"connected_time":261000000000,"state":"active","ping":74},{"user_id":233,"name":"I am a mooshroom","steam_id":76561198104198295,"connected_time":1371000000000,"state":"active","ping":91},{"user_id":244,"name":"gummygeek","steam_id":76561198244543486,"connected_time":53000000000,"state":"active","ping":115}]},{"server_id":38,"name":"Uncletopia | Chicago | 7 | Stopwatch Beta","name_short":"chi-7","host":"chi-2.us.uncletopia.com","port":27035,"enabled":true,"region":"us-central","cc":"us","latitude":41.881832,"longitude":-87.62318,"reserved":0,"last_update":"0001-01-01T00:00:00Z","name_a2s":"Uncletopia | Chicago | 7 | Stopwatch Beta","protocol":17,"map":"cp_snakewater_final1","folder":"tf","game":"Team Fortress","app_id":440,"player_count":24,"max_players":24,"Bots":0,"server_type":"Dedicated","server_os":"Linux","password":true,"vac":true,"version":"7882260","steam_id":85568392924866364,"keywords":["cp","nocrits","nodmgspread","uncletopia"],"game_id":440,"stv_port":27036,"stv_name":"Uncletopia | Chicago | 7 | Stopwatch Beta | STV","players":[{"user_id":16,"name":"scrotal recall","steam_id":76561198135945598,"connected_time":2640000000000,"state":"active","ping":75},{"user_id":17,"name":"Evan","steam_id":76561197972292926,"connected_time":2433000000000,"state":"active","ping":74},{"user_id":45,"name":"Schmingus","steam_id":76561199476148332,"connected_time":996000000000,"state":"active","ping":118},{"user_id":72,"name":"123","steam_id":76561198106308056,"connected_time":165000000000,"state":"active","ping":114},{"user_id":33,"name":"kalebboy","steam_id":76561199075631311,"connected_time":1246000000000,"state":"active","ping":81},{"user_id":24,"name":"Toast","steam_id":76561198401995265,"connected_time":1890000000000,"state":"active","ping":59},{"user_id":39,"name":"Robo Intern","steam_id":76561199067098696,"connected_time":1171000000000,"state":"active","ping":90},{"user_id":71,"name":"FazeCumShot69","steam_id":76561199248475270,"connected_time":210000000000,"state":"active","ping":84},{"user_id":35,"name":"„ÄåCozy Birb„Äç","steam_id":76561198151377324,"connected_time":1221000000000,"state":"active","ping":81},{"user_id":70,"name":"MasterGoop","steam_id":76561198285594777,"connected_time":257000000000,"state":"active","ping":90},{"user_id":63,"name":"JohnnyGitGud","steam_id":76561198401455467,"connected_time":532000000000,"state":"active","ping":114},{"user_id":64,"name":"UserGavin","steam_id":76561199122031388,"connected_time":525000000000,"state":"active","ping":124},{"user_id":40,"name":"totoro","steam_id":76561198210420871,"connected_time":1158000000000,"state":"active","ping":45},{"user_id":74,"name":"monky","steam_id":76561198268986878,"connected_time":101000000000,"state":"active","ping":81},{"user_id":51,"name":"Superman123389","steam_id":76561198267472539,"connected_time":810000000000,"state":"active","ping":90},{"user_id":47,"name":"Mr.Beeg","steam_id":76561199387806995,"connected_time":981000000000,"state":"active","ping":68},{"user_id":52,"name":"Will4Fun","steam_id":76561198302268726,"connected_time":737000000000,"state":"active","ping":124},{"user_id":58,"name":"geeWIZ","steam_id":76561198067909242,"connected_time":666000000000,"state":"active","ping":72},{"user_id":54,"name":"Spartanm1ner","steam_id":76561199207797066,"connected_time":734000000000,"state":"active","ping":88},{"user_id":55,"name":"StatesideSnake","steam_id":76561198272957048,"connected_time":734000000000,"state":"active","ping":98},{"user_id":59,"name":"Sky Tree","steam_id":76561198027103242,"connected_time":649000000000,"state":"active","ping":55},{"user_id":60,"name":"CapnKris22","steam_id":76561198049010994,"connected_time":616000000000,"state":"active","ping":63},{"user_id":65,"name":"OmniMoto","steam_id":76561198091298557,"connected_time":396000000000,"state":"active","ping":76},{"user_id":62,"name":"Clockwick","steam_id":76561198047292719,"connected_time":604000000000,"state":"active","ping":63}]},{"server_id":39,"name":"Uncletopia | Chicago | 8 | Community","name_short":"chi-8","host":"chi-2.us.uncletopia.com","port":27045,"enabled":true,"region":"us-central","cc":"us","latitude":41.881832,"longitude":-87.62318,"reserved":0,"last_update":"0001-01-01T00:00:00Z","name_a2s":"Uncletopia | Chicago | 8 | Community","protocol":17,"map":"workshop/pl_badwater_pro_v12.ugc2142942074","folder":"tf","game":"Team Fortress","app_id":440,"player_count":23,"max_players":24,"Bots":0,"server_type":"Dedicated","server_os":"Linux","password":true,"vac":true,"version":"7882260","steam_id":85568392924866365,"keywords":["nocrits","nodmgspread","payload","uncletopia"],"game_id":440,"stv_port":27046,"stv_name":"Uncletopia | Chicago | 8 | Community | STV","players":[{"user_id":64,"name":"Cyber Cylon","steam_id":76561198048972781,"connected_time":518000000000,"state":"active","ping":58},{"user_id":27,"name":"justNO11","steam_id":76561198915411375,"connected_time":3670000000000,"state":"active","ping":71},{"user_id":46,"name":"TheMilkMan","steam_id":76561198354221544,"connected_time":1951000000000,"state":"active","ping":80},{"user_id":30,"name":"Dogemetri","steam_id":76561198274982830,"connected_time":3522000000000,"state":"active","ping":65},{"user_id":31,"name":"Profound Remorse","steam_id":76561197993075304,"connected_time":3458000000000,"state":"active","ping":83},{"user_id":32,"name":"Cynicalrage #TF2center","steam_id":76561198085805532,"connected_time":3323000000000,"state":"active","ping":46},{"user_id":44,"name":"86","steam_id":76561198843258044,"connected_time":1998000000000,"state":"active","ping":60},{"user_id":39,"name":"weed cat","steam_id":76561198047449549,"connected_time":2236000000000,"state":"active","ping":78},{"user_id":42,"name":"That_shroomy_boi","steam_id":76561199107324153,"connected_time":2089000000000,"state":"active","ping":84},{"user_id":43,"name":"Local Gamer","steam_id":76561198063463200,"connected_time":2036000000000,"state":"active","ping":67},{"user_id":50,"name":"DamerDoozle","steam_id":76561199121686201,"connected_time":1876000000000,"state":"active","ping":69},{"user_id":47,"name":"UltimateGrape16","steam_id":76561198953773877,"connected_time":1909000000000,"state":"active","ping":112},{"user_id":48,"name":"uzr","steam_id":76561198799343084,"connected_time":1908000000000,"state":"active","ping":112},{"user_id":49,"name":"SheppoBeppo","steam_id":76561198133734515,"connected_time":1896000000000,"state":"active","ping":64},{"user_id":52,"name":"GiraffeMan","steam_id":76561198042104084,"connected_time":1848000000000,"state":"active","ping":70},{"user_id":53,"name":"üÖúüÖîüÖîüÖöüÖ¢üÖ£üÖî\ufffd\ufffd\ufffd","steam_id":76561197999748343,"connected_time":1846000000000,"state":"active","ping":61},{"user_id":54,"name":"codswallopslurp","steam_id":76561197972601902,"connected_time":1846000000000,"state":"active","ping":86},{"user_id":55,"name":"Infinitytacos","steam_id":76561198884260211,"connected_time":1828000000000,"state":"active","ping":50},{"user_id":56,"name":"ZungryWare","steam_id":76561198033158968,"connected_time":1825000000000,"state":"active","ping":92},{"user_id":62,"name":"InchMan","steam_id":76561198272658825,"connected_time":1517000000000,"state":"active","ping":85},{"user_id":58,"name":"Team Fartpiss Poo","steam_id":76561199163591880,"connected_time":1799000000000,"state":"active","ping":96},{"user_id":59,"name":"heavyArmor","steam_id":76561198191056059,"connected_time":1795000000000,"state":"active","ping":70},{"user_id":65,"name":"Ex-PFC Wintergreen","steam_id":76561198203851303,"connected_time":274000000000,"state":"active","ping":89}]},{"server_id":8,"name":"Uncletopia | Dallas | 1 | All Maps","name_short":"dal-1","host":"dal-1.us.uncletopia.com","port":27015,"enabled":true,"region":"us-central","cc":"us","latitude":32.779167,"longitude":-96.80889,"reserved":0,"last_update":"0001-01-01T00:00:00Z","name_a2s":"Uncletopia | Dallas | 1 | All Maps","protocol":17,"map":"pl_pier","folder":"tf","game":"Team Fortress","app_id":440,"player_count":24,"max_players":24,"Bots":0,"server_type":"Dedicated","server_os":"Linux","password":true,"vac":true,"version":"7882260","steam_id":85568392924469986,"keywords":["nocrits","nodmgspread","payload","uncletopia"],"game_id":440,"stv_port":27016,"stv_name":"Uncletopia | Dallas | 1 | All Maps | STV","players":[{"user_id":507,"name":"Strangelove","steam_id":76561198353773611,"connected_time":679000000000,"state":"active","ping":101},{"user_id":524,"name":"Salad gaming (real)","steam_id":76561198298310744,"connected_time":366000000000,"state":"active","ping":90},{"user_id":504,"name":"t.tv/lillieceon","steam_id":76561198062297621,"connected_time":1278000000000,"state":"active","ping":77},{"user_id":525,"name":"Bread Makes you Fat","steam_id":76561198985126532,"connected_time":271000000000,"state":"active","ping":47},{"user_id":466,"name":"Greg Boberton 2012","steam_id":76561198983566026,"connected_time":3178000000000,"state":"active","ping":77},{"user_id":511,"name":"Bottle","steam_id":76561199057108384,"connected_time":634000000000,"state":"active","ping":71},{"user_id":502,"name":"hart","steam_id":76561198094780633,"connected_time":1429000000000,"state":"active","ping":81},{"user_id":526,"name":"Squiliam","steam_id":76561198025278006,"connected_time":236000000000,"state":"active","ping":43},{"user_id":498,"name":"2gs Heavy","steam_id":76561198085388962,"connected_time":1729000000000,"state":"active","ping":74},{"user_id":484,"name":"Mr. Bixby","steam_id":76561198868839264,"connected_time":2405000000000,"state":"active","ping":46},{"user_id":514,"name":"RokkitFrog","steam_id":76561198046465850,"connected_time":577000000000,"state":"active","ping":55},{"user_id":515,"name":"chamber","steam_id":76561198165283913,"connected_time":566000000000,"state":"active","ping":70},{"user_id":490,"name":"hill of the king","steam_id":76561198099491925,"connected_time":2191000000000,"state":"active","ping":74},{"user_id":522,"name":"good soup guy","steam_id":76561199210237835,"connected_time":420000000000,"state":"active","ping":95},{"user_id":521,"name":"jairy","steam_id":76561198205346760,"connected_time":457000000000,"state":"active","ping":74},{"user_id":503,"name":"SpunkyNuggs","steam_id":76561198046401833,"connected_time":1344000000000,"state":"active","ping":102},{"user_id":479,"name":"Giselle","steam_id":76561198162593640,"connected_time":2763000000000,"state":"active","ping":86},{"user_id":523,"name":"OG Tito San Pablo","steam_id":76561198229540280,"connected_time":380000000000,"state":"active","ping":78},{"user_id":519,"name":"trolling enthusiest","steam_id":76561198882986104,"connected_time":549000000000,"state":"active","ping":114},{"user_id":528,"name":"Emberdened","steam_id":76561199163688421,"connected_time":76000000000,"state":"active","ping":83},{"user_id":506,"name":"DeadMeme","steam_id":76561198269707793,"connected_time":966000000000,"state":"active","ping":52},{"user_id":495,"name":"catfish from toontown","steam_id":76561198060070002,"connected_time":1823000000000,"state":"active","ping":69},{"user_id":499,"name":"younggflylyfe","steam_id":76561199477357832,"connected_time":1722000000000,"state":"active","ping":42},{"user_id":520,"name":"ariwinters","steam_id":76561198273249163,"connected_time":537000000000,"state":"active","ping":112}]},{"server_id":108,"name":"Uncletopia | Dallas | 2 | All Maps","name_short":"dal-2","host":"dal-1.us.uncletopia.com","port":27025,"enabled":true,"region":"us-central","cc":"us","latitude":32.779167,"longitude":-96.80889,"reserved":0,"last_update":"0001-01-01T00:00:00Z","name_a2s":"Uncletopia | Dallas | 2 | All Maps","protocol":17,"map":"koth_lakeside_final","folder":"tf","game":"Team Fortress","app_id":440,"player_count":24,"max_players":24,"Bots":0,"server_type":"Dedicated","server_os":"Linux","password":true,"vac":true,"version":"7882260","steam_id":85568392924469988,"keywords":["cp","nocrits","nodmgspread","uncletopia"],"game_id":440,"stv_port":27026,"stv_name":"Uncletopia | Dallas | 2 | All Maps | STV","players":[{"user_id":581,"name":"no","steam_id":76561198807021179,"connected_time":1506000000000,"state":"active","ping":54},{"user_id":594,"name":"Chris","steam_id":76561198180625579,"connected_time":891000000000,"state":"active","ping":84},{"user_id":602,"name":"DusterDan35","steam_id":76561198309129093,"connected_time":151000000000,"state":"active","ping":101},{"user_id":601,"name":"Jellojiggler","steam_id":76561198094320477,"connected_time":158000000000,"state":"active","ping":47},{"user_id":535,"name":"Jill Sandwich","steam_id":76561198841783789,"connected_time":4934000000000,"state":"active","ping":80},{"user_id":567,"name":"jag716292","steam_id":76561199378251983,"connected_time":2790000000000,"state":"active","ping":86},{"user_id":598,"name":"Darling","steam_id":76561198127525888,"connected_time":354000000000,"state":"active","ping":47},{"user_id":603,"name":"Michaelpc1","steam_id":76561198088365519,"connected_time":148000000000,"state":"active","ping":90},{"user_id":604,"name":"MissXis","steam_id":76561198256277680,"connected_time":137000000000,"state":"active","ping":71},{"user_id":583,"name":"Vintage TV","steam_id":76561198800334545,"connected_time":1485000000000,"state":"active","ping":81},{"user_id":600,"name":"Snivy64","steam_id":76561198423445376,"connected_time":176000000000,"state":"active","ping":64},{"user_id":568,"name":"Takyon","steam_id":76561198172075186,"connected_time":2790000000000,"state":"active","ping":192},{"user_id":536,"name":"Neltron","steam_id":76561199383809027,"connected_time":4894000000000,"state":"active","ping":87},{"user_id":547,"name":"Teh_Hsky","steam_id":76561198798630221,"connected_time":4146000000000,"state":"active","ping":70},{"user_id":579,"name":"Chimpanzee","steam_id":76561198850387282,"connected_time":1994000000000,"state":"active","ping":76},{"user_id":570,"name":"Antifa Supersoldier","steam_id":76561198141816516,"connected_time":2775000000000,"state":"active","ping":45},{"user_id":573,"name":"mountain*‚ú©‚Äß‚ÇäÀö","steam_id":76561198078395002,"connected_time":2600000000000,"state":"active","ping":82},{"user_id":596,"name":"zzz","steam_id":76561198143727547,"connected_time":373000000000,"state":"active","ping":130},{"user_id":586,"name":"DreamlessKnight","steam_id":76561198414469325,"connected_time":1223000000000,"state":"active","ping":97},{"user_id":557,"name":"ShadowDragon0125","steam_id":76561198343849022,"connected_time":3314000000000,"state":"active","ping":82},{"user_id":595,"name":"A Straw","steam_id":76561199367935846,"connected_time":715000000000,"state":"active","ping":72},{"user_id":580,"name":"Ascrekd","steam_id":76561198896710422,"connected_time":1789000000000,"state":"active","ping":75},{"user_id":605,"name":"Null | Crack Clan","steam_id":76561198895762836,"connected_time":135000000000,"state":"active","ping":81},{"user_id":574,"name":"vi","steam_id":76561198388123421,"connected_time":2402000000000,"state":"active","ping":99}]},{"server_id":5,"name":"Uncletopia | Frankfurt | 1 | All Maps","name_short":"frk-1","host":"frk-1.de.uncletopia.com","port":27015,"enabled":true,"region":"eu","cc":"de","latitude":50.110924,"longitude":8.682127,"reserved":0,"last_update":"0001-01-01T00:00:00Z","name_a2s":"Uncletopia | Frankfurt | 1 | All Maps","protocol":17,"map":"pl_frontier_final","folder":"tf","game":"Team Fortress","app_id":440,"player_count":0,"max_players":24,"Bots":0,"server_type":"Dedicated","server_os":"Linux","password":true,"vac":true,"version":"7882260","steam_id":85568392924469989,"keywords":["nocrits","nodmgspread","payload","uncletopia"],"game_id":440,"stv_port":27016,"stv_name":"Uncletopia | Frankfurt | 1 | All Maps | STV","players":null},{"server_id":110,"name":"Uncletopia | Frankfurt | 2 | All Maps","name_short":"frk-2","host":"frk-1.de.uncletopia.com","port":27025,"enabled":true,"region":"eu","cc":"de","latitude":50.110924,"longitude":8.682127,"reserved":0,"last_update":"0001-01-01T00:00:00Z","name_a2s":"Uncletopia | Frankfurt | 2 | All Maps","protocol":17,"map":"cp_snakewater_final1","folder":"tf","game":"Team Fortress","app_id":440,"player_count":0,"max_players":24,"Bots":0,"server_type":"Dedicated","server_os":"Linux","password":true,"vac":true,"version":"7882260","steam_id":85568392924469990,"keywords":["cp","nocrits","nodmgspread","uncletopia"],"game_id":440,"stv_port":27026,"stv_name":"Uncletopia | Frankfurt | 2 | All Maps | STV","players":null},{"server_id":308,"name":"Uncletopia | Frankfurt | 3 | All Maps","name_short":"frk-3","host":"frk-1.de.uncletopia.com","port":27035,"enabled":true,"region":"eu","cc":"de","latitude":50.110924,"longitude":8.682127,"reserved":0,"last_update":"0001-01-01T00:00:00Z","name_a2s":"Uncletopia | Frankfurt | 3 | All Maps","protocol":17,"map":"koth_lakeside_final","folder":"tf","game":"Team Fortress","app_id":440,"player_count":0,"max_players":24,"Bots":0,"server_type":"Dedicated","server_os":"Linux","password":true,"vac":true,"version":"7882260","steam_id":85568392924504274,"keywords":["cp","nocrits","nodmgspread","uncletopia"],"game_id":440,"stv_port":27036,"stv_name":"Uncletopia | Frankfurt | 3 | All Maps | STV","players":null},{"server_id":309,"name":"Uncletopia | Frankfurt | 4 | All Maps","name_short":"frk-4","host":"frk-1.de.uncletopia.com","port":27045,"enabled":true,"region":"eu","cc":"de","latitude":50.110924,"longitude":8.682127,"reserved":0,"last_update":"0001-01-01T00:00:00Z","name_a2s":"Uncletopia | Frankfurt | 4 | All Maps","protocol":17,"map":"pl_barnblitz","folder":"tf","game":"Team Fortress","app_id":440,"player_count":0,"max_players":24,"Bots":0,"server_type":"Dedicated","server_os":"Linux","password":true,"vac":true,"version":"7882260","steam_id":85568392924504275,"keywords":["nocrits","nodmgspread","payload","uncletopia"],"game_id":440,"stv_port":27046,"stv_name":"Uncletopia | Frankfurt | 4 | All Maps | STV","players":null},{"server_id":310,"name":"Uncletopia | Frankfurt | 5 | All Maps","name_short":"frk-5","host":"frk-1.de.uncletopia.com","port":27055,"enabled":true,"region":"eu","cc":"de","latitude":50.110924,"longitude":8.682127,"reserved":0,"last_update":"0001-01-01T00:00:00Z","name_a2s":"Uncletopia | Frankfurt | 5 | All Maps","protocol":17,"map":"pl_upward","folder":"tf","game":"Team Fortress","app_id":440,"player_count":24,"max_players":24,"Bots":0,"server_type":"Dedicated","server_os":"Linux","password":true,"vac":true,"version":"7882260","steam_id":85568392924504277,"keywords":["nocrits","nodmgspread","payload","uncletopia"],"game_id":440,"stv_port":27056,"stv_name":"Uncletopia | Frankfurt | 5 | All Maps | STV","players":[{"user_id":356,"name":"Dag!","steam_id":76561198030147941,"connected_time":856000000000,"state":"active","ping":65},{"user_id":340,"name":"bachusa1657","steam_id":76561198202175911,"connected_time":2499000000000,"state":"active","ping":70},{"user_id":339,"name":"Captain Scrumpe","steam_id":76561198032206577,"connected_time":2934000000000,"state":"active","ping":81},{"user_id":221,"name":"xTheDarkLight","steam_id":76561198239128298,"connected_time":6604000000000,"state":"active","ping":45},{"user_id":351,"name":"Ch4bby","steam_id":76561198058792875,"connected_time":1447000000000,"state":"active","ping":59},{"user_id":341,"name":"JunkJen","steam_id":76561198017223402,"connected_time":2497000000000,"state":"active","ping":73},{"user_id":299,"name":"sHIFTINGvORTEX","steam_id":76561198231648332,"connected_time":3587000000000,"state":"active","ping":84},{"user_id":350,"name":"DM_Tiz","steam_id":76561198061478257,"connected_time":1575000000000,"state":"active","ping":41},{"user_id":360,"name":"MM Murda OFFICIAL","steam_id":76561198076871529,"connected_time":505000000000,"state":"active","ping":52},{"user_id":361,"name":"RIFT","steam_id":76561198991622379,"connected_time":496000000000,"state":"active","ping":58},{"user_id":289,"name":"skatie","steam_id":76561198169487380,"connected_time":3971000000000,"state":"active","ping":77},{"user_id":297,"name":"i n n o","steam_id":76561199230689289,"connected_time":3743000000000,"state":"active","ping":76},{"user_id":302,"name":"cinny","steam_id":76561198832112629,"connected_time":3462000000000,"state":"active","ping":78},{"user_id":352,"name":"b ull","steam_id":76561199233979726,"connected_time":1386000000000,"state":"active","ping":84},{"user_id":343,"name":"mayaüòé","steam_id":76561198842169822,"connected_time":2460000000000,"state":"active","ping":79},{"user_id":253,"name":"TurboTabs","steam_id":76561198009785131,"connected_time":5301000000000,"state":"active","ping":74},{"user_id":254,"name":"Samus","steam_id":76561198045943019,"connected_time":5301000000000,"state":"active","ping":46},{"user_id":300,"name":"XL54M15Y","steam_id":76561198048250715,"connected_time":3543000000000,"state":"active","ping":60},{"user_id":349,"name":"nikkielmao","steam_id":76561198086229832,"connected_time":1620000000000,"state":"active","ping":59},{"user_id":358,"name":"gooch","steam_id":76561198110706893,"connected_time":793000000000,"state":"active","ping":60},{"user_id":357,"name":"Ace4573","steam_id":76561198063524630,"connected_time":830000000000,"state":"active","ping":174},{"user_id":363,"name":"Zwphyr | TourBot.TF","steam_id":76561198160772793,"connected_time":33000000000,"state":"active","ping":78},{"user_id":345,"name":"Dragon","steam_id":76561198163255365,"connected_time":2422000000000,"state":"active","ping":97},{"user_id":362,"name":"Ignoramus Khan","steam_id":76561198111695218,"connected_time":431000000000,"state":"active","ping":93}]},{"server_id":311,"name":"Uncletopia | Frankfurt | 6 | All Maps","name_short":"frk-6","host":"frk-1.de.uncletopia.com","port":27065,"enabled":true,"region":"eu","cc":"de","latitude":50.110924,"longitude":8.682127,"reserved":0,"last_update":"0001-01-01T00:00:00Z","name_a2s":"Uncletopia | Frankfurt | 6 | All Maps","protocol":17,"map":"koth_lakeside_final","folder":"tf","game":"Team Fortress","app_id":440,"player_count":0,"max_players":24,"Bots":0,"server_type":"Dedicated","server_os":"Linux","password":true,"vac":true,"version":"7882260","steam_id":85568392924504278,"keywords":["cp","nocrits","nodmgspread","uncletopia"],"game_id":440,"stv_port":27066,"stv_name":"Uncletopia | Frankfurt | 6 | All Maps | STV","players":null},{"server_id":23,"name":"Uncletopia | Frankfurt | 7 | Stopwatch Beta","name_short":"frk-7","host":"frk-1.de.uncletopia.com","port":27075,"enabled":true,"region":"eu","cc":"de","latitude":50.110924,"longitude":8.682127,"reserved":0,"last_update":"0001-01-01T00:00:00Z","name_a2s":"Uncletopia | Frankfurt | 7 | Stopwatch Beta","protocol":17,"map":"cp_granary","folder":"tf","game":"Team Fortress","app_id":440,"player_count":0,"max_players":24,"Bots":0,"server_type":"Dedicated","server_os":"Linux","password":true,"vac":true,"version":"7882260","steam_id":85568392924742827,"keywords":["cp","nocrits","nodmgspread","uncletopia"],"game_id":440,"stv_port":27076,"stv_name":"Uncletopia | Frankfurt | 7 | Stopwatch Beta | STV","players":null},{"server_id":24,"name":"Uncletopia | Frankfurt | 8 | Community","name_short":"frk-8","host":"frk-1.de.uncletopia.com","port":27085,"enabled":true,"region":"eu","cc":"de","latitude":50.110924,"longitude":8.682127,"reserved":0,"last_update":"0001-01-01T00:00:00Z","name_a2s":"Uncletopia | Frankfurt | 8 | Community","protocol":17,"map":"workshop/cp_villa_b19.ugc2113052569","folder":"tf","game":"Team Fortress","app_id":440,"player_count":0,"max_players":24,"Bots":0,"server_type":"Dedicated","server_os":"Linux","password":true,"vac":true,"version":"7882260","steam_id":85568392924742828,"keywords":["cp","nocrits","nodmgspread","uncletopia"],"game_id":440,"stv_port":27086,"stv_name":"Uncletopia | Frankfurt | 8 | Community | STV","players":null},{"server_id":202,"name":"Uncletopia | Hong Kong | 1 | All Maps","name_short":"hgk-1","host":"hgk-1.hk.uncletopia.com","port":27015,"enabled":true,"region":"asia","cc":"hk","latitude":22.302711,"longitude":114.177216,"reserved":0,"last_update":"0001-01-01T00:00:00Z","name_a2s":"Uncletopia | Hong Kong | 1 | All Maps","protocol":17,"map":"koth_cascade","folder":"tf","game":"Team Fortress","app_id":440,"player_count":0,"max_players":24,"Bots":0,"server_type":"Dedicated","server_os":"Linux","password":true,"vac":true,"version":"7882260","steam_id":85568392924494504,"keywords":["cp","nocrits","nodmgspread","uncletopia"],"game_id":440,"stv_port":27016,"stv_name":"Uncletopia | Hong Kong | 1 | All Maps | STV","players":null},{"server_id":1,"name":"Uncletopia | Los Angeles | 1 | All Maps","name_short":"lax-1","host":"lax-1.us.uncletopia.com","port":27015,"enabled":true,"region":"us-west","cc":"us","latitude":33.94279,"longitude":-118.41004,"reserved":0,"last_update":"0001-01-01T00:00:00Z","name_a2s":"Uncletopia | Los Angeles | 1 | All Maps","protocol":17,"map":"pl_swiftwater_final1","folder":"tf","game":"Team Fortress","app_id":440,"player_count":24,"max_players":24,"Bots":0,"server_type":"Dedicated","server_os":"Linux","password":true,"vac":true,"version":"7882260","steam_id":85568392924469991,"keywords":["nocrits","nodmgspread","payload","uncletopia"],"game_id":440,"stv_port":27016,"stv_name":"Uncletopia | Los Angeles | 1 | All Maps | STV","players":[{"user_id":549,"name":"omg what the heck dude","steam_id":76561198070702819,"connected_time":2590000000000,"state":"active","ping":60},{"user_id":498,"name":"cielael","steam_id":76561198043971956,"connected_time":4919000000000,"state":"active","ping":46},{"user_id":558,"name":"DioMagnus","steam_id":76561198299391327,"connected_time":2122000000000,"state":"active","ping":54},{"user_id":589,"name":"Monty","steam_id":76561197993567253,"connected_time":657000000000,"state":"active","ping":75},{"user_id":594,"name":"Mr. Yoshida","steam_id":76561198263829831,"connected_time":470000000000,"state":"active","ping":106},{"user_id":581,"name":"chicken","steam_id":76561198196998007,"connected_time":1046000000000,"state":"active","ping":56},{"user_id":595,"name":"rabidhyperfocus","steam_id":76561198101495169,"connected_time":457000000000,"state":"active","ping":100},{"user_id":579,"name":"BrightOrangeMango","steam_id":76561198023144607,"connected_time":1113000000000,"state":"active","ping":105},{"user_id":596,"name":"Babyyy","steam_id":76561198079592999,"connected_time":441000000000,"state":"active","ping":101},{"user_id":569,"name":"Mimiu the Mimiga","steam_id":76561197976714577,"connected_time":1363000000000,"state":"active","ping":87},{"user_id":591,"name":"Nero","steam_id":76561198162875889,"connected_time":530000000000,"state":"active","ping":47},{"user_id":573,"name":"SAD MOSCOVIA","steam_id":76561198101081520,"connected_time":1322000000000,"state":"active","ping":94},{"user_id":583,"name":"Rix FPV","steam_id":76561198299320893,"connected_time":1013000000000,"state":"active","ping":113},{"user_id":590,"name":"Squirrel","steam_id":76561198026605788,"connected_time":625000000000,"state":"active","ping":60},{"user_id":584,"name":"Tanuki in your attic.","steam_id":76561198027487285,"connected_time":997000000000,"state":"active","ping":154},{"user_id":597,"name":"jayzak24","steam_id":76561198354267509,"connected_time":19000000000,"state":"spawning","ping":55},{"user_id":572,"name":"trashbro","steam_id":76561199417993197,"connected_time":1330000000000,"state":"active","ping":70},{"user_id":553,"name":"ùïÆùñÜùñíùñäùñóùñîùñì \ufffd\ufffd","steam_id":76561198045826628,"connected_time":2421000000000,"state":"active","ping":48},{"user_id":574,"name":"triph","steam_id":76561198067196509,"connected_time":1318000000000,"state":"active","ping":30},{"user_id":517,"name":"spherewithahat","steam_id":76561199122192660,"connected_time":4097000000000,"state":"active","ping":136},{"user_id":575,"name":"Natedatboi_20","steam_id":76561199468952442,"connected_time":1303000000000,"state":"active","ping":114},{"user_id":576,"name":"Telksio","steam_id":76561198348782968,"connected_time":1279000000000,"state":"active","ping":54},{"user_id":540,"name":"Big Dick Swinging","steam_id":76561198053819929,"connected_time":3202000000000,"state":"active","ping":91},{"user_id":546,"name":"Doopster","steam_id":76561198076816373,"connected_time":2861000000000,"state":"active","ping":65}]},{"server_id":112,"name":"Uncletopia | Los Angeles | 2 | All Maps","name_short":"lax-2","host":"lax-1.us.uncletopia.com","port":27025,"enabled":true,"region":"us-west","cc":"us","latitude":33.94279,"longitude":-118.41004,"reserved":0,"last_update":"0001-01-01T00:00:00Z","name_a2s":"Uncletopia | Los Angeles | 2 | All Maps","protocol":17,"map":"pl_upward","folder":"tf","game":"Team Fortress","app_id":440,"player_count":24,"max_players":24,"Bots":0,"server_type":"Dedicated","server_os":"Linux","password":true,"vac":true,"version":"7882260","steam_id":85568392924469992,"keywords":["nocrits","nodmgspread","payload","uncletopia"],"game_id":440,"stv_port":27026,"stv_name":"Uncletopia | Los Angeles | 2 | All Maps | STV","players":[{"user_id":226,"name":"mEch114","steam_id":76561198236936060,"connected_time":1440000000000,"state":"active","ping":92},{"user_id":243,"name":"Monsieur Peque√±o","steam_id":76561198327271041,"connected_time":932000000000,"state":"active","ping":74},{"user_id":244,"name":"Person","steam_id":76561198073885832,"connected_time":932000000000,"state":"active","ping":61},{"user_id":251,"name":"Î©çÏ≤≠Ìïú ÎØ∏Íµ≠Ïù∏","steam_id":76561198041986461,"connected_time":644000000000,"state":"active","ping":66},{"user_id":202,"name":"The Ugly Duckling","steam_id":76561199173272483,"connected_time":3282000000000,"state":"active","ping":57},{"user_id":190,"name":"E The Wasp","steam_id":76561199208867417,"connected_time":3907000000000,"state":"active","ping":70},{"user_id":255,"name":"jump","steam_id":76561198121162913,"connected_time":370000000000,"state":"active","ping":28},{"user_id":257,"name":"plink","steam_id":76561198087200115,"connected_time":21000000000,"state":"active","ping":116},{"user_id":206,"name":"Khaast","steam_id":76561198170253694,"connected_time":3172000000000,"state":"active","ping":94},{"user_id":252,"name":"Artgrenadier","steam_id":76561198063305359,"connected_time":607000000000,"state":"active","ping":119},{"user_id":213,"name":"Dov-Ah-Bob","steam_id":76561198147798338,"connected_time":3061000000000,"state":"active","ping":97},{"user_id":208,"name":"Whyamidoingthisaaaa","steam_id":76561199168837342,"connected_time":3168000000000,"state":"active","ping":141},{"user_id":241,"name":"dio","steam_id":76561198245094972,"connected_time":1054000000000,"state":"active","ping":73},{"user_id":247,"name":"thegreatsawyer","steam_id":76561198393604826,"connected_time":870000000000,"state":"active","ping":90},{"user_id":175,"name":"william william williams","steam_id":76561199056802747,"connected_time":5430000000000,"state":"active","ping":132},{"user_id":179,"name":"A Little Guy","steam_id":76561198142464684,"connected_time":5129000000000,"state":"active","ping":89},{"user_id":242,"name":"STAR!","steam_id":76561198271612664,"connected_time":980000000000,"state":"active","ping":138},{"user_id":215,"name":"Poop Train Conductor","steam_id":76561198073677619,"connected_time":3047000000000,"state":"active","ping":76},{"user_id":248,"name":"LovingKindn32z","steam_id":76561199064932372,"connected_time":859000000000,"state":"active","ping":47},{"user_id":249,"name":"Apprentice Pybro","steam_id":76561197996353534,"connected_time":849000000000,"state":"active","ping":47},{"user_id":232,"name":"‚òÅChaoscist","steam_id":76561198133707355,"connected_time":1335000000000,"state":"active","ping":40},{"user_id":239,"name":"Fish Lambert","steam_id":76561198098279668,"connected_time":1116000000000,"state":"active","ping":60},{"user_id":253,"name":"izzydex","steam_id":76561199101531034,"connected_time":592000000000,"state":"active","ping":117},{"user_id":256,"name":"Kaluka","steam_id":76561198036861445,"connected_time":330000000000,"state":"active","ping":121}]},{"server_id":324,"name":"Uncletopia | Los Angeles | 3 | All Maps","name_short":"lax-3","host":"lax-1.us.uncletopia.com","port":27035,"enabled":true,"region":"us-west","cc":"us","latitude":33.94279,"longitude":-118.41004,"reserved":0,"last_update":"0001-01-01T00:00:00Z","name_a2s":"Uncletopia | Los Angeles | 3 | All Maps","protocol":17,"map":"pl_swiftwater_final1","folder":"tf","game":"Team Fortress","app_id":440,"player_count":0,"max_players":24,"Bots":0,"server_type":"Dedicated","server_os":"Linux","password":true,"vac":true,"version":"7882260","steam_id":85568392924510198,"keywords":["nocrits","nodmgspread","payload","uncletopia"],"game_id":440,"stv_port":27036,"stv_name":"Uncletopia | Los Angeles | 3 | All Maps | STV","players":null},{"server_id":25,"name":"Uncletopia | Los Angeles | 4 | Stopwatch Beta","name_short":"lax-4","host":"lax-1.us.uncletopia.com","port":27045,"enabled":true,"region":"us-west","cc":"us","latitude":33.94279,"longitude":-118.41004,"reserved":0,"last_update":"0001-01-01T00:00:00Z","name_a2s":"Uncletopia | Los Angeles | 4 | Stopwatch Beta","protocol":17,"map":"workshop/koth_clearcut_b15.ugc2107050255","folder":"tf","game":"Team Fortress","app_id":440,"player_count":0,"max_players":24,"Bots":0,"server_type":"Dedicated","server_os":"Linux","password":true,"vac":true,"version":"7882260","steam_id":85568392924510199,"keywords":["cp","nocrits","nodmgspread","uncletopia"],"game_id":440,"stv_port":27046,"stv_name":"Uncletopia | Los Angeles | 4 | Stopwatch Beta | STV","players":null},{"server_id":11,"name":"Uncletopia | London | 1 | All Maps","name_short":"lon-1","host":"lon-1.uk.uncletopia.com","port":27015,"enabled":true,"region":"eu","cc":"gb","latitude":51.509865,"longitude":-0.118092,"reserved":0,"last_update":"0001-01-01T00:00:00Z","name_a2s":"Uncletopia | London | 1 | All Maps","protocol":17,"map":"koth_lakeside_final","folder":"tf","game":"Team Fortress","app_id":440,"player_count":0,"max_players":24,"Bots":0,"server_type":"Dedicated","server_os":"Linux","password":true,"vac":true,"version":"7882260","steam_id":85568392924367362,"keywords":["cp","nocrits","nodmgspread","uncletopia"],"game_id":440,"stv_port":27016,"stv_name":"Uncletopia | London | 1 | All Maps | STV","players":null},{"server_id":114,"name":"Uncletopia | London | 2 | All Maps","name_short":"lon-2","host":"lon-1.uk.uncletopia.com","port":27025,"enabled":true,"region":"eu","cc":"gb","latitude":51.509865,"longitude":-0.118092,"reserved":0,"last_update":"0001-01-01T00:00:00Z","name_a2s":"Uncletopia | London | 2 | All Maps","protocol":17,"map":"pl_barnblitz","folder":"tf","game":"Team Fortress","app_id":440,"player_count":23,"max_players":24,"Bots":0,"server_type":"Dedicated","server_os":"Linux","password":true,"vac":true,"version":"7882260","steam_id":85568392924470941,"keywords":["nocrits","nodmgspread","payload","uncletopia"],"game_id":440,"stv_port":27026,"stv_name":"Uncletopia | London | 2 | All Maps | STV","players":[{"user_id":413,"name":"pijacka","steam_id":76561198103899658,"connected_time":1921000000000,"state":"active","ping":62},{"user_id":428,"name":"ChickenShred","steam_id":76561198867897841,"connected_time":806000000000,"state":"active","ping":164},{"user_id":421,"name":"Toofy","steam_id":76561197989727907,"connected_time":1154000000000,"state":"active","ping":38},{"user_id":422,"name":"DrSacrebleu","steam_id":76561198053229115,"connected_time":1095000000000,"state":"active","ping":63},{"user_id":433,"name":"Hoop","steam_id":76561199124865843,"connected_time":350000000000,"state":"active","ping":147},{"user_id":438,"name":"Samuel L. Jackson","steam_id":76561198130427881,"connected_time":61000000000,"state":"active","ping":170},{"user_id":425,"name":"Summer ‚ô•","steam_id":76561198047723907,"connected_time":840000000000,"state":"active","ping":31},{"user_id":396,"name":"David \"Crash\" Murphy","steam_id":76561198292845505,"connected_time":2563000000000,"state":"active","ping":89},{"user_id":426,"name":"Discount Magician","steam_id":76561197997632512,"connected_time":835000000000,"state":"active","ping":62},{"user_id":388,"name":"A Succulent Chinese Meal","steam_id":76561198069472440,"connected_time":2964000000000,"state":"active","ping":63},{"user_id":417,"name":"lawn","steam_id":76561198001243486,"connected_time":1612000000000,"state":"active","ping":45},{"user_id":435,"name":"Just Dez","steam_id":76561199327664719,"connected_time":162000000000,"state":"active","ping":171},{"user_id":392,"name":"Arget","steam_id":76561198084121867,"connected_time":2686000000000,"state":"active","ping":78},{"user_id":418,"name":"Sandshee","steam_id":76561198088574666,"connected_time":1391000000000,"state":"active","ping":44},{"user_id":394,"name":"Zedifo","steam_id":76561198044032070,"connected_time":2639000000000,"state":"active","ping":31},{"user_id":436,"name":"Jdaalbrecht","steam_id":76561198305556877,"connected_time":157000000000,"state":"active","ping":175},{"user_id":437,"name":"joao619000","steam_id":76561198081585770,"connected_time":141000000000,"state":"active","ping":40},{"user_id":402,"name":"Sgil97","steam_id":76561199065814887,"connected_time":2398000000000,"state":"active","ping":57},{"user_id":416,"name":"Assassin+","steam_id":76561197994310420,"connected_time":1739000000000,"state":"active","ping":62},{"user_id":439,"name":"SpaceDonut9","steam_id":76561199013502859,"connected_time":17000000000,"state":"active","ping":144},{"user_id":440,"name":"King Sunshine","steam_id":76561198802723642,"connected_time":15000000000,"state":"active","ping":132},{"user_id":411,"name":"Silvercoat's Stargazer","steam_id":76561198399525329,"connected_time":2126000000000,"state":"active","ping":131},{"user_id":412,"name":"Fabeure","steam_id":76561198143481516,"connected_time":2121000000000,"state":"active","ping":105}]},{"server_id":320,"name":"Uncletopia | London | 3 | All Maps","name_short":"lon-3","host":"lon-1.uk.uncletopia.com","port":27035,"enabled":true,"region":"eu","cc":"gb","latitude":51.509865,"longitude":-0.118092,"reserved":0,"last_update":"0001-01-01T00:00:00Z","name_a2s":"Uncletopia | London | 3 | All Maps","protocol":17,"map":"pl_borneo","folder":"tf","game":"Team Fortress","app_id":440,"player_count":23,"max_players":24,"Bots":0,"server_type":"Dedicated","server_os":"Linux","password":true,"vac":true,"version":"7882260","steam_id":85568392924510192,"keywords":["nocrits","nodmgspread","payload","uncletopia"],"game_id":440,"stv_port":27036,"stv_name":"Uncletopia | London | 3 | All Maps | STV","players":[{"user_id":374,"name":"Proto-arc","steam_id":76561198012776747,"connected_time":5800000000000,"state":"active","ping":49},{"user_id":416,"name":"ncl.dxn","steam_id":76561199278919252,"connected_time":2109000000000,"state":"active","ping":151},{"user_id":438,"name":":D","steam_id":76561198062075870,"connected_time":894000000000,"state":"active","ping":62},{"user_id":440,"name":"Sandinho","steam_id":76561198057827498,"connected_time":603000000000,"state":"active","ping":51},{"user_id":451,"name":"Raingnome @SaveTF2","steam_id":76561198007394958,"connected_time":73000000000,"state":"active","ping":54},{"user_id":422,"name":"Bill Farmer","steam_id":76561198429658370,"connected_time":1860000000000,"state":"active","ping":120},{"user_id":452,"name":"The Bear from Total Drama","steam_id":76561198370445644,"connected_time":72000000000,"state":"active","ping":76},{"user_id":414,"name":"the indomitable human spirit","steam_id":76561198718760200,"connected_time":2203000000000,"state":"active","ping":45},{"user_id":430,"name":"snowycoast","steam_id":76561198346638308,"connected_time":1044000000000,"state":"active","ping":56},{"user_id":383,"name":"Volcyy","steam_id":76561198063979124,"connected_time":5469000000000,"state":"active","ping":50},{"user_id":445,"name":"Bambi","steam_id":76561198166972711,"connected_time":386000000000,"state":"active","ping":44},{"user_id":409,"name":"üÉî Nugg1t(she/they)","steam_id":76561198065652251,"connected_time":2542000000000,"state":"active","ping":56},{"user_id":446,"name":"Ferris","steam_id":76561199269487471,"connected_time":319000000000,"state":"active","ping":84},{"user_id":449,"name":"Critless","steam_id":76561198133968184,"connected_time":155000000000,"state":"active","ping":47},{"user_id":340,"name":"Christmas Ham","steam_id":76561198119601623,"connected_time":7954000000000,"state":"active","ping":55},{"user_id":448,"name":"Kan0_","steam_id":76561198129596771,"connected_time":237000000000,"state":"active","ping":74},{"user_id":454,"name":"all_classics","steam_id":76561198012738913,"connected_time":33000000000,"state":"active","ping":140},{"user_id":453,"name":"crazy CHEAPwm1CRITS","steam_id":76561198061502797,"connected_time":71000000000,"state":"active","ping":185},{"user_id":333,"name":"Alibi","steam_id":76561198061845595,"connected_time":8708000000000,"state":"active","ping":50},{"user_id":436,"name":"Osama Bin Pacc Smoking","steam_id":76561198877260644,"connected_time":908000000000,"state":"active","ping":63},{"user_id":429,"name":"2Fort Penguin","steam_id":76561197970114051,"connected_time":1229000000000,"state":"active","ping":45},{"user_id":425,"name":"dd","steam_id":76561198257836694,"connected_time":1774000000000,"state":"active","ping":38},{"user_id":439,"name":"Fuck Tha Police","steam_id":76561198050076376,"connected_time":841000000000,"state":"active","ping":49}]},{"server_id":321,"name":"Uncletopia | London | 4 | All Maps","name_short":"lon-4","host":"lon-1.uk.uncletopia.com","port":27045,"enabled":true,"region":"eu","cc":"gb","latitude":51.509865,"longitude":-0.118092,"reserved":0,"last_update":"0001-01-01T00:00:00Z","name_a2s":"Uncletopia | London | 4 | All Maps","protocol":17,"map":"koth_viaduct","folder":"tf","game":"Team Fortress","app_id":440,"player_count":6,"max_players":24,"Bots":0,"server_type":"Dedicated","server_os":"Linux","password":true,"vac":true,"version":"7882260","steam_id":85568392924510193,"keywords":["cp","nocrits","nodmgspread","uncletopia"],"game_id":440,"stv_port":27046,"stv_name":"Uncletopia | London | 4 | All Maps | STV","players":[{"user_id":992,"name":"F2P Rights Activist","steam_id":76561199012786293,"connected_time":827000000000,"state":"active","ping":165},{"user_id":893,"name":"gediot#2","steam_id":76561199229899155,"connected_time":7198000000000,"state":"active","ping":37},{"user_id":981,"name":"volkiano","steam_id":76561198319802031,"connected_time":1401000000000,"state":"active","ping":45},{"user_id":982,"name":"The Punch","steam_id":76561198212488780,"connected_time":1368000000000,"state":"active","ping":60},{"user_id":968,"name":"Wiki","steam_id":76561198148455642,"connected_time":2982000000000,"state":"active","ping":33},{"user_id":987,"name":"tuna","steam_id":76561198121590248,"connected_time":1120000000000,"state":"active","ping":38}]},{"server_id":21,"name":"Uncletopia | London | 5 | All Maps","name_short":"lon-5","host":"lon-1.uk.uncletopia.com","port":27055,"enabled":true,"region":"eu","cc":"gb","latitude":51.509865,"longitude":-0.118092,"reserved":0,"last_update":"0001-01-01T00:00:00Z","name_a2s":"Uncletopia | London | 5 | All Maps","protocol":17,"map":"koth_viaduct","folder":"tf","game":"Team Fortress","app_id":440,"player_count":0,"max_players":24,"Bots":0,"server_type":"Dedicated","server_os":"Linux","password":true,"vac":true,"version":"7882260","steam_id":85568392924742829,"keywords":["cp","nocrits","nodmgspread","uncletopia"],"game_id":440,"stv_port":27056,"stv_name":"Uncletopia | London | 5 | All Maps | STV","players":null},{"server_id":22,"name":"Uncletopia | London | 6 | All Maps","name_short":"lon-6","host":"lon-1.uk.uncletopia.com","port":27065,"enabled":true,"region":"eu","cc":"gb","latitude":51.509865,"longitude":-0.118092,"reserved":0,"last_update":"0001-01-01T00:00:00Z","name_a2s":"Uncletopia | London | 6 | All Maps","protocol":17,"map":"cp_process_final","folder":"tf","game":"Team Fortress","app_id":440,"player_count":0,"max_players":24,"Bots":0,"server_type":"Dedicated","server_os":"Linux","password":true,"vac":true,"version":"7882260","steam_id":85568392924742830,"keywords":["cp","nocrits","nodmgspread","uncletopia"],"game_id":440,"stv_port":27066,"stv_name":"Uncletopia | London | 6 | All Maps | STV","players":null},{"server_id":40,"name":"Uncletopia | London | 7 | No Payload","name_short":"lon-7","host":"lon-1.uk.uncletopia.com","port":27075,"enabled":true,"region":"eu","cc":"gb","latitude":51.509865,"longitude":-0.118092,"reserved":0,"last_update":"0001-01-01T00:00:00Z","name_a2s":"Uncletopia | London | 7 | No Payload","protocol":17,"map":"cp_freight_final1","folder":"tf","game":"Team Fortress","app_id":440,"player_count":0,"max_players":24,"Bots":0,"server_type":"Dedicated","server_os":"Linux","password":true,"vac":true,"version":"7882260","steam_id":85568392924964314,"keywords":["cp","nocrits","nodmgspread","uncletopia"],"game_id":440,"stv_port":27076,"stv_name":"Uncletopia | London | 7 | No Payload | STV","players":null},{"server_id":41,"name":"Uncletopia | London | 8 | Community","name_short":"lon-8","host":"lon-1.uk.uncletopia.com","port":27085,"enabled":true,"region":"eu","cc":"gb","latitude":51.509865,"longitude":-0.118092,"reserved":0,"last_update":"0001-01-01T00:00:00Z","name_a2s":"Uncletopia | London | 8 | Community","protocol":17,"map":"workshop/koth_ramjam_rc1.ugc459778887","folder":"tf","game":"Team Fortress","app_id":440,"player_count":0,"max_players":24,"Bots":0,"server_type":"Dedicated","server_os":"Linux","password":true,"vac":true,"version":"7882260","steam_id":85568392924964315,"keywords":["cp","nocrits","nodmgspread","uncletopia"],"game_id":440,"stv_port":27086,"stv_name":"Uncletopia | London | 8 | Community | STV","players":null},{"server_id":300,"name":"Uncletopia | Montr√©al | 1 | All Maps","name_short":"mtl-1","host":"mtl-1.ca.uncletopia.com","port":27015,"enabled":true,"region":"us-east","cc":"ca","latitude":45.50889,"longitude":-73.56167,"reserved":0,"last_update":"0001-01-01T00:00:00Z","name_a2s":"Uncletopia | Montr√©al | 1 | All Maps","protocol":17,"map":"pl_barnblitz","folder":"tf","game":"Team Fortress","app_id":440,"player_count":0,"max_players":24,"Bots":0,"server_type":"Dedicated","server_os":"Linux","password":true,"vac":true,"version":"7882260","steam_id":85568392924500087,"keywords":["nocrits","nodmgspread","payload","uncletopia"],"game_id":440,"stv_port":27016,"stv_name":"Uncletopia | Montr√©al | 1 | All Maps | STV","players":null},{"server_id":301,"name":"Uncletopia | Montr√©al | 2 | All Maps","name_short":"mtl-2","host":"mtl-1.ca.uncletopia.com","port":27025,"enabled":true,"region":"us-east","cc":"ca","latitude":45.50889,"longitude":-73.56167,"reserved":0,"last_update":"0001-01-01T00:00:00Z","name_a2s":"Uncletopia | Montr√©al | 2 | All Maps","protocol":17,"map":"cp_egypt_final","folder":"tf","game":"Team Fortress","app_id":440,"player_count":0,"max_players":24,"Bots":0,"server_type":"Dedicated","server_os":"Linux","password":true,"vac":true,"version":"7882260","steam_id":85568392924500088,"keywords":["cp","nocrits","nodmgspread","uncletopia"],"game_id":440,"stv_port":27026,"stv_name":"Uncletopia | Montr√©al | 2 | All Maps | STV","players":null},{"server_id":302,"name":"Uncletopia | Montr√©al | 3 | All Maps","name_short":"mtl-3","host":"mtl-1.ca.uncletopia.com","port":27035,"enabled":true,"region":"us-east","cc":"ca","latitude":45.50889,"longitude":-73.56167,"reserved":0,"last_update":"0001-01-01T00:00:00Z","name_a2s":"Uncletopia | Montr√©al | 3 | All Maps","protocol":17,"map":"koth_highpass","folder":"tf","game":"Team Fortress","app_id":440,"player_count":0,"max_players":24,"Bots":0,"server_type":"Dedicated","server_os":"Linux","password":true,"vac":true,"version":"7882260","steam_id":85568392924500089,"keywords":["cp","nocrits","nodmgspread","uncletopia"],"game_id":440,"stv_port":27036,"stv_name":"Uncletopia | Montr√©al | 3 | All Maps | STV","players":null},{"server_id":303,"name":"Uncletopia | Montr√©al | 4 | No Payload","name_short":"mtl-4","host":"mtl-1.ca.uncletopia.com","port":27045,"enabled":true,"region":"us-east","cc":"ca","latitude":45.50889,"longitude":-73.56167,"reserved":0,"last_update":"0001-01-01T00:00:00Z","name_a2s":"Uncletopia | Montr√©al | 4 | No Payload","protocol":17,"map":"koth_nucleus","folder":"tf","game":"Team Fortress","app_id":440,"player_count":0,"max_players":24,"Bots":0,"server_type":"Dedicated","server_os":"Linux","password":true,"vac":true,"version":"7882260","steam_id":85568392924500090,"keywords":["cp","nocrits","nodmgspread","uncletopia"],"game_id":440,"stv_port":27046,"stv_name":"Uncletopia | Montr√©al | 4 | No Payload | STV","players":null},{"server_id":13,"name":"Uncletopia | New York City | 1 | All Maps","name_short":"nyc-1","host":"nyc-1.us.uncletopia.com","port":27015,"enabled":true,"region":"us-east","cc":"us","latitude":40.73061,"longitude":-73.93524,"reserved":0,"last_update":"0001-01-01T00:00:00Z","name_a2s":"Uncletopia | New York City | 1 | All Maps","protocol":17,"map":"cp_steel","folder":"tf","game":"Team Fortress","app_id":440,"player_count":24,"max_players":24,"Bots":0,"server_type":"Dedicated","server_os":"Linux","password":true,"vac":true,"version":"7882260","steam_id":85568392924469993,"keywords":["cp","nocrits","nodmgspread","uncletopia"],"game_id":440,"stv_port":27016,"stv_name":"Uncletopia | New York City | 1 | All Maps | STV","players":[{"user_id":346,"name":"Kerpal45","steam_id":76561198153340350,"connected_time":1895000000000,"state":"active","ping":84},{"user_id":251,"name":"Sire Salty","steam_id":76561198079639072,"connected_time":9737000000000,"state":"active","ping":62},{"user_id":362,"name":"Bootes","steam_id":76561197968255551,"connected_time":164000000000,"state":"active","ping":47},{"user_id":353,"name":"IlikeChowMien","steam_id":76561199466131782,"connected_time":1027000000000,"state":"active","ping":71},{"user_id":320,"name":"Jo_","steam_id":76561198142135469,"connected_time":3069000000000,"state":"active","ping":68},{"user_id":347,"name":"bocaJ","steam_id":76561198374535092,"connected_time":1831000000000,"state":"active","ping":103},{"user_id":314,"name":"Gentoo Linux Gaming","steam_id":76561197999657118,"connected_time":3213000000000,"state":"active","ping":65},{"user_id":213,"name":"SHADY SWEATER SALESMAN","steam_id":76561198014616865,"connected_time":12573000000000,"state":"active","ping":62},{"user_id":317,"name":"Bigsumoslammer","steam_id":76561198044505076,"connected_time":3101000000000,"state":"active","ping":45},{"user_id":339,"name":"emilee (evil)","steam_id":76561198061455664,"connected_time":2553000000000,"state":"active","ping":50},{"user_id":357,"name":"Alcatraz","steam_id":76561198418988212,"connected_time":479000000000,"state":"active","ping":72},{"user_id":340,"name":"shploopie","steam_id":76561198264289810,"connected_time":2550000000000,"state":"active","ping":62},{"user_id":358,"name":"frank gallagher","steam_id":76561198973429541,"connected_time":474000000000,"state":"active","ping":89},{"user_id":287,"name":"Flowers","steam_id":76561198031669899,"connected_time":6815000000000,"state":"active","ping":74},{"user_id":352,"name":"Orion","steam_id":76561198000418837,"connected_time":1044000000000,"state":"active","ping":90},{"user_id":355,"name":"Laura Palmer Gaming","steam_id":76561198282965733,"connected_time":927000000000,"state":"active","ping":59},{"user_id":327,"name":"Mrs.Frizzle","steam_id":76561198117157085,"connected_time":2999000000000,"state":"active","ping":60},{"user_id":354,"name":"Monsieur l'INGENIEUR","steam_id":76561198090504334,"connected_time":967000000000,"state":"active","ping":68},{"user_id":356,"name":"Corey Corgins","steam_id":76561198102417626,"connected_time":582000000000,"state":"active","ping":71},{"user_id":343,"name":"Porcupine's Revenge!","steam_id":76561199121615234,"connected_time":2339000000000,"state":"active","ping":47},{"user_id":329,"name":"Ginger Jesus","steam_id":76561198052386458,"connected_time":2972000000000,"state":"active","ping":45},{"user_id":288,"name":"AJTarcza","steam_id":76561198070800190,"connected_time":6619000000000,"state":"active","ping":72},{"user_id":360,"name":"cruelasecino","steam_id":76561198136003212,"connected_time":401000000000,"state":"active","ping":101},{"user_id":361,"name":"Lin","steam_id":76561198143746480,"connected_time":400000000000,"state":"active","ping":125}]},{"server_id":14,"name":"Uncletopia | New York City | 2 | All Maps","name_short":"nyc-2","host":"nyc-1.us.uncletopia.com","port":27025,"enabled":true,"region":"us-east","cc":"us","latitude":40.73061,"longitude":-73.93524,"reserved":0,"last_update":"0001-01-01T00:00:00Z","name_a2s":"Uncletopia | New York City | 2 | All Maps","protocol":17,"map":"pl_barnblitz","folder":"tf","game":"Team Fortress","app_id":440,"player_count":24,"max_players":24,"Bots":0,"server_type":"Dedicated","server_os":"Linux","password":true,"vac":true,"version":"7882260","steam_id":85568392924469994,"keywords":["nocrits","nodmgspread","payload","uncletopia"],"game_id":440,"stv_port":27026,"stv_name":"Uncletopia | New York City | 2 | All Maps | STV","players":[{"user_id":178,"name":"rapscallion","steam_id":76561198188722751,"connected_time":880000000000,"state":"active","ping":113},{"user_id":163,"name":"0.70 sens","steam_id":76561199388826335,"connected_time":2992000000000,"state":"active","ping":64},{"user_id":175,"name":"saib","steam_id":76561198966980576,"connected_time":1127000000000,"state":"active","ping":44},{"user_id":165,"name":"[ATL1] Lavender they/them","steam_id":76561198825997674,"connected_time":2351000000000,"state":"active","ping":74},{"user_id":131,"name":"stewfat","steam_id":76561198084066964,"connected_time":5911000000000,"state":"active","ping":36},{"user_id":187,"name":"wolfgrey139","steam_id":76561199206554751,"connected_time":329000000000,"state":"active","ping":54},{"user_id":174,"name":"golem","steam_id":76561198355040593,"connected_time":1315000000000,"state":"active","ping":59},{"user_id":184,"name":"Gheeotine","steam_id":76561198010181698,"connected_time":413000000000,"state":"active","ping":73},{"user_id":185,"name":"A Puppy","steam_id":76561198828184456,"connected_time":401000000000,"state":"active","ping":47},{"user_id":183,"name":"rat","steam_id":76561198313364985,"connected_time":444000000000,"state":"active","ping":98},{"user_id":169,"name":"eater of bee hives","steam_id":76561199030261869,"connected_time":1637000000000,"state":"active","ping":98},{"user_id":171,"name":"StarLy","steam_id":76561198174428289,"connected_time":1523000000000,"state":"active","ping":83},{"user_id":148,"name":"Okpar","steam_id":76561199221067945,"connected_time":4460000000000,"state":"active","ping":120},{"user_id":172,"name":"Pocket Medic Girlfriend","steam_id":76561198378587138,"connected_time":1511000000000,"state":"active","ping":104},{"user_id":159,"name":"hierodule","steam_id":76561198023229665,"connected_time":3170000000000,"state":"active","ping":47},{"user_id":182,"name":"Jackie Bnuyy {{Trans Rights}}","steam_id":76561198804886675,"connected_time":448000000000,"state":"active","ping":77},{"user_id":158,"name":"MILF Gaming","steam_id":76561198155378170,"connected_time":3201000000000,"state":"active","ping":45},{"user_id":122,"name":"vgMaster749","steam_id":76561198205048900,"connected_time":6549000000000,"state":"active","ping":62},{"user_id":176,"name":"Rat-ortastic","steam_id":76561198105613110,"connected_time":937000000000,"state":"active","ping":61},{"user_id":181,"name":"xLeoparrd","steam_id":76561198940657194,"connected_time":622000000000,"state":"active","ping":85},{"user_id":180,"name":"Viokik","steam_id":76561198408846602,"connected_time":639000000000,"state":"active","ping":60},{"user_id":135,"name":"cp_junction head","steam_id":76561198070380404,"connected_time":5455000000000,"state":"active","ping":51},{"user_id":144,"name":"Hank","steam_id":76561198094830509,"connected_time":4524000000000,"state":"active","ping":77},{"user_id":160,"name":"Alex","steam_id":76561198116937513,"connected_time":3156000000000,"state":"active","ping":75}]},{"server_id":15,"name":"Uncletopia | New York City | 3 | Stopwatch Beta","name_short":"nyc-3","host":"nyc-1.us.uncletopia.com","port":27035,"enabled":true,"region":"us-east","cc":"us","latitude":40.73061,"longitude":-73.93524,"reserved":0,"last_update":"0001-01-01T00:00:00Z","name_a2s":"Uncletopia | New York City | 3 | Stopwatch Beta","protocol":17,"map":"koth_highpass","folder":"tf","game":"Team Fortress","app_id":440,"player_count":0,"max_players":24,"Bots":0,"server_type":"Dedicated","server_os":"Linux","password":true,"vac":true,"version":"7882260","steam_id":85568392924742820,"keywords":["cp","nocrits","nodmgspread","uncletopia"],"game_id":440,"stv_port":27036,"stv_name":"Uncletopia | New York City | 3 | Stopwatch Beta | STV","players":null},{"server_id":16,"name":"Uncletopia | New York City | 4 | Community","name_short":"nyc-4","host":"nyc-1.us.uncletopia.com","port":27045,"enabled":true,"region":"us-east","cc":"us","latitude":40.73061,"longitude":-73.93524,"reserved":0,"last_update":"0001-01-01T00:00:00Z","name_a2s":"Uncletopia | New York City | 4 | Community","protocol":17,"map":"workshop/koth_kemptown_rc1.ugc767410655","folder":"tf","game":"Team Fortress","app_id":440,"player_count":0,"max_players":24,"Bots":0,"server_type":"Dedicated","server_os":"Linux","password":true,"vac":true,"version":"7882260","steam_id":85568392924742821,"keywords":["cp","nocrits","nodmgspread","uncletopia"],"game_id":440,"stv_port":27046,"stv_name":"Uncletopia | New York City | 4 | Community | STV","players":null},{"server_id":142,"name":"Uncletopia | S√£o Paulo | 1 | All Maps","name_short":"sao-1","host":"sao-1.br.uncletopia.com","port":27015,"enabled":true,"region":"sa","cc":"br","latitude":-23.533773,"longitude":-46.62529,"reserved":0,"last_update":"0001-01-01T00:00:00Z","name_a2s":"Uncletopia | S√£o Paulo | 1 | All Maps","protocol":17,"map":"koth_viaduct","folder":"tf","game":"Team Fortress","app_id":440,"player_count":2,"max_players":24,"Bots":0,"server_type":"Dedicated","server_os":"Linux","password":true,"vac":true,"version":"7882260","steam_id":85568392924469996,"keywords":["cp","nocrits","nodmgspread","uncletopia"],"game_id":440,"stv_port":27016,"stv_name":"Uncletopia | S√£o Paulo | 1 | All Maps | STV","players":[{"user_id":34,"name":"guarda-chuva","steam_id":76561198078694330,"connected_time":218000000000,"state":"active","ping":54},{"user_id":35,"name":"Tert_14","steam_id":76561198185952289,"connected_time":153000000000,"state":"active","ping":75}]},{"server_id":143,"name":"Uncletopia | S√£o Paulo | 2 | All Maps","name_short":"sao-2","host":"sao-2.br.uncletopia.com","port":27015,"enabled":true,"region":"sa","cc":"br","latitude":-23.533773,"longitude":-46.62529,"reserved":0,"last_update":"0001-01-01T00:00:00Z","name_a2s":"Uncletopia | S√£o Paulo | 2 | All Maps","protocol":17,"map":"cp_mercenarypark","folder":"tf","game":"Team Fortress","app_id":440,"player_count":10,"max_players":24,"Bots":0,"server_type":"Dedicated","server_os":"Linux","password":true,"vac":true,"version":"7882260","steam_id":85568392924485349,"keywords":["cp","nocrits","nodmgspread","uncletopia"],"game_id":440,"stv_port":27016,"stv_name":"Uncletopia | S√£o Paulo | 2 | All Maps | STV","players":[{"user_id":55,"name":"DoggieGhost","steam_id":76561198276464353,"connected_time":1022000000000,"state":"active","ping":246},{"user_id":56,"name":"Tixoner","steam_id":76561198126766253,"connected_time":1001000000000,"state":"active","ping":82},{"user_id":45,"name":"//hd","steam_id":76561199098715784,"connected_time":2544000000000,"state":"active","ping":71},{"user_id":60,"name":"Don Tacos (F2P)","steam_id":76561198878202117,"connected_time":296000000000,"state":"active","ping":263},{"user_id":54,"name":"Zaparol","steam_id":76561198971733797,"connected_time":1373000000000,"state":"active","ping":64},{"user_id":50,"name":"Run Spy Run !","steam_id":76561198219828245,"connected_time":1905000000000,"state":"active","ping":64},{"user_id":59,"name":"BDMango","steam_id":76561199323225729,"connected_time":499000000000,"state":"active","ping":213},{"user_id":61,"name":"cavaleiro no deserto","steam_id":76561198869886282,"connected_time":229000000000,"state":"active","ping":79},{"user_id":62,"name":"Daku","steam_id":76561198036667684,"connected_time":50000000000,"state":"active","ping":66},{"user_id":63,"name":"≈ölimak","steam_id":76561198296476784,"connected_time":38000000000,"state":"spawning","ping":224}]},{"server_id":7,"name":"Uncletopia | Seattle | 1 | All Maps","name_short":"sea-1","host":"sea-1.us.uncletopia.com","port":27015,"enabled":true,"region":"us-west","cc":"us","latitude":47.608013,"longitude":-122.33517,"reserved":0,"last_update":"0001-01-01T00:00:00Z","name_a2s":"Uncletopia | Seattle | 1 | All Maps","protocol":17,"map":"pl_thundermountain","folder":"tf","game":"Team Fortress","app_id":440,"player_count":24,"max_players":24,"Bots":0,"server_type":"Dedicated","server_os":"Linux","password":true,"vac":true,"version":"7882260","steam_id":85568392924469997,"keywords":["nocrits","nodmgspread","payload","uncletopia"],"game_id":440,"stv_port":27016,"stv_name":"Uncletopia | Seattle | 1 | All Maps | STV","players":[{"user_id":362,"name":"C^a^L","steam_id":76561198241124222,"connected_time":1175000000000,"state":"active","ping":62},{"user_id":373,"name":"Peppy","steam_id":76561198866629645,"connected_time":500000000000,"state":"active","ping":64},{"user_id":345,"name":"Vincent Van Bro","steam_id":76561197966919802,"connected_time":2171000000000,"state":"active","ping":57},{"user_id":356,"name":"Strikerbolt","steam_id":76561199095622897,"connected_time":1584000000000,"state":"active","ping":78},{"user_id":359,"name":"Crake","steam_id":76561198001959071,"connected_time":1274000000000,"state":"active","ping":59},{"user_id":364,"name":"banana slamma","steam_id":76561198848119263,"connected_time":1028000000000,"state":"active","ping":51},{"user_id":375,"name":"The Panda Knight","steam_id":76561198150282587,"connected_time":440000000000,"state":"active","ping":115},{"user_id":379,"name":"AWRD","steam_id":76561198110350838,"connected_time":160000000000,"state":"active","ping":71},{"user_id":374,"name":"Igrium","steam_id":76561198119549811,"connected_time":483000000000,"state":"active","ping":72},{"user_id":348,"name":"TheGrassMan (He/Him)","steam_id":76561198118984048,"connected_time":2128000000000,"state":"active","ping":113},{"user_id":358,"name":"Blappie","steam_id":76561197980385816,"connected_time":1358000000000,"state":"active","ping":63},{"user_id":320,"name":"Antwan","steam_id":76561198246200638,"connected_time":3306000000000,"state":"active","ping":100},{"user_id":349,"name":"Retroliar","steam_id":76561199004899484,"connected_time":2125000000000,"state":"active","ping":87},{"user_id":340,"name":"Elbis Premsly","steam_id":76561198067717795,"connected_time":2395000000000,"state":"active","ping":65},{"user_id":369,"name":"Empty","steam_id":76561198289696924,"connected_time":921000000000,"state":"active","ping":105},{"user_id":371,"name":"Username","steam_id":76561199033122306,"connected_time":725000000000,"state":"active","ping":164},{"user_id":363,"name":"mass Tech‚Ñ¢¬© EXTREME 2000","steam_id":76561198399115655,"connected_time":1102000000000,"state":"active","ping":85},{"user_id":381,"name":"oil","steam_id":76561198099980149,"connected_time":124000000000,"state":"active","ping":83},{"user_id":352,"name":"Walmus","steam_id":76561198111416393,"connected_time":1959000000000,"state":"active","ping":95},{"user_id":370,"name":"Big G","steam_id":76561198053279911,"connected_time":749000000000,"state":"active","ping":51},{"user_id":368,"name":"Sqilluy","steam_id":76561198130993466,"connected_time":989000000000,"state":"active","ping":80},{"user_id":337,"name":"A UsedNom","steam_id":76561198402832756,"connected_time":2699000000000,"state":"active","ping":68},{"user_id":380,"name":"Suez","steam_id":76561198034642980,"connected_time":159000000000,"state":"active","ping":75},{"user_id":377,"name":"theslayert4","steam_id":76561199258578780,"connected_time":318000000000,"state":"active","ping":79}]},{"server_id":119,"name":"Uncletopia | Seattle | 2 | All Maps","name_short":"sea-2","host":"sea-1.us.uncletopia.com","port":27025,"enabled":true,"region":"us-west","cc":"us","latitude":47.608013,"longitude":-122.33517,"reserved":0,"last_update":"0001-01-01T00:00:00Z","name_a2s":"Uncletopia | Seattle | 2 | All Maps","protocol":17,"map":"pl_swiftwater_final1","folder":"tf","game":"Team Fortress","app_id":440,"player_count":24,"max_players":24,"Bots":0,"server_type":"Dedicated","server_os":"Linux","password":true,"vac":true,"version":"7882260","steam_id":85568392924469998,"keywords":["nocrits","nodmgspread","payload","uncletopia"],"game_id":440,"stv_port":27026,"stv_name":"Uncletopia | Seattle | 2 | All Maps | STV","players":[{"user_id":322,"name":"LerN","steam_id":76561198083463877,"connected_time":330000000000,"state":"active","ping":104},{"user_id":276,"name":"Keamy","steam_id":76561199471434875,"connected_time":3669000000000,"state":"active","ping":40},{"user_id":318,"name":"Feldspaten","steam_id":76561199122059102,"connected_time":658000000000,"state":"active","ping":75},{"user_id":307,"name":"Chocc","steam_id":76561198068070211,"connected_time":999000000000,"state":"active","ping":86},{"user_id":267,"name":"toilet mafia","steam_id":76561198844273999,"connected_time":3960000000000,"state":"active","ping":45},{"user_id":321,"name":"Walter White","steam_id":76561199102963294,"connected_time":339000000000,"state":"active","ping":81},{"user_id":310,"name":"Reim","steam_id":76561198131572527,"connected_time":941000000000,"state":"active","ping":133},{"user_id":311,"name":"hack fraud","steam_id":76561198015036066,"connected_time":936000000000,"state":"active","ping":90},{"user_id":308,"name":"Sadistic Dentist","steam_id":76561198103189993,"connected_time":994000000000,"state":"active","ping":83},{"user_id":324,"name":"pandoRA","steam_id":76561198075490385,"connected_time":148000000000,"state":"active","ping":68},{"user_id":294,"name":"Empyrean","steam_id":76561198116398716,"connected_time":2641000000000,"state":"active","ping":87},{"user_id":312,"name":"Biosock Infiknit","steam_id":76561198072693794,"connected_time":930000000000,"state":"active","ping":121},{"user_id":79,"name":"Power Jake","steam_id":76561198051510260,"connected_time":16870000000000,"state":"active","ping":65},{"user_id":315,"name":"ZoomxZe@goblinzone.com","steam_id":76561198209644868,"connected_time":864000000000,"state":"active","ping":121},{"user_id":323,"name":"spacemonkey","steam_id":76561199245106074,"connected_time":310000000000,"state":"active","ping":83},{"user_id":281,"name":"Apollo","steam_id":76561198162364702,"connected_time":3439000000000,"state":"active","ping":48},{"user_id":296,"name":"Winter the Witchie","steam_id":76561198151971178,"connected_time":2618000000000,"state":"active","ping":103},{"user_id":286,"name":"DragonHunter994","steam_id":76561199076203907,"connected_time":3060000000000,"state":"active","ping":112},{"user_id":325,"name":"nay ners","steam_id":76561199238480644,"connected_time":9000000000,"state":"active","ping":171},{"user_id":320,"name":"Greskrendtregk","steam_id":76561197969553142,"connected_time":371000000000,"state":"active","ping":59},{"user_id":130,"name":"VerminKing","steam_id":76561198060887391,"connected_time":12567000000000,"state":"active","ping":58},{"user_id":316,"name":"HellRaiser","steam_id":76561199051660033,"connected_time":787000000000,"state":"active","ping":85},{"user_id":299,"name":"posting fail","steam_id":76561198066619792,"connected_time":2496000000000,"state":"active","ping":77},{"user_id":319,"name":"O","steam_id":76561198450073779,"connected_time":500000000000,"state":"active","ping":48}]},{"server_id":406,"name":"Uncletopia | Seattle | 3 | Stopwatch Beta","name_short":"sea-3","host":"sea-1.us.uncletopia.com","port":27035,"enabled":true,"region":"us-west","cc":"us","latitude":47.608013,"longitude":-122.33517,"reserved":0,"last_update":"0001-01-01T00:00:00Z","name_a2s":"Uncletopia | Seattle | 3 | Stopwatch Beta","protocol":17,"map":"cp_sunshine","folder":"tf","game":"Team Fortress","app_id":440,"player_count":24,"max_players":24,"Bots":0,"server_type":"Dedicated","server_os":"Linux","password":true,"vac":true,"version":"7882260","steam_id":85568392924515217,"keywords":["cp","nocrits","nodmgspread","uncletopia"],"game_id":440,"stv_port":27036,"stv_name":"Uncletopia | Seattle | 3 | Stopwatch Beta | STV","players":[{"user_id":55,"name":"Derpy Hooves","steam_id":76561198031727231,"connected_time":1825000000000,"state":"active","ping":75},{"user_id":48,"name":"kimchiking82","steam_id":76561198008423339,"connected_time":2362000000000,"state":"active","ping":104},{"user_id":10,"name":"Sleempreem","steam_id":76561198131987251,"connected_time":3560000000000,"state":"active","ping":70},{"user_id":77,"name":"BennBap","steam_id":76561198171881453,"connected_time":419000000000,"state":"active","ping":94},{"user_id":75,"name":"M√£…æ û√≥≈¶ƒß","steam_id":76561198819418878,"connected_time":525000000000,"state":"active","ping":117},{"user_id":57,"name":"Anxiety","steam_id":76561198365627687,"connected_time":1745000000000,"state":"active","ping":84},{"user_id":60,"name":"crow spy","steam_id":76561198357318776,"connected_time":1722000000000,"state":"active","ping":86},{"user_id":62,"name":"MK","steam_id":76561198044764469,"connected_time":1687000000000,"state":"active","ping":96},{"user_id":78,"name":"THinkBOX546","steam_id":76561198928550867,"connected_time":410000000000,"state":"active","ping":76},{"user_id":76,"name":"captain red","steam_id":76561198191587983,"connected_time":500000000000,"state":"active","ping":76},{"user_id":27,"name":"Zixzs","steam_id":76561198055504126,"connected_time":2946000000000,"state":"active","ping":103},{"user_id":28,"name":"dog","steam_id":76561198263873491,"connected_time":2926000000000,"state":"active","ping":92},{"user_id":80,"name":"Five","steam_id":76561198026640473,"connected_time":207000000000,"state":"active","ping":69},{"user_id":81,"name":"jack of all trades","steam_id":76561199198696635,"connected_time":187000000000,"state":"active","ping":143},{"user_id":66,"name":"Gay Cake","steam_id":76561198004388831,"connected_time":1525000000000,"state":"active","ping":123},{"user_id":72,"name":"dansal","steam_id":76561197997042510,"connected_time":1036000000000,"state":"active","ping":125},{"user_id":26,"name":"Man of The Golden Clouds","steam_id":76561198119307814,"connected_time":3052000000000,"state":"active","ping":114},{"user_id":50,"name":"DuskDragon911","steam_id":76561198996036702,"connected_time":2274000000000,"state":"active","ping":107},{"user_id":82,"name":"EleventhGoose","steam_id":76561198912390211,"connected_time":180000000000,"state":"active","ping":90},{"user_id":79,"name":"Dark_Souls_Fat_Man","steam_id":76561198805567646,"connected_time":375000000000,"state":"active","ping":83},{"user_id":40,"name":"OminousNoises","steam_id":76561198263320321,"connected_time":2590000000000,"state":"active","ping":83},{"user_id":65,"name":"box","steam_id":76561198049531483,"connected_time":1579000000000,"state":"active","ping":115},{"user_id":68,"name":"Pertinax","steam_id":76561198000753987,"connected_time":1226000000000,"state":"active","ping":108},{"user_id":45,"name":"Infested??","steam_id":76561198272337384,"connected_time":2569000000000,"state":"active","ping":75}]},{"server_id":17,"name":"Uncletopia | San Francisco | 1 | All Maps","name_short":"sfo-1","host":"sfo-1.us.uncletopia.com","port":27015,"enabled":true,"region":"us-west","cc":"us","latitude":37.77397,"longitude":-122.4313,"reserved":0,"last_update":"0001-01-01T00:00:00Z","name_a2s":"Uncletopia | San Francisco | 1 | All Maps","protocol":17,"map":"cp_process_final","folder":"tf","game":"Team Fortress","app_id":440,"player_count":0,"max_players":24,"Bots":0,"server_type":"Dedicated","server_os":"Linux","password":true,"vac":true,"version":"7757534","steam_id":85568392924469999,"keywords":["cp","nocrits","nodmgspread","uncletopia"],"game_id":440,"stv_port":27016,"stv_name":"Uncletopia | San Francisco | 1 | All Maps | STV","players":null},{"server_id":18,"name":"Uncletopia | San Francisco | 2 | All Maps","name_short":"sfo-2","host":"sfo-1.us.uncletopia.com","port":27025,"enabled":true,"region":"us-west","cc":"us","latitude":37.77397,"longitude":-122.4313,"reserved":0,"last_update":"0001-01-01T00:00:00Z","name_a2s":"Uncletopia | San Francisco | 2 | All Maps","protocol":17,"map":"koth_highpass","folder":"tf","game":"Team Fortress","app_id":440,"player_count":0,"max_players":24,"Bots":0,"server_type":"Dedicated","server_os":"Linux","password":true,"vac":true,"version":"7757534","steam_id":85568392924470000,"keywords":["cp","nocrits","nodmgspread","uncletopia"],"game_id":440,"stv_port":27026,"stv_name":"Uncletopia | San Francisco | 2 | All Maps | STV","players":null},{"server_id":19,"name":"Uncletopia | San Francisco | 3 | Stopwatch Beta","name_short":"sfo-3","host":"sfo-1.us.uncletopia.com","port":27035,"enabled":true,"region":"us-west","cc":"us","latitude":37.77397,"longitude":-122.4313,"reserved":0,"last_update":"0001-01-01T00:00:00Z","name_a2s":"Uncletopia | San Francisco | 3 | Stopwatch Beta","protocol":17,"map":"koth_lakeside_final","folder":"tf","game":"Team Fortress","app_id":440,"player_count":0,"max_players":24,"Bots":0,"server_type":"Dedicated","server_os":"Linux","password":true,"vac":true,"version":"7757534","steam_id":85568392924742824,"keywords":["cp","nocrits","nodmgspread","uncletopia"],"game_id":440,"stv_port":27036,"stv_name":"Uncletopia | San Francisco | 3 | Stopwatch Beta | STV","players":null},{"server_id":20,"name":"Uncletopia | San Francisco | 4 | Community","name_short":"sfo-4","host":"sfo-1.us.uncletopia.com","port":27045,"enabled":true,"region":"us-west","cc":"us","latitude":37.77397,"longitude":-122.4313,"reserved":0,"last_update":"0001-01-01T00:00:00Z","name_a2s":"Uncletopia | San Francisco | 4 | Community","protocol":17,"map":"cp_altitude","folder":"tf","game":"Team Fortress","app_id":440,"player_count":0,"max_players":24,"Bots":0,"server_type":"Dedicated","server_os":"Linux","password":true,"vac":true,"version":"7757534","steam_id":85568392924742826,"keywords":["cp","nocrits","nodmgspread","uncletopia"],"game_id":440,"stv_port":27046,"stv_name":"Uncletopia | San Francisco | 4 | Community | STV","players":null},{"server_id":141,"name":"Uncletopia | Sydney | 1 | All Maps","name_short":"syd-1","host":"syd-1.au.uncletopia.com","port":27015,"enabled":true,"region":"au","cc":"au","latitude":-33.865143,"longitude":151.2099,"reserved":0,"last_update":"0001-01-01T00:00:00Z","name_a2s":"Uncletopia | Sydney | 1 | All Maps","protocol":17,"map":"cp_snakewater_final1","folder":"tf","game":"Team Fortress","app_id":440,"player_count":0,"max_players":24,"Bots":0,"server_type":"Dedicated","server_os":"Linux","password":true,"vac":true,"version":"7882260","steam_id":85568392924470001,"keywords":["cp","nocrits","nodmgspread","uncletopia"],"game_id":440,"stv_port":27016,"stv_name":"Uncletopia | Sydney | 1 | All Maps | STV","players":null},{"server_id":123,"name":"Uncletopia | Sydney | 2 | All Maps","name_short":"syd-2","host":"syd-1.au.uncletopia.com","port":27025,"enabled":true,"region":"au","cc":"au","latitude":-33.865143,"longitude":151.2099,"reserved":0,"last_update":"0001-01-01T00:00:00Z","name_a2s":"Uncletopia | Sydney | 2 | All Maps","protocol":17,"map":"cp_dustbowl","folder":"tf","game":"Team Fortress","app_id":440,"player_count":0,"max_players":24,"Bots":0,"server_type":"Dedicated","server_os":"Linux","password":true,"vac":true,"version":"7882260","steam_id":85568392924470002,"keywords":["cp","nocrits","nodmgspread","uncletopia"],"game_id":440,"stv_port":27026,"stv_name":"Uncletopia | Sydney | 2 | All Maps | STV","players":null},{"server_id":395,"name":"Uncletopia | Sydney | 3 | All Maps","name_short":"syd-3","host":"syd-1.au.uncletopia.com","port":27035,"enabled":true,"region":"au","cc":"au","latitude":-33.865143,"longitude":151.2099,"reserved":0,"last_update":"0001-01-01T00:00:00Z","name_a2s":"Uncletopia | Sydney | 3 | All Maps","protocol":17,"map":"pl_badwater","folder":"tf","game":"Team Fortress","app_id":440,"player_count":0,"max_players":24,"Bots":0,"server_type":"Dedicated","server_os":"Linux","password":true,"vac":true,"version":"7882260","steam_id":85568392925194467,"keywords":["nocrits","nodmgspread","payload","uncletopia"],"game_id":440,"stv_port":27036,"stv_name":"Uncletopia | Sydney | 3 | All Maps | STV","players":null},{"server_id":396,"name":"Uncletopia | Sydney | 4 | All Maps","name_short":"syd-4","host":"syd-1.au.uncletopia.com","port":27045,"enabled":true,"region":"au","cc":"au","latitude":-33.865143,"longitude":151.2099,"reserved":0,"last_update":"0001-01-01T00:00:00Z","name_a2s":"Uncletopia | Sydney | 4 | All Maps","protocol":17,"map":"pl_frontier_final","folder":"tf","game":"Team Fortress","app_id":440,"player_count":0,"max_players":24,"Bots":0,"server_type":"Dedicated","server_os":"Linux","password":true,"vac":true,"version":"7882260","steam_id":85568392925397958,"keywords":["nocrits","nodmgspread","payload","uncletopia"],"game_id":440,"stv_port":27046,"stv_name":"Uncletopia | Sydney | 4 | All Maps | STV","players":null},{"server_id":58,"name":"Uncletopia | Sydney | 5 | Stopwatch Beta","name_short":"syd-5","host":"syd-1.au.uncletopia.com","port":27055,"enabled":true,"region":"au","cc":"au","latitude":-33.865143,"longitude":151.2099,"reserved":0,"last_update":"0001-01-01T00:00:00Z","name_a2s":"Uncletopia | Sydney | 5 | Stopwatch Beta","protocol":17,"map":"pl_swiftwater_final1","folder":"tf","game":"Team Fortress","app_id":440,"player_count":0,"max_players":24,"Bots":0,"server_type":"Dedicated","server_os":"Linux","password":true,"vac":true,"version":"7882260","steam_id":85568392925397959,"keywords":["nocrits","nodmgspread","payload","uncletopia"],"game_id":440,"stv_port":27056,"stv_name":"Uncletopia | Sydney | 5 | Stopwatch Beta | STV","players":null},{"server_id":59,"name":"Uncletopia | Sydney | 6 | Community","name_short":"syd-6","host":"syd-1.au.uncletopia.com","port":27065,"enabled":true,"region":"au","cc":"au","latitude":-33.865143,"longitude":151.2099,"reserved":0,"last_update":"0001-01-01T00:00:00Z","name_a2s":"Uncletopia | Sydney | 6 | Community","protocol":17,"map":"pl_snowycoast","folder":"tf","game":"Team Fortress","app_id":440,"player_count":0,"max_players":24,"Bots":0,"server_type":"Dedicated","server_os":"Linux","password":true,"vac":true,"version":"7882260","steam_id":85568392925397960,"keywords":["nocrits","nodmgspread","payload","uncletopia"],"game_id":440,"stv_port":27066,"stv_name":"Uncletopia | Sydney | 6 | Community | STV","players":null},{"server_id":49,"name":"Uncletopia | Warsaw | 1 | All Maps","name_short":"waw-1","host":"waw-1.pl.uncletopia.com","port":27015,"enabled":true,"region":"eu","cc":"pl","latitude":52.2297,"longitude":21.017532,"reserved":0,"last_update":"0001-01-01T00:00:00Z","name_a2s":"","protocol":0,"map":"","folder":"","game":"","app_id":0,"player_count":0,"max_players":0,"Bots":0,"server_type":"","server_os":"","password":false,"vac":false,"version":"","steam_id":0,"keywords":null,"game_id":0,"stv_port":0,"stv_name":"","players":null},{"server_id":50,"name":"Uncletopia | Warsaw | 2 | All Maps","name_short":"waw-2","host":"waw-1.pl.uncletopia.com","port":27025,"enabled":true,"region":"eu","cc":"pl","latitude":52.2297,"longitude":21.017532,"reserved":0,"last_update":"0001-01-01T00:00:00Z","name_a2s":"Uncletopia | Warsaw | 2 | All Maps","protocol":17,"map":"koth_highpass","folder":"tf","game":"Team Fortress","app_id":440,"player_count":0,"max_players":24,"Bots":0,"server_type":"Dedicated","server_os":"Linux","password":true,"vac":true,"version":"7882260","steam_id":85568392925397851,"keywords":["cp","nocrits","nodmgspread","uncletopia"],"game_id":440,"stv_port":27026,"stv_name":"Uncletopia | Warsaw | 2 | All Maps | STV","players":null},{"server_id":51,"name":"Uncletopia | Warsaw | 3 | All Maps","name_short":"waw-3","host":"waw-1.pl.uncletopia.com","port":27035,"enabled":true,"region":"eu","cc":"pl","latitude":52.2297,"longitude":21.017532,"reserved":0,"last_update":"0001-01-01T00:00:00Z","name_a2s":"Uncletopia | Warsaw | 3 | All Maps","protocol":17,"map":"koth_viaduct","folder":"tf","game":"Team Fortress","app_id":440,"player_count":0,"max_players":24,"Bots":0,"server_type":"Dedicated","server_os":"Linux","password":true,"vac":true,"version":"7882260","steam_id":85568392925397852,"keywords":["cp","nocrits","nodmgspread","uncletopia"],"game_id":440,"stv_port":27036,"stv_name":"Uncletopia | Warsaw | 3 | All Maps | STV","players":null},{"server_id":52,"name":"Uncletopia | Warsaw | 4 | All Maps","name_short":"waw-4","host":"waw-1.pl.uncletopia.com","port":27045,"enabled":true,"region":"eu","cc":"pl","latitude":52.2297,"longitude":21.017532,"reserved":0,"last_update":"0001-01-01T00:00:00Z","name_a2s":"Uncletopia | Warsaw | 4 | All Maps","protocol":17,"map":"koth_highpass","folder":"tf","game":"Team Fortress","app_id":440,"player_count":0,"max_players":24,"Bots":0,"server_type":"Dedicated","server_os":"Linux","password":true,"vac":true,"version":"7882260","steam_id":85568392925397853,"keywords":["cp","nocrits","nodmgspread","uncletopia"],"game_id":440,"stv_port":27046,"stv_name":"Uncletopia | Warsaw | 4 | All Maps | STV","players":null},{"server_id":53,"name":"Uncletopia | Warsaw | 5 | Stopwatch Beta","name_short":"waw-5","host":"waw-1.pl.uncletopia.com","port":27055,"enabled":true,"region":"eu","cc":"pl","latitude":52.2297,"longitude":21.017532,"reserved":0,"last_update":"0001-01-01T00:00:00Z","name_a2s":"Uncletopia | Warsaw | 5 | Stopwatch Beta","protocol":17,"map":"pl_upward","folder":"tf","game":"Team Fortress","app_id":440,"player_count":0,"max_players":24,"Bots":0,"server_type":"Dedicated","server_os":"Linux","password":true,"vac":true,"version":"7882260","steam_id":85568392925397854,"keywords":["nocrits","nodmgspread","payload","uncletopia"],"game_id":440,"stv_port":27056,"stv_name":"Uncletopia | Warsaw | 5 | Stopwatch Beta | STV","players":null},{"server_id":54,"name":"Uncletopia | Warsaw | 6 | Community","name_short":"waw-6","host":"waw-1.pl.uncletopia.com","port":27065,"enabled":true,"region":"eu","cc":"pl","latitude":52.2297,"longitude":21.017532,"reserved":0,"last_update":"0001-01-01T00:00:00Z","name_a2s":"Uncletopia | Warsaw | 6 | Community","protocol":17,"map":"workshop/cp_fulgur_rc2a.ugc2068252300","folder":"tf","game":"Team Fortress","app_id":440,"player_count":0,"max_players":24,"Bots":0,"server_type":"Dedicated","server_os":"Linux","password":true,"vac":true,"version":"7882260","steam_id":85568392925397856,"keywords":["cp","nocrits","nodmgspread","uncletopia"],"game_id":440,"stv_port":27066,"stv_name":"Uncletopia | Warsaw | 6 | Community | STV","players":null}]}