{"status":true,"message":"","result":[{"server_id":9,"name":"Uncletopia | Atlanta | 1 | All Maps","name_short":"atl-1","host":"atl-1.us.uncletopia.com","port":27015,"enabled":true,"region":"us-east","cc":"us","latitude":33.753746,"longitude":-84.38633,"reserved":0,"last_update":"0001-01-01T00:00:00Z","name_a2s":"Uncletopia | Atlanta | 1 | All Maps","protocol":17,"map":"pl_badwater","folder":"tf","game":"Team Fortress","app_id":440,"player_count":25,"max_players":24,"Bots":0,"server_type":"Dedicated","server_os":"Linux","password":true,"vac":true,"version":"7961495","steam_id":85568392924469982,"keywords":["nocrits","nodmgspread","payload","uncletopia"],"game_id":440,"stv_port":27016,"stv_name":"Uncletopia | Atlanta | 1 | All Maps | STV","players":[{"user_id":385,"name":"freyja","steam_id":76561198249206656,"connected_time":1567000000000,"state":"active","ping":85},{"user_id":314,"name":"Xavibite","steam_id":76561198209380493,"connected_time":8295000000000,"state":"active","ping":60},{"user_id":404,"name":"Chernov","steam_id":76561198014463424,"connected_time":414000000000,"state":"active","ping":59},{"user_id":331,"name":"MichelangeloStark","steam_id":76561197976489900,"connected_time":6808000000000,"state":"active","ping":88},{"user_id":402,"name":"Dat Lion Boi","steam_id":76561198043856765,"connected_time":723000000000,"state":"active","ping":56},{"user_id":403,"name":"BIG HOG","steam_id":76561198079923652,"connected_time":718000000000,"state":"active","ping":61},{"user_id":373,"name":"Obelisk","steam_id":76561198049416866,"connected_time":2972000000000,"state":"active","ping":60},{"user_id":362,"name":"com lag","steam_id":76561198019019392,"connected_time":3712000000000,"state":"active","ping":90},{"user_id":340,"name":"Jeane","steam_id":76561198151019322,"connected_time":6275000000000,"state":"active","ping":71},{"user_id":367,"name":"PinkLemonade","steam_id":76561198799286228,"connected_time":3094000000000,"state":"active","ping":76},{"user_id":374,"name":"barfunkle","steam_id":76561198927517471,"connected_time":2728000000000,"state":"active","ping":85},{"user_id":377,"name":"ATL1 Lavender She/They","steam_id":76561198825997674,"connected_time":2267000000000,"state":"active","ping":53},{"user_id":380,"name":"rose","steam_id":76561198048882285,"connected_time":1755000000000,"state":"active","ping":66},{"user_id":355,"name":"lil hog","steam_id":76561199230929836,"connected_time":4509000000000,"state":"active","ping":82},{"user_id":401,"name":"substance","steam_id":76561198050103868,"connected_time":744000000000,"state":"active","ping":107},{"user_id":242,"name":"Onyx","steam_id":76561198275349640,"connected_time":15415000000000,"state":"active","ping":77},{"user_id":405,"name":"ATL1 | on my hunting trip","steam_id":76561198315341646,"connected_time":388000000000,"state":"active","ping":80},{"user_id":345,"name":"SPUDOW!!","steam_id":76561199452235520,"connected_time":6044000000000,"state":"active","ping":93},{"user_id":396,"name":"DeezNoodlez","steam_id":76561198246700372,"connected_time":992000000000,"state":"active","ping":59},{"user_id":418,"name":"creeeeeee","steam_id":76561198392539722,"connected_time":4000000000,"state":"spawning","ping":98},{"user_id":320,"name":"Heathcliff","steam_id":76561198044288534,"connected_time":7774000000000,"state":"active","ping":75},{"user_id":376,"name":"Egg 4.9 Deez Nuts","steam_id":76561199038412624,"connected_time":2464000000000,"state":"active","ping":105},{"user_id":330,"name":"Dr.Inkmix(femboy medic!)","steam_id":76561198854070384,"connected_time":7042000000000,"state":"active","ping":116},{"user_id":379,"name":"Notsocreative","steam_id":76561198236372202,"connected_time":2098000000000,"state":"active","ping":90},{"user_id":371,"name":"Oddball","steam_id":76561198040440984,"connected_time":3070000000000,"state":"active","ping":90}]},{"server_id":104,"name":"Uncletopia | Atlanta | 2 | All Maps","name_short":"atl-2","host":"atl-1.us.uncletopia.com","port":27025,"enabled":true,"region":"us-east","cc":"us","latitude":33.753746,"longitude":-84.38633,"reserved":0,"last_update":"0001-01-01T00:00:00Z","name_a2s":"Uncletopia | Atlanta | 2 | All Maps","protocol":17,"map":"cp_process_final","folder":"tf","game":"Team Fortress","app_id":440,"player_count":24,"max_players":24,"Bots":0,"server_type":"Dedicated","server_os":"Linux","password":true,"vac":true,"version":"7961495","steam_id":85568392924469983,"keywords":["cp","nocrits","nodmgspread","uncletopia"],"game_id":440,"stv_port":27026,"stv_name":"Uncletopia | Atlanta | 2 | All Maps | STV","players":[{"user_id":211,"name":"BoX_hEaD101","steam_id":76561198200875467,"connected_time":396000000000,"state":"active","ping":115},{"user_id":185,"name":"Oxygen User","steam_id":76561199111975528,"connected_time":3118000000000,"state":"active","ping":64},{"user_id":186,"name":"D.E.O","steam_id":76561198096992957,"connected_time":3068000000000,"state":"active","ping":113},{"user_id":213,"name":"Lv3 Kobold Shadow Sorcerer","steam_id":76561198042068995,"connected_time":385000000000,"state":"active","ping":72},{"user_id":178,"name":"noelle","steam_id":76561198098107584,"connected_time":3259000000000,"state":"active","ping":78},{"user_id":214,"name":"Smooth, Refreshing Bleach™","steam_id":76561197981060504,"connected_time":377000000000,"state":"active","ping":58},{"user_id":215,"name":"All Tomorrow's Parties","steam_id":76561197995936212,"connected_time":373000000000,"state":"active","ping":60},{"user_id":224,"name":"rattlin' bog","steam_id":76561198224551028,"connected_time":88000000000,"state":"active","ping":73},{"user_id":177,"name":"Can't Get Right","steam_id":76561198060185301,"connected_time":3275000000000,"state":"active","ping":57},{"user_id":212,"name":"Dawk Rawk","steam_id":76561197996027396,"connected_time":394000000000,"state":"active","ping":47},{"user_id":216,"name":"OneLess","steam_id":76561198150870338,"connected_time":369000000000,"state":"active","ping":98},{"user_id":199,"name":"Fisk Yote","steam_id":76561198862888085,"connected_time":2210000000000,"state":"active","ping":90},{"user_id":217,"name":"Jack Meehoff","steam_id":76561199246237446,"connected_time":363000000000,"state":"active","ping":88},{"user_id":206,"name":"Regex","steam_id":76561198114723418,"connected_time":1426000000000,"state":"active","ping":60},{"user_id":218,"name":"Frog","steam_id":76561199165825711,"connected_time":360000000000,"state":"active","ping":97},{"user_id":143,"name":"ParanormalSmuggler","steam_id":76561198102529363,"connected_time":6066000000000,"state":"active","ping":91},{"user_id":208,"name":"NoAuto.Shed","steam_id":76561198206177593,"connected_time":1040000000000,"state":"active","ping":104},{"user_id":225,"name":"Serenue","steam_id":76561199040361250,"connected_time":58000000000,"state":"active","ping":89},{"user_id":159,"name":"Val Valentine","steam_id":76561199481536077,"connected_time":4973000000000,"state":"active","ping":80},{"user_id":223,"name":"Aino","steam_id":76561198053662930,"connected_time":141000000000,"state":"active","ping":134},{"user_id":202,"name":"joyeuxnoelle","steam_id":76561198062423120,"connected_time":2097000000000,"state":"active","ping":80},{"user_id":220,"name":"Barbecue  Bacon Burger","steam_id":76561198981135699,"connected_time":335000000000,"state":"active","ping":82},{"user_id":221,"name":"Ph1lly","steam_id":76561198355706049,"connected_time":305000000000,"state":"active","ping":120},{"user_id":222,"name":"lament","steam_id":76561198408747483,"connected_time":303000000000,"state":"active","ping":75}]},{"server_id":400,"name":"Uncletopia | Atlanta | 3 | Stopwatch","name_short":"atl-3","host":"atl-1.us.uncletopia.com","port":27035,"enabled":true,"region":"us-east","cc":"us","latitude":33.753746,"longitude":-84.38633,"reserved":0,"last_update":"0001-01-01T00:00:00Z","name_a2s":"Uncletopia | Atlanta | 3 | Stopwatch","protocol":17,"map":"cp_granary","folder":"tf","game":"Team Fortress","app_id":440,"player_count":22,"max_players":24,"Bots":0,"server_type":"Dedicated","server_os":"Linux","password":true,"vac":true,"version":"7961495","steam_id":85568392924515187,"keywords":["cp","nocrits","nodmgspread","uncletopia"],"game_id":440,"stv_port":27036,"stv_name":"Uncletopia | Atlanta | 3 | Stopwatch | STV","players":[{"user_id":219,"name":"Dark Swordsman","steam_id":76561198041622040,"connected_time":482000000000,"state":"active","ping":31},{"user_id":215,"name":"otw way to mars off the bars","steam_id":76561199085974120,"connected_time":638000000000,"state":"active","ping":58},{"user_id":198,"name":"hrdurdur","steam_id":76561199204815638,"connected_time":2581000000000,"state":"active","ping":71},{"user_id":195,"name":"Starvation Gaming","steam_id":76561198880991847,"connected_time":2803000000000,"state":"active","ping":58},{"user_id":58,"name":"Val E. Mato","steam_id":76561199095127790,"connected_time":10216000000000,"state":"active","ping":76},{"user_id":229,"name":"the222attacker","steam_id":76561198969690191,"connected_time":7000000000,"state":"spawning","ping":73},{"user_id":196,"name":"Nyx","steam_id":76561198100929724,"connected_time":2799000000000,"state":"active","ping":115},{"user_id":207,"name":"Moonshine Man","steam_id":76561198088010073,"connected_time":1683000000000,"state":"active","ping":60},{"user_id":184,"name":"xww","steam_id":76561198068190834,"connected_time":3146000000000,"state":"active","ping":115},{"user_id":216,"name":"Wey","steam_id":76561198089235065,"connected_time":587000000000,"state":"active","ping":95},{"user_id":220,"name":"Sunshine","steam_id":76561198085837469,"connected_time":478000000000,"state":"active","ping":52},{"user_id":185,"name":"toastman","steam_id":76561198207073088,"connected_time":3146000000000,"state":"active","ping":130},{"user_id":197,"name":"Shourd","steam_id":76561198851814994,"connected_time":2662000000000,"state":"active","ping":77},{"user_id":186,"name":"uniwu - BUFF THE SPEED","steam_id":76561198864421290,"connected_time":3141000000000,"state":"active","ping":51},{"user_id":217,"name":"Sloppy Hoes","steam_id":76561198114922735,"connected_time":524000000000,"state":"active","ping":70},{"user_id":222,"name":"schnedwob","steam_id":76561197999146588,"connected_time":448000000000,"state":"active","ping":80},{"user_id":223,"name":"ChiMaTa","steam_id":76561198067166198,"connected_time":432000000000,"state":"active","ping":68},{"user_id":226,"name":"MondoDong","steam_id":76561197991400109,"connected_time":342000000000,"state":"active","ping":69},{"user_id":227,"name":"too deep for most to understand","steam_id":76561198022636144,"connected_time":238000000000,"state":"active","ping":53},{"user_id":191,"name":"Cyclops_672","steam_id":76561198080169497,"connected_time":3035000000000,"state":"active","ping":73},{"user_id":100,"name":"Marrow \u003c3","steam_id":76561198930350337,"connected_time":7078000000000,"state":"active","ping":59},{"user_id":153,"name":"ther","steam_id":76561199191376935,"connected_time":5013000000000,"state":"active","ping":100}]},{"server_id":401,"name":"Uncletopia | Atlanta | 4 | Community","name_short":"atl-4","host":"atl-1.us.uncletopia.com","port":27045,"enabled":true,"region":"us-east","cc":"us","latitude":33.753746,"longitude":-84.38633,"reserved":0,"last_update":"0001-01-01T00:00:00Z","name_a2s":"Uncletopia | Atlanta | 4 | Community","protocol":17,"map":"workshop/koth_slaughter_rc1.ugc1712845210","folder":"tf","game":"Team Fortress","app_id":440,"player_count":0,"max_players":24,"Bots":0,"server_type":"Dedicated","server_os":"Linux","password":true,"vac":true,"version":"7961495","steam_id":85568392924515188,"keywords":["cp","nocrits","nodmgspread","uncletopia"],"game_id":440,"stv_port":27046,"stv_name":"Uncletopia | Atlanta | 4 | Community | STV","players":null},{"server_id":2,"name":"Uncletopia | Chicago | 1 | All Maps","name_short":"chi-1","host":"chi-1.us.uncletopia.com","port":27015,"enabled":true,"region":"us-central","cc":"us","latitude":41.881832,"longitude":-87.62318,"reserved":0,"last_update":"0001-01-01T00:00:00Z","name_a2s":"Uncletopia | Chicago | 1 | All Maps","protocol":17,"map":"cp_dustbowl","folder":"tf","game":"Team Fortress","app_id":440,"player_count":24,"max_players":24,"Bots":0,"server_type":"Dedicated","server_os":"Linux","password":true,"vac":true,"version":"7961495","steam_id":85568392924469984,"keywords":["cp","nocrits","nodmgspread","uncletopia"],"game_id":440,"stv_port":27016,"stv_name":"Uncletopia | Chicago | 1 | All Maps | STV","players":[{"user_id":574,"name":"Type-Lectu","steam_id":76561199062620920,"connected_time":5627000000000,"state":"active","ping":56},{"user_id":623,"name":"ุ","steam_id":76561198170624701,"connected_time":1813000000000,"state":"active","ping":69},{"user_id":600,"name":"Professor Kegstand PhD.","steam_id":76561198437703253,"connected_time":3292000000000,"state":"active","ping":54},{"user_id":644,"name":"Herdez Hot Salsa","steam_id":76561197991740906,"connected_time":55000000000,"state":"active","ping":56},{"user_id":595,"name":"corned beef","steam_id":76561199366782761,"connected_time":3853000000000,"state":"active","ping":168},{"user_id":630,"name":"interloper","steam_id":76561198042518244,"connected_time":1637000000000,"state":"active","ping":91},{"user_id":631,"name":"bredinstead","steam_id":76561199156464551,"connected_time":1628000000000,"state":"active","ping":54},{"user_id":633,"name":"FrostStorm","steam_id":76561198142685151,"connected_time":1546000000000,"state":"active","ping":78},{"user_id":603,"name":"The One True Luke","steam_id":76561198180891187,"connected_time":2993000000000,"state":"active","ping":62},{"user_id":628,"name":"Maxpowi","steam_id":76561198095558036,"connected_time":1707000000000,"state":"active","ping":69},{"user_id":642,"name":"God","steam_id":76561198131089513,"connected_time":188000000000,"state":"active","ping":52},{"user_id":599,"name":"gigi dag","steam_id":76561198063313115,"connected_time":3451000000000,"state":"active","ping":60},{"user_id":632,"name":"Gravity Bomb","steam_id":76561198190417719,"connected_time":1590000000000,"state":"active","ping":36},{"user_id":640,"name":"Milkmur","steam_id":76561198210043821,"connected_time":310000000000,"state":"active","ping":68},{"user_id":638,"name":"loser","steam_id":76561198259380127,"connected_time":356000000000,"state":"active","ping":56},{"user_id":586,"name":"flamingcookies","steam_id":76561198280864779,"connected_time":4390000000000,"state":"active","ping":78},{"user_id":639,"name":"Praise_to_the_Flashlight!","steam_id":76561199001728789,"connected_time":355000000000,"state":"active","ping":61},{"user_id":643,"name":"SonnyMarsh","steam_id":76561198188103746,"connected_time":177000000000,"state":"active","ping":100},{"user_id":645,"name":"87987974","steam_id":76561198046948758,"connected_time":52000000000,"state":"active","ping":66},{"user_id":612,"name":"zoomzoomzoom","steam_id":76561198079215612,"connected_time":2341000000000,"state":"active","ping":44},{"user_id":622,"name":"HOMIE","steam_id":76561198057325155,"connected_time":1819000000000,"state":"active","ping":57},{"user_id":531,"name":"Ms Twig","steam_id":76561198144111736,"connected_time":9291000000000,"state":"active","ping":53},{"user_id":591,"name":"yeeye","steam_id":76561198094306054,"connected_time":4307000000000,"state":"active","ping":75},{"user_id":621,"name":"Cdesmondd","steam_id":76561198072774462,"connected_time":1828000000000,"state":"active","ping":63}]},{"server_id":106,"name":"Uncletopia | Chicago | 2 | All Maps","name_short":"chi-2","host":"chi-1.us.uncletopia.com","port":27025,"enabled":true,"region":"us-central","cc":"us","latitude":41.881832,"longitude":-87.62318,"reserved":0,"last_update":"0001-01-01T00:00:00Z","name_a2s":"Uncletopia | Chicago | 2 | All Maps","protocol":17,"map":"pl_frontier_final","folder":"tf","game":"Team Fortress","app_id":440,"player_count":24,"max_players":24,"Bots":0,"server_type":"Dedicated","server_os":"Linux","password":true,"vac":true,"version":"7961495","steam_id":85568392924469985,"keywords":["nocrits","nodmgspread","payload","uncletopia"],"game_id":440,"stv_port":27026,"stv_name":"Uncletopia | Chicago | 2 | All Maps | STV","players":[{"user_id":292,"name":"Notorious Criminal Prawo Jazdy","steam_id":76561198339011254,"connected_time":2342000000000,"state":"active","ping":79},{"user_id":309,"name":"Ash","steam_id":76561198118254410,"connected_time":907000000000,"state":"active","ping":46},{"user_id":287,"name":"France","steam_id":76561198250066610,"connected_time":2730000000000,"state":"active","ping":63},{"user_id":252,"name":"Nazrin","steam_id":76561198246701796,"connected_time":5264000000000,"state":"active","ping":70},{"user_id":271,"name":"Arthur SSJ2","steam_id":76561198043678479,"connected_time":4068000000000,"state":"active","ping":46},{"user_id":274,"name":"_hooded_","steam_id":76561198023595873,"connected_time":3913000000000,"state":"active","ping":73},{"user_id":288,"name":"AMogus Chicken nugget BeAn toas","steam_id":76561198167224218,"connected_time":2722000000000,"state":"active","ping":63},{"user_id":303,"name":"Niλiwiλi, ▼iscount of ▼io","steam_id":76561198009193777,"connected_time":1507000000000,"state":"active","ping":73},{"user_id":278,"name":"bunsy","steam_id":76561198097292857,"connected_time":3543000000000,"state":"active","ping":76},{"user_id":295,"name":"seedy iris","steam_id":76561198164420174,"connected_time":2259000000000,"state":"active","ping":46},{"user_id":312,"name":"Satchamo","steam_id":76561198012968239,"connected_time":859000000000,"state":"active","ping":77},{"user_id":263,"name":"A Puppy","steam_id":76561198828184456,"connected_time":4591000000000,"state":"active","ping":60},{"user_id":318,"name":"Doom Cart","steam_id":76561198158543955,"connected_time":75000000000,"state":"active","ping":57},{"user_id":280,"name":"loscemo","steam_id":76561197994884609,"connected_time":3038000000000,"state":"active","ping":68},{"user_id":265,"name":"Confetti","steam_id":76561198320997535,"connected_time":4566000000000,"state":"active","ping":83},{"user_id":311,"name":"killeroverscore123","steam_id":76561199168131321,"connected_time":880000000000,"state":"active","ping":98},{"user_id":251,"name":"winning","steam_id":76561198003206947,"connected_time":5298000000000,"state":"active","ping":62},{"user_id":313,"name":"Toottoot","steam_id":76561197992404836,"connected_time":817000000000,"state":"active","ping":46},{"user_id":296,"name":"post this when you masturbing","steam_id":76561198094601849,"connected_time":1937000000000,"state":"active","ping":53},{"user_id":310,"name":"majorbobfunction","steam_id":76561198042464632,"connected_time":905000000000,"state":"active","ping":53},{"user_id":315,"name":"The local hobo","steam_id":76561198289650060,"connected_time":220000000000,"state":"active","ping":88},{"user_id":268,"name":"Blanke","steam_id":76561198068912412,"connected_time":4550000000000,"state":"active","ping":78},{"user_id":317,"name":"Robin Suarez","steam_id":76561198014698593,"connected_time":79000000000,"state":"active","ping":98},{"user_id":319,"name":"JimCGoodfellas","steam_id":76561198353568076,"connected_time":62000000000,"state":"active","ping":75}]},{"server_id":402,"name":"Uncletopia | Chicago | 3 | All Maps","name_short":"chi-3","host":"chi-1.us.uncletopia.com","port":27035,"enabled":true,"region":"us-central","cc":"us","latitude":41.881832,"longitude":-87.62318,"reserved":0,"last_update":"0001-01-01T00:00:00Z","name_a2s":"Uncletopia | Chicago | 3 | All Maps","protocol":17,"map":"cp_steel","folder":"tf","game":"Team Fortress","app_id":440,"player_count":24,"max_players":24,"Bots":0,"server_type":"Dedicated","server_os":"Linux","password":true,"vac":true,"version":"7961495","steam_id":85568392924515191,"keywords":["cp","nocrits","nodmgspread","uncletopia"],"game_id":440,"stv_port":27036,"stv_name":"Uncletopia | Chicago | 3 | All Maps | STV","players":[{"user_id":530,"name":"Owl Pacino","steam_id":76561197979970666,"connected_time":3752000000000,"state":"active","ping":55},{"user_id":581,"name":"DerpyNate","steam_id":76561198100249037,"connected_time":702000000000,"state":"active","ping":44},{"user_id":582,"name":"snail2646","steam_id":76561198061411251,"connected_time":686000000000,"state":"active","ping":32},{"user_id":567,"name":"Buckler","steam_id":76561197969421355,"connected_time":1229000000000,"state":"active","ping":59},{"user_id":588,"name":"i eat glue","steam_id":76561198827026673,"connected_time":139000000000,"state":"active","ping":80},{"user_id":503,"name":"hot glass of onionaid","steam_id":76561198065266282,"connected_time":5640000000000,"state":"active","ping":100},{"user_id":587,"name":"rickyrickyricky","steam_id":76561198041765918,"connected_time":359000000000,"state":"active","ping":85},{"user_id":579,"name":"MedRed™ #IATAH","steam_id":76561198002962970,"connected_time":717000000000,"state":"active","ping":105},{"user_id":580,"name":"Hazeyboi","steam_id":76561198130687838,"connected_time":712000000000,"state":"active","ping":45},{"user_id":569,"name":"DeckofDragons","steam_id":76561198057398213,"connected_time":1186000000000,"state":"active","ping":78},{"user_id":573,"name":"SaltyManok","steam_id":76561198160082948,"connected_time":1041000000000,"state":"active","ping":53},{"user_id":552,"name":"King Cotton","steam_id":76561198292444376,"connected_time":2352000000000,"state":"active","ping":87},{"user_id":575,"name":"㋛ countblanc","steam_id":76561197993171771,"connected_time":1014000000000,"state":"active","ping":55},{"user_id":514,"name":"werecat","steam_id":76561198005091213,"connected_time":4742000000000,"state":"active","ping":61},{"user_id":584,"name":"Maximum Flame","steam_id":76561198073682529,"connected_time":521000000000,"state":"active","ping":40},{"user_id":585,"name":"Willy","steam_id":76561198046508940,"connected_time":475000000000,"state":"active","ping":71},{"user_id":586,"name":"Junshiii","steam_id":76561198153511831,"connected_time":452000000000,"state":"active","ping":60},{"user_id":543,"name":"Terror-Billy #SaveTF2","steam_id":76561198328141870,"connected_time":3359000000000,"state":"active","ping":65},{"user_id":578,"name":"MonsterHunter","steam_id":76561198146118010,"connected_time":766000000000,"state":"active","ping":85},{"user_id":559,"name":"Hipster_Giraffe","steam_id":76561198069701092,"connected_time":1968000000000,"state":"active","ping":88},{"user_id":565,"name":"swagaholic","steam_id":76561199014715203,"connected_time":1455000000000,"state":"active","ping":117},{"user_id":566,"name":"Octto","steam_id":76561198070124921,"connected_time":1353000000000,"state":"active","ping":66},{"user_id":457,"name":"GreatTimBones","steam_id":76561198409145748,"connected_time":8646000000000,"state":"active","ping":135},{"user_id":537,"name":"bacon :D","steam_id":76561199121940464,"connected_time":3673000000000,"state":"active","ping":98}]},{"server_id":403,"name":"Uncletopia | Chicago | 4 | All Maps","name_short":"chi-4","host":"chi-1.us.uncletopia.com","port":27045,"enabled":true,"region":"us-central","cc":"us","latitude":41.881832,"longitude":-87.62318,"reserved":0,"last_update":"0001-01-01T00:00:00Z","name_a2s":"Uncletopia | Chicago | 4 | All Maps","protocol":17,"map":"pl_upward","folder":"tf","game":"Team Fortress","app_id":440,"player_count":24,"max_players":24,"Bots":0,"server_type":"Dedicated","server_os":"Linux","password":true,"vac":true,"version":"7961495","steam_id":85568392924515193,"keywords":["nocrits","nodmgspread","payload","uncletopia"],"game_id":440,"stv_port":27046,"stv_name":"Uncletopia | Chicago | 4 | All Maps | STV","players":[{"user_id":443,"name":"Bippums","steam_id":76561198366406729,"connected_time":212000000000,"state":"active","ping":92},{"user_id":429,"name":"Pizza Boy","steam_id":76561198207213173,"connected_time":954000000000,"state":"active","ping":51},{"user_id":407,"name":"Grop Noise","steam_id":76561198145445403,"connected_time":3659000000000,"state":"active","ping":55},{"user_id":431,"name":"Shmovin","steam_id":76561198165355021,"connected_time":733000000000,"state":"active","ping":84},{"user_id":425,"name":"Moebius Bois","steam_id":76561198068071397,"connected_time":1378000000000,"state":"active","ping":51},{"user_id":412,"name":"No-Disguise Nick","steam_id":76561198079507179,"connected_time":3052000000000,"state":"active","ping":67},{"user_id":390,"name":"ItsThatBear","steam_id":76561198169617659,"connected_time":5458000000000,"state":"active","ping":87},{"user_id":428,"name":"Gram Tokers Count Doinkula","steam_id":76561198112811565,"connected_time":1112000000000,"state":"active","ping":74},{"user_id":432,"name":"rando","steam_id":76561197982325629,"connected_time":697000000000,"state":"active","ping":73},{"user_id":434,"name":"local man","steam_id":76561198074946673,"connected_time":673000000000,"state":"active","ping":60},{"user_id":372,"name":"Chairman Meow","steam_id":76561198107795169,"connected_time":6544000000000,"state":"active","ping":70},{"user_id":440,"name":"Som Ting Wong","steam_id":76561198174985707,"connected_time":250000000000,"state":"connecting","ping":0},{"user_id":438,"name":"Dexidus","steam_id":76561198021840495,"connected_time":450000000000,"state":"active","ping":59},{"user_id":341,"name":"SpongedSocks","steam_id":76561198374009086,"connected_time":8682000000000,"state":"active","ping":69},{"user_id":415,"name":"Bad Medic Buddy","steam_id":76561198093222632,"connected_time":3047000000000,"state":"active","ping":79},{"user_id":367,"name":"notdoxed","steam_id":76561197992591404,"connected_time":6571000000000,"state":"active","ping":48},{"user_id":359,"name":"Mr Drug Addict","steam_id":76561199062081467,"connected_time":7245000000000,"state":"active","ping":82},{"user_id":430,"name":"zoloft","steam_id":76561198148357768,"connected_time":793000000000,"state":"active","ping":75},{"user_id":391,"name":"AL SPUGNAR","steam_id":76561199020253203,"connected_time":5409000000000,"state":"active","ping":123},{"user_id":442,"name":"Harpua","steam_id":76561197988020228,"connected_time":223000000000,"state":"active","ping":68},{"user_id":421,"name":"hamster *BITE WARNING* EXTREME","steam_id":76561198083175190,"connected_time":2226000000000,"state":"active","ping":67},{"user_id":435,"name":"incredirocks","steam_id":76561198061079993,"connected_time":668000000000,"state":"active","ping":56},{"user_id":439,"name":"Rude Dog","steam_id":76561197980385816,"connected_time":395000000000,"state":"active","ping":123},{"user_id":441,"name":"Meow Skulls","steam_id":76561198204641019,"connected_time":249000000000,"state":"active","ping":71}]},{"server_id":36,"name":"Uncletopia | Chicago | 5 | All Maps","name_short":"chi-5","host":"chi-2.us.uncletopia.com","port":27015,"enabled":true,"region":"us-central","cc":"us","latitude":41.881832,"longitude":-87.62318,"reserved":0,"last_update":"0001-01-01T00:00:00Z","name_a2s":"Uncletopia | Chicago | 5 | All Maps","protocol":17,"map":"cp_snakewater_final1","folder":"tf","game":"Team Fortress","app_id":440,"player_count":24,"max_players":24,"Bots":0,"server_type":"Dedicated","server_os":"Linux","password":true,"vac":true,"version":"7961495","steam_id":85568392924866362,"keywords":["cp","nocrits","nodmgspread","uncletopia"],"game_id":440,"stv_port":27016,"stv_name":"Uncletopia | Chicago | 5 | All Maps | STV","players":[{"user_id":219,"name":"Rachi","steam_id":76561198083826053,"connected_time":1538000000000,"state":"active","ping":74},{"user_id":221,"name":"[eniGma] Tiger_ksc","steam_id":76561197995189577,"connected_time":1477000000000,"state":"active","ping":83},{"user_id":202,"name":"Sickduck Mcgee","steam_id":76561198028577159,"connected_time":2209000000000,"state":"active","ping":78},{"user_id":236,"name":"Lyricalnoot","steam_id":76561199164905065,"connected_time":121000000000,"state":"active","ping":75},{"user_id":218,"name":"Gibs Degrossi","steam_id":76561198066152609,"connected_time":1656000000000,"state":"active","ping":55},{"user_id":226,"name":"FAKE TAXI PRANKS","steam_id":76561198136746987,"connected_time":278000000000,"state":"active","ping":97},{"user_id":222,"name":"Rock Kickass","steam_id":76561198450510841,"connected_time":1459000000000,"state":"active","ping":127},{"user_id":211,"name":"Howard Hamlin","steam_id":76561198881039861,"connected_time":2039000000000,"state":"active","ping":51},{"user_id":199,"name":"Allyn","steam_id":76561198999161827,"connected_time":2272000000000,"state":"active","ping":60},{"user_id":224,"name":"uhooter","steam_id":76561198007829078,"connected_time":509000000000,"state":"active","ping":59},{"user_id":227,"name":"thatguy_luigi","steam_id":76561198968055462,"connected_time":265000000000,"state":"active","ping":128},{"user_id":228,"name":"Blender","steam_id":76561198001650701,"connected_time":246000000000,"state":"active","ping":54},{"user_id":229,"name":"Jordan B. Pålsson","steam_id":76561198100026144,"connected_time":226000000000,"state":"active","ping":174},{"user_id":223,"name":"Coda Cola","steam_id":76561198205843209,"connected_time":935000000000,"state":"active","ping":76},{"user_id":230,"name":"NUt","steam_id":76561198031007966,"connected_time":209000000000,"state":"active","ping":62},{"user_id":214,"name":"Predicta","steam_id":76561198017630616,"connected_time":1833000000000,"state":"active","ping":48},{"user_id":158,"name":"Jackpot","steam_id":76561198858294309,"connected_time":5168000000000,"state":"active","ping":87},{"user_id":231,"name":"BB Lorexav","steam_id":76561198207565988,"connected_time":207000000000,"state":"active","ping":76},{"user_id":232,"name":"BB Dirt Block","steam_id":76561198273008469,"connected_time":188000000000,"state":"active","ping":84},{"user_id":233,"name":"hearthian","steam_id":76561198113235260,"connected_time":184000000000,"state":"active","ping":101},{"user_id":234,"name":"car crash compilation #34","steam_id":76561198042773724,"connected_time":181000000000,"state":"active","ping":101},{"user_id":235,"name":"SubToPewds2","steam_id":76561198203315519,"connected_time":154000000000,"state":"active","ping":85},{"user_id":148,"name":"Nobody","steam_id":76561198286486517,"connected_time":6607000000000,"state":"active","ping":90},{"user_id":186,"name":"Obviously a Mudkip","steam_id":76561198161041830,"connected_time":2810000000000,"state":"active","ping":101}]},{"server_id":37,"name":"Uncletopia | Chicago | 6 | All Maps","name_short":"chi-6","host":"chi-2.us.uncletopia.com","port":27025,"enabled":true,"region":"us-central","cc":"us","latitude":41.881832,"longitude":-87.62318,"reserved":0,"last_update":"0001-01-01T00:00:00Z","name_a2s":"Uncletopia | Chicago | 6 | All Maps","protocol":17,"map":"pl_upward","folder":"tf","game":"Team Fortress","app_id":440,"player_count":24,"max_players":24,"Bots":0,"server_type":"Dedicated","server_os":"Linux","password":true,"vac":true,"version":"7961495","steam_id":85568392924866363,"keywords":["nocrits","nodmgspread","payload","uncletopia"],"game_id":440,"stv_port":27026,"stv_name":"Uncletopia | Chicago | 6 | All Maps | STV","players":[{"user_id":153,"name":"Carpet enthusiast","steam_id":76561198024040142,"connected_time":6681000000000,"state":"active","ping":127},{"user_id":236,"name":"Fairchild Republic A-10 Thndrbl","steam_id":76561199038043360,"connected_time":1284000000000,"state":"active","ping":80},{"user_id":237,"name":"Horse","steam_id":76561198004583631,"connected_time":1280000000000,"state":"active","ping":87},{"user_id":244,"name":"RoraBeth","steam_id":76561197999432246,"connected_time":1030000000000,"state":"active","ping":80},{"user_id":171,"name":"Kiradias777","steam_id":76561198067176309,"connected_time":5381000000000,"state":"active","ping":66},{"user_id":249,"name":"exposed to air","steam_id":76561197995620232,"connected_time":587000000000,"state":"active","ping":57},{"user_id":155,"name":"BarnBarf","steam_id":76561198095135321,"connected_time":6531000000000,"state":"active","ping":75},{"user_id":238,"name":"Zinc","steam_id":76561198025303928,"connected_time":1244000000000,"state":"active","ping":83},{"user_id":165,"name":"bee","steam_id":76561198178015361,"connected_time":5746000000000,"state":"active","ping":57},{"user_id":228,"name":"Black Bear.","steam_id":76561198806203328,"connected_time":1433000000000,"state":"active","ping":117},{"user_id":243,"name":"its boiled","steam_id":76561198042600523,"connected_time":1134000000000,"state":"active","ping":76},{"user_id":230,"name":"Chauncey von Snuffles III","steam_id":76561198021784746,"connected_time":1420000000000,"state":"active","ping":91},{"user_id":73,"name":"fakeness","steam_id":76561198018811206,"connected_time":12324000000000,"state":"active","ping":75},{"user_id":204,"name":"KhorneBread ︻デ 一","steam_id":76561198097069958,"connected_time":2867000000000,"state":"active","ping":86},{"user_id":231,"name":"Halibard","steam_id":76561198011239659,"connected_time":1417000000000,"state":"active","ping":71},{"user_id":248,"name":"Pilot","steam_id":76561198242227952,"connected_time":640000000000,"state":"active","ping":71},{"user_id":245,"name":"Notaqueenbut","steam_id":76561199230143160,"connected_time":916000000000,"state":"active","ping":77},{"user_id":233,"name":"Input Angle","steam_id":76561198042398878,"connected_time":1384000000000,"state":"active","ping":94},{"user_id":250,"name":"Prsm","steam_id":76561198053344995,"connected_time":227000000000,"state":"active","ping":62},{"user_id":240,"name":"-","steam_id":76561198057717934,"connected_time":1219000000000,"state":"active","ping":72},{"user_id":201,"name":"[NAME-REDACTED]","steam_id":76561198035682975,"connected_time":3275000000000,"state":"active","ping":77},{"user_id":234,"name":"The Grim Heaper","steam_id":76561197987759101,"connected_time":1361000000000,"state":"active","ping":110},{"user_id":242,"name":"John Xina","steam_id":76561198350649871,"connected_time":1186000000000,"state":"active","ping":104},{"user_id":247,"name":"Awenova","steam_id":76561198322928940,"connected_time":892000000000,"state":"active","ping":65}]},{"server_id":38,"name":"Uncletopia | Chicago | 7 | Stopwatch","name_short":"chi-7","host":"chi-2.us.uncletopia.com","port":27035,"enabled":true,"region":"us-central","cc":"us","latitude":41.881832,"longitude":-87.62318,"reserved":0,"last_update":"0001-01-01T00:00:00Z","name_a2s":"Uncletopia | Chicago | 7 | Stopwatch","protocol":17,"map":"pl_upward","folder":"tf","game":"Team Fortress","app_id":440,"player_count":24,"max_players":24,"Bots":0,"server_type":"Dedicated","server_os":"Linux","password":true,"vac":true,"version":"7961495","steam_id":85568392924866364,"keywords":["nocrits","nodmgspread","payload","uncletopia"],"game_id":440,"stv_port":27036,"stv_name":"Uncletopia | Chicago | 7 | Stopwatch | STV","players":[{"user_id":25,"name":"Biden Blast","steam_id":76561198366729030,"connected_time":3396000000000,"state":"active","ping":90},{"user_id":53,"name":"الاثنين في نهايت\ufffd","steam_id":76561198836526350,"connected_time":1077000000000,"state":"active","ping":78},{"user_id":62,"name":"Jason Gaming","steam_id":76561198215467601,"connected_time":713000000000,"state":"active","ping":69},{"user_id":49,"name":"Devin","steam_id":76561198125952835,"connected_time":1489000000000,"state":"active","ping":63},{"user_id":83,"name":"bob_2_","steam_id":76561198103511119,"connected_time":180000000000,"state":"active","ping":65},{"user_id":51,"name":"Professor Shaggy","steam_id":76561198276926724,"connected_time":1291000000000,"state":"active","ping":59},{"user_id":47,"name":"Buddy","steam_id":76561198121343955,"connected_time":1706000000000,"state":"active","ping":70},{"user_id":52,"name":"BoopBerry","steam_id":76561198871571711,"connected_time":1228000000000,"state":"active","ping":61},{"user_id":22,"name":"Swimps","steam_id":76561199095494639,"connected_time":3669000000000,"state":"active","ping":98},{"user_id":75,"name":"Sewer Wizard","steam_id":76561199061404496,"connected_time":371000000000,"state":"active","ping":75},{"user_id":66,"name":"Spartaguy","steam_id":76561198128789957,"connected_time":578000000000,"state":"active","ping":65},{"user_id":77,"name":"[TF2Apples] Intense Green Apple","steam_id":76561198803561622,"connected_time":302000000000,"state":"active","ping":90},{"user_id":68,"name":"TheDudeofDC","steam_id":76561199059346175,"connected_time":477000000000,"state":"active","ping":74},{"user_id":60,"name":"SEGNO","steam_id":76561198102780113,"connected_time":737000000000,"state":"active","ping":64},{"user_id":69,"name":"Candy Medusa","steam_id":76561198017790299,"connected_time":424000000000,"state":"active","ping":74},{"user_id":63,"name":"[UNFAIR] H1gh0nSt34m","steam_id":76561198839068126,"connected_time":700000000000,"state":"active","ping":78},{"user_id":87,"name":"airsumo","steam_id":76561198044193815,"connected_time":27000000000,"state":"active","ping":59},{"user_id":71,"name":"GuyGoom","steam_id":76561198254522178,"connected_time":397000000000,"state":"active","ping":63},{"user_id":72,"name":"joddson63","steam_id":76561198124576125,"connected_time":396000000000,"state":"active","ping":135},{"user_id":73,"name":"Not a Russian","steam_id":76561198880311217,"connected_time":390000000000,"state":"active","ping":59},{"user_id":85,"name":"Dawoud621","steam_id":76561198125279021,"connected_time":152000000000,"state":"active","ping":62},{"user_id":80,"name":"redarcher42","steam_id":76561199027887687,"connected_time":242000000000,"state":"active","ping":89},{"user_id":81,"name":"AidenSpot","steam_id":76561198324152195,"connected_time":232000000000,"state":"active","ping":75},{"user_id":82,"name":"LFT Roz257","steam_id":76561198842844532,"connected_time":213000000000,"state":"active","ping":75}]},{"server_id":39,"name":"Uncletopia | Chicago | 8 | Community","name_short":"chi-8","host":"chi-2.us.uncletopia.com","port":27045,"enabled":true,"region":"us-central","cc":"us","latitude":41.881832,"longitude":-87.62318,"reserved":0,"last_update":"0001-01-01T00:00:00Z","name_a2s":"Uncletopia | Chicago | 8 | Community","protocol":17,"map":"workshop/cp_indulge.ugc528106646","folder":"tf","game":"Team Fortress","app_id":440,"player_count":0,"max_players":24,"Bots":0,"server_type":"Dedicated","server_os":"Linux","password":true,"vac":true,"version":"7961495","steam_id":85568392924866365,"keywords":["cp","nocrits","nodmgspread","uncletopia"],"game_id":440,"stv_port":27046,"stv_name":"Uncletopia | Chicago | 8 | Community | STV","players":null},{"server_id":8,"name":"Uncletopia | Dallas | 1 | All Maps","name_short":"dal-1","host":"dal-1.us.uncletopia.com","port":27015,"enabled":true,"region":"us-central","cc":"us","latitude":32.779167,"longitude":-96.80889,"reserved":0,"last_update":"0001-01-01T00:00:00Z","name_a2s":"Uncletopia | Dallas | 1 | All Maps","protocol":17,"map":"cp_sunshine","folder":"tf","game":"Team Fortress","app_id":440,"player_count":24,"max_players":24,"Bots":0,"server_type":"Dedicated","server_os":"Linux","password":true,"vac":true,"version":"7961495","steam_id":85568392924469986,"keywords":["cp","nocrits","nodmgspread","uncletopia"],"game_id":440,"stv_port":27016,"stv_name":"Uncletopia | Dallas | 1 | All Maps | STV","players":[{"user_id":386,"name":"ZILICON","steam_id":76561199044705592,"connected_time":420000000000,"state":"active","ping":115},{"user_id":357,"name":"RAWRWAIFU","steam_id":76561198032118386,"connected_time":2195000000000,"state":"active","ping":71},{"user_id":358,"name":"Mellou","steam_id":76561198212048740,"connected_time":2192000000000,"state":"active","ping":51},{"user_id":361,"name":"nugit74","steam_id":76561198325736178,"connected_time":2032000000000,"state":"active","ping":60},{"user_id":362,"name":"barker bill","steam_id":76561198018451994,"connected_time":1895000000000,"state":"active","ping":54},{"user_id":381,"name":"kicks","steam_id":76561199228854923,"connected_time":512000000000,"state":"active","ping":82},{"user_id":378,"name":"Rin \"Hindwing\" Redtail","steam_id":76561199074865638,"connected_time":576000000000,"state":"active","ping":61},{"user_id":370,"name":"biggamehntr887","steam_id":76561198999431215,"connected_time":685000000000,"state":"active","ping":70},{"user_id":365,"name":"LampMan","steam_id":76561198079857527,"connected_time":1726000000000,"state":"active","ping":58},{"user_id":308,"name":"Dreamzapp","steam_id":76561199084936632,"connected_time":6068000000000,"state":"active","ping":97},{"user_id":372,"name":"zig","steam_id":76561199020345303,"connected_time":660000000000,"state":"active","ping":92},{"user_id":382,"name":"GL1TT3RPVKE","steam_id":76561198407646609,"connected_time":488000000000,"state":"active","ping":110},{"user_id":390,"name":"Black Mesa Security","steam_id":76561198161608111,"connected_time":13000000000,"state":"spawning","ping":65},{"user_id":388,"name":"DragonFluffy","steam_id":76561198077511010,"connected_time":126000000000,"state":"active","ping":71},{"user_id":373,"name":"Deluxe_Taco34","steam_id":76561199037653437,"connected_time":655000000000,"state":"active","ping":125},{"user_id":376,"name":"artichoke","steam_id":76561198980994364,"connected_time":640000000000,"state":"active","ping":100},{"user_id":355,"name":"sebjzy ♥","steam_id":76561198009959034,"connected_time":2293000000000,"state":"active","ping":58},{"user_id":356,"name":"Dreysidel","steam_id":76561198056496183,"connected_time":2223000000000,"state":"active","ping":98},{"user_id":377,"name":"BobbyWasabi","steam_id":76561198392473054,"connected_time":623000000000,"state":"active","ping":71},{"user_id":369,"name":"The Raging Bull","steam_id":76561198104492409,"connected_time":689000000000,"state":"active","ping":93},{"user_id":273,"name":"Fu Qian Qian","steam_id":76561199081837220,"connected_time":8337000000000,"state":"active","ping":73},{"user_id":391,"name":"GtownMenace","steam_id":76561198079359870,"connected_time":1000000000,"state":"spawning","ping":57},{"user_id":374,"name":"freedom staff","steam_id":76561199123218315,"connected_time":650000000000,"state":"active","ping":73},{"user_id":375,"name":"Castrophy","steam_id":76561198014745908,"connected_time":649000000000,"state":"active","ping":91}]},{"server_id":108,"name":"Uncletopia | Dallas | 2 | All Maps","name_short":"dal-2","host":"dal-1.us.uncletopia.com","port":27025,"enabled":true,"region":"us-central","cc":"us","latitude":32.779167,"longitude":-96.80889,"reserved":0,"last_update":"0001-01-01T00:00:00Z","name_a2s":"Uncletopia | Dallas | 2 | All Maps","protocol":17,"map":"pl_borneo","folder":"tf","game":"Team Fortress","app_id":440,"player_count":24,"max_players":24,"Bots":0,"server_type":"Dedicated","server_os":"Linux","password":true,"vac":true,"version":"7961495","steam_id":85568392924469988,"keywords":["nocrits","nodmgspread","payload","uncletopia"],"game_id":440,"stv_port":27026,"stv_name":"Uncletopia | Dallas | 2 | All Maps | STV","players":[{"user_id":392,"name":"⛧1-800-INN-KEEP⛧","steam_id":76561198012055277,"connected_time":4741000000000,"state":"active","ping":94},{"user_id":418,"name":"SuperSeven","steam_id":76561198216410953,"connected_time":1857000000000,"state":"active","ping":96},{"user_id":436,"name":"Astro","steam_id":76561198035676106,"connected_time":170000000000,"state":"active","ping":62},{"user_id":370,"name":"Hanzo P.C.H.U","steam_id":76561199130917163,"connected_time":5633000000000,"state":"active","ping":56},{"user_id":371,"name":"Oopsie Daisy ❋","steam_id":76561198042144492,"connected_time":5590000000000,"state":"active","ping":68},{"user_id":383,"name":"carrot cake","steam_id":76561198055174915,"connected_time":5054000000000,"state":"active","ping":89},{"user_id":391,"name":"Glaceon","steam_id":76561198177715869,"connected_time":4842000000000,"state":"active","ping":69},{"user_id":419,"name":"zen1th","steam_id":76561199105729447,"connected_time":1855000000000,"state":"active","ping":54},{"user_id":409,"name":"HUESO","steam_id":76561198276383681,"connected_time":2963000000000,"state":"active","ping":80},{"user_id":428,"name":"chill koi","steam_id":76561198451516389,"connected_time":419000000000,"state":"active","ping":45},{"user_id":438,"name":"3-13","steam_id":76561198063929021,"connected_time":121000000000,"state":"active","ping":42},{"user_id":413,"name":"poggerchamp","steam_id":76561199145124973,"connected_time":2881000000000,"state":"active","ping":50},{"user_id":429,"name":"1998 Mazda b2500","steam_id":76561198883172857,"connected_time":417000000000,"state":"active","ping":88},{"user_id":435,"name":"femboy =＾● ⋏ ●＾=","steam_id":76561199052450127,"connected_time":214000000000,"state":"active","ping":76},{"user_id":430,"name":"Zaid","steam_id":76561199142840666,"connected_time":413000000000,"state":"active","ping":148},{"user_id":410,"name":"bigshortstop","steam_id":76561198040717734,"connected_time":2960000000000,"state":"active","ping":89},{"user_id":411,"name":"Hornk","steam_id":76561197988393372,"connected_time":2957000000000,"state":"active","ping":86},{"user_id":431,"name":"Phos","steam_id":76561198122339506,"connected_time":406000000000,"state":"active","ping":73},{"user_id":423,"name":"uncletopia dallas 5 player","steam_id":76561198107233070,"connected_time":1421000000000,"state":"active","ping":57},{"user_id":439,"name":"Master17Gaming","steam_id":76561198145986516,"connected_time":86000000000,"state":"spawning","ping":77},{"user_id":433,"name":"Maxthetic","steam_id":76561198238368418,"connected_time":394000000000,"state":"active","ping":91},{"user_id":440,"name":"[☯] randomshagz*","steam_id":76561197968666646,"connected_time":8000000000,"state":"active","ping":104},{"user_id":393,"name":"✩Boski✩","steam_id":76561197999945008,"connected_time":4536000000000,"state":"active","ping":92},{"user_id":425,"name":"Stillkill","steam_id":76561198065069057,"connected_time":1302000000000,"state":"active","ping":43}]},{"server_id":404,"name":"Uncletopia | Dallas | 3 | All Maps","name_short":"dal-3","host":"dal-1.us.uncletopia.com","port":27035,"enabled":true,"region":"us-central","cc":"us","latitude":32.779167,"longitude":-96.80889,"reserved":0,"last_update":"0001-01-01T00:00:00Z","name_a2s":"Uncletopia | Dallas | 3 | All Maps","protocol":17,"map":"koth_viaduct","folder":"tf","game":"Team Fortress","app_id":440,"player_count":22,"max_players":24,"Bots":0,"server_type":"Dedicated","server_os":"Linux","password":true,"vac":true,"version":"7961495","steam_id":85568392924515219,"keywords":["cp","nocrits","nodmgspread","uncletopia"],"game_id":440,"stv_port":27036,"stv_name":"Uncletopia | Dallas | 3 | All Maps | STV","players":[{"user_id":526,"name":"Psychosis","steam_id":76561198078659070,"connected_time":90000000000,"state":"active","ping":82},{"user_id":529,"name":"rice","steam_id":76561198119326733,"connected_time":42000000000,"state":"active","ping":78},{"user_id":516,"name":"YoteDab McFapDab.jpg","steam_id":76561197984870380,"connected_time":775000000000,"state":"active","ping":79},{"user_id":500,"name":"Stick","steam_id":76561198987222560,"connected_time":2270000000000,"state":"active","ping":66},{"user_id":472,"name":"fast","steam_id":76561199199975880,"connected_time":5463000000000,"state":"active","ping":49},{"user_id":479,"name":"mbell1199","steam_id":76561198827517736,"connected_time":4148000000000,"state":"active","ping":59},{"user_id":511,"name":"Burny Sanders","steam_id":76561197961879048,"connected_time":1503000000000,"state":"active","ping":49},{"user_id":527,"name":"Tsuki","steam_id":76561198859801589,"connected_time":88000000000,"state":"active","ping":60},{"user_id":524,"name":"UUUURT","steam_id":76561198047468140,"connected_time":104000000000,"state":"active","ping":141},{"user_id":530,"name":"Gnat the Smelly Ferret","steam_id":76561198185717425,"connected_time":35000000000,"state":"active","ping":71},{"user_id":522,"name":"FOOL","steam_id":76561198370866973,"connected_time":108000000000,"state":"active","ping":94},{"user_id":482,"name":"Baxtabbr","steam_id":76561199205187488,"connected_time":3125000000000,"state":"active","ping":66},{"user_id":531,"name":"Major Woody","steam_id":76561198835541533,"connected_time":18000000000,"state":"active","ping":55},{"user_id":454,"name":"Perfume Department","steam_id":76561198128299594,"connected_time":6165000000000,"state":"active","ping":136},{"user_id":422,"name":"chesterwnimitz","steam_id":76561198062664377,"connected_time":7491000000000,"state":"active","ping":80},{"user_id":523,"name":"Tockbird","steam_id":76561199437964594,"connected_time":105000000000,"state":"active","ping":92},{"user_id":528,"name":"Purplecc","steam_id":76561198169924039,"connected_time":88000000000,"state":"active","ping":71},{"user_id":513,"name":"Johnny Lawrence #JohnnyMaxxing","steam_id":76561199367141671,"connected_time":1283000000000,"state":"active","ping":80},{"user_id":503,"name":"Beta Fish","steam_id":76561198073504861,"connected_time":2191000000000,"state":"active","ping":70},{"user_id":510,"name":"log","steam_id":76561198386992717,"connected_time":1528000000000,"state":"active","ping":89},{"user_id":525,"name":"Pyro Jay","steam_id":76561198082331364,"connected_time":94000000000,"state":"active","ping":88},{"user_id":460,"name":"Java_Siege_","steam_id":76561199090000728,"connected_time":6109000000000,"state":"active","ping":82}]},{"server_id":405,"name":"Uncletopia | Dallas | 4 | Community","name_short":"dal-4","host":"dal-1.us.uncletopia.com","port":27045,"enabled":true,"region":"us-central","cc":"us","latitude":32.779167,"longitude":-96.80889,"reserved":0,"last_update":"0001-01-01T00:00:00Z","name_a2s":"Uncletopia | Dallas | 4 | Community","protocol":17,"map":"workshop/pl_corrode_rc2.ugc546577989","folder":"tf","game":"Team Fortress","app_id":440,"player_count":1,"max_players":24,"Bots":0,"server_type":"Dedicated","server_os":"Linux","password":true,"vac":true,"version":"7961495","steam_id":85568392924515220,"keywords":["nocrits","nodmgspread","payload","uncletopia"],"game_id":440,"stv_port":27046,"stv_name":"Uncletopia | Dallas | 4 | Community | STV","players":[{"user_id":8092,"name":"REEEEEEEEEEEEEEEEEEEE","steam_id":76561199411565786,"connected_time":205000000000,"state":"connecting","ping":0}]},{"server_id":5,"name":"Uncletopia | Frankfurt | 1 | All Maps","name_short":"frk-1","host":"frk-1.de.uncletopia.com","port":27015,"enabled":true,"region":"eu","cc":"de","latitude":50.110924,"longitude":8.682127,"reserved":0,"last_update":"0001-01-01T00:00:00Z","name_a2s":"Uncletopia | Frankfurt | 1 | All Maps","protocol":17,"map":"pl_frontier_final","folder":"tf","game":"Team Fortress","app_id":440,"player_count":0,"max_players":24,"Bots":0,"server_type":"Dedicated","server_os":"Linux","password":true,"vac":true,"version":"7961495","steam_id":85568392924469989,"keywords":["nocrits","nodmgspread","payload","uncletopia"],"game_id":440,"stv_port":27016,"stv_name":"Uncletopia | Frankfurt | 1 | All Maps | STV","players":null},{"server_id":110,"name":"Uncletopia | Frankfurt | 2 | All Maps","name_short":"frk-2","host":"frk-1.de.uncletopia.com","port":27025,"enabled":true,"region":"eu","cc":"de","latitude":50.110924,"longitude":8.682127,"reserved":0,"last_update":"0001-01-01T00:00:00Z","name_a2s":"Uncletopia | Frankfurt | 2 | All Maps","protocol":17,"map":"koth_viaduct","folder":"tf","game":"Team Fortress","app_id":440,"player_count":0,"max_players":24,"Bots":0,"server_type":"Dedicated","server_os":"Linux","password":true,"vac":true,"version":"7961495","steam_id":85568392924469990,"keywords":["cp","nocrits","nodmgspread","uncletopia"],"game_id":440,"stv_port":27026,"stv_name":"Uncletopia | Frankfurt | 2 | All Maps | STV","players":null},{"server_id":308,"name":"Uncletopia | Frankfurt | 3 | All Maps","name_short":"frk-3","host":"frk-1.de.uncletopia.com","port":27035,"enabled":true,"region":"eu","cc":"de","latitude":50.110924,"longitude":8.682127,"reserved":0,"last_update":"0001-01-01T00:00:00Z","name_a2s":"Uncletopia | Frankfurt | 3 | All Maps","protocol":17,"map":"koth_lakeside_final","folder":"tf","game":"Team Fortress","app_id":440,"player_count":0,"max_players":24,"Bots":0,"server_type":"Dedicated","server_os":"Linux","password":true,"vac":true,"version":"7961495","steam_id":85568392924504274,"keywords":["cp","nocrits","nodmgspread","uncletopia"],"game_id":440,"stv_port":27036,"stv_name":"Uncletopia | Frankfurt | 3 | All Maps | STV","players":null},{"server_id":309,"name":"Uncletopia | Frankfurt | 4 | All Maps","name_short":"frk-4","host":"frk-1.de.uncletopia.com","port":27045,"enabled":true,"region":"eu","cc":"de","latitude":50.110924,"longitude":8.682127,"reserved":0,"last_update":"0001-01-01T00:00:00Z","name_a2s":"Uncletopia | Frankfurt | 4 | All Maps","protocol":17,"map":"koth_highpass","folder":"tf","game":"Team Fortress","app_id":440,"player_count":0,"max_players":24,"Bots":0,"server_type":"Dedicated","server_os":"Linux","password":true,"vac":true,"version":"7961495","steam_id":85568392924504275,"keywords":["cp","nocrits","nodmgspread","uncletopia"],"game_id":440,"stv_port":27046,"stv_name":"Uncletopia | Frankfurt | 4 | All Maps | STV","players":null},{"server_id":310,"name":"Uncletopia | Frankfurt | 5 | All Maps","name_short":"frk-5","host":"frk-1.de.uncletopia.com","port":27055,"enabled":true,"region":"eu","cc":"de","latitude":50.110924,"longitude":8.682127,"reserved":0,"last_update":"0001-01-01T00:00:00Z","name_a2s":"Uncletopia | Frankfurt | 5 | All Maps","protocol":17,"map":"pl_swiftwater_final1","folder":"tf","game":"Team Fortress","app_id":440,"player_count":0,"max_players":24,"Bots":0,"server_type":"Dedicated","server_os":"Linux","password":true,"vac":true,"version":"7961495","steam_id":85568392924504277,"keywords":["nocrits","nodmgspread","payload","uncletopia"],"game_id":440,"stv_port":27056,"stv_name":"Uncletopia | Frankfurt | 5 | All Maps | STV","players":null},{"server_id":311,"name":"Uncletopia | Frankfurt | 6 | All Maps","name_short":"frk-6","host":"frk-1.de.uncletopia.com","port":27065,"enabled":true,"region":"eu","cc":"de","latitude":50.110924,"longitude":8.682127,"reserved":0,"last_update":"0001-01-01T00:00:00Z","name_a2s":"Uncletopia | Frankfurt | 6 | All Maps","protocol":17,"map":"pl_frontier_final","folder":"tf","game":"Team Fortress","app_id":440,"player_count":0,"max_players":24,"Bots":0,"server_type":"Dedicated","server_os":"Linux","password":true,"vac":true,"version":"7961495","steam_id":85568392924504278,"keywords":["nocrits","nodmgspread","payload","uncletopia"],"game_id":440,"stv_port":27066,"stv_name":"Uncletopia | Frankfurt | 6 | All Maps | STV","players":null},{"server_id":23,"name":"Uncletopia | Frankfurt | 7 | Stopwatch","name_short":"frk-7","host":"frk-1.de.uncletopia.com","port":27075,"enabled":true,"region":"eu","cc":"de","latitude":50.110924,"longitude":8.682127,"reserved":0,"last_update":"0001-01-01T00:00:00Z","name_a2s":"Uncletopia | Frankfurt | 7 | Stopwatch","protocol":17,"map":"workshop/pl_vigil_rc10.ugc1266210012","folder":"tf","game":"Team Fortress","app_id":440,"player_count":0,"max_players":24,"Bots":0,"server_type":"Dedicated","server_os":"Linux","password":true,"vac":true,"version":"7961495","steam_id":85568392924742827,"keywords":["nocrits","nodmgspread","payload","uncletopia"],"game_id":440,"stv_port":27076,"stv_name":"Uncletopia | Frankfurt | 7 | Stopwatch | STV","players":null},{"server_id":24,"name":"Uncletopia | Frankfurt | 8 | Community","name_short":"frk-8","host":"frk-1.de.uncletopia.com","port":27085,"enabled":true,"region":"eu","cc":"de","latitude":50.110924,"longitude":8.682127,"reserved":0,"last_update":"0001-01-01T00:00:00Z","name_a2s":"Uncletopia | Frankfurt | 8 | Community","protocol":17,"map":"workshop/cp_caldera_rc3.ugc2834196889","folder":"tf","game":"Team Fortress","app_id":440,"player_count":0,"max_players":24,"Bots":0,"server_type":"Dedicated","server_os":"Linux","password":true,"vac":true,"version":"7961495","steam_id":85568392924742828,"keywords":["cp","nocrits","nodmgspread","uncletopia"],"game_id":440,"stv_port":27086,"stv_name":"Uncletopia | Frankfurt | 8 | Community | STV","players":null},{"server_id":202,"name":"Uncletopia | Hong Kong | 1 | All Maps","name_short":"hgk-1","host":"hgk-1.hk.uncletopia.com","port":27015,"enabled":true,"region":"asia","cc":"hk","latitude":22.302711,"longitude":114.177216,"reserved":0,"last_update":"0001-01-01T00:00:00Z","name_a2s":"Uncletopia | Hong Kong | 1 | All Maps","protocol":17,"map":"ctf_turbine","folder":"tf","game":"Team Fortress","app_id":440,"player_count":2,"max_players":24,"Bots":0,"server_type":"Dedicated","server_os":"Linux","password":true,"vac":true,"version":"7961495","steam_id":85568392924494504,"keywords":["ctf","nocrits","nodmgspread","uncletopia"],"game_id":440,"stv_port":27016,"stv_name":"Uncletopia | Hong Kong | 1 | All Maps | STV","players":[{"user_id":4,"name":"coakDeLera","steam_id":76561199262817512,"connected_time":863000000000,"state":"active","ping":89},{"user_id":5,"name":"MS PowerPoint","steam_id":76561198369523192,"connected_time":146000000000,"state":"spawning","ping":63}]},{"server_id":1,"name":"Uncletopia | Los Angeles | 1 | All Maps","name_short":"lax-1","host":"lax-1.us.uncletopia.com","port":27015,"enabled":true,"region":"us-west","cc":"us","latitude":33.94279,"longitude":-118.41004,"reserved":0,"last_update":"0001-01-01T00:00:00Z","name_a2s":"Uncletopia | Los Angeles | 1 | All Maps","protocol":17,"map":"pl_badwater","folder":"tf","game":"Team Fortress","app_id":440,"player_count":21,"max_players":24,"Bots":0,"server_type":"Dedicated","server_os":"Linux","password":true,"vac":true,"version":"7961495","steam_id":85568392924469991,"keywords":["nocrits","nodmgspread","payload","uncletopia"],"game_id":440,"stv_port":27016,"stv_name":"Uncletopia | Los Angeles | 1 | All Maps | STV","players":[{"user_id":90,"name":"Jack","steam_id":76561198986214155,"connected_time":2683000000000,"state":"active","ping":60},{"user_id":141,"name":"diamondskyir","steam_id":76561199223952268,"connected_time":46000000000,"state":"active","ping":76},{"user_id":111,"name":"cwnz2","steam_id":76561198418170535,"connected_time":2045000000000,"state":"active","ping":124},{"user_id":103,"name":"Jane (She/Her)","steam_id":76561199465508852,"connected_time":2203000000000,"state":"active","ping":110},{"user_id":142,"name":"❤ Ashley ❤","steam_id":76561198056428303,"connected_time":4000000000,"state":"spawning","ping":46},{"user_id":124,"name":"VPratt","steam_id":76561198351195424,"connected_time":1752000000000,"state":"active","ping":89},{"user_id":132,"name":"Numberforty1","steam_id":76561198103653795,"connected_time":1351000000000,"state":"active","ping":59},{"user_id":102,"name":"Ice","steam_id":76561198045076794,"connected_time":2255000000000,"state":"active","ping":91},{"user_id":108,"name":"ProtogenGaming_808","steam_id":76561199440523721,"connected_time":2121000000000,"state":"active","ping":78},{"user_id":109,"name":"LACTAID","steam_id":76561198276585202,"connected_time":2078000000000,"state":"active","ping":45},{"user_id":137,"name":"Angelmaster","steam_id":76561198815474379,"connected_time":542000000000,"state":"active","ping":46},{"user_id":138,"name":"mrebens","steam_id":76561198838605437,"connected_time":279000000000,"state":"active","ping":60},{"user_id":123,"name":"Jenfs","steam_id":76561198358827981,"connected_time":1803000000000,"state":"active","ping":56},{"user_id":129,"name":"Jeffery","steam_id":76561198352805460,"connected_time":1479000000000,"state":"active","ping":90},{"user_id":117,"name":"Overmeme","steam_id":76561199455124144,"connected_time":1985000000000,"state":"active","ping":76},{"user_id":118,"name":"bottom pride burger","steam_id":76561198322247602,"connected_time":1976000000000,"state":"active","ping":43},{"user_id":140,"name":"Eden","steam_id":76561198081284664,"connected_time":181000000000,"state":"active","ping":56},{"user_id":131,"name":"korkskrou","steam_id":76561198422156430,"connected_time":1366000000000,"state":"active","ping":73},{"user_id":121,"name":"Creature","steam_id":76561198194585781,"connected_time":1953000000000,"state":"active","ping":65},{"user_id":87,"name":"awe","steam_id":76561198338739253,"connected_time":2952000000000,"state":"active","ping":49},{"user_id":122,"name":"Weed Dealer","steam_id":76561198418604400,"connected_time":1953000000000,"state":"active","ping":74}]},{"server_id":112,"name":"Uncletopia | Los Angeles | 2 | All Maps","name_short":"lax-2","host":"lax-1.us.uncletopia.com","port":27025,"enabled":true,"region":"us-west","cc":"us","latitude":33.94279,"longitude":-118.41004,"reserved":0,"last_update":"0001-01-01T00:00:00Z","name_a2s":"Uncletopia | Los Angeles | 2 | All Maps","protocol":17,"map":"pl_goldrush","folder":"tf","game":"Team Fortress","app_id":440,"player_count":24,"max_players":24,"Bots":0,"server_type":"Dedicated","server_os":"Linux","password":true,"vac":true,"version":"7961495","steam_id":85568392924469992,"keywords":["nocrits","nodmgspread","payload","uncletopia"],"game_id":440,"stv_port":27026,"stv_name":"Uncletopia | Los Angeles | 2 | All Maps | STV","players":[{"user_id":176,"name":"Mr. Enforce","steam_id":76561198362168020,"connected_time":1353000000000,"state":"active","ping":98},{"user_id":107,"name":"Surly Joe","steam_id":76561199150833796,"connected_time":6588000000000,"state":"active","ping":66},{"user_id":170,"name":"roach","steam_id":76561198354811369,"connected_time":2027000000000,"state":"active","ping":49},{"user_id":132,"name":"hog princess","steam_id":76561198073587145,"connected_time":5346000000000,"state":"active","ping":93},{"user_id":173,"name":"Kid named download","steam_id":76561199192074448,"connected_time":1380000000000,"state":"active","ping":139},{"user_id":185,"name":"UnusualTofu","steam_id":76561198060103750,"connected_time":527000000000,"state":"active","ping":61},{"user_id":175,"name":"faka","steam_id":76561199478407576,"connected_time":1368000000000,"state":"active","ping":55},{"user_id":172,"name":"ronald","steam_id":76561197960691622,"connected_time":1520000000000,"state":"active","ping":75},{"user_id":186,"name":"Shabooyaroll-call","steam_id":76561198112306237,"connected_time":47000000000,"state":"active","ping":57},{"user_id":142,"name":"MintHaggis","steam_id":76561198006674825,"connected_time":3634000000000,"state":"active","ping":116},{"user_id":177,"name":"Saint Skeleton","steam_id":76561198054547464,"connected_time":1298000000000,"state":"active","ping":45},{"user_id":149,"name":"Man Man","steam_id":76561199068338634,"connected_time":3008000000000,"state":"active","ping":87},{"user_id":89,"name":"HeroOfTime","steam_id":76561199096218001,"connected_time":8682000000000,"state":"active","ping":56},{"user_id":159,"name":"Royal Birb","steam_id":76561198124184158,"connected_time":2380000000000,"state":"active","ping":58},{"user_id":147,"name":"Choctoling","steam_id":76561198351622498,"connected_time":3302000000000,"state":"active","ping":45},{"user_id":161,"name":"rf","steam_id":76561198195359229,"connected_time":2364000000000,"state":"active","ping":63},{"user_id":144,"name":"Kng","steam_id":76561198993248203,"connected_time":3574000000000,"state":"active","ping":105},{"user_id":183,"name":"nivekuil","steam_id":76561198043892129,"connected_time":812000000000,"state":"active","ping":69},{"user_id":122,"name":"[DATS➡] Sugar Meowth","steam_id":76561197995251793,"connected_time":6229000000000,"state":"active","ping":58},{"user_id":181,"name":"Kamin","steam_id":76561198255299559,"connected_time":892000000000,"state":"active","ping":98},{"user_id":179,"name":"A Distinguished Gentleman","steam_id":76561198197086161,"connected_time":1073000000000,"state":"active","ping":82},{"user_id":184,"name":"online","steam_id":76561198192531745,"connected_time":812000000000,"state":"active","ping":61},{"user_id":166,"name":"Kzjytsugn","steam_id":76561198130241974,"connected_time":2229000000000,"state":"active","ping":74},{"user_id":168,"name":"californjoe","steam_id":76561197965047795,"connected_time":2161000000000,"state":"active","ping":53}]},{"server_id":324,"name":"Uncletopia | Los Angeles | 3 | All Maps","name_short":"lax-3","host":"lax-1.us.uncletopia.com","port":27035,"enabled":true,"region":"us-west","cc":"us","latitude":33.94279,"longitude":-118.41004,"reserved":0,"last_update":"0001-01-01T00:00:00Z","name_a2s":"Uncletopia | Los Angeles | 3 | All Maps","protocol":17,"map":"pl_pier","folder":"tf","game":"Team Fortress","app_id":440,"player_count":24,"max_players":24,"Bots":0,"server_type":"Dedicated","server_os":"Linux","password":true,"vac":true,"version":"7961495","steam_id":85568392924510198,"keywords":["nocrits","nodmgspread","payload","uncletopia"],"game_id":440,"stv_port":27036,"stv_name":"Uncletopia | Los Angeles | 3 | All Maps | STV","players":[{"user_id":121,"name":"Sparite","steam_id":76561198288743767,"connected_time":207000000000,"state":"active","ping":44},{"user_id":120,"name":"Pablo","steam_id":76561199003655066,"connected_time":216000000000,"state":"active","ping":41},{"user_id":116,"name":"LemonCut","steam_id":76561198149124934,"connected_time":575000000000,"state":"active","ping":50},{"user_id":118,"name":"Fehr","steam_id":76561198037749723,"connected_time":355000000000,"state":"active","ping":87},{"user_id":75,"name":"Jazpy","steam_id":76561198036872545,"connected_time":2152000000000,"state":"active","ping":77},{"user_id":123,"name":"JtsRes","steam_id":76561197994809241,"connected_time":187000000000,"state":"active","ping":91},{"user_id":119,"name":"a_lilypup","steam_id":76561198163640324,"connected_time":240000000000,"state":"active","ping":55},{"user_id":122,"name":"Rylix","steam_id":76561198136157816,"connected_time":202000000000,"state":"active","ping":49},{"user_id":33,"name":"Billy Mays","steam_id":76561197998876324,"connected_time":4727000000000,"state":"active","ping":52},{"user_id":79,"name":"cycoone","steam_id":76561198059745285,"connected_time":2063000000000,"state":"active","ping":114},{"user_id":124,"name":"firedabot","steam_id":76561198969788210,"connected_time":175000000000,"state":"active","ping":66},{"user_id":115,"name":"Stoopnagle","steam_id":76561198011942560,"connected_time":638000000000,"state":"active","ping":77},{"user_id":108,"name":"☢(XJ)","steam_id":76561198102189618,"connected_time":1020000000000,"state":"active","ping":45},{"user_id":100,"name":"Satori Komeiji","steam_id":76561198158211423,"connected_time":1158000000000,"state":"active","ping":53},{"user_id":125,"name":"DamienIsAsian","steam_id":76561198228819444,"connected_time":166000000000,"state":"active","ping":88},{"user_id":101,"name":"MantisToboggan","steam_id":76561197969447887,"connected_time":1147000000000,"state":"active","ping":100},{"user_id":106,"name":"moe","steam_id":76561198929586245,"connected_time":1068000000000,"state":"active","ping":41},{"user_id":96,"name":"Dr. Fast M.D.","steam_id":76561198871298539,"connected_time":1335000000000,"state":"active","ping":78},{"user_id":107,"name":"McDonald","steam_id":76561199028533497,"connected_time":1052000000000,"state":"active","ping":56},{"user_id":111,"name":"Ian","steam_id":76561198159334435,"connected_time":728000000000,"state":"active","ping":166},{"user_id":126,"name":"Disney Junior","steam_id":76561198271881560,"connected_time":30000000000,"state":"spawning","ping":157},{"user_id":102,"name":"shrimpboi783","steam_id":76561199091069924,"connected_time":1074000000000,"state":"active","ping":66},{"user_id":117,"name":"SomeRandomBetaFish","steam_id":76561198827731399,"connected_time":477000000000,"state":"active","ping":92},{"user_id":104,"name":"W+M1+ratio+based+I asked","steam_id":76561198096133103,"connected_time":1074000000000,"state":"active","ping":79}]},{"server_id":25,"name":"Uncletopia | Los Angeles | 4 | Stopwatch","name_short":"lax-4","host":"lax-1.us.uncletopia.com","port":27045,"enabled":true,"region":"us-west","cc":"us","latitude":33.94279,"longitude":-118.41004,"reserved":0,"last_update":"0001-01-01T00:00:00Z","name_a2s":"Uncletopia | Los Angeles | 4 | Stopwatch","protocol":17,"map":"cp_granary","folder":"tf","game":"Team Fortress","app_id":440,"player_count":0,"max_players":24,"Bots":0,"server_type":"Dedicated","server_os":"Linux","password":true,"vac":true,"version":"7961495","steam_id":85568392924510199,"keywords":["cp","nocrits","nodmgspread","uncletopia"],"game_id":440,"stv_port":27046,"stv_name":"Uncletopia | Los Angeles | 4 | Stopwatch | STV","players":null},{"server_id":11,"name":"Uncletopia | London | 1 | All Maps","name_short":"lon-1","host":"lon-1.uk.uncletopia.com","port":27015,"enabled":true,"region":"eu","cc":"gb","latitude":51.509865,"longitude":-0.118092,"reserved":0,"last_update":"0001-01-01T00:00:00Z","name_a2s":"Uncletopia | London | 1 | All Maps","protocol":17,"map":"cp_dustbowl","folder":"tf","game":"Team Fortress","app_id":440,"player_count":20,"max_players":24,"Bots":0,"server_type":"Dedicated","server_os":"Linux","password":true,"vac":true,"version":"7961495","steam_id":85568392924367362,"keywords":["cp","nocrits","nodmgspread","uncletopia"],"game_id":440,"stv_port":27016,"stv_name":"Uncletopia | London | 1 | All Maps | STV","players":[{"user_id":833,"name":"GoblinGaming","steam_id":76561198360395476,"connected_time":265000000000,"state":"active","ping":30},{"user_id":810,"name":"some girl","steam_id":76561198890391967,"connected_time":2091000000000,"state":"active","ping":86},{"user_id":830,"name":"ArcticRescue","steam_id":76561198055362404,"connected_time":420000000000,"state":"active","ping":123},{"user_id":814,"name":"Awful","steam_id":76561198216445948,"connected_time":1741000000000,"state":"active","ping":140},{"user_id":837,"name":"Hyundai i30","steam_id":76561197993423510,"connected_time":133000000000,"state":"active","ping":85},{"user_id":789,"name":"Nittugai","steam_id":76561198067366462,"connected_time":4313000000000,"state":"active","ping":60},{"user_id":653,"name":"Borat","steam_id":76561198122226417,"connected_time":16577000000000,"state":"active","ping":35},{"user_id":838,"name":"CMRDGI","steam_id":76561198141356233,"connected_time":131000000000,"state":"active","ping":58},{"user_id":836,"name":"Coca162","steam_id":76561198230656540,"connected_time":221000000000,"state":"active","ping":50},{"user_id":750,"name":"Bobirulez","steam_id":76561198009125458,"connected_time":7156000000000,"state":"active","ping":75},{"user_id":842,"name":"Your Local Bushman","steam_id":76561198206853659,"connected_time":10000000000,"state":"spawning","ping":150},{"user_id":839,"name":"Shmig","steam_id":76561199039358883,"connected_time":118000000000,"state":"active","ping":171},{"user_id":819,"name":"Bubsy 3D","steam_id":76561197988942314,"connected_time":1568000000000,"state":"active","ping":35},{"user_id":817,"name":"Candy","steam_id":76561198000047628,"connected_time":1698000000000,"state":"active","ping":157},{"user_id":840,"name":"Rogue","steam_id":76561199143593182,"connected_time":62000000000,"state":"active","ping":44},{"user_id":804,"name":"Lucky Strike","steam_id":76561198355128010,"connected_time":2804000000000,"state":"active","ping":69},{"user_id":749,"name":"I like apple","steam_id":76561198108115790,"connected_time":7344000000000,"state":"active","ping":46},{"user_id":841,"name":"Qdarks","steam_id":76561198013391340,"connected_time":46000000000,"state":"active","ping":145},{"user_id":825,"name":"Jeanbada","steam_id":76561198106908512,"connected_time":869000000000,"state":"active","ping":69},{"user_id":782,"name":"Dangerous Andrew","steam_id":76561198067218981,"connected_time":4919000000000,"state":"active","ping":59}]},{"server_id":114,"name":"Uncletopia | London | 2 | All Maps","name_short":"lon-2","host":"lon-1.uk.uncletopia.com","port":27025,"enabled":true,"region":"eu","cc":"gb","latitude":51.509865,"longitude":-0.118092,"reserved":0,"last_update":"0001-01-01T00:00:00Z","name_a2s":"Uncletopia | London | 2 | All Maps","protocol":17,"map":"plr_pipeline","folder":"tf","game":"Team Fortress","app_id":440,"player_count":21,"max_players":24,"Bots":0,"server_type":"Dedicated","server_os":"Linux","password":true,"vac":true,"version":"7961495","steam_id":85568392924470941,"keywords":["nocrits","nodmgspread","payload","uncletopia"],"game_id":440,"stv_port":27026,"stv_name":"Uncletopia | London | 2 | All Maps | STV","players":[{"user_id":1097,"name":"Markus","steam_id":76561198036085459,"connected_time":85000000000,"state":"active","ping":76},{"user_id":1076,"name":"Aggressive Expansion","steam_id":76561198060029617,"connected_time":1598000000000,"state":"active","ping":131},{"user_id":1096,"name":"noseb","steam_id":76561199480942903,"connected_time":276000000000,"state":"active","ping":63},{"user_id":1038,"name":"Arthur","steam_id":76561198066109166,"connected_time":4199000000000,"state":"active","ping":85},{"user_id":1085,"name":"Adachi","steam_id":76561198103454168,"connected_time":790000000000,"state":"active","ping":45},{"user_id":1032,"name":"Skarpy","steam_id":76561198034398376,"connected_time":4580000000000,"state":"active","ping":60},{"user_id":1043,"name":"MeeQan","steam_id":76561198098096991,"connected_time":3314000000000,"state":"active","ping":71},{"user_id":1046,"name":"63756d","steam_id":76561198808699024,"connected_time":3227000000000,"state":"active","ping":73},{"user_id":1079,"name":"lawn","steam_id":76561198001243486,"connected_time":1402000000000,"state":"active","ping":45},{"user_id":1087,"name":"Cash MoneyBlue","steam_id":76561198934825927,"connected_time":731000000000,"state":"active","ping":163},{"user_id":1081,"name":"The Rock","steam_id":76561198433328517,"connected_time":1162000000000,"state":"active","ping":158},{"user_id":1056,"name":"ion luca caragiale","steam_id":76561198132025408,"connected_time":2763000000000,"state":"active","ping":57},{"user_id":1007,"name":"Collisto","steam_id":76561198023609460,"connected_time":6106000000000,"state":"active","ping":73},{"user_id":1094,"name":"£blz","steam_id":76561198084804183,"connected_time":309000000000,"state":"active","ping":44},{"user_id":1054,"name":"Kiogeki","steam_id":76561197996707843,"connected_time":2957000000000,"state":"active","ping":40},{"user_id":1089,"name":"Zoldde","steam_id":76561199499579920,"connected_time":662000000000,"state":"active","ping":46},{"user_id":1037,"name":"team fortress","steam_id":76561198801207748,"connected_time":4255000000000,"state":"active","ping":129},{"user_id":1057,"name":"Spikejaw Baxter","steam_id":76561198035667332,"connected_time":2628000000000,"state":"active","ping":161},{"user_id":1098,"name":"Sticky George","steam_id":76561198075929370,"connected_time":48000000000,"state":"active","ping":69},{"user_id":1091,"name":"happyman442","steam_id":76561198007494744,"connected_time":566000000000,"state":"active","ping":54},{"user_id":1095,"name":"lord of all that is golden","steam_id":76561198269154534,"connected_time":290000000000,"state":"active","ping":45}]},{"server_id":320,"name":"Uncletopia | London | 3 | All Maps","name_short":"lon-3","host":"lon-1.uk.uncletopia.com","port":27035,"enabled":true,"region":"eu","cc":"gb","latitude":51.509865,"longitude":-0.118092,"reserved":0,"last_update":"0001-01-01T00:00:00Z","name_a2s":"Uncletopia | London | 3 | All Maps","protocol":17,"map":"koth_viaduct","folder":"tf","game":"Team Fortress","app_id":440,"player_count":0,"max_players":24,"Bots":0,"server_type":"Dedicated","server_os":"Linux","password":true,"vac":true,"version":"7961495","steam_id":85568392924510192,"keywords":["cp","nocrits","nodmgspread","uncletopia"],"game_id":440,"stv_port":27036,"stv_name":"Uncletopia | London | 3 | All Maps | STV","players":null},{"server_id":321,"name":"Uncletopia | London | 4 | All Maps","name_short":"lon-4","host":"lon-1.uk.uncletopia.com","port":27045,"enabled":true,"region":"eu","cc":"gb","latitude":51.509865,"longitude":-0.118092,"reserved":0,"last_update":"0001-01-01T00:00:00Z","name_a2s":"Uncletopia | London | 4 | All Maps","protocol":17,"map":"pl_snowycoast","folder":"tf","game":"Team Fortress","app_id":440,"player_count":0,"max_players":24,"Bots":0,"server_type":"Dedicated","server_os":"Linux","password":true,"vac":true,"version":"7961495","steam_id":85568392924510193,"keywords":["nocrits","nodmgspread","payload","uncletopia"],"game_id":440,"stv_port":27046,"stv_name":"Uncletopia | London | 4 | All Maps | STV","players":null},{"server_id":21,"name":"Uncletopia | London | 5 | All Maps","name_short":"lon-5","host":"lon-1.uk.uncletopia.com","port":27055,"enabled":true,"region":"eu","cc":"gb","latitude":51.509865,"longitude":-0.118092,"reserved":0,"last_update":"0001-01-01T00:00:00Z","name_a2s":"Uncletopia | London | 5 | All Maps","protocol":17,"map":"koth_cascade","folder":"tf","game":"Team Fortress","app_id":440,"player_count":0,"max_players":24,"Bots":0,"server_type":"Dedicated","server_os":"Linux","password":true,"vac":true,"version":"7961495","steam_id":85568392924742829,"keywords":["cp","nocrits","nodmgspread","uncletopia"],"game_id":440,"stv_port":27056,"stv_name":"Uncletopia | London | 5 | All Maps | STV","players":null},{"server_id":22,"name":"Uncletopia | London | 6 | All Maps","name_short":"lon-6","host":"lon-1.uk.uncletopia.com","port":27065,"enabled":true,"region":"eu","cc":"gb","latitude":51.509865,"longitude":-0.118092,"reserved":0,"last_update":"0001-01-01T00:00:00Z","name_a2s":"Uncletopia | London | 6 | All Maps","protocol":17,"map":"plr_nightfall_final","folder":"tf","game":"Team Fortress","app_id":440,"player_count":0,"max_players":24,"Bots":0,"server_type":"Dedicated","server_os":"Linux","password":true,"vac":true,"version":"7961495","steam_id":85568392924742830,"keywords":["nocrits","nodmgspread","payload","uncletopia"],"game_id":440,"stv_port":27066,"stv_name":"Uncletopia | London | 6 | All Maps | STV","players":null},{"server_id":40,"name":"Uncletopia | London | 7 | Stopwatch","name_short":"lon-7","host":"lon-1.uk.uncletopia.com","port":27075,"enabled":true,"region":"eu","cc":"gb","latitude":51.509865,"longitude":-0.118092,"reserved":0,"last_update":"0001-01-01T00:00:00Z","name_a2s":"Uncletopia | London | 7 | Stopwatch","protocol":17,"map":"workshop/koth_clearcut_b15.ugc2107050255","folder":"tf","game":"Team Fortress","app_id":440,"player_count":0,"max_players":24,"Bots":0,"server_type":"Dedicated","server_os":"Linux","password":true,"vac":true,"version":"7961495","steam_id":85568392924964314,"keywords":["cp","nocrits","nodmgspread","uncletopia"],"game_id":440,"stv_port":27076,"stv_name":"Uncletopia | London | 7 | Stopwatch | STV","players":null},{"server_id":41,"name":"Uncletopia | London | 8 | Community","name_short":"lon-8","host":"lon-1.uk.uncletopia.com","port":27085,"enabled":true,"region":"eu","cc":"gb","latitude":51.509865,"longitude":-0.118092,"reserved":0,"last_update":"0001-01-01T00:00:00Z","name_a2s":"Uncletopia | London | 8 | Community","protocol":17,"map":"workshop/pl_highwood_b13.ugc1769496557","folder":"tf","game":"Team Fortress","app_id":440,"player_count":0,"max_players":24,"Bots":0,"server_type":"Dedicated","server_os":"Linux","password":true,"vac":true,"version":"7961495","steam_id":85568392924964315,"keywords":["nocrits","nodmgspread","payload","uncletopia"],"game_id":440,"stv_port":27086,"stv_name":"Uncletopia | London | 8 | Community | STV","players":null},{"server_id":300,"name":"Uncletopia | Montréal | 1 | One Thousand Uncles","name_short":"mtl-1","host":"mtl-1.ca.uncletopia.com","port":27015,"enabled":true,"region":"us-east","cc":"ca","latitude":45.50889,"longitude":-73.56167,"reserved":0,"last_update":"0001-01-01T00:00:00Z","name_a2s":"","protocol":0,"map":"","folder":"","game":"","app_id":0,"player_count":8,"max_players":0,"Bots":0,"server_type":"","server_os":"","password":false,"vac":false,"version":"","steam_id":0,"keywords":null,"game_id":0,"stv_port":0,"stv_name":"","players":[{"user_id":539,"name":"RacoonGamer","steam_id":76561198100907657,"connected_time":2883000000000,"state":"active","ping":50},{"user_id":560,"name":"FrontierJustice2","steam_id":76561198916896352,"connected_time":1971000000000,"state":"active","ping":32},{"user_id":471,"name":"DoggyDogWhirl","steam_id":76561198042841344,"connected_time":6581000000000,"state":"active","ping":56},{"user_id":586,"name":"Dragoninventor (He/Him)","steam_id":76561198956224948,"connected_time":139000000000,"state":"active","ping":112},{"user_id":536,"name":"Super3D","steam_id":76561199297779078,"connected_time":3013000000000,"state":"active","ping":86},{"user_id":566,"name":"Sexual Butt","steam_id":76561198102241399,"connected_time":998000000000,"state":"active","ping":57},{"user_id":587,"name":"Temujin","steam_id":76561198030936583,"connected_time":64000000000,"state":"active","ping":45},{"user_id":568,"name":"LightBulbGlue #SaveTF2","steam_id":76561198329573529,"connected_time":607000000000,"state":"active","ping":73}]},{"server_id":301,"name":"Uncletopia | Montréal | 2 | One Thousand Uncles","name_short":"mtl-2","host":"mtl-1.ca.uncletopia.com","port":27025,"enabled":true,"region":"us-east","cc":"ca","latitude":45.50889,"longitude":-73.56167,"reserved":0,"last_update":"0001-01-01T00:00:00Z","name_a2s":"","protocol":0,"map":"","folder":"","game":"","app_id":0,"player_count":4,"max_players":0,"Bots":0,"server_type":"","server_os":"","password":false,"vac":false,"version":"","steam_id":0,"keywords":null,"game_id":0,"stv_port":0,"stv_name":"","players":[{"user_id":164,"name":"sheep","steam_id":76561198172943006,"connected_time":1417000000000,"state":"active","ping":66},{"user_id":165,"name":"ODDLOG","steam_id":76561198397624578,"connected_time":1403000000000,"state":"active","ping":63},{"user_id":182,"name":"Skeptical","steam_id":76561198038261789,"connected_time":1377000000000,"state":"active","ping":114},{"user_id":183,"name":"WM1 PYRO","steam_id":76561198045893896,"connected_time":530000000000,"state":"active","ping":104}]},{"server_id":302,"name":"Uncletopia | Montréal | 3 | One Thousand Uncles","name_short":"mtl-3","host":"mtl-1.ca.uncletopia.com","port":27035,"enabled":true,"region":"us-east","cc":"ca","latitude":45.50889,"longitude":-73.56167,"reserved":0,"last_update":"0001-01-01T00:00:00Z","name_a2s":"","protocol":0,"map":"","folder":"","game":"","app_id":0,"player_count":0,"max_players":0,"Bots":0,"server_type":"","server_os":"","password":false,"vac":false,"version":"","steam_id":0,"keywords":null,"game_id":0,"stv_port":0,"stv_name":"","players":null},{"server_id":13,"name":"Uncletopia | New York City | 1 | All Maps","name_short":"nyc-1","host":"nyc-1.us.uncletopia.com","port":27015,"enabled":true,"region":"us-east","cc":"us","latitude":40.73061,"longitude":-73.93524,"reserved":0,"last_update":"0001-01-01T00:00:00Z","name_a2s":"Uncletopia | New York City | 1 | All Maps","protocol":17,"map":"cp_sunshine","folder":"tf","game":"Team Fortress","app_id":440,"player_count":18,"max_players":24,"Bots":0,"server_type":"Dedicated","server_os":"Linux","password":true,"vac":true,"version":"7961495","steam_id":85568392924469993,"keywords":["cp","nocrits","nodmgspread","uncletopia"],"game_id":440,"stv_port":27016,"stv_name":"Uncletopia | New York City | 1 | All Maps | STV","players":[{"user_id":338,"name":"Fish Fisherman","steam_id":76561198018656022,"connected_time":3978000000000,"state":"active","ping":46},{"user_id":380,"name":"ᗜˬᗜ","steam_id":76561198049076233,"connected_time":79000000000,"state":"active","ping":53},{"user_id":384,"name":"Classy","steam_id":76561198128415840,"connected_time":66000000000,"state":"spawning","ping":48},{"user_id":364,"name":"David Blaine","steam_id":76561198980560578,"connected_time":1968000000000,"state":"active","ping":57},{"user_id":367,"name":"taigaxx","steam_id":76561198202669250,"connected_time":1941000000000,"state":"active","ping":128},{"user_id":385,"name":"cyberas","steam_id":76561198257092290,"connected_time":35000000000,"state":"spawning","ping":87},{"user_id":350,"name":"Jonny4Balls","steam_id":76561198979333994,"connected_time":3306000000000,"state":"active","ping":83},{"user_id":386,"name":"SHADY SWEATER SALESMAN","steam_id":76561198014616865,"connected_time":10000000000,"state":"spawning","ping":103},{"user_id":382,"name":"you forgot the sauce","steam_id":76561198387016713,"connected_time":75000000000,"state":"active","ping":57},{"user_id":343,"name":"Pomegranate88","steam_id":76561198056385456,"connected_time":3810000000000,"state":"active","ping":52},{"user_id":379,"name":"Crab","steam_id":76561198067628664,"connected_time":480000000000,"state":"active","ping":94},{"user_id":373,"name":"bigSMALL","steam_id":76561198964101426,"connected_time":1707000000000,"state":"active","ping":41},{"user_id":378,"name":"my wife left me","steam_id":76561198838284038,"connected_time":830000000000,"state":"active","ping":57},{"user_id":366,"name":"Brown_Dream","steam_id":76561198975766145,"connected_time":1964000000000,"state":"active","ping":73},{"user_id":383,"name":"Ace","steam_id":76561198086172358,"connected_time":74000000000,"state":"active","ping":38},{"user_id":376,"name":"Toon","steam_id":76561198227601072,"connected_time":979000000000,"state":"active","ping":84},{"user_id":359,"name":"Yuzu","steam_id":76561198417913035,"connected_time":2137000000000,"state":"active","ping":69},{"user_id":370,"name":"PurPle","steam_id":76561198050393396,"connected_time":1909000000000,"state":"active","ping":57}]},{"server_id":14,"name":"Uncletopia | New York City | 2 | All Maps","name_short":"nyc-2","host":"nyc-1.us.uncletopia.com","port":27025,"enabled":true,"region":"us-east","cc":"us","latitude":40.73061,"longitude":-73.93524,"reserved":0,"last_update":"0001-01-01T00:00:00Z","name_a2s":"Uncletopia | New York City | 2 | All Maps","protocol":17,"map":"cp_gorge","folder":"tf","game":"Team Fortress","app_id":440,"player_count":24,"max_players":24,"Bots":0,"server_type":"Dedicated","server_os":"Linux","password":true,"vac":true,"version":"7961495","steam_id":85568392924469994,"keywords":["cp","nocrits","nodmgspread","uncletopia"],"game_id":440,"stv_port":27026,"stv_name":"Uncletopia | New York City | 2 | All Maps | STV","players":[{"user_id":357,"name":"Forehead","steam_id":76561198124151399,"connected_time":1756000000000,"state":"active","ping":53},{"user_id":355,"name":"Greenman","steam_id":76561198236789422,"connected_time":1929000000000,"state":"active","ping":53},{"user_id":381,"name":"Asanez3","steam_id":76561198037381436,"connected_time":118000000000,"state":"active","ping":55},{"user_id":368,"name":"Chewbacca","steam_id":76561198041927925,"connected_time":375000000000,"state":"active","ping":55},{"user_id":367,"name":"ChillyJones","steam_id":76561198017658702,"connected_time":545000000000,"state":"active","ping":77},{"user_id":350,"name":"Gentoo Linux Gaming","steam_id":76561197999657118,"connected_time":2155000000000,"state":"active","ping":58},{"user_id":372,"name":"kaeri","steam_id":76561199499380759,"connected_time":301000000000,"state":"active","ping":125},{"user_id":370,"name":"MEET AND FUCK KINGDOM, STEVE","steam_id":76561198421249296,"connected_time":327000000000,"state":"active","ping":81},{"user_id":352,"name":"Xavi","steam_id":76561198337783795,"connected_time":1991000000000,"state":"active","ping":50},{"user_id":380,"name":"zerwee [Full EP]","steam_id":76561198294013916,"connected_time":191000000000,"state":"active","ping":49},{"user_id":373,"name":"Poyo Boyo","steam_id":76561198010201227,"connected_time":291000000000,"state":"active","ping":87},{"user_id":382,"name":"for the king","steam_id":76561197973488858,"connected_time":80000000000,"state":"active","ping":45},{"user_id":348,"name":"googa","steam_id":76561198133130452,"connected_time":2196000000000,"state":"active","ping":45},{"user_id":365,"name":"MrAmerican","steam_id":76561199185438389,"connected_time":1258000000000,"state":"active","ping":55},{"user_id":377,"name":"Parth Makeo","steam_id":76561198002516581,"connected_time":245000000000,"state":"active","ping":47},{"user_id":369,"name":"breathingtrees","steam_id":76561198118931690,"connected_time":334000000000,"state":"active","ping":56},{"user_id":320,"name":"ExtraSoap","steam_id":76561198008712409,"connected_time":3637000000000,"state":"active","ping":46},{"user_id":363,"name":"Farmer2145","steam_id":76561198217084115,"connected_time":1417000000000,"state":"active","ping":100},{"user_id":360,"name":"nethersome","steam_id":76561198892225148,"connected_time":1631000000000,"state":"active","ping":105},{"user_id":375,"name":"lcy13vv","steam_id":76561197995997446,"connected_time":288000000000,"state":"active","ping":47},{"user_id":379,"name":"SpaceSanctum","steam_id":76561198805242305,"connected_time":241000000000,"state":"active","ping":45},{"user_id":345,"name":"st0n3mast3r48","steam_id":76561199141431059,"connected_time":2730000000000,"state":"active","ping":93},{"user_id":376,"name":"vv","steam_id":76561198134813102,"connected_time":287000000000,"state":"active","ping":64},{"user_id":361,"name":"Insectoid","steam_id":76561198122677314,"connected_time":1627000000000,"state":"active","ping":63}]},{"server_id":15,"name":"Uncletopia | New York City | 3 | Stopwatch","name_short":"nyc-3","host":"nyc-1.us.uncletopia.com","port":27035,"enabled":true,"region":"us-east","cc":"us","latitude":40.73061,"longitude":-73.93524,"reserved":0,"last_update":"0001-01-01T00:00:00Z","name_a2s":"Uncletopia | New York City | 3 | Stopwatch","protocol":17,"map":"pl_borneo","folder":"tf","game":"Team Fortress","app_id":440,"player_count":0,"max_players":24,"Bots":0,"server_type":"Dedicated","server_os":"Linux","password":true,"vac":true,"version":"7961495","steam_id":85568392924742820,"keywords":["nocrits","nodmgspread","payload","uncletopia"],"game_id":440,"stv_port":27036,"stv_name":"Uncletopia | New York City | 3 | Stopwatch | STV","players":null},{"server_id":16,"name":"Uncletopia | New York City | 4 | Community","name_short":"nyc-4","host":"nyc-1.us.uncletopia.com","port":27045,"enabled":true,"region":"us-east","cc":"us","latitude":40.73061,"longitude":-73.93524,"reserved":0,"last_update":"0001-01-01T00:00:00Z","name_a2s":"Uncletopia | New York City | 4 | Community","protocol":17,"map":"workshop/koth_ramjam_rc1.ugc459778887","folder":"tf","game":"Team Fortress","app_id":440,"player_count":0,"max_players":24,"Bots":0,"server_type":"Dedicated","server_os":"Linux","password":true,"vac":true,"version":"7961495","steam_id":85568392924742821,"keywords":["cp","nocrits","nodmgspread","uncletopia"],"game_id":440,"stv_port":27046,"stv_name":"Uncletopia | New York City | 4 | Community | STV","players":null},{"server_id":142,"name":"Uncletopia | São Paulo | 1 | All Maps","name_short":"sao-1","host":"sao-1.br.uncletopia.com","port":27015,"enabled":true,"region":"sa","cc":"br","latitude":-23.533773,"longitude":-46.62529,"reserved":0,"last_update":"0001-01-01T00:00:00Z","name_a2s":"Uncletopia | São Paulo | 1 | All Maps","protocol":17,"map":"koth_cascade","folder":"tf","game":"Team Fortress","app_id":440,"player_count":2,"max_players":24,"Bots":0,"server_type":"Dedicated","server_os":"Linux","password":true,"vac":true,"version":"7961495","steam_id":85568392924469996,"keywords":["cp","nocrits","nodmgspread","uncletopia"],"game_id":440,"stv_port":27016,"stv_name":"Uncletopia | São Paulo | 1 | All Maps | STV","players":[{"user_id":55,"name":"Spooqui","steam_id":76561198829748673,"connected_time":2528000000000,"state":"active","ping":64},{"user_id":58,"name":"N00B","steam_id":76561199101427851,"connected_time":992000000000,"state":"active","ping":100}]},{"server_id":143,"name":"Uncletopia | São Paulo | 2 | Community","name_short":"sao-2","host":"sao-2.br.uncletopia.com","port":27015,"enabled":true,"region":"sa","cc":"br","latitude":-23.533773,"longitude":-46.62529,"reserved":0,"last_update":"0001-01-01T00:00:00Z","name_a2s":"Uncletopia | São Paulo | 2 | Community","protocol":17,"map":"workshop/koth_product_final.ugc454272353","folder":"tf","game":"Team Fortress","app_id":440,"player_count":2,"max_players":24,"Bots":0,"server_type":"Dedicated","server_os":"Linux","password":true,"vac":true,"version":"7961495","steam_id":85568392924485349,"keywords":["cp","nocrits","nodmgspread","uncletopia"],"game_id":440,"stv_port":27016,"stv_name":"Uncletopia | São Paulo | 2 | Community | STV","players":[{"user_id":26,"name":"♥︎Jaum♥","steam_id":76561198256068136,"connected_time":826000000000,"state":"active","ping":55},{"user_id":27,"name":"Rivs","steam_id":76561198067961967,"connected_time":767000000000,"state":"active","ping":42}]},{"server_id":7,"name":"Uncletopia | Seattle | 1 | All Maps","name_short":"sea-1","host":"sea-1.us.uncletopia.com","port":27015,"enabled":true,"region":"us-west","cc":"us","latitude":47.608013,"longitude":-122.33517,"reserved":0,"last_update":"0001-01-01T00:00:00Z","name_a2s":"Uncletopia | Seattle | 1 | All Maps","protocol":17,"map":"pl_thundermountain","folder":"tf","game":"Team Fortress","app_id":440,"player_count":24,"max_players":24,"Bots":0,"server_type":"Dedicated","server_os":"Linux","password":true,"vac":true,"version":"7961495","steam_id":85568392924469997,"keywords":["nocrits","nodmgspread","payload","uncletopia"],"game_id":440,"stv_port":27016,"stv_name":"Uncletopia | Seattle | 1 | All Maps | STV","players":[{"user_id":379,"name":"smeasly","steam_id":76561198028718812,"connected_time":3684000000000,"state":"active","ping":45},{"user_id":381,"name":"małika","steam_id":76561198337705174,"connected_time":3490000000000,"state":"active","ping":84},{"user_id":326,"name":"Sniff","steam_id":76561198010270922,"connected_time":7946000000000,"state":"active","ping":53},{"user_id":398,"name":"thats crazy","steam_id":76561198095480838,"connected_time":2116000000000,"state":"active","ping":45},{"user_id":411,"name":"rushy :))","steam_id":76561198065825165,"connected_time":597000000000,"state":"active","ping":107},{"user_id":369,"name":"Aardappel","steam_id":76561198030894676,"connected_time":4720000000000,"state":"active","ping":60},{"user_id":390,"name":"SHADOW WIZARD MONEY GANG","steam_id":76561198060846419,"connected_time":2638000000000,"state":"active","ping":51},{"user_id":392,"name":"Mr.Thirteen","steam_id":76561198047468836,"connected_time":2494000000000,"state":"active","ping":63},{"user_id":382,"name":"TheCowledWiz","steam_id":76561198016735868,"connected_time":3323000000000,"state":"active","ping":51},{"user_id":396,"name":"vfa","steam_id":76561198055729118,"connected_time":2148000000000,"state":"active","ping":61},{"user_id":399,"name":"PvZ Enthusiast","steam_id":76561199089562026,"connected_time":2090000000000,"state":"active","ping":44},{"user_id":395,"name":"Haven","steam_id":76561198087584756,"connected_time":2351000000000,"state":"active","ping":59},{"user_id":412,"name":"A Fruit","steam_id":76561198951830050,"connected_time":53000000000,"state":"active","ping":104},{"user_id":407,"name":"evilOlive","steam_id":76561198106222025,"connected_time":1141000000000,"state":"active","ping":87},{"user_id":348,"name":"a familiar cat","steam_id":76561198080046542,"connected_time":6030000000000,"state":"active","ping":47},{"user_id":301,"name":"woodpigeon","steam_id":76561199488457138,"connected_time":10131000000000,"state":"active","ping":55},{"user_id":391,"name":"Rocket Baby","steam_id":76561198382332854,"connected_time":2637000000000,"state":"active","ping":60},{"user_id":403,"name":"Streamline","steam_id":76561198031098638,"connected_time":1385000000000,"state":"active","ping":103},{"user_id":378,"name":"jodi","steam_id":76561198131833567,"connected_time":3873000000000,"state":"active","ping":70},{"user_id":362,"name":"ethan (real)","steam_id":76561198128868891,"connected_time":5004000000000,"state":"active","ping":50},{"user_id":368,"name":"ilun","steam_id":76561198042913843,"connected_time":4758000000000,"state":"active","ping":60},{"user_id":402,"name":"NEBULA","steam_id":76561198086878595,"connected_time":1762000000000,"state":"active","ping":76},{"user_id":376,"name":"Gregg Rulz ok","steam_id":76561199027131213,"connected_time":4200000000000,"state":"active","ping":46},{"user_id":410,"name":"Elbow Joint","steam_id":76561198072149974,"connected_time":863000000000,"state":"active","ping":72}]},{"server_id":119,"name":"Uncletopia | Seattle | 2 | All Maps","name_short":"sea-2","host":"sea-1.us.uncletopia.com","port":27025,"enabled":true,"region":"us-west","cc":"us","latitude":47.608013,"longitude":-122.33517,"reserved":0,"last_update":"0001-01-01T00:00:00Z","name_a2s":"Uncletopia | Seattle | 2 | All Maps","protocol":17,"map":"pl_pier","folder":"tf","game":"Team Fortress","app_id":440,"player_count":24,"max_players":24,"Bots":0,"server_type":"Dedicated","server_os":"Linux","password":true,"vac":true,"version":"7961495","steam_id":85568392924469998,"keywords":["nocrits","nodmgspread","payload","uncletopia"],"game_id":440,"stv_port":27026,"stv_name":"Uncletopia | Seattle | 2 | All Maps | STV","players":[{"user_id":179,"name":"Day Man","steam_id":76561198067154807,"connected_time":1719000000000,"state":"active","ping":47},{"user_id":145,"name":"chunkysquare","steam_id":76561199076468383,"connected_time":4154000000000,"state":"active","ping":53},{"user_id":184,"name":"oh god i'm gonna CHUM","steam_id":76561198019210187,"connected_time":633000000000,"state":"active","ping":104},{"user_id":190,"name":"Django","steam_id":76561197971158403,"connected_time":393000000000,"state":"active","ping":116},{"user_id":122,"name":"Soundbyte_","steam_id":76561198173284173,"connected_time":5166000000000,"state":"active","ping":31},{"user_id":163,"name":"vandal gunsmith","steam_id":76561198035053352,"connected_time":3537000000000,"state":"active","ping":151},{"user_id":172,"name":"you just got dyked on","steam_id":76561198018977723,"connected_time":2646000000000,"state":"active","ping":45},{"user_id":181,"name":"CashGordon","steam_id":76561197975594096,"connected_time":1524000000000,"state":"active","ping":42},{"user_id":192,"name":"PLATNUMHANNYA","steam_id":76561198451426311,"connected_time":316000000000,"state":"active","ping":56},{"user_id":93,"name":"mmmBoyo","steam_id":76561198821360261,"connected_time":6918000000000,"state":"active","ping":38},{"user_id":162,"name":"Tibetan Pop Star","steam_id":76561198844903984,"connected_time":3574000000000,"state":"active","ping":75},{"user_id":185,"name":"Supersonic","steam_id":76561198042167127,"connected_time":627000000000,"state":"active","ping":60},{"user_id":183,"name":"weegeebad","steam_id":76561198280841437,"connected_time":641000000000,"state":"active","ping":107},{"user_id":193,"name":"CPTforever","steam_id":76561198237767198,"connected_time":78000000000,"state":"active","ping":63},{"user_id":191,"name":"Batso","steam_id":76561198106589452,"connected_time":362000000000,"state":"active","ping":78},{"user_id":126,"name":"barnblitz can ChokeMyChucklenut","steam_id":76561198882404753,"connected_time":5112000000000,"state":"active","ping":95},{"user_id":155,"name":"ＲＥＤ","steam_id":76561198030282308,"connected_time":3782000000000,"state":"active","ping":68},{"user_id":186,"name":"*The* Wardoug41","steam_id":76561198255780869,"connected_time":624000000000,"state":"active","ping":132},{"user_id":146,"name":"WitchesBwew","steam_id":76561198871652065,"connected_time":4029000000000,"state":"active","ping":88},{"user_id":156,"name":"JobsDone2","steam_id":76561198159158870,"connected_time":3758000000000,"state":"active","ping":115},{"user_id":166,"name":"OxOoxen841","steam_id":76561198297981993,"connected_time":3475000000000,"state":"active","ping":94},{"user_id":188,"name":"goos  e","steam_id":76561198036774894,"connected_time":559000000000,"state":"active","ping":43},{"user_id":178,"name":"womenobtainer39","steam_id":76561199236568388,"connected_time":2057000000000,"state":"active","ping":75},{"user_id":102,"name":"Dimple","steam_id":76561198980324190,"connected_time":6384000000000,"state":"active","ping":64}]},{"server_id":406,"name":"Uncletopia | Seattle | 3 | Stopwatch","name_short":"sea-3","host":"sea-1.us.uncletopia.com","port":27035,"enabled":true,"region":"us-west","cc":"us","latitude":47.608013,"longitude":-122.33517,"reserved":0,"last_update":"0001-01-01T00:00:00Z","name_a2s":"Uncletopia | Seattle | 3 | Stopwatch","protocol":17,"map":"workshop/koth_ashville_final.ugc2130459942","folder":"tf","game":"Team Fortress","app_id":440,"player_count":0,"max_players":24,"Bots":0,"server_type":"Dedicated","server_os":"Linux","password":true,"vac":true,"version":"7961495","steam_id":85568392924515217,"keywords":["cp","nocrits","nodmgspread","uncletopia"],"game_id":440,"stv_port":27036,"stv_name":"Uncletopia | Seattle | 3 | Stopwatch | STV","players":null},{"server_id":17,"name":"Uncletopia | San Francisco | 1 | All Maps","name_short":"sfo-1","host":"sfo-1.us.uncletopia.com","port":27015,"enabled":true,"region":"us-west","cc":"us","latitude":37.77397,"longitude":-122.4313,"reserved":0,"last_update":"0001-01-01T00:00:00Z","name_a2s":"Uncletopia | San Francisco | 1 | All Maps","protocol":17,"map":"koth_cascade","folder":"tf","game":"Team Fortress","app_id":440,"player_count":0,"max_players":24,"Bots":0,"server_type":"Dedicated","server_os":"Linux","password":true,"vac":true,"version":"7961495","steam_id":85568392924469999,"keywords":["cp","nocrits","nodmgspread","uncletopia"],"game_id":440,"stv_port":27016,"stv_name":"Uncletopia | San Francisco | 1 | All Maps | STV","players":null},{"server_id":18,"name":"Uncletopia | San Francisco | 2 | All Maps","name_short":"sfo-2","host":"sfo-1.us.uncletopia.com","port":27025,"enabled":true,"region":"us-west","cc":"us","latitude":37.77397,"longitude":-122.4313,"reserved":0,"last_update":"0001-01-01T00:00:00Z","name_a2s":"Uncletopia | San Francisco | 2 | All Maps","protocol":17,"map":"pl_badwater","folder":"tf","game":"Team Fortress","app_id":440,"player_count":0,"max_players":24,"Bots":0,"server_type":"Dedicated","server_os":"Linux","password":true,"vac":true,"version":"7961495","steam_id":85568392924470000,"keywords":["nocrits","nodmgspread","payload","uncletopia"],"game_id":440,"stv_port":27026,"stv_name":"Uncletopia | San Francisco | 2 | All Maps | STV","players":null},{"server_id":19,"name":"Uncletopia | San Francisco | 3 | Stopwatch","name_short":"sfo-3","host":"sfo-1.us.uncletopia.com","port":27035,"enabled":true,"region":"us-west","cc":"us","latitude":37.77397,"longitude":-122.4313,"reserved":0,"last_update":"0001-01-01T00:00:00Z","name_a2s":"Uncletopia | San Francisco | 3 | Stopwatch","protocol":17,"map":"workshop/pl_barnblitz_pro7.ugc582280235","folder":"tf","game":"Team Fortress","app_id":440,"player_count":0,"max_players":24,"Bots":0,"server_type":"Dedicated","server_os":"Linux","password":true,"vac":true,"version":"7961495","steam_id":85568392924742824,"keywords":["nocrits","nodmgspread","payload","uncletopia"],"game_id":440,"stv_port":27036,"stv_name":"Uncletopia | San Francisco | 3 | Stopwatch | STV","players":null},{"server_id":20,"name":"Uncletopia | San Francisco | 4 | Community","name_short":"sfo-4","host":"sfo-1.us.uncletopia.com","port":27045,"enabled":true,"region":"us-west","cc":"us","latitude":37.77397,"longitude":-122.4313,"reserved":0,"last_update":"0001-01-01T00:00:00Z","name_a2s":"Uncletopia | San Francisco | 4 | Community","protocol":17,"map":"pl_pier","folder":"tf","game":"Team Fortress","app_id":440,"player_count":3,"max_players":24,"Bots":0,"server_type":"Dedicated","server_os":"Linux","password":true,"vac":true,"version":"7961495","steam_id":85568392924742826,"keywords":["nocrits","nodmgspread","payload","uncletopia"],"game_id":440,"stv_port":27046,"stv_name":"Uncletopia | San Francisco | 4 | Community | STV","players":[{"user_id":4,"name":"Throws Before Bros󠀡","steam_id":76561197992905530,"connected_time":698000000000,"state":"active","ping":53},{"user_id":5,"name":"Nothing Vulgar","steam_id":76561198055002150,"connected_time":456000000000,"state":"active","ping":71},{"user_id":6,"name":"GoGo","steam_id":76561198023080645,"connected_time":323000000000,"state":"active","ping":124}]},{"server_id":141,"name":"Uncletopia | Sydney | 1 | All Maps","name_short":"syd-1","host":"syd-1.au.uncletopia.com","port":27015,"enabled":true,"region":"au","cc":"au","latitude":-33.865143,"longitude":151.2099,"reserved":0,"last_update":"0001-01-01T00:00:00Z","name_a2s":"Uncletopia | Sydney | 1 | All Maps","protocol":17,"map":"koth_viaduct","folder":"tf","game":"Team Fortress","app_id":440,"player_count":1,"max_players":24,"Bots":0,"server_type":"Dedicated","server_os":"Linux","password":true,"vac":true,"version":"7961495","steam_id":85568392924470001,"keywords":["cp","nocrits","nodmgspread","uncletopia"],"game_id":440,"stv_port":27016,"stv_name":"Uncletopia | Sydney | 1 | All Maps | STV","players":[{"user_id":5,"name":"BloxWich","steam_id":76561198120361288,"connected_time":16000000000,"state":"spawning","ping":78}]},{"server_id":123,"name":"Uncletopia | Sydney | 2 | All Maps","name_short":"syd-2","host":"syd-1.au.uncletopia.com","port":27025,"enabled":true,"region":"au","cc":"au","latitude":-33.865143,"longitude":151.2099,"reserved":0,"last_update":"0001-01-01T00:00:00Z","name_a2s":"Uncletopia | Sydney | 2 | All Maps","protocol":17,"map":"koth_lakeside_final","folder":"tf","game":"Team Fortress","app_id":440,"player_count":0,"max_players":24,"Bots":0,"server_type":"Dedicated","server_os":"Linux","password":true,"vac":true,"version":"7961495","steam_id":85568392924470002,"keywords":["cp","nocrits","nodmgspread","uncletopia"],"game_id":440,"stv_port":27026,"stv_name":"Uncletopia | Sydney | 2 | All Maps | STV","players":null},{"server_id":395,"name":"Uncletopia | Sydney | 3 | All Maps","name_short":"syd-3","host":"syd-1.au.uncletopia.com","port":27035,"enabled":true,"region":"au","cc":"au","latitude":-33.865143,"longitude":151.2099,"reserved":0,"last_update":"0001-01-01T00:00:00Z","name_a2s":"Uncletopia | Sydney | 3 | All Maps","protocol":17,"map":"cp_dustbowl","folder":"tf","game":"Team Fortress","app_id":440,"player_count":0,"max_players":24,"Bots":0,"server_type":"Dedicated","server_os":"Linux","password":true,"vac":true,"version":"7961495","steam_id":85568392925194467,"keywords":["cp","nocrits","nodmgspread","uncletopia"],"game_id":440,"stv_port":27036,"stv_name":"Uncletopia | Sydney | 3 | All Maps | STV","players":null},{"server_id":396,"name":"Uncletopia | Sydney | 4 | All Maps","name_short":"syd-4","host":"syd-1.au.uncletopia.com","port":27045,"enabled":true,"region":"au","cc":"au","latitude":-33.865143,"longitude":151.2099,"reserved":0,"last_update":"0001-01-01T00:00:00Z","name_a2s":"Uncletopia | Sydney | 4 | All Maps","protocol":17,"map":"koth_highpass","folder":"tf","game":"Team Fortress","app_id":440,"player_count":0,"max_players":24,"Bots":0,"server_type":"Dedicated","server_os":"Linux","password":true,"vac":true,"version":"7961495","steam_id":85568392925397958,"keywords":["cp","nocrits","nodmgspread","uncletopia"],"game_id":440,"stv_port":27046,"stv_name":"Uncletopia | Sydney | 4 | All Maps | STV","players":null},{"server_id":58,"name":"Uncletopia | Sydney | 5 | Stopwatch","name_short":"syd-5","host":"syd-1.au.uncletopia.com","port":27055,"enabled":true,"region":"au","cc":"au","latitude":-33.865143,"longitude":151.2099,"reserved":0,"last_update":"0001-01-01T00:00:00Z","name_a2s":"Uncletopia | Sydney | 5 | Stopwatch","protocol":17,"map":"pl_frontier_final","folder":"tf","game":"Team Fortress","app_id":440,"player_count":0,"max_players":24,"Bots":0,"server_type":"Dedicated","server_os":"Linux","password":true,"vac":true,"version":"7961495","steam_id":85568392925397959,"keywords":["nocrits","nodmgspread","payload","uncletopia"],"game_id":440,"stv_port":27056,"stv_name":"Uncletopia | Sydney | 5 | Stopwatch | STV","players":null},{"server_id":59,"name":"Uncletopia | Sydney | 6 | Community","name_short":"syd-6","host":"syd-1.au.uncletopia.com","port":27065,"enabled":true,"region":"au","cc":"au","latitude":-33.865143,"longitude":151.2099,"reserved":0,"last_update":"0001-01-01T00:00:00Z","name_a2s":"Uncletopia | Sydney | 6 | Community","protocol":17,"map":"cp_sunshine","folder":"tf","game":"Team Fortress","app_id":440,"player_count":0,"max_players":24,"Bots":0,"server_type":"Dedicated","server_os":"Linux","password":true,"vac":true,"version":"7961495","steam_id":85568392925397960,"keywords":["cp","nocrits","nodmgspread","uncletopia"],"game_id":440,"stv_port":27066,"stv_name":"Uncletopia | Sydney | 6 | Community | STV","players":null},{"server_id":49,"name":"Uncletopia | Warsaw | 1 | One Thousand Uncles","name_short":"waw-1","host":"waw-1.pl.uncletopia.com","port":27015,"enabled":true,"region":"eu","cc":"pl","latitude":52.2297,"longitude":21.017532,"reserved":0,"last_update":"0001-01-01T00:00:00Z","name_a2s":"Uncletopia | Warsaw | 1 | One Thousand Uncles","protocol":17,"map":"pl_chilly","folder":"tf","game":"Team Fortress","app_id":440,"player_count":0,"max_players":32,"Bots":0,"server_type":"Dedicated","server_os":"Linux","password":true,"vac":true,"version":"7961495","steam_id":85568392925397850,"keywords":["alltalk","danepve","increased_maxplayers","nocrits","norespawntime","payload","uncletopia"],"game_id":440,"stv_port":0,"stv_name":"","players":null},{"server_id":50,"name":"Uncletopia | Warsaw | 2 | One Thousand Uncles","name_short":"waw-2","host":"waw-1.pl.uncletopia.com","port":27025,"enabled":true,"region":"eu","cc":"pl","latitude":52.2297,"longitude":21.017532,"reserved":0,"last_update":"0001-01-01T00:00:00Z","name_a2s":"Uncletopia | Warsaw | 2 | One Thousand Uncles","protocol":17,"map":"cp_dustbowl","folder":"tf","game":"Team Fortress","app_id":440,"player_count":18,"max_players":32,"Bots":16,"server_type":"Dedicated","server_os":"Linux","password":true,"vac":true,"version":"7961495","steam_id":85568392925397851,"keywords":["alltalk","bots","cp","danepve","increased_maxplayers","nocrits","norespawntime","uncletopia"],"game_id":440,"stv_port":0,"stv_name":"","players":[{"user_id":480,"name":"cat","steam_id":76561198832231975,"connected_time":4309000000000,"state":"active","ping":60},{"user_id":513,"name":"inteli-keeper","steam_id":76561199011763306,"connected_time":2130000000000,"state":"active","ping":80}]},{"server_id":51,"name":"Uncletopia | Warsaw | 3 | All Maps","name_short":"waw-3","host":"waw-1.pl.uncletopia.com","port":27035,"enabled":true,"region":"eu","cc":"pl","latitude":52.2297,"longitude":21.017532,"reserved":0,"last_update":"0001-01-01T00:00:00Z","name_a2s":"Uncletopia | Warsaw | 3 | All Maps","protocol":17,"map":"koth_highpass","folder":"tf","game":"Team Fortress","app_id":440,"player_count":0,"max_players":24,"Bots":0,"server_type":"Dedicated","server_os":"Linux","password":true,"vac":true,"version":"7961495","steam_id":85568392925397852,"keywords":["cp","nocrits","nodmgspread","uncletopia"],"game_id":440,"stv_port":27036,"stv_name":"Uncletopia | Warsaw | 3 | All Maps | STV","players":null},{"server_id":52,"name":"Uncletopia | Warsaw | 4 | All Maps","name_short":"waw-4","host":"waw-1.pl.uncletopia.com","port":27045,"enabled":true,"region":"eu","cc":"pl","latitude":52.2297,"longitude":21.017532,"reserved":0,"last_update":"0001-01-01T00:00:00Z","name_a2s":"Uncletopia | Warsaw | 4 | All Maps","protocol":17,"map":"koth_lakeside_final","folder":"tf","game":"Team Fortress","app_id":440,"player_count":0,"max_players":24,"Bots":0,"server_type":"Dedicated","server_os":"Linux","password":true,"vac":true,"version":"7961495","steam_id":85568392925397853,"keywords":["cp","nocrits","nodmgspread","uncletopia"],"game_id":440,"stv_port":27046,"stv_name":"Uncletopia | Warsaw | 4 | All Maps | STV","players":null},{"server_id":53,"name":"Uncletopia | Warsaw | 5 | Stopwatch","name_short":"waw-5","host":"waw-1.pl.uncletopia.com","port":27055,"enabled":true,"region":"eu","cc":"pl","latitude":52.2297,"longitude":21.017532,"reserved":0,"last_update":"0001-01-01T00:00:00Z","name_a2s":"Uncletopia | Warsaw | 5 | Stopwatch","protocol":17,"map":"koth_lakeside_final","folder":"tf","game":"Team Fortress","app_id":440,"player_count":0,"max_players":24,"Bots":0,"server_type":"Dedicated","server_os":"Linux","password":true,"vac":true,"version":"7961495","steam_id":85568392925397854,"keywords":["cp","nocrits","nodmgspread","uncletopia"],"game_id":440,"stv_port":27056,"stv_name":"Uncletopia | Warsaw | 5 | Stopwatch | STV","players":null},{"server_id":54,"name":"Uncletopia | Warsaw | 6 | Community","name_short":"waw-6","host":"waw-1.pl.uncletopia.com","port":27065,"enabled":true,"region":"eu","cc":"pl","latitude":52.2297,"longitude":21.017532,"reserved":0,"last_update":"0001-01-01T00:00:00Z","name_a2s":"Uncletopia | Warsaw | 6 | Community","protocol":17,"map":"workshop/rd_asteroid_redux_b1.ugc2154902912","folder":"tf","game":"Team Fortress","app_id":440,"player_count":0,"max_players":24,"Bots":0,"server_type":"Dedicated","server_os":"Linux","password":true,"vac":true,"version":"7961495","steam_id":85568392925397856,"keywords":["beta","nocrits","nodmgspread","rd","uncletopia"],"game_id":440,"stv_port":27066,"stv_name":"Uncletopia | Warsaw | 6 | Community | STV","players":null}]}