{"status":true,"message":"","result":[{"server_id":9,"name":"Uncletopia | Atlanta | 1 | All Maps","name_short":"atl-1","host":"atl-1.us.uncletopia.com","port":27015,"enabled":true,"region":"us-east","cc":"us","latitude":33.753746,"longitude":-84.38633,"reserved":0,"last_update":"0001-01-01T00:00:00Z","name_a2s":"Uncletopia | Atlanta | 1 | All Maps","protocol":17,"map":"koth_viaduct","folder":"tf","game":"Team Fortress","app_id":440,"player_count":0,"max_players":24,"Bots":0,"server_type":"Dedicated","server_os":"Linux","password":true,"vac":true,"version":"7757534","steam_id":85568392924469982,"keywords":["cp","nocrits","nodmgspread","uncletopia"],"game_id":440,"stv_port":27016,"stv_name":"Uncletopia | Atlanta | 1 | All Maps | STV","players":null},{"server_id":400,"name":"Uncletopia | Atlanta | 3 | Stopwatch Beta","name_short":"atl-3","host":"atl-1.us.uncletopia.com","port":27035,"enabled":true,"region":"us-east","cc":"us","latitude":33.753746,"longitude":-84.38633,"reserved":0,"last_update":"0001-01-01T00:00:00Z","name_a2s":"Uncletopia | Atlanta | 3 | Stopwatch Beta","protocol":17,"map":"koth_lakeside_final","folder":"tf","game":"Team Fortress","app_id":440,"player_count":0,"max_players":24,"Bots":0,"server_type":"Dedicated","server_os":"Linux","password":true,"vac":true,"version":"7757534","steam_id":85568392924515187,"keywords":["cp","nocrits","nodmgspread","uncletopia"],"game_id":440,"stv_port":27036,"stv_name":"Uncletopia | Atlanta | 3 | Stopwatch Beta | STV","players":null},{"server_id":401,"name":"Uncletopia | Atlanta | 4 | No Payload","name_short":"atl-4","host":"atl-1.us.uncletopia.com","port":27045,"enabled":true,"region":"us-east","cc":"us","latitude":33.753746,"longitude":-84.38633,"reserved":0,"last_update":"0001-01-01T00:00:00Z","name_a2s":"Uncletopia | Atlanta | 4 | No Payload","protocol":17,"map":"pl_pier","folder":"tf","game":"Team Fortress","app_id":440,"player_count":0,"max_players":24,"Bots":0,"server_type":"Dedicated","server_os":"Linux","password":true,"vac":true,"version":"7723704","steam_id":85568392924515188,"keywords":["nocrits","nodmgspread","payload","uncletopia"],"game_id":440,"stv_port":27046,"stv_name":"Uncletopia | Atlanta | 4 | No Payload | STV","players":null},{"server_id":2,"name":"Uncletopia | Chicago | 1 | All Maps","name_short":"chi-1","host":"chi-1.us.uncletopia.com","port":27015,"enabled":true,"region":"us-central","cc":"us","latitude":41.881832,"longitude":-87.62318,"reserved":0,"last_update":"0001-01-01T00:00:00Z","name_a2s":"Uncletopia | Chicago | 1 | All Maps","protocol":17,"map":"pl_borneo","folder":"tf","game":"Team Fortress","app_id":440,"player_count":0,"max_players":24,"Bots":0,"server_type":"Dedicated","server_os":"Linux","password":true,"vac":true,"version":"7757534","steam_id":85568392924469984,"keywords":["nocrits","nodmgspread","payload","uncletopia"],"game_id":440,"stv_port":27016,"stv_name":"Uncletopia | Chicago | 1 | All Maps | STV","players":null},{"server_id":106,"name":"Uncletopia | Chicago | 2 | All Maps","name_short":"chi-2","host":"chi-1.us.uncletopia.com","port":27025,"enabled":true,"region":"us-central","cc":"us","latitude":41.881832,"longitude":-87.62318,"reserved":0,"last_update":"0001-01-01T00:00:00Z","name_a2s":"Uncletopia | Chicago | 2 | All Maps","protocol":17,"map":"pl_pier","folder":"tf","game":"Team Fortress","app_id":440,"player_count":21,"max_players":24,"Bots":0,"server_type":"Dedicated","server_os":"Linux","password":true,"vac":true,"version":"7757534","steam_id":85568392924469985,"keywords":["nocrits","nodmgspread","payload","uncletopia"],"game_id":440,"stv_port":27026,"stv_name":"Uncletopia | Chicago | 2 | All Maps | STV","players":[{"user_id":1132,"name":"Jovyel","steam_id":76561198118777065,"connected_time":408000000000,"state":"active","ping":84},{"user_id":1133,"name":"Golden Robot","steam_id":76561198149576075,"connected_time":403000000000,"state":"active","ping":84},{"user_id":1106,"name":"gobbie FASTNESS","steam_id":76561198026865054,"connected_time":2222000000000,"state":"active","ping":71},{"user_id":1107,"name":"Bwizz245","steam_id":76561198151474774,"connected_time":2205000000000,"state":"active","ping":56},{"user_id":1128,"name":"Sabaman55","steam_id":76561198212267979,"connected_time":547000000000,"state":"active","ping":53},{"user_id":1134,"name":"Sir Iasis","steam_id":76561198035666760,"connected_time":300000000000,"state":"active","ping":58},{"user_id":1139,"name":"BATTLE GUY","steam_id":76561197983903966,"connected_time":90000000000,"state":"active","ping":72},{"user_id":1135,"name":"cixcin","steam_id":76561199215821942,"connected_time":286000000000,"state":"active","ping":73},{"user_id":1136,"name":"hamzafan293","steam_id":76561198320732910,"connected_time":213000000000,"state":"active","ping":75},{"user_id":1130,"name":"world machine","steam_id":76561198020689909,"connected_time":477000000000,"state":"active","ping":90},{"user_id":1137,"name":"River Rat","steam_id":76561198116383976,"connected_time":172000000000,"state":"active","ping":112},{"user_id":1138,"name":"LasagnaLary","steam_id":76561198051016438,"connected_time":110000000000,"state":"active","ping":70},{"user_id":1141,"name":"Yukihana","steam_id":76561198348354629,"connected_time":37000000000,"state":"spawning","ping":156},{"user_id":1114,"name":"Senator Armstrong","steam_id":76561198159464944,"connected_time":2080000000000,"state":"active","ping":74},{"user_id":1097,"name":"Lumen","steam_id":76561197985372319,"connected_time":2725000000000,"state":"active","ping":54},{"user_id":1127,"name":"Shadowr","steam_id":76561198101720383,"connected_time":976000000000,"state":"active","ping":74},{"user_id":1098,"name":"s.Twig™ [WTB Lvl. 42 Items]","steam_id":76561198070138375,"connected_time":2722000000000,"state":"active","ping":51},{"user_id":1112,"name":"Flyin9 Squirr3l","steam_id":76561199033392115,"connected_time":2097000000000,"state":"active","ping":72},{"user_id":1093,"name":"Amogous Supreme","steam_id":76561198025476774,"connected_time":3251000000000,"state":"active","ping":104},{"user_id":1105,"name":"Fuegan Ra","steam_id":76561198287923849,"connected_time":2303000000000,"state":"active","ping":48},{"user_id":1123,"name":"jambert","steam_id":76561198038291026,"connected_time":1483000000000,"state":"active","ping":59}]},{"server_id":402,"name":"Uncletopia | Chicago | 3 | All Maps","name_short":"chi-3","host":"chi-1.us.uncletopia.com","port":27035,"enabled":true,"region":"us-central","cc":"us","latitude":41.881832,"longitude":-87.62318,"reserved":0,"last_update":"0001-01-01T00:00:00Z","name_a2s":"Uncletopia | Chicago | 3 | All Maps","protocol":17,"map":"cp_dustbowl","folder":"tf","game":"Team Fortress","app_id":440,"player_count":0,"max_players":24,"Bots":0,"server_type":"Dedicated","server_os":"Linux","password":true,"vac":true,"version":"7757534","steam_id":85568392924515191,"keywords":["cp","nocrits","nodmgspread","uncletopia"],"game_id":440,"stv_port":27036,"stv_name":"Uncletopia | Chicago | 3 | All Maps | STV","players":null},{"server_id":403,"name":"Uncletopia | Chicago | 4 | All Maps","name_short":"chi-4","host":"chi-1.us.uncletopia.com","port":27045,"enabled":true,"region":"us-central","cc":"us","latitude":41.881832,"longitude":-87.62318,"reserved":0,"last_update":"0001-01-01T00:00:00Z","name_a2s":"Uncletopia | Chicago | 4 | All Maps","protocol":17,"map":"cp_snakewater_final1","folder":"tf","game":"Team Fortress","app_id":440,"player_count":24,"max_players":24,"Bots":0,"server_type":"Dedicated","server_os":"Linux","password":true,"vac":true,"version":"7757534","steam_id":85568392924515193,"keywords":["cp","nocrits","nodmgspread","uncletopia"],"game_id":440,"stv_port":27046,"stv_name":"Uncletopia | Chicago | 4 | All Maps | STV","players":[{"user_id":694,"name":"Brass","steam_id":76561198275581643,"connected_time":835000000000,"state":"active","ping":94},{"user_id":700,"name":"ItsDifficultttt","steam_id":76561199402730529,"connected_time":639000000000,"state":"active","ping":80},{"user_id":686,"name":"Engorged Strobiloid","steam_id":76561198344030647,"connected_time":1817000000000,"state":"active","ping":80},{"user_id":512,"name":"NovaSc6ut","steam_id":76561198277163301,"connected_time":15836000000000,"state":"active","ping":61},{"user_id":693,"name":"unc out here trippin","steam_id":76561198055557988,"connected_time":963000000000,"state":"active","ping":67},{"user_id":647,"name":"Myracle","steam_id":76561198070916920,"connected_time":4804000000000,"state":"active","ping":55},{"user_id":657,"name":"Mani","steam_id":76561198139428711,"connected_time":3784000000000,"state":"active","ping":57},{"user_id":684,"name":"Mercenary Alpha | trade.tf","steam_id":76561198057047071,"connected_time":1973000000000,"state":"active","ping":56},{"user_id":704,"name":"Blair","steam_id":76561198079350995,"connected_time":137000000000,"state":"active","ping":57},{"user_id":696,"name":"unnamed","steam_id":76561198072200952,"connected_time":807000000000,"state":"active","ping":105},{"user_id":678,"name":"I'm Cloaked","steam_id":76561198039763676,"connected_time":2303000000000,"state":"active","ping":67},{"user_id":697,"name":"you know what they say","steam_id":76561198083060760,"connected_time":771000000000,"state":"active","ping":71},{"user_id":698,"name":"the rizzard of oz","steam_id":76561198108196753,"connected_time":759000000000,"state":"active","ping":104},{"user_id":662,"name":"ChaoticAngel","steam_id":76561198293528217,"connected_time":3641000000000,"state":"active","ping":61},{"user_id":687,"name":"Appa","steam_id":76561198110449520,"connected_time":1794000000000,"state":"active","ping":75},{"user_id":660,"name":"Bliztank | RGL.gg","steam_id":76561198019252798,"connected_time":3697000000000,"state":"active","ping":58},{"user_id":669,"name":"scrapheap","steam_id":76561198202407087,"connected_time":3273000000000,"state":"active","ping":75},{"user_id":654,"name":"ccat","steam_id":76561198281773224,"connected_time":3987000000000,"state":"active","ping":91},{"user_id":703,"name":"Blagoni","steam_id":76561198079134230,"connected_time":164000000000,"state":"active","ping":93},{"user_id":701,"name":"kurai","steam_id":76561198077902438,"connected_time":621000000000,"state":"active","ping":85},{"user_id":671,"name":"King of the birds","steam_id":76561198891152046,"connected_time":3032000000000,"state":"active","ping":103},{"user_id":699,"name":"Mr. Electric","steam_id":76561198071962415,"connected_time":718000000000,"state":"active","ping":101},{"user_id":674,"name":"Tresthebest360","steam_id":76561198965347175,"connected_time":2606000000000,"state":"active","ping":70},{"user_id":702,"name":"Strung short","steam_id":76561199050174626,"connected_time":610000000000,"state":"active","ping":59}]},{"server_id":36,"name":"Uncletopia | Chicago | 5 | All Maps","name_short":"chi-5","host":"chi-2.us.uncletopia.com","port":27015,"enabled":true,"region":"us-central","cc":"us","latitude":41.881832,"longitude":-87.62318,"reserved":0,"last_update":"0001-01-01T00:00:00Z","name_a2s":"Uncletopia | Chicago | 5 | All Maps","protocol":17,"map":"pl_swiftwater_final1","folder":"tf","game":"Team Fortress","app_id":440,"player_count":0,"max_players":24,"Bots":0,"server_type":"Dedicated","server_os":"Linux","password":true,"vac":true,"version":"7757534","steam_id":85568392924866362,"keywords":["nocrits","nodmgspread","payload","uncletopia"],"game_id":440,"stv_port":27016,"stv_name":"Uncletopia | Chicago | 5 | All Maps | STV","players":null},{"server_id":37,"name":"Uncletopia | Chicago | 6 | All Maps","name_short":"chi-6","host":"chi-2.us.uncletopia.com","port":27025,"enabled":true,"region":"us-central","cc":"us","latitude":41.881832,"longitude":-87.62318,"reserved":0,"last_update":"0001-01-01T00:00:00Z","name_a2s":"Uncletopia | Chicago | 6 | All Maps","protocol":17,"map":"pl_barnblitz","folder":"tf","game":"Team Fortress","app_id":440,"player_count":16,"max_players":24,"Bots":0,"server_type":"Dedicated","server_os":"Linux","password":true,"vac":true,"version":"7757534","steam_id":85568392924866363,"keywords":["nocrits","nodmgspread","payload","uncletopia"],"game_id":440,"stv_port":27026,"stv_name":"Uncletopia | Chicago | 6 | All Maps | STV","players":[{"user_id":749,"name":"cyclops","steam_id":76561197970370198,"connected_time":1457000000000,"state":"active","ping":72},{"user_id":763,"name":"kingofTOAST","steam_id":76561198079994110,"connected_time":582000000000,"state":"active","ping":101},{"user_id":765,"name":"|AG| Level","steam_id":76561198063633592,"connected_time":546000000000,"state":"active","ping":72},{"user_id":699,"name":"shroomish enjoyer","steam_id":76561198149775502,"connected_time":6054000000000,"state":"active","ping":76},{"user_id":750,"name":"Styles XI","steam_id":76561198872641131,"connected_time":1442000000000,"state":"active","ping":73},{"user_id":745,"name":"Sad Sapling","steam_id":76561198075612150,"connected_time":2218000000000,"state":"active","ping":99},{"user_id":772,"name":"Keogh","steam_id":76561199013327656,"connected_time":43000000000,"state":"active","ping":169},{"user_id":773,"name":"Joodoon","steam_id":76561198043891695,"connected_time":19000000000,"state":"spawning","ping":78},{"user_id":747,"name":"Kalypso","steam_id":76561198241519562,"connected_time":1861000000000,"state":"active","ping":147},{"user_id":753,"name":"Butterfly","steam_id":76561198071057083,"connected_time":1296000000000,"state":"active","ping":158},{"user_id":700,"name":"the j","steam_id":76561198257263022,"connected_time":6037000000000,"state":"active","ping":88},{"user_id":739,"name":"垃圾地精","steam_id":76561198080555859,"connected_time":2919000000000,"state":"active","ping":116},{"user_id":767,"name":"Largelad","steam_id":76561198024042970,"connected_time":488000000000,"state":"active","ping":71},{"user_id":755,"name":"Discourse","steam_id":76561198984286678,"connected_time":1176000000000,"state":"active","ping":50},{"user_id":741,"name":"Captain Meth","steam_id":76561199073621650,"connected_time":2765000000000,"state":"active","ping":102},{"user_id":760,"name":"rlty","steam_id":76561198009395055,"connected_time":848000000000,"state":"active","ping":60}]},{"server_id":38,"name":"Uncletopia | Chicago | 7 | Stopwatch Beta","name_short":"chi-7","host":"chi-2.us.uncletopia.com","port":27035,"enabled":true,"region":"us-central","cc":"us","latitude":41.881832,"longitude":-87.62318,"reserved":0,"last_update":"0001-01-01T00:00:00Z","name_a2s":"Uncletopia | Chicago | 7 | Stopwatch Beta","protocol":17,"map":"workshop/pl_barnblitz_pro7.ugc582280235","folder":"tf","game":"Team Fortress","app_id":440,"player_count":0,"max_players":24,"Bots":0,"server_type":"Dedicated","server_os":"Linux","password":true,"vac":true,"version":"7757534","steam_id":85568392924866364,"keywords":["nocrits","nodmgspread","payload","uncletopia"],"game_id":440,"stv_port":27036,"stv_name":"Uncletopia | Chicago | 7 | Stopwatch Beta | STV","players":null},{"server_id":39,"name":"Uncletopia | Chicago | 8 | Community","name_short":"chi-8","host":"chi-2.us.uncletopia.com","port":27045,"enabled":true,"region":"us-central","cc":"us","latitude":41.881832,"longitude":-87.62318,"reserved":0,"last_update":"0001-01-01T00:00:00Z","name_a2s":"Uncletopia | Chicago | 8 | Community","protocol":17,"map":"workshop/koth_slaughter_rc1.ugc1712845210","folder":"tf","game":"Team Fortress","app_id":440,"player_count":0,"max_players":24,"Bots":0,"server_type":"Dedicated","server_os":"Linux","password":true,"vac":true,"version":"7757534","steam_id":85568392924866365,"keywords":["cp","nocrits","nodmgspread","uncletopia"],"game_id":440,"stv_port":27046,"stv_name":"Uncletopia | Chicago | 8 | Community | STV","players":null},{"server_id":8,"name":"Uncletopia | Dallas | 1 | All Maps","name_short":"dal-1","host":"dal-1.us.uncletopia.com","port":27015,"enabled":true,"region":"us-central","cc":"us","latitude":32.779167,"longitude":-96.80889,"reserved":0,"last_update":"0001-01-01T00:00:00Z","name_a2s":"Uncletopia | Dallas | 1 | All Maps","protocol":17,"map":"koth_lakeside_final","folder":"tf","game":"Team Fortress","app_id":440,"player_count":0,"max_players":24,"Bots":0,"server_type":"Dedicated","server_os":"Linux","password":true,"vac":true,"version":"7757534","steam_id":85568392924469986,"keywords":["cp","nocrits","nodmgspread","uncletopia"],"game_id":440,"stv_port":27016,"stv_name":"Uncletopia | Dallas | 1 | All Maps | STV","players":null},{"server_id":108,"name":"Uncletopia | Dallas | 2 | All Maps","name_short":"dal-2","host":"dal-1.us.uncletopia.com","port":27025,"enabled":true,"region":"us-central","cc":"us","latitude":32.779167,"longitude":-96.80889,"reserved":0,"last_update":"0001-01-01T00:00:00Z","name_a2s":"Uncletopia | Dallas | 2 | All Maps","protocol":17,"map":"pl_thundermountain","folder":"tf","game":"Team Fortress","app_id":440,"player_count":0,"max_players":24,"Bots":0,"server_type":"Dedicated","server_os":"Linux","password":true,"vac":true,"version":"7757534","steam_id":85568392924469988,"keywords":["nocrits","nodmgspread","payload","uncletopia"],"game_id":440,"stv_port":27026,"stv_name":"Uncletopia | Dallas | 2 | All Maps | STV","players":null},{"server_id":5,"name":"Uncletopia | Frankfurt | 1 | All Maps","name_short":"frk-1","host":"frk-1.de.uncletopia.com","port":27015,"enabled":true,"region":"eu","cc":"de","latitude":50.110924,"longitude":8.682127,"reserved":0,"last_update":"0001-01-01T00:00:00Z","name_a2s":"Uncletopia | Frankfurt | 1 | All Maps","protocol":17,"map":"pl_badwater","folder":"tf","game":"Team Fortress","app_id":440,"player_count":0,"max_players":24,"Bots":0,"server_type":"Dedicated","server_os":"Linux","password":true,"vac":true,"version":"7757534","steam_id":85568392924469989,"keywords":["nocrits","nodmgspread","payload","uncletopia"],"game_id":440,"stv_port":27016,"stv_name":"Uncletopia | Frankfurt | 1 | All Maps | STV","players":null},{"server_id":110,"name":"Uncletopia | Frankfurt | 2 | All Maps","name_short":"frk-2","host":"frk-1.de.uncletopia.com","port":27025,"enabled":true,"region":"eu","cc":"de","latitude":50.110924,"longitude":8.682127,"reserved":0,"last_update":"0001-01-01T00:00:00Z","name_a2s":"Uncletopia | Frankfurt | 2 | All Maps","protocol":17,"map":"koth_viaduct","folder":"tf","game":"Team Fortress","app_id":440,"player_count":0,"max_players":24,"Bots":0,"server_type":"Dedicated","server_os":"Linux","password":true,"vac":true,"version":"7757534","steam_id":85568392924469990,"keywords":["cp","nocrits","nodmgspread","uncletopia"],"game_id":440,"stv_port":27026,"stv_name":"Uncletopia | Frankfurt | 2 | All Maps | STV","players":null},{"server_id":308,"name":"Uncletopia | Frankfurt | 3 | All Maps","name_short":"frk-3","host":"frk-1.de.uncletopia.com","port":27035,"enabled":true,"region":"eu","cc":"de","latitude":50.110924,"longitude":8.682127,"reserved":0,"last_update":"0001-01-01T00:00:00Z","name_a2s":"Uncletopia | Frankfurt | 3 | All Maps","protocol":17,"map":"cp_process_final","folder":"tf","game":"Team Fortress","app_id":440,"player_count":17,"max_players":24,"Bots":0,"server_type":"Dedicated","server_os":"Linux","password":true,"vac":true,"version":"7757534","steam_id":85568392924504274,"keywords":["cp","nocrits","nodmgspread","uncletopia"],"game_id":440,"stv_port":27036,"stv_name":"Uncletopia | Frankfurt | 3 | All Maps | STV","players":[{"user_id":4,"name":"JohaTG","steam_id":76561198804468284,"connected_time":2630000000000,"state":"active","ping":54},{"user_id":35,"name":"chopsticks","steam_id":76561198045899345,"connected_time":114000000000,"state":"active","ping":90},{"user_id":7,"name":"reho-iwnw","steam_id":76561198348062373,"connected_time":1733000000000,"state":"active","ping":85},{"user_id":23,"name":"sin","steam_id":76561198193416785,"connected_time":425000000000,"state":"active","ping":56},{"user_id":12,"name":"fried","steam_id":76561198307522022,"connected_time":1125000000000,"state":"active","ping":49},{"user_id":13,"name":"Leszy","steam_id":76561198372172135,"connected_time":1076000000000,"state":"active","ping":60},{"user_id":25,"name":"CyberBuddha [RU/EN]","steam_id":76561198075853329,"connected_time":410000000000,"state":"active","ping":133},{"user_id":18,"name":"イルミューイ","steam_id":76561198096189399,"connected_time":590000000000,"state":"active","ping":46},{"user_id":28,"name":"Do NOT look at my chest","steam_id":76561198234982264,"connected_time":285000000000,"state":"active","ping":85},{"user_id":20,"name":"bloock","steam_id":76561199012373884,"connected_time":484000000000,"state":"active","ping":127},{"user_id":21,"name":"World Of Illusions","steam_id":76561197995662897,"connected_time":449000000000,"state":"active","ping":59},{"user_id":29,"name":"let's see Paul Allen's fragmovi","steam_id":76561198202441870,"connected_time":273000000000,"state":"active","ping":60},{"user_id":24,"name":"demomallet","steam_id":76561199382535912,"connected_time":414000000000,"state":"active","ping":68},{"user_id":30,"name":"Acidpets","steam_id":76561198875421227,"connected_time":270000000000,"state":"active","ping":60},{"user_id":31,"name":"Umbro","steam_id":76561198087930438,"connected_time":268000000000,"state":"active","ping":74},{"user_id":32,"name":"that guy","steam_id":76561198202990635,"connected_time":263000000000,"state":"active","ping":61},{"user_id":33,"name":"shr1mple","steam_id":76561198173537027,"connected_time":262000000000,"state":"active","ping":36}]},{"server_id":309,"name":"Uncletopia | Frankfurt | 4 | All Maps","name_short":"frk-4","host":"frk-1.de.uncletopia.com","port":27045,"enabled":true,"region":"eu","cc":"de","latitude":50.110924,"longitude":8.682127,"reserved":0,"last_update":"0001-01-01T00:00:00Z","name_a2s":"Uncletopia | Frankfurt | 4 | All Maps","protocol":17,"map":"pl_snowycoast","folder":"tf","game":"Team Fortress","app_id":440,"player_count":0,"max_players":24,"Bots":0,"server_type":"Dedicated","server_os":"Linux","password":true,"vac":true,"version":"7757534","steam_id":85568392924504275,"keywords":["nocrits","nodmgspread","payload","uncletopia"],"game_id":440,"stv_port":27046,"stv_name":"Uncletopia | Frankfurt | 4 | All Maps | STV","players":null},{"server_id":310,"name":"Uncletopia | Frankfurt | 5 | All Maps","name_short":"frk-5","host":"frk-1.de.uncletopia.com","port":27055,"enabled":true,"region":"eu","cc":"de","latitude":50.110924,"longitude":8.682127,"reserved":0,"last_update":"0001-01-01T00:00:00Z","name_a2s":"Uncletopia | Frankfurt | 5 | All Maps","protocol":17,"map":"cp_altitude","folder":"tf","game":"Team Fortress","app_id":440,"player_count":0,"max_players":24,"Bots":0,"server_type":"Dedicated","server_os":"Linux","password":true,"vac":true,"version":"7757534","steam_id":85568392924504277,"keywords":["cp","nocrits","nodmgspread","uncletopia"],"game_id":440,"stv_port":27056,"stv_name":"Uncletopia | Frankfurt | 5 | All Maps | STV","players":null},{"server_id":311,"name":"Uncletopia | Frankfurt | 6 | All Maps","name_short":"frk-6","host":"frk-1.de.uncletopia.com","port":27065,"enabled":true,"region":"eu","cc":"de","latitude":50.110924,"longitude":8.682127,"reserved":0,"last_update":"0001-01-01T00:00:00Z","name_a2s":"Uncletopia | Frankfurt | 6 | All Maps","protocol":17,"map":"koth_highpass","folder":"tf","game":"Team Fortress","app_id":440,"player_count":0,"max_players":24,"Bots":0,"server_type":"Dedicated","server_os":"Linux","password":true,"vac":true,"version":"7757534","steam_id":85568392924504278,"keywords":["cp","nocrits","nodmgspread","uncletopia"],"game_id":440,"stv_port":27066,"stv_name":"Uncletopia | Frankfurt | 6 | All Maps | STV","players":null},{"server_id":23,"name":"Uncletopia | Frankfurt | 7 | Stopwatch Beta","name_short":"frk-7","host":"frk-1.de.uncletopia.com","port":27075,"enabled":true,"region":"eu","cc":"de","latitude":50.110924,"longitude":8.682127,"reserved":0,"last_update":"0001-01-01T00:00:00Z","name_a2s":"Uncletopia | Frankfurt | 7 | Stopwatch Beta","protocol":17,"map":"pl_borneo","folder":"tf","game":"Team Fortress","app_id":440,"player_count":0,"max_players":24,"Bots":0,"server_type":"Dedicated","server_os":"Linux","password":true,"vac":true,"version":"7757534","steam_id":85568392924742827,"keywords":["nocrits","nodmgspread","payload","uncletopia"],"game_id":440,"stv_port":27076,"stv_name":"Uncletopia | Frankfurt | 7 | Stopwatch Beta | STV","players":null},{"server_id":24,"name":"Uncletopia | Frankfurt | 8 | Community","name_short":"frk-8","host":"frk-1.de.uncletopia.com","port":27085,"enabled":true,"region":"eu","cc":"de","latitude":50.110924,"longitude":8.682127,"reserved":0,"last_update":"0001-01-01T00:00:00Z","name_a2s":"Uncletopia | Frankfurt | 8 | Community","protocol":17,"map":"workshop/pl_fifthcurve_rc1.ugc648227046","folder":"tf","game":"Team Fortress","app_id":440,"player_count":0,"max_players":24,"Bots":0,"server_type":"Dedicated","server_os":"Linux","password":true,"vac":true,"version":"7757534","steam_id":85568392924742828,"keywords":["nocrits","nodmgspread","payload","uncletopia"],"game_id":440,"stv_port":27086,"stv_name":"Uncletopia | Frankfurt | 8 | Community | STV","players":null},{"server_id":202,"name":"Uncletopia | Hong Kong | 1 | All Maps","name_short":"hgk-1","host":"hgk-1.hk.uncletopia.com","port":27015,"enabled":true,"region":"asia","cc":"hk","latitude":22.302711,"longitude":114.177216,"reserved":0,"last_update":"0001-01-01T00:00:00Z","name_a2s":"Uncletopia | Hong Kong | 1 | All Maps","protocol":17,"map":"pl_barnblitz","folder":"tf","game":"Team Fortress","app_id":440,"player_count":6,"max_players":24,"Bots":0,"server_type":"Dedicated","server_os":"Linux","password":true,"vac":true,"version":"7757534","steam_id":85568392924494504,"keywords":["nocrits","nodmgspread","payload","uncletopia"],"game_id":440,"stv_port":27016,"stv_name":"Uncletopia | Hong Kong | 1 | All Maps | STV","players":[{"user_id":323,"name":"caramelCase","steam_id":76561198871689972,"connected_time":840000000000,"state":"active","ping":127},{"user_id":324,"name":"Iron Bomber!!!","steam_id":76561198203073201,"connected_time":218000000000,"state":"active","ping":59},{"user_id":325,"name":"Sex","steam_id":76561198871697359,"connected_time":106000000000,"state":"active","ping":75},{"user_id":315,"name":"heaviest f2p","steam_id":76561199209331489,"connected_time":1422000000000,"state":"active","ping":104},{"user_id":311,"name":"InfernoZen (f2p)","steam_id":76561199309520043,"connected_time":1579000000000,"state":"active","ping":53},{"user_id":322,"name":"ALBUQUIRKY","steam_id":76561198066031454,"connected_time":913000000000,"state":"active","ping":106}]},{"server_id":1,"name":"Uncletopia | Los Angeles | 1 | All Maps","name_short":"lax-1","host":"lax-1.us.uncletopia.com","port":27015,"enabled":true,"region":"us-west","cc":"us","latitude":33.94279,"longitude":-118.41004,"reserved":0,"last_update":"0001-01-01T00:00:00Z","name_a2s":"Uncletopia | Los Angeles | 1 | All Maps","protocol":17,"map":"pl_swiftwater_final1","folder":"tf","game":"Team Fortress","app_id":440,"player_count":0,"max_players":24,"Bots":0,"server_type":"Dedicated","server_os":"Linux","password":true,"vac":true,"version":"7757534","steam_id":85568392924469991,"keywords":["nocrits","nodmgspread","payload","uncletopia"],"game_id":440,"stv_port":27016,"stv_name":"Uncletopia | Los Angeles | 1 | All Maps | STV","players":null},{"server_id":112,"name":"Uncletopia | Los Angeles | 2 | All Maps","name_short":"lax-2","host":"lax-1.us.uncletopia.com","port":27025,"enabled":true,"region":"us-west","cc":"us","latitude":33.94279,"longitude":-118.41004,"reserved":0,"last_update":"0001-01-01T00:00:00Z","name_a2s":"Uncletopia | Los Angeles | 2 | All Maps","protocol":17,"map":"koth_cascade","folder":"tf","game":"Team Fortress","app_id":440,"player_count":0,"max_players":24,"Bots":0,"server_type":"Dedicated","server_os":"Linux","password":true,"vac":true,"version":"7757534","steam_id":85568392924469992,"keywords":["cp","nocrits","nodmgspread","uncletopia"],"game_id":440,"stv_port":27026,"stv_name":"Uncletopia | Los Angeles | 2 | All Maps | STV","players":null},{"server_id":324,"name":"Uncletopia | Los Angeles | 3 | All Maps","name_short":"lax-3","host":"lax-1.us.uncletopia.com","port":27035,"enabled":true,"region":"us-west","cc":"us","latitude":33.94279,"longitude":-118.41004,"reserved":0,"last_update":"0001-01-01T00:00:00Z","name_a2s":"Uncletopia | Los Angeles | 3 | All Maps","protocol":17,"map":"koth_highpass","folder":"tf","game":"Team Fortress","app_id":440,"player_count":0,"max_players":24,"Bots":0,"server_type":"Dedicated","server_os":"Linux","password":true,"vac":true,"version":"7757534","steam_id":85568392924510198,"keywords":["cp","nocrits","nodmgspread","uncletopia"],"game_id":440,"stv_port":27036,"stv_name":"Uncletopia | Los Angeles | 3 | All Maps | STV","players":null},{"server_id":25,"name":"Uncletopia | Los Angeles | 4 | Stopwatch Beta","name_short":"lax-4","host":"lax-1.us.uncletopia.com","port":27045,"enabled":true,"region":"us-west","cc":"us","latitude":33.94279,"longitude":-118.41004,"reserved":0,"last_update":"0001-01-01T00:00:00Z","name_a2s":"Uncletopia | Los Angeles | 4 | Stopwatch Beta","protocol":17,"map":"koth_viaduct","folder":"tf","game":"Team Fortress","app_id":440,"player_count":0,"max_players":24,"Bots":0,"server_type":"Dedicated","server_os":"Linux","password":true,"vac":true,"version":"7757534","steam_id":85568392924510199,"keywords":["cp","nocrits","nodmgspread","uncletopia"],"game_id":440,"stv_port":27046,"stv_name":"Uncletopia | Los Angeles | 4 | Stopwatch Beta | STV","players":null},{"server_id":11,"name":"Uncletopia | London | 1 | All Maps","name_short":"lon-1","host":"lon-1.uk.uncletopia.com","port":27015,"enabled":true,"region":"eu","cc":"gb","latitude":51.509865,"longitude":-0.118092,"reserved":0,"last_update":"0001-01-01T00:00:00Z","name_a2s":"Uncletopia | London | 1 | All Maps","protocol":17,"map":"pl_pier","folder":"tf","game":"Team Fortress","app_id":440,"player_count":0,"max_players":24,"Bots":0,"server_type":"Dedicated","server_os":"Linux","password":true,"vac":true,"version":"7757534","steam_id":85568392924367362,"keywords":["nocrits","nodmgspread","payload","uncletopia"],"game_id":440,"stv_port":27016,"stv_name":"Uncletopia | London | 1 | All Maps | STV","players":null},{"server_id":114,"name":"Uncletopia | London | 2 | All Maps","name_short":"lon-2","host":"lon-1.uk.uncletopia.com","port":27025,"enabled":true,"region":"eu","cc":"gb","latitude":51.509865,"longitude":-0.118092,"reserved":0,"last_update":"0001-01-01T00:00:00Z","name_a2s":"Uncletopia | London | 2 | All Maps","protocol":17,"map":"pl_barnblitz","folder":"tf","game":"Team Fortress","app_id":440,"player_count":2,"max_players":24,"Bots":0,"server_type":"Dedicated","server_os":"Linux","password":true,"vac":true,"version":"7757534","steam_id":85568392924470941,"keywords":["nocrits","nodmgspread","payload","uncletopia"],"game_id":440,"stv_port":27026,"stv_name":"Uncletopia | London | 2 | All Maps | STV","players":[{"user_id":56,"name":"Доменик","steam_id":76561198795828628,"connected_time":133000000000,"state":"spawning","ping":93},{"user_id":59,"name":"Andlol15","steam_id":76561199366677327,"connected_time":6000000000,"state":"spawning","ping":121}]},{"server_id":320,"name":"Uncletopia | London | 3 | All Maps","name_short":"lon-3","host":"lon-1.uk.uncletopia.com","port":27035,"enabled":true,"region":"eu","cc":"gb","latitude":51.509865,"longitude":-0.118092,"reserved":0,"last_update":"0001-01-01T00:00:00Z","name_a2s":"Uncletopia | London | 3 | All Maps","protocol":17,"map":"koth_highpass","folder":"tf","game":"Team Fortress","app_id":440,"player_count":0,"max_players":24,"Bots":0,"server_type":"Dedicated","server_os":"Linux","password":true,"vac":true,"version":"7757534","steam_id":85568392924510192,"keywords":["cp","nocrits","nodmgspread","uncletopia"],"game_id":440,"stv_port":27036,"stv_name":"Uncletopia | London | 3 | All Maps | STV","players":null},{"server_id":321,"name":"Uncletopia | London | 4 | All Maps","name_short":"lon-4","host":"lon-1.uk.uncletopia.com","port":27045,"enabled":true,"region":"eu","cc":"gb","latitude":51.509865,"longitude":-0.118092,"reserved":0,"last_update":"0001-01-01T00:00:00Z","name_a2s":"Uncletopia | London | 4 | All Maps","protocol":17,"map":"cp_snakewater_final1","folder":"tf","game":"Team Fortress","app_id":440,"player_count":0,"max_players":24,"Bots":0,"server_type":"Dedicated","server_os":"Linux","password":true,"vac":true,"version":"7757534","steam_id":85568392924510193,"keywords":["cp","nocrits","nodmgspread","uncletopia"],"game_id":440,"stv_port":27046,"stv_name":"Uncletopia | London | 4 | All Maps | STV","players":null},{"server_id":21,"name":"Uncletopia | London | 5 | All Maps","name_short":"lon-5","host":"lon-1.uk.uncletopia.com","port":27055,"enabled":true,"region":"eu","cc":"gb","latitude":51.509865,"longitude":-0.118092,"reserved":0,"last_update":"0001-01-01T00:00:00Z","name_a2s":"Uncletopia | London | 5 | All Maps","protocol":17,"map":"pl_snowycoast","folder":"tf","game":"Team Fortress","app_id":440,"player_count":0,"max_players":24,"Bots":0,"server_type":"Dedicated","server_os":"Linux","password":true,"vac":true,"version":"7757534","steam_id":85568392924742829,"keywords":["nocrits","nodmgspread","payload","uncletopia"],"game_id":440,"stv_port":27056,"stv_name":"Uncletopia | London | 5 | All Maps | STV","players":null},{"server_id":22,"name":"Uncletopia | London | 6 | All Maps","name_short":"lon-6","host":"lon-1.uk.uncletopia.com","port":27065,"enabled":true,"region":"eu","cc":"gb","latitude":51.509865,"longitude":-0.118092,"reserved":0,"last_update":"0001-01-01T00:00:00Z","name_a2s":"Uncletopia | London | 6 | All Maps","protocol":17,"map":"koth_highpass","folder":"tf","game":"Team Fortress","app_id":440,"player_count":24,"max_players":24,"Bots":0,"server_type":"Dedicated","server_os":"Linux","password":true,"vac":true,"version":"7757534","steam_id":85568392924742830,"keywords":["cp","nocrits","nodmgspread","uncletopia"],"game_id":440,"stv_port":27066,"stv_name":"Uncletopia | London | 6 | All Maps | STV","players":[{"user_id":145,"name":"VIN WEASEL","steam_id":76561198014387066,"connected_time":1398000000000,"state":"active","ping":61},{"user_id":129,"name":"lime scout kingpin","steam_id":76561198064878900,"connected_time":3489000000000,"state":"active","ping":74},{"user_id":153,"name":"poopoocum","steam_id":76561198180641206,"connected_time":875000000000,"state":"active","ping":59},{"user_id":146,"name":"Braciola","steam_id":76561198036779196,"connected_time":1369000000000,"state":"active","ping":80},{"user_id":60,"name":"MEDENJOYER","steam_id":76561198180361759,"connected_time":8198000000000,"state":"active","ping":58},{"user_id":162,"name":"tactical783","steam_id":76561199051688560,"connected_time":405000000000,"state":"active","ping":70},{"user_id":141,"name":"ciliorkun18","steam_id":76561198228942500,"connected_time":2329000000000,"state":"active","ping":89},{"user_id":62,"name":"Asda","steam_id":76561198210348121,"connected_time":8151000000000,"state":"active","ping":54},{"user_id":143,"name":"Pahlberg","steam_id":76561198208547929,"connected_time":2186000000000,"state":"active","ping":84},{"user_id":117,"name":"Sonder","steam_id":76561198115893794,"connected_time":5195000000000,"state":"active","ping":86},{"user_id":126,"name":"cop killer","steam_id":76561198039966198,"connected_time":3509000000000,"state":"active","ping":74},{"user_id":136,"name":"GMsU | Rebikas","steam_id":76561198077053764,"connected_time":2824000000000,"state":"active","ping":56},{"user_id":154,"name":"rivs","steam_id":76561198145603042,"connected_time":873000000000,"state":"active","ping":48},{"user_id":156,"name":"Ray Lilith","steam_id":76561198133946866,"connected_time":780000000000,"state":"active","ping":60},{"user_id":144,"name":"Comilot","steam_id":76561198040234609,"connected_time":1724000000000,"state":"active","ping":96},{"user_id":121,"name":"Zerfesh","steam_id":76561198117534358,"connected_time":3581000000000,"state":"active","ping":92},{"user_id":158,"name":"C L 1 Q","steam_id":76561198363021979,"connected_time":697000000000,"state":"active","ping":70},{"user_id":164,"name":"MIMI:CS","steam_id":76561198255389232,"connected_time":94000000000,"state":"spawning","ping":91},{"user_id":159,"name":"aplat363","steam_id":76561199468786997,"connected_time":695000000000,"state":"active","ping":64},{"user_id":139,"name":"Deva Path","steam_id":76561198085763542,"connected_time":2355000000000,"state":"active","ping":84},{"user_id":151,"name":"Tree","steam_id":76561198150045340,"connected_time":968000000000,"state":"active","ping":75},{"user_id":138,"name":"sev//","steam_id":76561198797730418,"connected_time":2361000000000,"state":"active","ping":64},{"user_id":65,"name":"Tickle_Tipson","steam_id":76561198237603082,"connected_time":7847000000000,"state":"active","ping":100},{"user_id":161,"name":"autistic luigi","steam_id":76561199218285040,"connected_time":598000000000,"state":"active","ping":90}]},{"server_id":40,"name":"Uncletopia | London | 7 | No Payload","name_short":"lon-7","host":"lon-1.uk.uncletopia.com","port":27075,"enabled":true,"region":"eu","cc":"gb","latitude":51.509865,"longitude":-0.118092,"reserved":0,"last_update":"0001-01-01T00:00:00Z","name_a2s":"Uncletopia | London | 7 | No Payload","protocol":17,"map":"cp_fastlane","folder":"tf","game":"Team Fortress","app_id":440,"player_count":0,"max_players":24,"Bots":0,"server_type":"Dedicated","server_os":"Linux","password":true,"vac":true,"version":"7757534","steam_id":85568392924964314,"keywords":["cp","nocrits","nodmgspread","uncletopia"],"game_id":440,"stv_port":27076,"stv_name":"Uncletopia | London | 7 | No Payload | STV","players":null},{"server_id":41,"name":"Uncletopia | London | 8 | Community","name_short":"lon-8","host":"lon-1.uk.uncletopia.com","port":27085,"enabled":true,"region":"eu","cc":"gb","latitude":51.509865,"longitude":-0.118092,"reserved":0,"last_update":"0001-01-01T00:00:00Z","name_a2s":"Uncletopia | London | 8 | Community","protocol":17,"map":"cp_snakewater_final1","folder":"tf","game":"Team Fortress","app_id":440,"player_count":0,"max_players":24,"Bots":0,"server_type":"Dedicated","server_os":"Linux","password":true,"vac":true,"version":"7757534","steam_id":85568392924964315,"keywords":["cp","nocrits","nodmgspread","uncletopia"],"game_id":440,"stv_port":27086,"stv_name":"Uncletopia | London | 8 | Community | STV","players":null},{"server_id":300,"name":"Uncletopia | Montréal | 1 | All Maps","name_short":"mtl-1","host":"mtl-1.ca.uncletopia.com","port":27015,"enabled":true,"region":"us-east","cc":"ca","latitude":45.50889,"longitude":-73.56167,"reserved":0,"last_update":"0001-01-01T00:00:00Z","name_a2s":"Uncletopia | Montréal | 1 | All Maps","protocol":17,"map":"koth_highpass","folder":"tf","game":"Team Fortress","app_id":440,"player_count":0,"max_players":24,"Bots":0,"server_type":"Dedicated","server_os":"Linux","password":true,"vac":true,"version":"7757534","steam_id":85568392924500087,"keywords":["cp","nocrits","nodmgspread","uncletopia"],"game_id":440,"stv_port":27016,"stv_name":"Uncletopia | Montréal | 1 | All Maps | STV","players":null},{"server_id":301,"name":"Uncletopia | Montréal | 2 | All Maps","name_short":"mtl-2","host":"mtl-1.ca.uncletopia.com","port":27025,"enabled":true,"region":"us-east","cc":"ca","latitude":45.50889,"longitude":-73.56167,"reserved":0,"last_update":"0001-01-01T00:00:00Z","name_a2s":"Uncletopia | Montréal | 2 | All Maps","protocol":17,"map":"cp_altitude","folder":"tf","game":"Team Fortress","app_id":440,"player_count":0,"max_players":24,"Bots":0,"server_type":"Dedicated","server_os":"Linux","password":true,"vac":true,"version":"7757534","steam_id":85568392924500088,"keywords":["cp","nocrits","nodmgspread","uncletopia"],"game_id":440,"stv_port":27026,"stv_name":"Uncletopia | Montréal | 2 | All Maps | STV","players":null},{"server_id":302,"name":"Uncletopia | Montréal | 3 | All Maps","name_short":"mtl-3","host":"mtl-1.ca.uncletopia.com","port":27035,"enabled":true,"region":"us-east","cc":"ca","latitude":45.50889,"longitude":-73.56167,"reserved":0,"last_update":"0001-01-01T00:00:00Z","name_a2s":"Uncletopia | Montréal | 3 | All Maps","protocol":17,"map":"koth_viaduct","folder":"tf","game":"Team Fortress","app_id":440,"player_count":0,"max_players":24,"Bots":0,"server_type":"Dedicated","server_os":"Linux","password":true,"vac":true,"version":"7757534","steam_id":85568392924500089,"keywords":["cp","nocrits","nodmgspread","uncletopia"],"game_id":440,"stv_port":27036,"stv_name":"Uncletopia | Montréal | 3 | All Maps | STV","players":null},{"server_id":303,"name":"Uncletopia | Montréal | 4 | No Payload","name_short":"mtl-4","host":"mtl-1.ca.uncletopia.com","port":27045,"enabled":true,"region":"us-east","cc":"ca","latitude":45.50889,"longitude":-73.56167,"reserved":0,"last_update":"0001-01-01T00:00:00Z","name_a2s":"Uncletopia | Montréal | 4 | No Payload","protocol":17,"map":"koth_lakeside_final","folder":"tf","game":"Team Fortress","app_id":440,"player_count":0,"max_players":24,"Bots":0,"server_type":"Dedicated","server_os":"Linux","password":true,"vac":true,"version":"7757534","steam_id":85568392924500090,"keywords":["cp","nocrits","nodmgspread","uncletopia"],"game_id":440,"stv_port":27046,"stv_name":"Uncletopia | Montréal | 4 | No Payload | STV","players":null},{"server_id":13,"name":"Uncletopia | New York City | 1 | All Maps","name_short":"nyc-1","host":"nyc-1.us.uncletopia.com","port":27015,"enabled":true,"region":"us-east","cc":"us","latitude":40.73061,"longitude":-73.93524,"reserved":0,"last_update":"0001-01-01T00:00:00Z","name_a2s":"Uncletopia | New York City | 1 | All Maps","protocol":17,"map":"pl_snowycoast","folder":"tf","game":"Team Fortress","app_id":440,"player_count":0,"max_players":24,"Bots":0,"server_type":"Dedicated","server_os":"Linux","password":true,"vac":true,"version":"7757534","steam_id":85568392924469993,"keywords":["nocrits","nodmgspread","payload","uncletopia"],"game_id":440,"stv_port":27016,"stv_name":"Uncletopia | New York City | 1 | All Maps | STV","players":null},{"server_id":14,"name":"Uncletopia | New York City | 2 | All Maps","name_short":"nyc-2","host":"nyc-1.us.uncletopia.com","port":27025,"enabled":true,"region":"us-east","cc":"us","latitude":40.73061,"longitude":-73.93524,"reserved":0,"last_update":"0001-01-01T00:00:00Z","name_a2s":"Uncletopia | New York City | 2 | All Maps","protocol":17,"map":"koth_cascade","folder":"tf","game":"Team Fortress","app_id":440,"player_count":0,"max_players":24,"Bots":0,"server_type":"Dedicated","server_os":"Linux","password":true,"vac":true,"version":"7757534","steam_id":85568392924469994,"keywords":["cp","nocrits","nodmgspread","uncletopia"],"game_id":440,"stv_port":27026,"stv_name":"Uncletopia | New York City | 2 | All Maps | STV","players":null},{"server_id":15,"name":"Uncletopia | New York City | 3 | Stopwatch Beta","name_short":"nyc-3","host":"nyc-1.us.uncletopia.com","port":27035,"enabled":true,"region":"us-east","cc":"us","latitude":40.73061,"longitude":-73.93524,"reserved":0,"last_update":"0001-01-01T00:00:00Z","name_a2s":"Uncletopia | New York City | 3 | Stopwatch Beta","protocol":17,"map":"workshop/koth_product_final.ugc454272353","folder":"tf","game":"Team Fortress","app_id":440,"player_count":0,"max_players":24,"Bots":0,"server_type":"Dedicated","server_os":"Linux","password":true,"vac":true,"version":"7757534","steam_id":85568392924742820,"keywords":["cp","nocrits","nodmgspread","uncletopia"],"game_id":440,"stv_port":27036,"stv_name":"Uncletopia | New York City | 3 | Stopwatch Beta | STV","players":null},{"server_id":16,"name":"Uncletopia | New York City | 4 | Community","name_short":"nyc-4","host":"nyc-1.us.uncletopia.com","port":27045,"enabled":true,"region":"us-east","cc":"us","latitude":40.73061,"longitude":-73.93524,"reserved":0,"last_update":"0001-01-01T00:00:00Z","name_a2s":"Uncletopia | New York City | 4 | Community","protocol":17,"map":"workshop/koth_synthetic_rc6a.ugc1549817316","folder":"tf","game":"Team Fortress","app_id":440,"player_count":0,"max_players":24,"Bots":0,"server_type":"Dedicated","server_os":"Linux","password":true,"vac":true,"version":"7757534","steam_id":85568392924742821,"keywords":["cp","nocrits","nodmgspread","uncletopia"],"game_id":440,"stv_port":27046,"stv_name":"Uncletopia | New York City | 4 | Community | STV","players":null},{"server_id":142,"name":"Uncletopia | São Paulo | 1 | All Maps","name_short":"sao-1","host":"sao-1.br.uncletopia.com","port":27015,"enabled":true,"region":"sa","cc":"br","latitude":-23.533773,"longitude":-46.62529,"reserved":0,"last_update":"0001-01-01T00:00:00Z","name_a2s":"Uncletopia | São Paulo | 1 | All Maps","protocol":17,"map":"pl_snowycoast","folder":"tf","game":"Team Fortress","app_id":440,"player_count":0,"max_players":24,"Bots":0,"server_type":"Dedicated","server_os":"Linux","password":true,"vac":true,"version":"7757534","steam_id":85568392924469996,"keywords":["nocrits","nodmgspread","payload","uncletopia"],"game_id":440,"stv_port":27016,"stv_name":"Uncletopia | São Paulo | 1 | All Maps | STV","players":null},{"server_id":143,"name":"Uncletopia | São Paulo | 2 | All Maps","name_short":"sao-2","host":"sao-2.br.uncletopia.com","port":27015,"enabled":true,"region":"sa","cc":"br","latitude":-23.533773,"longitude":-46.62529,"reserved":0,"last_update":"0001-01-01T00:00:00Z","name_a2s":"Uncletopia | São Paulo | 2 | All Maps","protocol":17,"map":"pl_barnblitz","folder":"tf","game":"Team Fortress","app_id":440,"player_count":0,"max_players":24,"Bots":0,"server_type":"Dedicated","server_os":"Linux","password":true,"vac":true,"version":"7757534","steam_id":85568392924485349,"keywords":["nocrits","nodmgspread","payload","uncletopia"],"game_id":440,"stv_port":27016,"stv_name":"Uncletopia | São Paulo | 2 | All Maps | STV","players":null},{"server_id":7,"name":"Uncletopia | Seattle | 1 | All Maps","name_short":"sea-1","host":"sea-1.us.uncletopia.com","port":27015,"enabled":true,"region":"us-west","cc":"us","latitude":47.608013,"longitude":-122.33517,"reserved":0,"last_update":"0001-01-01T00:00:00Z","name_a2s":"Uncletopia | Seattle | 1 | All Maps","protocol":17,"map":"pl_barnblitz","folder":"tf","game":"Team Fortress","app_id":440,"player_count":24,"max_players":24,"Bots":0,"server_type":"Dedicated","server_os":"Linux","password":true,"vac":true,"version":"7757534","steam_id":85568392924469997,"keywords":["nocrits","nodmgspread","payload","uncletopia"],"game_id":440,"stv_port":27016,"stv_name":"Uncletopia | Seattle | 1 | All Maps | STV","players":[{"user_id":765,"name":"rat gets the cheese","steam_id":76561198031234032,"connected_time":12501000000000,"state":"active","ping":94},{"user_id":873,"name":"p9 jorts","steam_id":76561199041179985,"connected_time":797000000000,"state":"active","ping":68},{"user_id":817,"name":"PopcornNinja101","steam_id":76561198330680181,"connected_time":6409000000000,"state":"active","ping":45},{"user_id":874,"name":"HH","steam_id":76561198184126361,"connected_time":656000000000,"state":"active","ping":122},{"user_id":875,"name":"rorywashere /ᐠ - ˕ -マ Ⳋ","steam_id":76561198065825165,"connected_time":569000000000,"state":"active","ping":116},{"user_id":836,"name":"Robloxdude4443","steam_id":76561198399370940,"connected_time":3526000000000,"state":"active","ping":85},{"user_id":871,"name":"Zebulon Pike","steam_id":76561198025719753,"connected_time":813000000000,"state":"active","ping":44},{"user_id":825,"name":"the them","steam_id":76561198082922382,"connected_time":5068000000000,"state":"active","ping":77},{"user_id":844,"name":"fwoov","steam_id":76561198129166260,"connected_time":2378000000000,"state":"active","ping":76},{"user_id":838,"name":"delight","steam_id":76561197980280272,"connected_time":3521000000000,"state":"active","ping":47},{"user_id":870,"name":"lavinia x zebulon whately fanfi","steam_id":76561198325306660,"connected_time":825000000000,"state":"active","ping":57},{"user_id":876,"name":"Christmas enthusiast","steam_id":76561198278243226,"connected_time":506000000000,"state":"active","ping":87},{"user_id":845,"name":"NotAWeeb","steam_id":76561198165530739,"connected_time":2376000000000,"state":"active","ping":61},{"user_id":808,"name":"gorlab","steam_id":76561198025089694,"connected_time":8150000000000,"state":"active","ping":63},{"user_id":883,"name":"Suspicious Trench Coat","steam_id":76561198044362988,"connected_time":53000000000,"state":"active","ping":100},{"user_id":846,"name":"profile name","steam_id":76561198032625036,"connected_time":2376000000000,"state":"active","ping":60},{"user_id":863,"name":"hotdog every meal","steam_id":76561198392514273,"connected_time":1113000000000,"state":"active","ping":59},{"user_id":822,"name":"The Population of Sweden","steam_id":76561198202201644,"connected_time":6206000000000,"state":"active","ping":42},{"user_id":878,"name":"ice cream (冰淇淋)","steam_id":76561198976530881,"connected_time":422000000000,"state":"active","ping":75},{"user_id":882,"name":"Magpie, frugal trader","steam_id":76561198057143937,"connected_time":259000000000,"state":"active","ping":57},{"user_id":880,"name":"Velika, Necro Master","steam_id":76561198063445881,"connected_time":358000000000,"state":"active","ping":66},{"user_id":881,"name":"stinkiest smelliest gamer ever","steam_id":76561198014593467,"connected_time":338000000000,"state":"active","ping":110},{"user_id":866,"name":"nescoceo","steam_id":76561198040801160,"connected_time":947000000000,"state":"active","ping":79},{"user_id":869,"name":"Tom Skirrett","steam_id":76561198014600788,"connected_time":835000000000,"state":"active","ping":69}]},{"server_id":119,"name":"Uncletopia | Seattle | 2 | All Maps","name_short":"sea-2","host":"sea-1.us.uncletopia.com","port":27025,"enabled":true,"region":"us-west","cc":"us","latitude":47.608013,"longitude":-122.33517,"reserved":0,"last_update":"0001-01-01T00:00:00Z","name_a2s":"Uncletopia | Seattle | 2 | All Maps","protocol":17,"map":"koth_lakeside_final","folder":"tf","game":"Team Fortress","app_id":440,"player_count":0,"max_players":24,"Bots":0,"server_type":"Dedicated","server_os":"Linux","password":true,"vac":true,"version":"7757534","steam_id":85568392924469998,"keywords":["cp","nocrits","nodmgspread","uncletopia"],"game_id":440,"stv_port":27026,"stv_name":"Uncletopia | Seattle | 2 | All Maps | STV","players":null},{"server_id":406,"name":"Uncletopia | Seattle | 3 | Stopwatch Beta","name_short":"sea-3","host":"sea-1.us.uncletopia.com","port":27035,"enabled":true,"region":"us-west","cc":"us","latitude":47.608013,"longitude":-122.33517,"reserved":0,"last_update":"0001-01-01T00:00:00Z","name_a2s":"Uncletopia | Seattle | 3 | Stopwatch Beta","protocol":17,"map":"workshop/pl_summercoast_rc8e.ugc1761528829","folder":"tf","game":"Team Fortress","app_id":440,"player_count":0,"max_players":24,"Bots":0,"server_type":"Dedicated","server_os":"Linux","password":true,"vac":true,"version":"7757534","steam_id":85568392924515217,"keywords":["nocrits","nodmgspread","payload","uncletopia"],"game_id":440,"stv_port":27036,"stv_name":"Uncletopia | Seattle | 3 | Stopwatch Beta | STV","players":null},{"server_id":17,"name":"Uncletopia | San Francisco | 1 | All Maps","name_short":"sfo-1","host":"sfo-1.us.uncletopia.com","port":27015,"enabled":true,"region":"us-west","cc":"us","latitude":37.77397,"longitude":-122.4313,"reserved":0,"last_update":"0001-01-01T00:00:00Z","name_a2s":"Uncletopia | San Francisco | 1 | All Maps","protocol":17,"map":"koth_viaduct","folder":"tf","game":"Team Fortress","app_id":440,"player_count":0,"max_players":24,"Bots":0,"server_type":"Dedicated","server_os":"Linux","password":true,"vac":true,"version":"7757534","steam_id":85568392924469999,"keywords":["cp","nocrits","nodmgspread","uncletopia"],"game_id":440,"stv_port":27016,"stv_name":"Uncletopia | San Francisco | 1 | All Maps | STV","players":null},{"server_id":18,"name":"Uncletopia | San Francisco | 2 | All Maps","name_short":"sfo-2","host":"sfo-1.us.uncletopia.com","port":27025,"enabled":true,"region":"us-west","cc":"us","latitude":37.77397,"longitude":-122.4313,"reserved":0,"last_update":"0001-01-01T00:00:00Z","name_a2s":"Uncletopia | San Francisco | 2 | All Maps","protocol":17,"map":"cp_dustbowl","folder":"tf","game":"Team Fortress","app_id":440,"player_count":0,"max_players":24,"Bots":0,"server_type":"Dedicated","server_os":"Linux","password":true,"vac":true,"version":"7757534","steam_id":85568392924470000,"keywords":["cp","nocrits","nodmgspread","uncletopia"],"game_id":440,"stv_port":27026,"stv_name":"Uncletopia | San Francisco | 2 | All Maps | STV","players":null},{"server_id":19,"name":"Uncletopia | San Francisco | 3 | Stopwatch Beta","name_short":"sfo-3","host":"sfo-1.us.uncletopia.com","port":27035,"enabled":true,"region":"us-west","cc":"us","latitude":37.77397,"longitude":-122.4313,"reserved":0,"last_update":"0001-01-01T00:00:00Z","name_a2s":"Uncletopia | San Francisco | 3 | Stopwatch Beta","protocol":17,"map":"workshop/pl_vigil_rc9.ugc1266210012","folder":"tf","game":"Team Fortress","app_id":440,"player_count":0,"max_players":24,"Bots":0,"server_type":"Dedicated","server_os":"Linux","password":true,"vac":true,"version":"7757534","steam_id":85568392924742824,"keywords":["nocrits","nodmgspread","payload","uncletopia"],"game_id":440,"stv_port":27036,"stv_name":"Uncletopia | San Francisco | 3 | Stopwatch Beta | STV","players":null},{"server_id":20,"name":"Uncletopia | San Francisco | 4 | Community","name_short":"sfo-4","host":"sfo-1.us.uncletopia.com","port":27045,"enabled":true,"region":"us-west","cc":"us","latitude":37.77397,"longitude":-122.4313,"reserved":0,"last_update":"0001-01-01T00:00:00Z","name_a2s":"Uncletopia | San Francisco | 4 | Community","protocol":17,"map":"workshop/koth_bagel_rc5.ugc2514036946","folder":"tf","game":"Team Fortress","app_id":440,"player_count":0,"max_players":24,"Bots":0,"server_type":"Dedicated","server_os":"Linux","password":true,"vac":true,"version":"7757534","steam_id":85568392924742826,"keywords":["cp","nocrits","nodmgspread","uncletopia"],"game_id":440,"stv_port":27046,"stv_name":"Uncletopia | San Francisco | 4 | Community | STV","players":null},{"server_id":141,"name":"Uncletopia | Sydney | 1 | All Maps","name_short":"syd-1","host":"syd-1.au.uncletopia.com","port":27015,"enabled":true,"region":"au","cc":"au","latitude":-33.865143,"longitude":151.2099,"reserved":0,"last_update":"0001-01-01T00:00:00Z","name_a2s":"Uncletopia | Sydney | 1 | All Maps","protocol":17,"map":"cp_process_final","folder":"tf","game":"Team Fortress","app_id":440,"player_count":24,"max_players":24,"Bots":0,"server_type":"Dedicated","server_os":"Linux","password":true,"vac":true,"version":"7757534","steam_id":85568392924470001,"keywords":["cp","nocrits","nodmgspread","uncletopia"],"game_id":440,"stv_port":27016,"stv_name":"Uncletopia | Sydney | 1 | All Maps | STV","players":[{"user_id":589,"name":"sydney","steam_id":76561199057568663,"connected_time":953000000000,"state":"active","ping":59},{"user_id":559,"name":"twitch.tv/DrTreggles","steam_id":76561198042806226,"connected_time":2814000000000,"state":"active","ping":82},{"user_id":600,"name":"tf2 ham","steam_id":76561198126719182,"connected_time":183000000000,"state":"active","ping":53},{"user_id":580,"name":"zen","steam_id":76561198302670452,"connected_time":1791000000000,"state":"active","ping":54},{"user_id":582,"name":"FyreFeat","steam_id":76561198068428930,"connected_time":1698000000000,"state":"active","ping":53},{"user_id":602,"name":"PhD in Shoe Shining","steam_id":76561198972095766,"connected_time":62000000000,"state":"active","ping":37},{"user_id":551,"name":"Scorchinq","steam_id":76561198169423722,"connected_time":3087000000000,"state":"active","ping":59},{"user_id":574,"name":"james16","steam_id":76561198362678073,"connected_time":2044000000000,"state":"active","ping":33},{"user_id":577,"name":"Im the biggest bird","steam_id":76561198254754182,"connected_time":2016000000000,"state":"active","ping":74},{"user_id":594,"name":"SchlaytoN","steam_id":76561198206793747,"connected_time":606000000000,"state":"active","ping":69},{"user_id":601,"name":"Hooray!","steam_id":76561198066726621,"connected_time":115000000000,"state":"active","ping":45},{"user_id":592,"name":"shark lostworld","steam_id":76561198214534771,"connected_time":760000000000,"state":"active","ping":49},{"user_id":598,"name":"honk knoh","steam_id":76561198054079203,"connected_time":426000000000,"state":"active","ping":93},{"user_id":596,"name":"stevenw","steam_id":76561198133041525,"connected_time":460000000000,"state":"active","ping":96},{"user_id":583,"name":"Consolidated Fart","steam_id":76561198924101909,"connected_time":1439000000000,"state":"active","ping":66},{"user_id":569,"name":"sadgasm","steam_id":76561198008230563,"connected_time":2463000000000,"state":"active","ping":49},{"user_id":588,"name":"Rolf :)","steam_id":76561198052357164,"connected_time":1008000000000,"state":"active","ping":40},{"user_id":590,"name":"01001110 01101111","steam_id":76561198290288735,"connected_time":937000000000,"state":"active","ping":63},{"user_id":550,"name":"Q","steam_id":76561198055600105,"connected_time":3124000000000,"state":"active","ping":74},{"user_id":591,"name":"Bowl","steam_id":76561198345777684,"connected_time":836000000000,"state":"active","ping":74},{"user_id":571,"name":"watersports","steam_id":76561199209193403,"connected_time":2272000000000,"state":"active","ping":76},{"user_id":599,"name":"SoundlessPlum","steam_id":76561198077872547,"connected_time":400000000000,"state":"active","ping":59},{"user_id":578,"name":"liam","steam_id":76561198046239819,"connected_time":1976000000000,"state":"active","ping":86},{"user_id":561,"name":"BluSaltt","steam_id":76561199009890383,"connected_time":2724000000000,"state":"active","ping":67}]},{"server_id":123,"name":"Uncletopia | Sydney | 2 | All Maps","name_short":"syd-2","host":"syd-1.au.uncletopia.com","port":27025,"enabled":true,"region":"au","cc":"au","latitude":-33.865143,"longitude":151.2099,"reserved":0,"last_update":"0001-01-01T00:00:00Z","name_a2s":"Uncletopia | Sydney | 2 | All Maps","protocol":17,"map":"pl_upward","folder":"tf","game":"Team Fortress","app_id":440,"player_count":24,"max_players":24,"Bots":0,"server_type":"Dedicated","server_os":"Linux","password":true,"vac":true,"version":"7757534","steam_id":85568392924470002,"keywords":["nocrits","nodmgspread","payload","uncletopia"],"game_id":440,"stv_port":27026,"stv_name":"Uncletopia | Sydney | 2 | All Maps | STV","players":[{"user_id":271,"name":"uncle nephew junior","steam_id":76561198930683342,"connected_time":550000000000,"state":"active","ping":53},{"user_id":199,"name":"Paula","steam_id":76561198010688399,"connected_time":7079000000000,"state":"active","ping":78},{"user_id":275,"name":"pablo.rodriguez.2015","steam_id":76561198166909147,"connected_time":109000000000,"state":"active","ping":37},{"user_id":255,"name":"hadouken","steam_id":76561198019740135,"connected_time":1839000000000,"state":"active","ping":63},{"user_id":261,"name":"Tнûи∂уяѕ∂.","steam_id":76561197992346511,"connected_time":1394000000000,"state":"active","ping":49},{"user_id":245,"name":"michael","steam_id":76561198052848358,"connected_time":3016000000000,"state":"active","ping":64},{"user_id":203,"name":"EpicGuy4227","steam_id":76561198094132328,"connected_time":6860000000000,"state":"active","ping":51},{"user_id":259,"name":"BeSpOkE","steam_id":76561198880911058,"connected_time":1517000000000,"state":"active","ping":71},{"user_id":258,"name":"EreNyn3","steam_id":76561198284993054,"connected_time":1703000000000,"state":"active","ping":54},{"user_id":207,"name":"pizza supper","steam_id":76561198044487625,"connected_time":6341000000000,"state":"active","ping":49},{"user_id":265,"name":"le0","steam_id":76561197965566926,"connected_time":1251000000000,"state":"active","ping":32},{"user_id":269,"name":"Oatmeal","steam_id":76561198251199428,"connected_time":641000000000,"state":"active","ping":61},{"user_id":246,"name":"Zilvera","steam_id":76561198065801850,"connected_time":2988000000000,"state":"active","ping":52},{"user_id":252,"name":"ScaleForm","steam_id":76561198950855452,"connected_time":2112000000000,"state":"active","ping":66},{"user_id":218,"name":"Oysenberry","steam_id":76561198125443335,"connected_time":5363000000000,"state":"active","ping":37},{"user_id":250,"name":"Critz Eastwood","steam_id":76561198050094688,"connected_time":2651000000000,"state":"active","ping":57},{"user_id":268,"name":"bleacj","steam_id":76561198854614195,"connected_time":1017000000000,"state":"active","ping":120},{"user_id":240,"name":"jim :)","steam_id":76561198127508905,"connected_time":3383000000000,"state":"active","ping":37},{"user_id":256,"name":"old chunk of coal","steam_id":76561197990537324,"connected_time":1820000000000,"state":"active","ping":104},{"user_id":273,"name":"krandlez` (Any/All)","steam_id":76561198044839726,"connected_time":386000000000,"state":"active","ping":39},{"user_id":248,"name":"Distilledrain41","steam_id":76561198272717119,"connected_time":2856000000000,"state":"active","ping":48},{"user_id":267,"name":"Google Chrome","steam_id":76561198042064910,"connected_time":1160000000000,"state":"active","ping":44},{"user_id":274,"name":"Wynk","steam_id":76561198155918178,"connected_time":173000000000,"state":"active","ping":55},{"user_id":257,"name":"lemur","steam_id":76561198278239170,"connected_time":1809000000000,"state":"active","ping":89}]},{"server_id":395,"name":"Uncletopia | Sydney | 3 | All Maps","name_short":"syd-3","host":"syd-1.au.uncletopia.com","port":27035,"enabled":true,"region":"au","cc":"au","latitude":-33.865143,"longitude":151.2099,"reserved":0,"last_update":"0001-01-01T00:00:00Z","name_a2s":"Uncletopia | Sydney | 3 | All Maps","protocol":17,"map":"pl_borneo","folder":"tf","game":"Team Fortress","app_id":440,"player_count":10,"max_players":24,"Bots":0,"server_type":"Dedicated","server_os":"Linux","password":true,"vac":true,"version":"7757534","steam_id":85568392925194467,"keywords":["nocrits","nodmgspread","payload","uncletopia"],"game_id":440,"stv_port":27036,"stv_name":"Uncletopia | Sydney | 3 | All Maps | STV","players":[{"user_id":41,"name":"Illya","steam_id":76561198158280651,"connected_time":767000000000,"state":"active","ping":83},{"user_id":37,"name":"Glockenspe (She/Her)","steam_id":76561199184115241,"connected_time":1120000000000,"state":"active","ping":52},{"user_id":32,"name":"gun spy TF2","steam_id":76561199446773766,"connected_time":2022000000000,"state":"active","ping":156},{"user_id":38,"name":"Branko","steam_id":76561199262196710,"connected_time":1081000000000,"state":"active","ping":42},{"user_id":46,"name":"jhanliallainnjison","steam_id":76561199347004668,"connected_time":239000000000,"state":"active","ping":165},{"user_id":40,"name":"xX_sexhaver_Xx(real)","steam_id":76561199205171109,"connected_time":954000000000,"state":"active","ping":68},{"user_id":42,"name":"Nightnark","steam_id":76561198415664378,"connected_time":719000000000,"state":"active","ping":92},{"user_id":45,"name":"Big Billy's Shrimperie","steam_id":76561198184391379,"connected_time":495000000000,"state":"active","ping":72},{"user_id":47,"name":"Jacob","steam_id":76561198059341907,"connected_time":108000000000,"state":"active","ping":40},{"user_id":48,"name":"WaKaPhEe","steam_id":76561198002191013,"connected_time":79000000000,"state":"active","ping":81}]},{"server_id":396,"name":"Uncletopia | Sydney | 4 | All Maps","name_short":"syd-4","host":"syd-1.au.uncletopia.com","port":27045,"enabled":true,"region":"au","cc":"au","latitude":-33.865143,"longitude":151.2099,"reserved":0,"last_update":"0001-01-01T00:00:00Z","name_a2s":"Uncletopia | Sydney | 4 | All Maps","protocol":17,"map":"koth_highpass","folder":"tf","game":"Team Fortress","app_id":440,"player_count":0,"max_players":24,"Bots":0,"server_type":"Dedicated","server_os":"Linux","password":true,"vac":true,"version":"7757534","steam_id":85568392925397958,"keywords":["cp","nocrits","nodmgspread","uncletopia"],"game_id":440,"stv_port":27046,"stv_name":"Uncletopia | Sydney | 4 | All Maps | STV","players":null},{"server_id":58,"name":"Uncletopia | Sydney | 5 | Stopwatch Beta","name_short":"syd-5","host":"syd-1.au.uncletopia.com","port":27055,"enabled":true,"region":"au","cc":"au","latitude":-33.865143,"longitude":151.2099,"reserved":0,"last_update":"0001-01-01T00:00:00Z","name_a2s":"Uncletopia | Sydney | 5 | Stopwatch Beta","protocol":17,"map":"pl_barnblitz","folder":"tf","game":"Team Fortress","app_id":440,"player_count":0,"max_players":24,"Bots":0,"server_type":"Dedicated","server_os":"Linux","password":true,"vac":true,"version":"7757534","steam_id":85568392925397959,"keywords":["nocrits","nodmgspread","payload","uncletopia"],"game_id":440,"stv_port":27056,"stv_name":"Uncletopia | Sydney | 5 | Stopwatch Beta | STV","players":null},{"server_id":59,"name":"Uncletopia | Sydney | 6 | Community","name_short":"syd-6","host":"syd-1.au.uncletopia.com","port":27065,"enabled":true,"region":"au","cc":"au","latitude":-33.865143,"longitude":151.2099,"reserved":0,"last_update":"0001-01-01T00:00:00Z","name_a2s":"Uncletopia | Sydney | 6 | Community","protocol":17,"map":"workshop/koth_synthetic_rc6a.ugc1549817316","folder":"tf","game":"Team Fortress","app_id":440,"player_count":0,"max_players":24,"Bots":0,"server_type":"Dedicated","server_os":"Linux","password":true,"vac":true,"version":"7757534","steam_id":85568392925397960,"keywords":["cp","nocrits","nodmgspread","uncletopia"],"game_id":440,"stv_port":27066,"stv_name":"Uncletopia | Sydney | 6 | Community | STV","players":null},{"server_id":49,"name":"Uncletopia | Warsaw | 1 | All Maps","name_short":"waw-1","host":"waw-1.pl.uncletopia.com","port":27015,"enabled":true,"region":"eu","cc":"pl","latitude":52.2297,"longitude":21.017532,"reserved":0,"last_update":"0001-01-01T00:00:00Z","name_a2s":"","protocol":0,"map":"","folder":"","game":"","app_id":0,"player_count":0,"max_players":0,"Bots":0,"server_type":"","server_os":"","password":false,"vac":false,"version":"","steam_id":0,"keywords":null,"game_id":0,"stv_port":0,"stv_name":"","players":null},{"server_id":50,"name":"Uncletopia | Warsaw | 2 | All Maps","name_short":"waw-2","host":"waw-1.pl.uncletopia.com","port":27025,"enabled":true,"region":"eu","cc":"pl","latitude":52.2297,"longitude":21.017532,"reserved":0,"last_update":"0001-01-01T00:00:00Z","name_a2s":"Uncletopia | Warsaw | 2 | All Maps","protocol":17,"map":"pl_snowycoast","folder":"tf","game":"Team Fortress","app_id":440,"player_count":0,"max_players":24,"Bots":0,"server_type":"Dedicated","server_os":"Linux","password":true,"vac":true,"version":"7757534","steam_id":85568392925397851,"keywords":["nocrits","nodmgspread","payload","uncletopia"],"game_id":440,"stv_port":27026,"stv_name":"Uncletopia | Warsaw | 2 | All Maps | STV","players":null},{"server_id":51,"name":"Uncletopia | Warsaw | 3 | All Maps","name_short":"waw-3","host":"waw-1.pl.uncletopia.com","port":27035,"enabled":true,"region":"eu","cc":"pl","latitude":52.2297,"longitude":21.017532,"reserved":0,"last_update":"0001-01-01T00:00:00Z","name_a2s":"Uncletopia | Warsaw | 3 | All Maps","protocol":17,"map":"cp_sunshine","folder":"tf","game":"Team Fortress","app_id":440,"player_count":0,"max_players":24,"Bots":0,"server_type":"Dedicated","server_os":"Linux","password":true,"vac":true,"version":"7757534","steam_id":85568392925397852,"keywords":["cp","nocrits","nodmgspread","uncletopia"],"game_id":440,"stv_port":27036,"stv_name":"Uncletopia | Warsaw | 3 | All Maps | STV","players":null},{"server_id":52,"name":"Uncletopia | Warsaw | 4 | All Maps","name_short":"waw-4","host":"waw-1.pl.uncletopia.com","port":27045,"enabled":true,"region":"eu","cc":"pl","latitude":52.2297,"longitude":21.017532,"reserved":0,"last_update":"0001-01-01T00:00:00Z","name_a2s":"Uncletopia | Warsaw | 4 | All Maps","protocol":17,"map":"pl_borneo","folder":"tf","game":"Team Fortress","app_id":440,"player_count":0,"max_players":24,"Bots":0,"server_type":"Dedicated","server_os":"Linux","password":true,"vac":true,"version":"7757534","steam_id":85568392925397853,"keywords":["nocrits","nodmgspread","payload","uncletopia"],"game_id":440,"stv_port":27046,"stv_name":"Uncletopia | Warsaw | 4 | All Maps | STV","players":null},{"server_id":53,"name":"Uncletopia | Warsaw | 5 | Stopwatch Beta","name_short":"waw-5","host":"waw-1.pl.uncletopia.com","port":27055,"enabled":true,"region":"eu","cc":"pl","latitude":52.2297,"longitude":21.017532,"reserved":0,"last_update":"0001-01-01T00:00:00Z","name_a2s":"Uncletopia | Warsaw | 5 | Stopwatch Beta","protocol":17,"map":"pl_upward","folder":"tf","game":"Team Fortress","app_id":440,"player_count":0,"max_players":24,"Bots":0,"server_type":"Dedicated","server_os":"Linux","password":true,"vac":true,"version":"7757534","steam_id":85568392925397854,"keywords":["nocrits","nodmgspread","payload","uncletopia"],"game_id":440,"stv_port":27056,"stv_name":"Uncletopia | Warsaw | 5 | Stopwatch Beta | STV","players":null},{"server_id":54,"name":"Uncletopia | Warsaw | 6 | Community","name_short":"waw-6","host":"waw-1.pl.uncletopia.com","port":27065,"enabled":true,"region":"eu","cc":"pl","latitude":52.2297,"longitude":21.017532,"reserved":0,"last_update":"0001-01-01T00:00:00Z","name_a2s":"Uncletopia | Warsaw | 6 | Community","protocol":17,"map":"pl_barnblitz","folder":"tf","game":"Team Fortress","app_id":440,"player_count":0,"max_players":24,"Bots":0,"server_type":"Dedicated","server_os":"Linux","password":true,"vac":true,"version":"7757534","steam_id":85568392925397856,"keywords":["nocrits","nodmgspread","payload","uncletopia"],"game_id":440,"stv_port":27066,"stv_name":"Uncletopia | Warsaw | 6 | Community | STV","players":null}]}