{"status":true,"message":"","result":[{"server_id":9,"name":"Uncletopia | Atlanta | 1 | All Maps","name_short":"atl-1","host":"atl-1.us.uncletopia.com","port":27015,"enabled":true,"region":"us-east","cc":"us","latitude":33.753746,"longitude":-84.38633,"reserved":0,"last_update":"0001-01-01T00:00:00Z","name_a2s":"Uncletopia | Atlanta | 1 | All Maps","protocol":17,"map":"cp_mountainlab","folder":"tf","game":"Team Fortress","app_id":440,"player_count":1,"max_players":24,"Bots":0,"server_type":"Dedicated","server_os":"Linux","password":true,"vac":true,"version":"7757534","steam_id":85568392924469982,"keywords":["cp","nocrits","nodmgspread","uncletopia"],"game_id":440,"stv_port":27016,"stv_name":"Uncletopia | Atlanta | 1 | All Maps | STV","players":[{"user_id":8,"name":"Towns","steam_id":76561198984662863,"connected_time":138000000000,"state":"active","ping":56}]},{"server_id":400,"name":"Uncletopia | Atlanta | 3 | Community","name_short":"atl-3","host":"atl-1.us.uncletopia.com","port":27035,"enabled":true,"region":"us-east","cc":"us","latitude":33.753746,"longitude":-84.38633,"reserved":0,"last_update":"0001-01-01T00:00:00Z","name_a2s":"Uncletopia | Atlanta | 3 | Community","protocol":17,"map":"workshop/pl_boundary_final1.ugc456799153","folder":"tf","game":"Team Fortress","app_id":440,"player_count":0,"max_players":24,"Bots":0,"server_type":"Dedicated","server_os":"Linux","password":true,"vac":true,"version":"7757534","steam_id":85568392924515187,"keywords":["nocrits","nodmgspread","payload","uncletopia"],"game_id":440,"stv_port":27036,"stv_name":"Uncletopia | Atlanta | 3 | Community | STV","players":null},{"server_id":401,"name":"Uncletopia | Atlanta | 4 | No Payload","name_short":"atl-4","host":"atl-1.us.uncletopia.com","port":27045,"enabled":true,"region":"us-east","cc":"us","latitude":33.753746,"longitude":-84.38633,"reserved":0,"last_update":"0001-01-01T00:00:00Z","name_a2s":"","protocol":0,"map":"","folder":"","game":"","app_id":0,"player_count":0,"max_players":0,"Bots":0,"server_type":"","server_os":"","password":false,"vac":false,"version":"","steam_id":0,"keywords":null,"game_id":0,"stv_port":0,"stv_name":"","players":null},{"server_id":2,"name":"Uncletopia | Chicago | 1 | All Maps","name_short":"chi-1","host":"chi-1.us.uncletopia.com","port":27015,"enabled":true,"region":"us-central","cc":"us","latitude":41.881832,"longitude":-87.62318,"reserved":0,"last_update":"0001-01-01T00:00:00Z","name_a2s":"Uncletopia | Chicago | 1 | All Maps","protocol":17,"map":"plr_bananabay","folder":"tf","game":"Team Fortress","app_id":440,"player_count":24,"max_players":24,"Bots":0,"server_type":"Dedicated","server_os":"Linux","password":true,"vac":true,"version":"7757534","steam_id":85568392924469984,"keywords":["nocrits","nodmgspread","payload","uncletopia"],"game_id":440,"stv_port":27016,"stv_name":"Uncletopia | Chicago | 1 | All Maps | STV","players":[{"user_id":118,"name":"tsaide","steam_id":76561198384120999,"connected_time":2714000000000,"state":"active","ping":63},{"user_id":146,"name":"Toaster","steam_id":76561198110748463,"connected_time":349000000000,"state":"active","ping":57},{"user_id":147,"name":"Dirtbike rider","steam_id":76561198030457066,"connected_time":330000000000,"state":"active","ping":80},{"user_id":97,"name":"Leviathan","steam_id":76561197997528907,"connected_time":5182000000000,"state":"active","ping":59},{"user_id":135,"name":"Pixler544","steam_id":76561198240575132,"connected_time":1347000000000,"state":"active","ping":76},{"user_id":129,"name":"‚ô• Femboy‚ô•Ventily ‚ô•","steam_id":76561198157260335,"connected_time":1592000000000,"state":"active","ping":44},{"user_id":83,"name":"Motreir","steam_id":76561198151717946,"connected_time":6089000000000,"state":"active","ping":75},{"user_id":128,"name":"I can't heal","steam_id":76561198039763676,"connected_time":1616000000000,"state":"active","ping":64},{"user_id":127,"name":"Snail BoB","steam_id":76561198152672443,"connected_time":1635000000000,"state":"active","ping":101},{"user_id":109,"name":"nastypass","steam_id":76561198002601054,"connected_time":3664000000000,"state":"active","ping":61},{"user_id":112,"name":"ProtoFeveren","steam_id":76561198096196467,"connected_time":3463000000000,"state":"active","ping":61},{"user_id":107,"name":"cow farmer","steam_id":76561198249206656,"connected_time":3802000000000,"state":"active","ping":62},{"user_id":144,"name":"PROFILE NAME","steam_id":76561198384238790,"connected_time":418000000000,"state":"active","ping":60},{"user_id":99,"name":"TryX","steam_id":76561199356781475,"connected_time":4976000000000,"state":"active","ping":162},{"user_id":143,"name":"iluvtoust","steam_id":76561198869269207,"connected_time":442000000000,"state":"active","ping":74},{"user_id":71,"name":"Zwahe‚úü","steam_id":76561198119750206,"connected_time":6491000000000,"state":"active","ping":78},{"user_id":117,"name":"‚òº  YOUVE BEEN HOODWINKED BABY","steam_id":76561198074180953,"connected_time":2775000000000,"state":"active","ping":66},{"user_id":94,"name":"I DECIDE","steam_id":76561198011675372,"connected_time":5377000000000,"state":"active","ping":103},{"user_id":80,"name":"Ris","steam_id":76561198073840980,"connected_time":6116000000000,"state":"active","ping":65},{"user_id":120,"name":"Boo","steam_id":76561199052395729,"connected_time":2677000000000,"state":"active","ping":59},{"user_id":141,"name":"DUDE WEED LMAO 2k23","steam_id":76561198091111592,"connected_time":475000000000,"state":"active","ping":62},{"user_id":130,"name":"claire","steam_id":76561198127525888,"connected_time":1592000000000,"state":"active","ping":72},{"user_id":148,"name":"Veir≈´ Viseris","steam_id":76561197989857176,"connected_time":162000000000,"state":"active","ping":166},{"user_id":139,"name":"Dr.Long","steam_id":76561198930316713,"connected_time":924000000000,"state":"active","ping":67}]},{"server_id":106,"name":"Uncletopia | Chicago | 2 | All Maps","name_short":"chi-2","host":"chi-1.us.uncletopia.com","port":27025,"enabled":true,"region":"us-central","cc":"us","latitude":41.881832,"longitude":-87.62318,"reserved":0,"last_update":"0001-01-01T00:00:00Z","name_a2s":"Uncletopia | Chicago | 2 | All Maps","protocol":17,"map":"pl_badwater","folder":"tf","game":"Team Fortress","app_id":440,"player_count":24,"max_players":24,"Bots":0,"server_type":"Dedicated","server_os":"Linux","password":true,"vac":true,"version":"7757534","steam_id":85568392924469985,"keywords":["nocrits","nodmgspread","payload","uncletopia"],"game_id":440,"stv_port":27026,"stv_name":"Uncletopia | Chicago | 2 | All Maps | STV","players":[{"user_id":126,"name":"œ™.briarclif","steam_id":76561198067784310,"connected_time":959000000000,"state":"active","ping":67},{"user_id":130,"name":"mrsomeoneisreal","steam_id":76561199471566863,"connected_time":928000000000,"state":"active","ping":135},{"user_id":116,"name":"Wengatang","steam_id":76561198021747059,"connected_time":1619000000000,"state":"active","ping":46},{"user_id":132,"name":"GoofyAhGamingGuy","steam_id":76561199331315881,"connected_time":886000000000,"state":"active","ping":85},{"user_id":114,"name":"Ultrabot Ultimus","steam_id":76561198258898729,"connected_time":2029000000000,"state":"active","ping":55},{"user_id":140,"name":"WM1 PYRO","steam_id":76561198045893896,"connected_time":160000000000,"state":"active","ping":96},{"user_id":123,"name":"JacripspyVulcano","steam_id":76561198966980576,"connected_time":1140000000000,"state":"active","ping":61},{"user_id":134,"name":"Jennifer Aniston's Nipples","steam_id":76561198086107548,"connected_time":592000000000,"state":"active","ping":62},{"user_id":141,"name":"Ursus Ludius","steam_id":76561198025470722,"connected_time":43000000000,"state":"active","ping":80},{"user_id":79,"name":"spherewithahat","steam_id":76561199122192660,"connected_time":3726000000000,"state":"active","ping":72},{"user_id":121,"name":"Petal","steam_id":76561199103766971,"connected_time":1457000000000,"state":"active","ping":71},{"user_id":122,"name":"jimbo","steam_id":76561198046059770,"connected_time":1417000000000,"state":"active","ping":61},{"user_id":128,"name":"Dyson","steam_id":76561199081837220,"connected_time":944000000000,"state":"active","ping":82},{"user_id":129,"name":"threethree","steam_id":76561198177354155,"connected_time":941000000000,"state":"active","ping":71},{"user_id":84,"name":"Tyler\u0026Fingers","steam_id":76561198085154485,"connected_time":3673000000000,"state":"active","ping":84},{"user_id":135,"name":"Gandalf Gaming","steam_id":76561198368151490,"connected_time":467000000000,"state":"active","ping":60},{"user_id":125,"name":"PzVIIIMaus","steam_id":76561198346559365,"connected_time":1090000000000,"state":"active","ping":47},{"user_id":131,"name":"DeeRedPanda","steam_id":76561199101853184,"connected_time":927000000000,"state":"active","ping":165},{"user_id":139,"name":"Dabicus Vile","steam_id":76561198272413758,"connected_time":184000000000,"state":"active","ping":58},{"user_id":113,"name":"John Darksoul","steam_id":76561198999712284,"connected_time":2124000000000,"state":"active","ping":71},{"user_id":94,"name":"poy","steam_id":76561198114063534,"connected_time":2863000000000,"state":"active","ping":144},{"user_id":112,"name":"IDG_music","steam_id":76561198971593303,"connected_time":2162000000000,"state":"active","ping":92},{"user_id":120,"name":"papa guacamole","steam_id":76561198167665608,"connected_time":1584000000000,"state":"active","ping":72},{"user_id":138,"name":"Chaotic Rushu","steam_id":76561198170054407,"connected_time":250000000000,"state":"active","ping":81}]},{"server_id":402,"name":"Uncletopia | Chicago | 3 | All Maps","name_short":"chi-3","host":"chi-1.us.uncletopia.com","port":27035,"enabled":true,"region":"us-central","cc":"us","latitude":41.881832,"longitude":-87.62318,"reserved":0,"last_update":"0001-01-01T00:00:00Z","name_a2s":"Uncletopia | Chicago | 3 | All Maps","protocol":17,"map":"koth_viaduct","folder":"tf","game":"Team Fortress","app_id":440,"player_count":24,"max_players":24,"Bots":0,"server_type":"Dedicated","server_os":"Linux","password":true,"vac":true,"version":"7757534","steam_id":85568392924515191,"keywords":["cp","nocrits","nodmgspread","uncletopia"],"game_id":440,"stv_port":27036,"stv_name":"Uncletopia | Chicago | 3 | All Maps | STV","players":[{"user_id":42,"name":"SCARY MONSTERS","steam_id":76561198042034176,"connected_time":2847000000000,"state":"active","ping":68},{"user_id":83,"name":"kennyshrooms","steam_id":76561198045773268,"connected_time":143000000000,"state":"active","ping":60},{"user_id":66,"name":"Uso","steam_id":76561198012093238,"connected_time":1526000000000,"state":"active","ping":56},{"user_id":33,"name":"Apple Crisp","steam_id":76561198129518886,"connected_time":3698000000000,"state":"active","ping":85},{"user_id":58,"name":"diesel_carsuite","steam_id":76561198229903328,"connected_time":1901000000000,"state":"active","ping":72},{"user_id":77,"name":"Ejaculation Zach","steam_id":76561198203765200,"connected_time":661000000000,"state":"active","ping":50},{"user_id":81,"name":"Mr. Raven","steam_id":76561198040881265,"connected_time":328000000000,"state":"active","ping":106},{"user_id":46,"name":"HarryjusttHarry","steam_id":76561198982810452,"connected_time":2419000000000,"state":"active","ping":70},{"user_id":49,"name":"Magik","steam_id":76561198200169706,"connected_time":2384000000000,"state":"active","ping":54},{"user_id":61,"name":"TheSpyCrabKing #SaveTF2","steam_id":76561198090177784,"connected_time":1793000000000,"state":"active","ping":62},{"user_id":51,"name":"arrow","steam_id":76561198328109873,"connected_time":2363000000000,"state":"active","ping":69},{"user_id":68,"name":"FunGi","steam_id":76561198881418662,"connected_time":1334000000000,"state":"active","ping":80},{"user_id":74,"name":"Owl Pacino","steam_id":76561197979970666,"connected_time":949000000000,"state":"active","ping":56},{"user_id":22,"name":"i should go","steam_id":76561198194614289,"connected_time":3839000000000,"state":"active","ping":59},{"user_id":64,"name":"üé£ I'd Rather Be Gooning","steam_id":76561198062410522,"connected_time":1728000000000,"state":"active","ping":58},{"user_id":82,"name":"catboy phroliax","steam_id":76561198207075529,"connected_time":188000000000,"state":"active","ping":86},{"user_id":65,"name":"Reaper","steam_id":76561198435826103,"connected_time":1703000000000,"state":"active","ping":76},{"user_id":80,"name":"Puke Skyfucker","steam_id":76561198012846213,"connected_time":407000000000,"state":"active","ping":70},{"user_id":79,"name":"alolan duntski","steam_id":76561198038826744,"connected_time":619000000000,"state":"active","ping":58},{"user_id":76,"name":"shake","steam_id":76561199064204750,"connected_time":898000000000,"state":"active","ping":78},{"user_id":71,"name":"Outlander","steam_id":76561197998995746,"connected_time":1060000000000,"state":"active","ping":92},{"user_id":30,"name":"yitz","steam_id":76561198375575841,"connected_time":3741000000000,"state":"active","ping":55},{"user_id":31,"name":"SCATTER","steam_id":76561198405168492,"connected_time":3734000000000,"state":"active","ping":82},{"user_id":60,"name":"APOTATO","steam_id":76561198118199858,"connected_time":1866000000000,"state":"active","ping":90}]},{"server_id":403,"name":"Uncletopia | Chicago | 4 | All Maps","name_short":"chi-4","host":"chi-1.us.uncletopia.com","port":27045,"enabled":true,"region":"us-central","cc":"us","latitude":41.881832,"longitude":-87.62318,"reserved":0,"last_update":"0001-01-01T00:00:00Z","name_a2s":"Uncletopia | Chicago | 4 | All Maps","protocol":17,"map":"cp_steel","folder":"tf","game":"Team Fortress","app_id":440,"player_count":24,"max_players":24,"Bots":0,"server_type":"Dedicated","server_os":"Linux","password":true,"vac":true,"version":"7757534","steam_id":85568392924515193,"keywords":["cp","nocrits","nodmgspread","uncletopia"],"game_id":440,"stv_port":27046,"stv_name":"Uncletopia | Chicago | 4 | All Maps | STV","players":[{"user_id":134,"name":"Chew","steam_id":76561198118307413,"connected_time":1998000000000,"state":"active","ping":70},{"user_id":118,"name":"1,000,000 merged Chihuahuas","steam_id":76561198130772096,"connected_time":4679000000000,"state":"active","ping":61},{"user_id":85,"name":"Chafn","steam_id":76561197969386702,"connected_time":6070000000000,"state":"active","ping":109},{"user_id":156,"name":"Aspiring E-Boy","steam_id":76561198120710871,"connected_time":103000000000,"state":"active","ping":87},{"user_id":153,"name":"evan_is_sauce","steam_id":76561199086802383,"connected_time":260000000000,"state":"active","ping":104},{"user_id":152,"name":"Jacket","steam_id":76561198941391790,"connected_time":411000000000,"state":"active","ping":59},{"user_id":94,"name":"im using tilt controls!","steam_id":76561198295690725,"connected_time":5433000000000,"state":"active","ping":67},{"user_id":142,"name":"exlhk7","steam_id":76561199468136783,"connected_time":1670000000000,"state":"active","ping":92},{"user_id":135,"name":"Ballsack Shaver","steam_id":76561199011739378,"connected_time":1980000000000,"state":"active","ping":68},{"user_id":97,"name":"JelloMotion","steam_id":76561198045892038,"connected_time":5371000000000,"state":"active","ping":60},{"user_id":137,"name":"My dad owns Club Penguin.","steam_id":76561198032864436,"connected_time":1942000000000,"state":"active","ping":68},{"user_id":145,"name":"Monsterjessy","steam_id":76561198035630985,"connected_time":1569000000000,"state":"active","ping":60},{"user_id":100,"name":"Focus On God","steam_id":76561198047136927,"connected_time":5349000000000,"state":"active","ping":59},{"user_id":143,"name":"Riandox","steam_id":76561198130577326,"connected_time":1599000000000,"state":"active","ping":63},{"user_id":138,"name":"Jbomb","steam_id":76561199197866625,"connected_time":1911000000000,"state":"active","ping":71},{"user_id":146,"name":"Zornplays","steam_id":76561199175292302,"connected_time":1426000000000,"state":"active","ping":126},{"user_id":144,"name":"radiohead enjoyer","steam_id":76561198397662124,"connected_time":1587000000000,"state":"active","ping":88},{"user_id":114,"name":"theholyhealer99","steam_id":76561199045905872,"connected_time":5034000000000,"state":"active","ping":38},{"user_id":147,"name":"Do Moose go Moo?","steam_id":76561198073550620,"connected_time":1331000000000,"state":"active","ping":46},{"user_id":107,"name":"dinguskun","steam_id":76561199264132508,"connected_time":5277000000000,"state":"active","ping":126},{"user_id":122,"name":"Slashes","steam_id":76561197968573499,"connected_time":3557000000000,"state":"active","ping":61},{"user_id":155,"name":"brian enotown massacre","steam_id":76561198109901138,"connected_time":187000000000,"state":"active","ping":84},{"user_id":150,"name":"Banks","steam_id":76561198276505537,"connected_time":702000000000,"state":"active","ping":66},{"user_id":157,"name":"BIG DICK","steam_id":76561198295042981,"connected_time":100000000000,"state":"active","ping":60}]},{"server_id":36,"name":"Uncletopia | Chicago | 5 | All Maps","name_short":"chi-5","host":"chi-2.us.uncletopia.com","port":27015,"enabled":true,"region":"us-central","cc":"us","latitude":41.881832,"longitude":-87.62318,"reserved":0,"last_update":"0001-01-01T00:00:00Z","name_a2s":"Uncletopia | Chicago | 5 | All Maps","protocol":17,"map":"koth_lakeside_final","folder":"tf","game":"Team Fortress","app_id":440,"player_count":0,"max_players":24,"Bots":0,"server_type":"Dedicated","server_os":"Linux","password":true,"vac":true,"version":"7757534","steam_id":85568392924866362,"keywords":["cp","nocrits","nodmgspread","uncletopia"],"game_id":440,"stv_port":27016,"stv_name":"Uncletopia | Chicago | 5 | All Maps | STV","players":null},{"server_id":37,"name":"Uncletopia | Chicago | 6 | All Maps","name_short":"chi-6","host":"chi-2.us.uncletopia.com","port":27025,"enabled":true,"region":"us-central","cc":"us","latitude":41.881832,"longitude":-87.62318,"reserved":0,"last_update":"0001-01-01T00:00:00Z","name_a2s":"Uncletopia | Chicago | 6 | All Maps","protocol":17,"map":"cp_dustbowl","folder":"tf","game":"Team Fortress","app_id":440,"player_count":16,"max_players":24,"Bots":0,"server_type":"Dedicated","server_os":"Linux","password":true,"vac":true,"version":"7757534","steam_id":85568392924866363,"keywords":["cp","nocrits","nodmgspread","uncletopia"],"game_id":440,"stv_port":27026,"stv_name":"Uncletopia | Chicago | 6 | All Maps | STV","players":[{"user_id":17,"name":"Jetstream Sam","steam_id":76561199202589837,"connected_time":537000000000,"state":"active","ping":115},{"user_id":7,"name":"Bigfootjinx","steam_id":76561199128050459,"connected_time":1786000000000,"state":"active","ping":66},{"user_id":10,"name":"girl cock","steam_id":76561198155434598,"connected_time":1156000000000,"state":"active","ping":66},{"user_id":11,"name":"Emails","steam_id":76561198836919458,"connected_time":1147000000000,"state":"active","ping":88},{"user_id":12,"name":"big fish","steam_id":76561198186479818,"connected_time":1113000000000,"state":"active","ping":110},{"user_id":15,"name":"imadabest","steam_id":76561199123304377,"connected_time":653000000000,"state":"active","ping":104},{"user_id":20,"name":"feenman","steam_id":76561199383834799,"connected_time":343000000000,"state":"active","ping":95},{"user_id":18,"name":"Grandpa 1MinecraftEmpire","steam_id":76561198069046338,"connected_time":439000000000,"state":"active","ping":93},{"user_id":19,"name":"vmoney160","steam_id":76561198053516110,"connected_time":419000000000,"state":"active","ping":62},{"user_id":21,"name":"MayKaye","steam_id":76561199016092265,"connected_time":208000000000,"state":"active","ping":89},{"user_id":22,"name":"Coupon","steam_id":76561198111947598,"connected_time":185000000000,"state":"active","ping":83},{"user_id":23,"name":"Dog Deodorant","steam_id":76561199225832228,"connected_time":173000000000,"state":"active","ping":99},{"user_id":25,"name":"Jake","steam_id":76561198018166984,"connected_time":108000000000,"state":"active","ping":57},{"user_id":26,"name":"HarryCock47","steam_id":76561199256436187,"connected_time":107000000000,"state":"active","ping":81},{"user_id":27,"name":"Butman902","steam_id":76561198190200054,"connected_time":93000000000,"state":"active","ping":77},{"user_id":28,"name":"Dr. Enforcicle (real)","steam_id":76561198964471859,"connected_time":51000000000,"state":"active","ping":84}]},{"server_id":38,"name":"Uncletopia | Chicago | 7 | Stopwatch Beta","name_short":"chi-7","host":"chi-2.us.uncletopia.com","port":27035,"enabled":true,"region":"us-central","cc":"us","latitude":41.881832,"longitude":-87.62318,"reserved":0,"last_update":"0001-01-01T00:00:00Z","name_a2s":"Uncletopia | Chicago | 7 | Stopwatch Beta","protocol":17,"map":"koth_viaduct","folder":"tf","game":"Team Fortress","app_id":440,"player_count":0,"max_players":24,"Bots":0,"server_type":"Dedicated","server_os":"Linux","password":true,"vac":true,"version":"7757534","steam_id":85568392924866364,"keywords":["cp","nocrits","nodmgspread","uncletopia"],"game_id":440,"stv_port":27036,"stv_name":"Uncletopia | Chicago | 7 | Stopwatch Beta | STV","players":null},{"server_id":39,"name":"Uncletopia | Chicago | 8 | Community","name_short":"chi-8","host":"chi-2.us.uncletopia.com","port":27045,"enabled":true,"region":"us-central","cc":"us","latitude":41.881832,"longitude":-87.62318,"reserved":0,"last_update":"0001-01-01T00:00:00Z","name_a2s":"Uncletopia | Chicago | 8 | Community","protocol":17,"map":"koth_lakeside_final","folder":"tf","game":"Team Fortress","app_id":440,"player_count":0,"max_players":24,"Bots":0,"server_type":"Dedicated","server_os":"Linux","password":true,"vac":true,"version":"7757534","steam_id":85568392924866365,"keywords":["cp","nocrits","nodmgspread","uncletopia"],"game_id":440,"stv_port":27046,"stv_name":"Uncletopia | Chicago | 8 | Community | STV","players":null},{"server_id":8,"name":"Uncletopia | Dallas | 1 | All Maps","name_short":"dal-1","host":"dal-1.us.uncletopia.com","port":27015,"enabled":true,"region":"us-central","cc":"us","latitude":32.779167,"longitude":-96.80889,"reserved":0,"last_update":"0001-01-01T00:00:00Z","name_a2s":"Uncletopia | Dallas | 1 | All Maps","protocol":17,"map":"cp_process_final","folder":"tf","game":"Team Fortress","app_id":440,"player_count":0,"max_players":24,"Bots":0,"server_type":"Dedicated","server_os":"Linux","password":true,"vac":true,"version":"7757534","steam_id":85568392924469986,"keywords":["cp","nocrits","nodmgspread","uncletopia"],"game_id":440,"stv_port":27016,"stv_name":"Uncletopia | Dallas | 1 | All Maps | STV","players":null},{"server_id":108,"name":"Uncletopia | Dallas | 2 | All Maps","name_short":"dal-2","host":"dal-1.us.uncletopia.com","port":27025,"enabled":true,"region":"us-central","cc":"us","latitude":32.779167,"longitude":-96.80889,"reserved":0,"last_update":"0001-01-01T00:00:00Z","name_a2s":"Uncletopia | Dallas | 2 | All Maps","protocol":17,"map":"cp_altitude","folder":"tf","game":"Team Fortress","app_id":440,"player_count":0,"max_players":24,"Bots":0,"server_type":"Dedicated","server_os":"Linux","password":true,"vac":true,"version":"7757534","steam_id":85568392924469988,"keywords":["cp","nocrits","nodmgspread","uncletopia"],"game_id":440,"stv_port":27026,"stv_name":"Uncletopia | Dallas | 2 | All Maps | STV","players":null},{"server_id":5,"name":"Uncletopia | Frankfurt | 1 | All Maps","name_short":"frk-1","host":"frk-1.de.uncletopia.com","port":27015,"enabled":true,"region":"eu","cc":"de","latitude":50.110924,"longitude":8.682127,"reserved":0,"last_update":"0001-01-01T00:00:00Z","name_a2s":"Uncletopia | Frankfurt | 1 | All Maps","protocol":17,"map":"pl_borneo","folder":"tf","game":"Team Fortress","app_id":440,"player_count":14,"max_players":24,"Bots":0,"server_type":"Dedicated","server_os":"Linux","password":true,"vac":true,"version":"7757534","steam_id":85568392924469989,"keywords":["nocrits","nodmgspread","payload","uncletopia"],"game_id":440,"stv_port":27016,"stv_name":"Uncletopia | Frankfurt | 1 | All Maps | STV","players":[{"user_id":370,"name":"gneeda","steam_id":76561198147249160,"connected_time":86000000000,"state":"active","ping":102},{"user_id":369,"name":"robbie","steam_id":76561198798195287,"connected_time":221000000000,"state":"connecting","ping":0},{"user_id":349,"name":"Francis Crabb","steam_id":76561198259082154,"connected_time":2369000000000,"state":"active","ping":93},{"user_id":363,"name":"Ged","steam_id":76561198079288943,"connected_time":951000000000,"state":"active","ping":99},{"user_id":362,"name":"Yelowchy","steam_id":76561198199416121,"connected_time":1045000000000,"state":"active","ping":61},{"user_id":371,"name":"El Presidente #savetf2","steam_id":76561198302711029,"connected_time":77000000000,"state":"active","ping":78},{"user_id":372,"name":"shawty","steam_id":76561198196805409,"connected_time":16000000000,"state":"active","ping":125},{"user_id":359,"name":"Dr.Vladibummbias Ali","steam_id":76561198311299320,"connected_time":1455000000000,"state":"active","ping":57},{"user_id":345,"name":"Ruth(-less bitch)","steam_id":76561198150006573,"connected_time":2459000000000,"state":"active","ping":70},{"user_id":203,"name":"Kyon","steam_id":76561198024098353,"connected_time":14247000000000,"state":"active","ping":147},{"user_id":353,"name":"Kolanciasty ‚ô•","steam_id":76561198020042179,"connected_time":2164000000000,"state":"active","ping":83},{"user_id":366,"name":"hora","steam_id":76561198404470526,"connected_time":785000000000,"state":"active","ping":81},{"user_id":299,"name":"After8","steam_id":76561198090750865,"connected_time":8040000000000,"state":"active","ping":67},{"user_id":333,"name":"hourglass","steam_id":76561198166613799,"connected_time":3912000000000,"state":"active","ping":86}]},{"server_id":110,"name":"Uncletopia | Frankfurt | 2 | All Maps","name_short":"frk-2","host":"frk-1.de.uncletopia.com","port":27025,"enabled":true,"region":"eu","cc":"de","latitude":50.110924,"longitude":8.682127,"reserved":0,"last_update":"0001-01-01T00:00:00Z","name_a2s":"Uncletopia | Frankfurt | 2 | All Maps","protocol":17,"map":"pl_badwater","folder":"tf","game":"Team Fortress","app_id":440,"player_count":23,"max_players":24,"Bots":0,"server_type":"Dedicated","server_os":"Linux","password":true,"vac":true,"version":"7757534","steam_id":85568392924469990,"keywords":["nocrits","nodmgspread","payload","uncletopia"],"game_id":440,"stv_port":27026,"stv_name":"Uncletopia | Frankfurt | 2 | All Maps | STV","players":[{"user_id":767,"name":"overpriced pitogyro","steam_id":76561199103991437,"connected_time":7571000000000,"state":"active","ping":90},{"user_id":854,"name":"Snortman","steam_id":76561199012566222,"connected_time":388000000000,"state":"active","ping":51},{"user_id":858,"name":"two z b","steam_id":76561199149307190,"connected_time":323000000000,"state":"active","ping":86},{"user_id":824,"name":"lezginka dubstep rmx","steam_id":76561198320336543,"connected_time":3357000000000,"state":"active","ping":93},{"user_id":855,"name":"AwZooom","steam_id":76561198154061149,"connected_time":379000000000,"state":"active","ping":45},{"user_id":830,"name":"mt","steam_id":76561197961319303,"connected_time":3038000000000,"state":"active","ping":45},{"user_id":842,"name":":)","steam_id":76561198039964082,"connected_time":2142000000000,"state":"active","ping":60},{"user_id":846,"name":"happy","steam_id":76561198053141766,"connected_time":1696000000000,"state":"active","ping":96},{"user_id":807,"name":"Flostro","steam_id":76561198259793697,"connected_time":4990000000000,"state":"active","ping":56},{"user_id":864,"name":"Nice!","steam_id":76561199230709660,"connected_time":126000000000,"state":"active","ping":60},{"user_id":856,"name":"Kaujuc‚Ñ¢","steam_id":76561198059702273,"connected_time":358000000000,"state":"active","ping":58},{"user_id":836,"name":"Old Beavis","steam_id":76561198065951617,"connected_time":2336000000000,"state":"active","ping":69},{"user_id":843,"name":"0xDEADBEEF","steam_id":76561199075416111,"connected_time":2050000000000,"state":"active","ping":87},{"user_id":845,"name":"Farmer","steam_id":76561199247450043,"connected_time":1819000000000,"state":"active","ping":61},{"user_id":857,"name":"Opti'","steam_id":76561197992158662,"connected_time":351000000000,"state":"active","ping":49},{"user_id":850,"name":"Kan0_","steam_id":76561198129596771,"connected_time":1138000000000,"state":"active","ping":46},{"user_id":839,"name":"skibidi bop yes yes yes","steam_id":76561198306177608,"connected_time":2296000000000,"state":"active","ping":78},{"user_id":859,"name":"Bgm_","steam_id":76561198056452044,"connected_time":309000000000,"state":"active","ping":61},{"user_id":862,"name":"Rashid Besythe","steam_id":76561198081477129,"connected_time":236000000000,"state":"active","ping":73},{"user_id":813,"name":"yeh","steam_id":76561198061197114,"connected_time":4229000000000,"state":"active","ping":64},{"user_id":861,"name":"Pats","steam_id":76561198418538887,"connected_time":261000000000,"state":"active","ping":97},{"user_id":863,"name":"Tywhip","steam_id":76561199207545191,"connected_time":230000000000,"state":"active","ping":62},{"user_id":828,"name":"Ryfili","steam_id":76561198167001433,"connected_time":3211000000000,"state":"active","ping":98}]},{"server_id":308,"name":"Uncletopia | Frankfurt | 3 | All Maps","name_short":"frk-3","host":"frk-1.de.uncletopia.com","port":27035,"enabled":true,"region":"eu","cc":"de","latitude":50.110924,"longitude":8.682127,"reserved":0,"last_update":"0001-01-01T00:00:00Z","name_a2s":"Uncletopia | Frankfurt | 3 | All Maps","protocol":17,"map":"koth_viaduct","folder":"tf","game":"Team Fortress","app_id":440,"player_count":24,"max_players":24,"Bots":0,"server_type":"Dedicated","server_os":"Linux","password":true,"vac":true,"version":"7757534","steam_id":85568392924504274,"keywords":["cp","nocrits","nodmgspread","uncletopia"],"game_id":440,"stv_port":27036,"stv_name":"Uncletopia | Frankfurt | 3 | All Maps | STV","players":[{"user_id":210,"name":"Murpheey","steam_id":76561198044996849,"connected_time":530000000000,"state":"active","ping":56},{"user_id":203,"name":"PilloF","steam_id":76561198088635943,"connected_time":781000000000,"state":"active","ping":63},{"user_id":110,"name":"night.s","steam_id":76561198326287823,"connected_time":7477000000000,"state":"active","ping":73},{"user_id":186,"name":"Mr.Payne","steam_id":76561198262136903,"connected_time":1598000000000,"state":"active","ping":62},{"user_id":212,"name":"Darkmatter_magic","steam_id":76561199213537315,"connected_time":302000000000,"state":"active","ping":88},{"user_id":201,"name":"Milosz52","steam_id":76561199060940204,"connected_time":923000000000,"state":"active","ping":77},{"user_id":175,"name":"sPork","steam_id":76561198056880331,"connected_time":2205000000000,"state":"active","ping":75},{"user_id":199,"name":".bRdyyy","steam_id":76561198057256978,"connected_time":1051000000000,"state":"active","ping":46},{"user_id":211,"name":"friedrich von iq bety√°r","steam_id":76561199473896448,"connected_time":398000000000,"state":"active","ping":555},{"user_id":187,"name":"zya","steam_id":76561198043935491,"connected_time":1584000000000,"state":"active","ping":106},{"user_id":193,"name":"ChickyCoop","steam_id":76561199072983488,"connected_time":1230000000000,"state":"active","ping":84},{"user_id":204,"name":"zazuza","steam_id":76561198049820905,"connected_time":773000000000,"state":"active","ping":62},{"user_id":158,"name":"guys? guys?","steam_id":76561198157749464,"connected_time":3848000000000,"state":"active","ping":78},{"user_id":198,"name":"Markus R√ºhl","steam_id":76561198074899144,"connected_time":1146000000000,"state":"active","ping":53},{"user_id":179,"name":"‚ô´‚òÖXriasp‚òÖ‚ô´","steam_id":76561198104721321,"connected_time":2074000000000,"state":"active","ping":74},{"user_id":181,"name":"Risemonger","steam_id":76561198326896596,"connected_time":2064000000000,"state":"active","ping":52},{"user_id":85,"name":"Trash Cortex","steam_id":76561198991110334,"connected_time":9790000000000,"state":"active","ping":70},{"user_id":208,"name":"Digio","steam_id":76561199065101964,"connected_time":636000000000,"state":"active","ping":81},{"user_id":202,"name":"Topme","steam_id":76561198091734693,"connected_time":855000000000,"state":"active","ping":89},{"user_id":170,"name":"Jughead","steam_id":76561198000355410,"connected_time":2845000000000,"state":"active","ping":69},{"user_id":206,"name":"CrabboStabbo","steam_id":76561198105660937,"connected_time":702000000000,"state":"active","ping":71},{"user_id":196,"name":"Louki","steam_id":76561198150080041,"connected_time":1207000000000,"state":"active","ping":60},{"user_id":207,"name":"alyonamdst","steam_id":76561199060538617,"connected_time":658000000000,"state":"active","ping":142},{"user_id":209,"name":"–î–µ–Ω–∏—Å –ë–∞–∑—É–∫–∞","steam_id":76561198835849082,"connected_time":620000000000,"state":"active","ping":102}]},{"server_id":309,"name":"Uncletopia | Frankfurt | 4 | All Maps","name_short":"frk-4","host":"frk-1.de.uncletopia.com","port":27045,"enabled":true,"region":"eu","cc":"de","latitude":50.110924,"longitude":8.682127,"reserved":0,"last_update":"0001-01-01T00:00:00Z","name_a2s":"Uncletopia | Frankfurt | 4 | All Maps","protocol":17,"map":"cp_process_final","folder":"tf","game":"Team Fortress","app_id":440,"player_count":23,"max_players":24,"Bots":0,"server_type":"Dedicated","server_os":"Linux","password":true,"vac":true,"version":"7757534","steam_id":85568392924504275,"keywords":["cp","nocrits","nodmgspread","uncletopia"],"game_id":440,"stv_port":27046,"stv_name":"Uncletopia | Frankfurt | 4 | All Maps | STV","players":[{"user_id":18,"name":"sputnik-666","steam_id":76561199125992135,"connected_time":3218000000000,"state":"active","ping":110},{"user_id":49,"name":"Qosmo","steam_id":76561197980806182,"connected_time":1562000000000,"state":"active","ping":80},{"user_id":35,"name":"Dicartal","steam_id":76561198295793592,"connected_time":1897000000000,"state":"active","ping":127},{"user_id":73,"name":"TJ1212","steam_id":76561199013575313,"connected_time":83000000000,"state":"active","ping":74},{"user_id":69,"name":"jawA","steam_id":76561198070341774,"connected_time":456000000000,"state":"active","ping":76},{"user_id":27,"name":"jery","steam_id":76561199246023003,"connected_time":2426000000000,"state":"active","ping":79},{"user_id":28,"name":"Mozzaza","steam_id":76561198156316111,"connected_time":2193000000000,"state":"active","ping":135},{"user_id":70,"name":"fried","steam_id":76561198307522022,"connected_time":261000000000,"state":"active","ping":55},{"user_id":71,"name":"Pygarque00fr","steam_id":76561198048432227,"connected_time":235000000000,"state":"active","ping":55},{"user_id":39,"name":"kbbq","steam_id":76561198346638308,"connected_time":1750000000000,"state":"active","ping":59},{"user_id":58,"name":"akakez","steam_id":76561198095432821,"connected_time":1188000000000,"state":"active","ping":116},{"user_id":40,"name":"Fat Pigeon","steam_id":76561198817940142,"connected_time":1719000000000,"state":"active","ping":45},{"user_id":34,"name":"Cosmetic brain","steam_id":76561198055936410,"connected_time":1950000000000,"state":"active","ping":82},{"user_id":74,"name":"KingOfGirth","steam_id":76561198089438260,"connected_time":26000000000,"state":"active","ping":61},{"user_id":65,"name":"wouris","steam_id":76561198876188003,"connected_time":944000000000,"state":"active","ping":50},{"user_id":75,"name":"Ovca_Gregor","steam_id":76561198367225199,"connected_time":25000000000,"state":"spawning","ping":161},{"user_id":43,"name":"EEEEEH","steam_id":76561198126717413,"connected_time":1703000000000,"state":"active","ping":80},{"user_id":62,"name":"pablo","steam_id":76561198002913482,"connected_time":1053000000000,"state":"active","ping":109},{"user_id":68,"name":"Yakko","steam_id":76561198044170177,"connected_time":718000000000,"state":"active","ping":52},{"user_id":66,"name":"dogburg","steam_id":76561199248912868,"connected_time":845000000000,"state":"active","ping":70},{"user_id":48,"name":"stemquad ‚ô•","steam_id":76561198805387672,"connected_time":1599000000000,"state":"active","ping":81},{"user_id":51,"name":"Greenmaker","steam_id":76561198060466591,"connected_time":1474000000000,"state":"active","ping":82},{"user_id":57,"name":"mark the shot misser","steam_id":76561198309246388,"connected_time":1380000000000,"state":"active","ping":45}]},{"server_id":310,"name":"Uncletopia | Frankfurt | 5 | All Maps","name_short":"frk-5","host":"frk-1.de.uncletopia.com","port":27055,"enabled":true,"region":"eu","cc":"de","latitude":50.110924,"longitude":8.682127,"reserved":0,"last_update":"0001-01-01T00:00:00Z","name_a2s":"Uncletopia | Frankfurt | 5 | All Maps","protocol":17,"map":"koth_lakeside_final","folder":"tf","game":"Team Fortress","app_id":440,"player_count":2,"max_players":24,"Bots":0,"server_type":"Dedicated","server_os":"Linux","password":true,"vac":true,"version":"7757534","steam_id":85568392924504277,"keywords":["cp","nocrits","nodmgspread","uncletopia"],"game_id":440,"stv_port":27056,"stv_name":"Uncletopia | Frankfurt | 5 | All Maps | STV","players":[{"user_id":20,"name":"sunshine","steam_id":76561198084597975,"connected_time":1204000000000,"state":"active","ping":59},{"user_id":22,"name":"Truegr","steam_id":76561198811912339,"connected_time":704000000000,"state":"active","ping":69}]},{"server_id":311,"name":"Uncletopia | Frankfurt | 6 | All Maps","name_short":"frk-6","host":"frk-1.de.uncletopia.com","port":27065,"enabled":true,"region":"eu","cc":"de","latitude":50.110924,"longitude":8.682127,"reserved":0,"last_update":"0001-01-01T00:00:00Z","name_a2s":"Uncletopia | Frankfurt | 6 | All Maps","protocol":17,"map":"pl_pier","folder":"tf","game":"Team Fortress","app_id":440,"player_count":24,"max_players":24,"Bots":0,"server_type":"Dedicated","server_os":"Linux","password":true,"vac":true,"version":"7757534","steam_id":85568392924504278,"keywords":["nocrits","nodmgspread","payload","uncletopia"],"game_id":440,"stv_port":27066,"stv_name":"Uncletopia | Frankfurt | 6 | All Maps | STV","players":[{"user_id":278,"name":"Dark Mimo","steam_id":76561198349648942,"connected_time":3671000000000,"state":"active","ping":91},{"user_id":338,"name":"Frigo [1g‚Ñ¢]","steam_id":76561197980853294,"connected_time":166000000000,"state":"active","ping":45},{"user_id":343,"name":"relic_","steam_id":76561199053114167,"connected_time":119000000000,"state":"active","ping":90},{"user_id":344,"name":"Samplee","steam_id":76561198063406140,"connected_time":101000000000,"state":"active","ping":75},{"user_id":214,"name":"Ablativus","steam_id":76561198025698470,"connected_time":8289000000000,"state":"active","ping":63},{"user_id":341,"name":"nyanezt","steam_id":76561198253734265,"connected_time":134000000000,"state":"active","ping":119},{"user_id":335,"name":"sej0986","steam_id":76561199146998433,"connected_time":273000000000,"state":"active","ping":81},{"user_id":307,"name":"house","steam_id":76561198055283295,"connected_time":2468000000000,"state":"active","ping":45},{"user_id":331,"name":"Whom","steam_id":76561199086122536,"connected_time":702000000000,"state":"active","ping":57},{"user_id":290,"name":"galaxy","steam_id":76561198164819022,"connected_time":2938000000000,"state":"active","ping":69},{"user_id":339,"name":"Optimist 50","steam_id":76561198039631442,"connected_time":166000000000,"state":"active","ping":89},{"user_id":347,"name":"Spieller","steam_id":76561198057197847,"connected_time":72000000000,"state":"active","ping":100},{"user_id":342,"name":"Hyperek","steam_id":76561198130797464,"connected_time":130000000000,"state":"active","ping":63},{"user_id":244,"name":"Rezkey","steam_id":76561198206079048,"connected_time":6063000000000,"state":"active","ping":60},{"user_id":312,"name":"Kati","steam_id":76561198007231088,"connected_time":1987000000000,"state":"active","ping":64},{"user_id":345,"name":"gGABEsz","steam_id":76561198117199068,"connected_time":89000000000,"state":"active","ping":64},{"user_id":299,"name":"Xx_„Åà„Å™„Å™„ÇìxX69","steam_id":76561199427679148,"connected_time":2762000000000,"state":"active","ping":151},{"user_id":333,"name":"moser23","steam_id":76561197960543171,"connected_time":635000000000,"state":"active","ping":51},{"user_id":317,"name":"Barbiehunter #SaveTF2","steam_id":76561198071630928,"connected_time":1716000000000,"state":"active","ping":58},{"user_id":206,"name":"flora","steam_id":76561197994492154,"connected_time":8733000000000,"state":"active","ping":68},{"user_id":346,"name":"A TOXIC PIECE OF SHIT","steam_id":76561198094993151,"connected_time":84000000000,"state":"active","ping":56},{"user_id":326,"name":"PetRUShka","steam_id":76561198168657748,"connected_time":1587000000000,"state":"active","ping":99},{"user_id":337,"name":"robbie","steam_id":76561198798195287,"connected_time":187000000000,"state":"active","ping":119},{"user_id":348,"name":"Morbidly A Beast","steam_id":76561198251578274,"connected_time":3000000000,"state":"spawning","ping":125}]},{"server_id":23,"name":"Uncletopia | Frankfurt | 7 | Stopwatch Beta","name_short":"frk-7","host":"frk-1.de.uncletopia.com","port":27075,"enabled":true,"region":"eu","cc":"de","latitude":50.110924,"longitude":8.682127,"reserved":0,"last_update":"0001-01-01T00:00:00Z","name_a2s":"Uncletopia | Frankfurt | 7 | Stopwatch Beta","protocol":17,"map":"pl_borneo","folder":"tf","game":"Team Fortress","app_id":440,"player_count":0,"max_players":24,"Bots":0,"server_type":"Dedicated","server_os":"Linux","password":true,"vac":true,"version":"7757534","steam_id":85568392924742827,"keywords":["nocrits","nodmgspread","payload","uncletopia"],"game_id":440,"stv_port":27076,"stv_name":"Uncletopia | Frankfurt | 7 | Stopwatch Beta | STV","players":null},{"server_id":24,"name":"Uncletopia | Frankfurt | 8 | Community","name_short":"frk-8","host":"frk-1.de.uncletopia.com","port":27085,"enabled":true,"region":"eu","cc":"de","latitude":50.110924,"longitude":8.682127,"reserved":0,"last_update":"0001-01-01T00:00:00Z","name_a2s":"Uncletopia | Frankfurt | 8 | Community","protocol":17,"map":"workshop/cp_sulfur_rc2.ugc619869471","folder":"tf","game":"Team Fortress","app_id":440,"player_count":0,"max_players":24,"Bots":0,"server_type":"Dedicated","server_os":"Linux","password":true,"vac":true,"version":"7757534","steam_id":85568392924742828,"keywords":["cp","nocrits","nodmgspread","uncletopia"],"game_id":440,"stv_port":27086,"stv_name":"Uncletopia | Frankfurt | 8 | Community | STV","players":null},{"server_id":202,"name":"Uncletopia | Hong Kong | 1 | All Maps","name_short":"hgk-1","host":"hgk-1.hk.uncletopia.com","port":27015,"enabled":true,"region":"asia","cc":"hk","latitude":22.302711,"longitude":114.177216,"reserved":0,"last_update":"0001-01-01T00:00:00Z","name_a2s":"Uncletopia | Hong Kong | 1 | All Maps","protocol":17,"map":"koth_viaduct","folder":"tf","game":"Team Fortress","app_id":440,"player_count":0,"max_players":24,"Bots":0,"server_type":"Dedicated","server_os":"Linux","password":true,"vac":true,"version":"7757534","steam_id":85568392924494504,"keywords":["cp","nocrits","nodmgspread","uncletopia"],"game_id":440,"stv_port":27016,"stv_name":"Uncletopia | Hong Kong | 1 | All Maps | STV","players":null},{"server_id":1,"name":"Uncletopia | Los Angeles | 1 | All Maps","name_short":"lax-1","host":"lax-1.us.uncletopia.com","port":27015,"enabled":true,"region":"us-west","cc":"us","latitude":33.94279,"longitude":-118.41004,"reserved":0,"last_update":"0001-01-01T00:00:00Z","name_a2s":"Uncletopia | Los Angeles | 1 | All Maps","protocol":17,"map":"cp_process_final","folder":"tf","game":"Team Fortress","app_id":440,"player_count":0,"max_players":24,"Bots":0,"server_type":"Dedicated","server_os":"Linux","password":true,"vac":true,"version":"7757534","steam_id":85568392924469991,"keywords":["cp","nocrits","nodmgspread","uncletopia"],"game_id":440,"stv_port":27016,"stv_name":"Uncletopia | Los Angeles | 1 | All Maps | STV","players":null},{"server_id":112,"name":"Uncletopia | Los Angeles | 2 | All Maps","name_short":"lax-2","host":"lax-1.us.uncletopia.com","port":27025,"enabled":true,"region":"us-west","cc":"us","latitude":33.94279,"longitude":-118.41004,"reserved":0,"last_update":"0001-01-01T00:00:00Z","name_a2s":"Uncletopia | Los Angeles | 2 | All Maps","protocol":17,"map":"koth_viaduct","folder":"tf","game":"Team Fortress","app_id":440,"player_count":0,"max_players":24,"Bots":0,"server_type":"Dedicated","server_os":"Linux","password":true,"vac":true,"version":"7757534","steam_id":85568392924469992,"keywords":["cp","nocrits","nodmgspread","uncletopia"],"game_id":440,"stv_port":27026,"stv_name":"Uncletopia | Los Angeles | 2 | All Maps | STV","players":null},{"server_id":324,"name":"Uncletopia | Los Angeles | 3 | All Maps","name_short":"lax-3","host":"lax-1.us.uncletopia.com","port":27035,"enabled":true,"region":"us-west","cc":"us","latitude":33.94279,"longitude":-118.41004,"reserved":0,"last_update":"0001-01-01T00:00:00Z","name_a2s":"Uncletopia | Los Angeles | 3 | All Maps","protocol":17,"map":"cp_altitude","folder":"tf","game":"Team Fortress","app_id":440,"player_count":0,"max_players":24,"Bots":0,"server_type":"Dedicated","server_os":"Linux","password":true,"vac":true,"version":"7757534","steam_id":85568392924510198,"keywords":["cp","nocrits","nodmgspread","uncletopia"],"game_id":440,"stv_port":27036,"stv_name":"Uncletopia | Los Angeles | 3 | All Maps | STV","players":null},{"server_id":25,"name":"Uncletopia | Los Angeles | 4 | Stopwatch Beta","name_short":"lax-4","host":"lax-1.us.uncletopia.com","port":27045,"enabled":true,"region":"us-west","cc":"us","latitude":33.94279,"longitude":-118.41004,"reserved":0,"last_update":"0001-01-01T00:00:00Z","name_a2s":"Uncletopia | Los Angeles | 4 | Stopwatch Beta","protocol":17,"map":"cp_dustbowl","folder":"tf","game":"Team Fortress","app_id":440,"player_count":0,"max_players":24,"Bots":0,"server_type":"Dedicated","server_os":"Linux","password":true,"vac":true,"version":"7757534","steam_id":85568392924510199,"keywords":["cp","nocrits","nodmgspread","uncletopia"],"game_id":440,"stv_port":27046,"stv_name":"Uncletopia | Los Angeles | 4 | Stopwatch Beta | STV","players":null},{"server_id":11,"name":"Uncletopia | London | 1 | All Maps","name_short":"lon-1","host":"lon-1.uk.uncletopia.com","port":27015,"enabled":true,"region":"eu","cc":"gb","latitude":51.509865,"longitude":-0.118092,"reserved":0,"last_update":"0001-01-01T00:00:00Z","name_a2s":"Uncletopia | London | 1 | All Maps","protocol":17,"map":"cp_snakewater_final1","folder":"tf","game":"Team Fortress","app_id":440,"player_count":24,"max_players":24,"Bots":0,"server_type":"Dedicated","server_os":"Linux","password":true,"vac":true,"version":"7757534","steam_id":85568392924367362,"keywords":["cp","nocrits","nodmgspread","uncletopia"],"game_id":440,"stv_port":27016,"stv_name":"Uncletopia | London | 1 | All Maps | STV","players":[{"user_id":157,"name":"Ledze Shuns Dope","steam_id":76561198049945010,"connected_time":249000000000,"state":"active","ping":51},{"user_id":156,"name":"reipatti","steam_id":76561198084705148,"connected_time":318000000000,"state":"active","ping":80},{"user_id":96,"name":"Mancubruh BRUB 046","steam_id":76561199158803718,"connected_time":5445000000000,"state":"active","ping":55},{"user_id":146,"name":"WHUSSKEY","steam_id":76561198137827441,"connected_time":1447000000000,"state":"active","ping":73},{"user_id":158,"name":"Spajro","steam_id":76561198257383813,"connected_time":232000000000,"state":"active","ping":54},{"user_id":145,"name":"static","steam_id":76561198836825741,"connected_time":1461000000000,"state":"active","ping":43},{"user_id":147,"name":"merge without looking","steam_id":76561198056702628,"connected_time":1443000000000,"state":"active","ping":138},{"user_id":148,"name":"DELTA","steam_id":76561198208237017,"connected_time":1441000000000,"state":"active","ping":69},{"user_id":149,"name":"big hoops","steam_id":76561198004703799,"connected_time":1438000000000,"state":"active","ping":46},{"user_id":84,"name":"JOHN GAMING (based)","steam_id":76561199085822219,"connected_time":6360000000000,"state":"active","ping":82},{"user_id":110,"name":"CiVillain","steam_id":76561198059617732,"connected_time":4144000000000,"state":"active","ping":71},{"user_id":134,"name":"Tryrn","steam_id":76561198075487436,"connected_time":2546000000000,"state":"active","ping":91},{"user_id":159,"name":"Fran","steam_id":76561199070516960,"connected_time":171000000000,"state":"active","ping":73},{"user_id":139,"name":"Pyro TF2 (real)","steam_id":76561199017872113,"connected_time":2252000000000,"state":"active","ping":61},{"user_id":144,"name":"tapeworms!","steam_id":76561198069649097,"connected_time":1636000000000,"state":"active","ping":49},{"user_id":141,"name":"leminsc8","steam_id":76561198825084995,"connected_time":2063000000000,"state":"active","ping":52},{"user_id":153,"name":"SUIDosa","steam_id":76561198071668962,"connected_time":750000000000,"state":"active","ping":84},{"user_id":137,"name":"gamer of all","steam_id":76561198366374718,"connected_time":2371000000000,"state":"active","ping":58},{"user_id":155,"name":"Mophead","steam_id":76561198161328553,"connected_time":650000000000,"state":"active","ping":51},{"user_id":160,"name":"Swift","steam_id":76561197998799889,"connected_time":164000000000,"state":"active","ping":45},{"user_id":161,"name":"fl1p","steam_id":76561198148565659,"connected_time":154000000000,"state":"active","ping":70},{"user_id":162,"name":"Axord","steam_id":76561199289652176,"connected_time":139000000000,"state":"active","ping":60},{"user_id":154,"name":"Hevens","steam_id":76561199191309106,"connected_time":693000000000,"state":"active","ping":160},{"user_id":94,"name":"shr1mple","steam_id":76561198173537027,"connected_time":5586000000000,"state":"active","ping":55}]},{"server_id":114,"name":"Uncletopia | London | 2 | All Maps","name_short":"lon-2","host":"lon-1.uk.uncletopia.com","port":27025,"enabled":true,"region":"eu","cc":"gb","latitude":51.509865,"longitude":-0.118092,"reserved":0,"last_update":"0001-01-01T00:00:00Z","name_a2s":"Uncletopia | London | 2 | All Maps","protocol":17,"map":"pl_badwater","folder":"tf","game":"Team Fortress","app_id":440,"player_count":24,"max_players":24,"Bots":0,"server_type":"Dedicated","server_os":"Linux","password":true,"vac":true,"version":"7757534","steam_id":85568392924470941,"keywords":["nocrits","nodmgspread","payload","uncletopia"],"game_id":440,"stv_port":27026,"stv_name":"Uncletopia | London | 2 | All Maps | STV","players":[{"user_id":103,"name":"DrExplosive","steam_id":76561198063678579,"connected_time":11742000000000,"state":"active","ping":46},{"user_id":212,"name":"Tomau5","steam_id":76561198027409468,"connected_time":3603000000000,"state":"active","ping":59},{"user_id":262,"name":"help","steam_id":76561199056338917,"connected_time":204000000000,"state":"active","ping":160},{"user_id":248,"name":"pond","steam_id":76561198214849363,"connected_time":951000000000,"state":"active","ping":86},{"user_id":258,"name":"AWP Bodyshot :) ‚ù§","steam_id":76561198029928533,"connected_time":471000000000,"state":"active","ping":53},{"user_id":259,"name":"holykyckling","steam_id":76561198040661615,"connected_time":451000000000,"state":"active","ping":78},{"user_id":253,"name":"Dolcelatte","steam_id":76561198038501770,"connected_time":674000000000,"state":"active","ping":60},{"user_id":260,"name":"December 2034","steam_id":76561198011749653,"connected_time":425000000000,"state":"active","ping":45},{"user_id":255,"name":"silicon based life form","steam_id":76561199127121346,"connected_time":530000000000,"state":"active","ping":54},{"user_id":244,"name":"Mr. Mundy","steam_id":76561198132008918,"connected_time":1385000000000,"state":"active","ping":87},{"user_id":141,"name":"Breizbuc","steam_id":76561198118220633,"connected_time":8981000000000,"state":"active","ping":55},{"user_id":261,"name":"Cane","steam_id":76561197976831215,"connected_time":397000000000,"state":"active","ping":87},{"user_id":199,"name":"CODSWOLOP","steam_id":76561199114598660,"connected_time":4769000000000,"state":"active","ping":147},{"user_id":252,"name":"You slumber","steam_id":76561198344639692,"connected_time":774000000000,"state":"active","ping":85},{"user_id":235,"name":"lemao","steam_id":76561198058366676,"connected_time":2453000000000,"state":"active","ping":97},{"user_id":243,"name":"non_ai","steam_id":76561198270951938,"connected_time":1396000000000,"state":"active","ping":117},{"user_id":158,"name":"Lognes","steam_id":76561198076569769,"connected_time":7445000000000,"state":"active","ping":57},{"user_id":246,"name":"Mad Cat Kivima","steam_id":76561198028959678,"connected_time":1336000000000,"state":"active","ping":107},{"user_id":186,"name":"Wardruna96","steam_id":76561199057083828,"connected_time":5823000000000,"state":"active","ping":89},{"user_id":249,"name":"Raulca25","steam_id":76561199068256964,"connected_time":929000000000,"state":"active","ping":83},{"user_id":173,"name":"LemonLeCitron","steam_id":76561198215545267,"connected_time":6347000000000,"state":"active","ping":67},{"user_id":200,"name":"Hexagon","steam_id":76561198151205758,"connected_time":4704000000000,"state":"active","ping":60},{"user_id":240,"name":"xd","steam_id":76561198066523881,"connected_time":2021000000000,"state":"active","ping":66},{"user_id":241,"name":"Neoplix","steam_id":76561199012756422,"connected_time":2012000000000,"state":"active","ping":132}]},{"server_id":320,"name":"Uncletopia | London | 3 | All Maps","name_short":"lon-3","host":"lon-1.uk.uncletopia.com","port":27035,"enabled":true,"region":"eu","cc":"gb","latitude":51.509865,"longitude":-0.118092,"reserved":0,"last_update":"0001-01-01T00:00:00Z","name_a2s":"Uncletopia | London | 3 | All Maps","protocol":17,"map":"pl_badwater","folder":"tf","game":"Team Fortress","app_id":440,"player_count":16,"max_players":24,"Bots":0,"server_type":"Dedicated","server_os":"Linux","password":true,"vac":true,"version":"7757534","steam_id":85568392924510192,"keywords":["nocrits","nodmgspread","payload","uncletopia"],"game_id":440,"stv_port":27036,"stv_name":"Uncletopia | London | 3 | All Maps | STV","players":[{"user_id":478,"name":"medium rare chicken enjoyer","steam_id":76561198050214002,"connected_time":179000000000,"state":"active","ping":65},{"user_id":481,"name":"Xoukz","steam_id":76561198356014540,"connected_time":86000000000,"state":"active","ping":95},{"user_id":473,"name":"nitroglycerin","steam_id":76561199158447878,"connected_time":443000000000,"state":"active","ping":62},{"user_id":463,"name":"luma","steam_id":76561198081649669,"connected_time":801000000000,"state":"active","ping":63},{"user_id":434,"name":"Clueless","steam_id":76561199212834268,"connected_time":3343000000000,"state":"active","ping":74},{"user_id":469,"name":"s a i","steam_id":76561197970379754,"connected_time":475000000000,"state":"active","ping":58},{"user_id":470,"name":"guyinatophat51","steam_id":76561198180230694,"connected_time":455000000000,"state":"active","ping":116},{"user_id":471,"name":"Kapitan Polska","steam_id":76561197968069413,"connected_time":454000000000,"state":"active","ping":82},{"user_id":479,"name":"Bat in a thousand","steam_id":76561198320506848,"connected_time":162000000000,"state":"active","ping":83},{"user_id":441,"name":"Crab","steam_id":76561198366797226,"connected_time":2490000000000,"state":"active","ping":102},{"user_id":475,"name":"Hetmanych","steam_id":76561198870926865,"connected_time":394000000000,"state":"active","ping":44},{"user_id":467,"name":"Pyrolander","steam_id":76561198050785450,"connected_time":510000000000,"state":"active","ping":45},{"user_id":476,"name":"Hedley Taggart","steam_id":76561198101605591,"connected_time":370000000000,"state":"active","ping":163},{"user_id":480,"name":"Koi-Koi","steam_id":76561198045527771,"connected_time":104000000000,"state":"active","ping":51},{"user_id":448,"name":"romaingallo","steam_id":76561198268112907,"connected_time":1852000000000,"state":"active","ping":64},{"user_id":439,"name":"Solarium","steam_id":76561198083941858,"connected_time":2538000000000,"state":"active","ping":44}]},{"server_id":321,"name":"Uncletopia | London | 4 | All Maps","name_short":"lon-4","host":"lon-1.uk.uncletopia.com","port":27045,"enabled":true,"region":"eu","cc":"gb","latitude":51.509865,"longitude":-0.118092,"reserved":0,"last_update":"0001-01-01T00:00:00Z","name_a2s":"Uncletopia | London | 4 | All Maps","protocol":17,"map":"pl_borneo","folder":"tf","game":"Team Fortress","app_id":440,"player_count":23,"max_players":24,"Bots":0,"server_type":"Dedicated","server_os":"Linux","password":true,"vac":true,"version":"7757534","steam_id":85568392924510193,"keywords":["nocrits","nodmgspread","payload","uncletopia"],"game_id":440,"stv_port":27046,"stv_name":"Uncletopia | London | 4 | All Maps | STV","players":[{"user_id":93,"name":"Hammy","steam_id":76561198004473120,"connected_time":1219000000000,"state":"active","ping":53},{"user_id":98,"name":"Vollys","steam_id":76561198018077773,"connected_time":543000000000,"state":"active","ping":67},{"user_id":106,"name":"3igen3ggy","steam_id":76561197989548015,"connected_time":495000000000,"state":"active","ping":72},{"user_id":113,"name":"kotamine","steam_id":76561198068907991,"connected_time":169000000000,"state":"active","ping":73},{"user_id":91,"name":"Stabbles","steam_id":76561198048395705,"connected_time":1301000000000,"state":"active","ping":52},{"user_id":99,"name":"cazador","steam_id":76561198123096922,"connected_time":543000000000,"state":"active","ping":103},{"user_id":102,"name":"Funky Kazoo","steam_id":76561198972379484,"connected_time":529000000000,"state":"active","ping":167},{"user_id":103,"name":"Jemes","steam_id":76561198055620906,"connected_time":514000000000,"state":"active","ping":75},{"user_id":94,"name":"Mayor Wank from Wanker Town","steam_id":76561197998253588,"connected_time":1181000000000,"state":"active","ping":59},{"user_id":101,"name":"I jazzed myself","steam_id":76561198203016603,"connected_time":538000000000,"state":"active","ping":57},{"user_id":100,"name":"MelvinIsANiceBoy","steam_id":76561198178415634,"connected_time":543000000000,"state":"active","ping":54},{"user_id":64,"name":"owlsie","steam_id":76561198094883280,"connected_time":4247000000000,"state":"active","ping":64},{"user_id":65,"name":"Boil em mash em","steam_id":76561198026508026,"connected_time":4241000000000,"state":"active","ping":74},{"user_id":96,"name":"Frog Idiot","steam_id":76561198010334094,"connected_time":1115000000000,"state":"active","ping":45},{"user_id":110,"name":"Jacek","steam_id":76561198060631385,"connected_time":442000000000,"state":"active","ping":80},{"user_id":90,"name":"Clark","steam_id":76561197998520785,"connected_time":1525000000000,"state":"active","ping":85},{"user_id":109,"name":"gosi","steam_id":76561198084111532,"connected_time":458000000000,"state":"active","ping":69},{"user_id":37,"name":"Senator Armstrong","steam_id":76561198984346408,"connected_time":5990000000000,"state":"active","ping":80},{"user_id":92,"name":"Blacksheep","steam_id":76561198019621063,"connected_time":1232000000000,"state":"active","ping":50},{"user_id":105,"name":"System","steam_id":76561199442503973,"connected_time":505000000000,"state":"active","ping":59},{"user_id":108,"name":"vili-vaa","steam_id":76561198119421519,"connected_time":472000000000,"state":"active","ping":101},{"user_id":58,"name":"Aspartus","steam_id":76561198101385763,"connected_time":4889000000000,"state":"active","ping":40},{"user_id":111,"name":"meatsoupcube","steam_id":76561198276802249,"connected_time":395000000000,"state":"active","ping":106}]},{"server_id":21,"name":"Uncletopia | London | 5 | All Maps","name_short":"lon-5","host":"lon-1.uk.uncletopia.com","port":27055,"enabled":true,"region":"eu","cc":"gb","latitude":51.509865,"longitude":-0.118092,"reserved":0,"last_update":"0001-01-01T00:00:00Z","name_a2s":"Uncletopia | London | 5 | All Maps","protocol":17,"map":"cp_process_final","folder":"tf","game":"Team Fortress","app_id":440,"player_count":0,"max_players":24,"Bots":0,"server_type":"Dedicated","server_os":"Linux","password":true,"vac":true,"version":"7757534","steam_id":85568392924742829,"keywords":["cp","nocrits","nodmgspread","uncletopia"],"game_id":440,"stv_port":27056,"stv_name":"Uncletopia | London | 5 | All Maps | STV","players":null},{"server_id":22,"name":"Uncletopia | London | 6 | All Maps","name_short":"lon-6","host":"lon-1.uk.uncletopia.com","port":27065,"enabled":true,"region":"eu","cc":"gb","latitude":51.509865,"longitude":-0.118092,"reserved":0,"last_update":"0001-01-01T00:00:00Z","name_a2s":"Uncletopia | London | 6 | All Maps","protocol":17,"map":"koth_highpass","folder":"tf","game":"Team Fortress","app_id":440,"player_count":0,"max_players":24,"Bots":0,"server_type":"Dedicated","server_os":"Linux","password":true,"vac":true,"version":"7757534","steam_id":85568392924742830,"keywords":["cp","nocrits","nodmgspread","uncletopia"],"game_id":440,"stv_port":27066,"stv_name":"Uncletopia | London | 6 | All Maps | STV","players":null},{"server_id":40,"name":"Uncletopia | London | 7 | No Payload","name_short":"lon-7","host":"lon-1.uk.uncletopia.com","port":27075,"enabled":true,"region":"eu","cc":"gb","latitude":51.509865,"longitude":-0.118092,"reserved":0,"last_update":"0001-01-01T00:00:00Z","name_a2s":"Uncletopia | London | 7 | No Payload","protocol":17,"map":"koth_highpass","folder":"tf","game":"Team Fortress","app_id":440,"player_count":0,"max_players":24,"Bots":0,"server_type":"Dedicated","server_os":"Linux","password":true,"vac":true,"version":"7757534","steam_id":85568392924964314,"keywords":["cp","nocrits","nodmgspread","uncletopia"],"game_id":440,"stv_port":27076,"stv_name":"Uncletopia | London | 7 | No Payload | STV","players":null},{"server_id":41,"name":"Uncletopia | London | 8 | Community","name_short":"lon-8","host":"lon-1.uk.uncletopia.com","port":27085,"enabled":true,"region":"eu","cc":"gb","latitude":51.509865,"longitude":-0.118092,"reserved":0,"last_update":"0001-01-01T00:00:00Z","name_a2s":"Uncletopia | London | 8 | Community","protocol":17,"map":"workshop/pl_fifthcurve_rc1.ugc648227046","folder":"tf","game":"Team Fortress","app_id":440,"player_count":22,"max_players":24,"Bots":0,"server_type":"Dedicated","server_os":"Linux","password":true,"vac":true,"version":"7757534","steam_id":85568392924964315,"keywords":["nocrits","nodmgspread","payload","uncletopia"],"game_id":440,"stv_port":27086,"stv_name":"Uncletopia | London | 8 | Community | STV","players":[{"user_id":251,"name":"Krabs","steam_id":76561198161679477,"connected_time":781000000000,"state":"active","ping":43},{"user_id":187,"name":"B0B","steam_id":76561199222523175,"connected_time":3956000000000,"state":"active","ping":75},{"user_id":257,"name":"EkmeK","steam_id":76561198077212595,"connected_time":214000000000,"state":"active","ping":130},{"user_id":261,"name":"RAONICALIAS","steam_id":76561198847048146,"connected_time":38000000000,"state":"active","ping":59},{"user_id":258,"name":"Bast The Cat","steam_id":76561198370217342,"connected_time":102000000000,"state":"active","ping":60},{"user_id":212,"name":"Mata_FM","steam_id":76561198044824504,"connected_time":2719000000000,"state":"active","ping":68},{"user_id":193,"name":"shinji crank that soulja boy","steam_id":76561198099696876,"connected_time":3287000000000,"state":"active","ping":75},{"user_id":247,"name":"Owl","steam_id":76561198248266580,"connected_time":922000000000,"state":"active","ping":63},{"user_id":213,"name":"Pootispow","steam_id":76561199233979726,"connected_time":2705000000000,"state":"active","ping":91},{"user_id":248,"name":"isha","steam_id":76561199041566425,"connected_time":913000000000,"state":"active","ping":69},{"user_id":214,"name":"_AntonPRO_2010_","steam_id":76561199471462962,"connected_time":2552000000000,"state":"active","ping":83},{"user_id":250,"name":"redditsexdefender","steam_id":76561198255904077,"connected_time":834000000000,"state":"active","ping":72},{"user_id":241,"name":"nop 21","steam_id":76561198331641220,"connected_time":1485000000000,"state":"active","ping":53},{"user_id":234,"name":"Nima","steam_id":76561198102045762,"connected_time":1956000000000,"state":"active","ping":149},{"user_id":253,"name":"Sleepy","steam_id":76561198037193555,"connected_time":680000000000,"state":"active","ping":67},{"user_id":259,"name":"R!not","steam_id":76561197986328786,"connected_time":79000000000,"state":"active","ping":37},{"user_id":232,"name":"JustmemeIt","steam_id":76561198960562114,"connected_time":1996000000000,"state":"active","ping":89},{"user_id":220,"name":"halo 3 rat","steam_id":76561198439007717,"connected_time":2356000000000,"state":"active","ping":64},{"user_id":254,"name":"L√∂√∂paLiidg","steam_id":76561198049466154,"connected_time":672000000000,"state":"active","ping":102},{"user_id":225,"name":"SuntanPikachu","steam_id":76561198121242476,"connected_time":2243000000000,"state":"active","ping":55},{"user_id":243,"name":"cloud","steam_id":76561198179768931,"connected_time":1455000000000,"state":"active","ping":59},{"user_id":230,"name":"Yeah Man","steam_id":76561198335533683,"connected_time":2129000000000,"state":"active","ping":67}]},{"server_id":300,"name":"Uncletopia | Montr√©al | 1 | All Maps","name_short":"mtl-1","host":"mtl-1.ca.uncletopia.com","port":27015,"enabled":true,"region":"us-east","cc":"ca","latitude":45.50889,"longitude":-73.56167,"reserved":0,"last_update":"0001-01-01T00:00:00Z","name_a2s":"Uncletopia | Montr√©al | 1 | All Maps","protocol":17,"map":"cp_altitude","folder":"tf","game":"Team Fortress","app_id":440,"player_count":0,"max_players":24,"Bots":0,"server_type":"Dedicated","server_os":"Linux","password":true,"vac":true,"version":"7757534","steam_id":85568392924500087,"keywords":["cp","nocrits","nodmgspread","uncletopia"],"game_id":440,"stv_port":27016,"stv_name":"Uncletopia | Montr√©al | 1 | All Maps | STV","players":null},{"server_id":301,"name":"Uncletopia | Montr√©al | 2 | All Maps","name_short":"mtl-2","host":"mtl-1.ca.uncletopia.com","port":27025,"enabled":true,"region":"us-east","cc":"ca","latitude":45.50889,"longitude":-73.56167,"reserved":0,"last_update":"0001-01-01T00:00:00Z","name_a2s":"Uncletopia | Montr√©al | 2 | All Maps","protocol":17,"map":"cp_sunshine","folder":"tf","game":"Team Fortress","app_id":440,"player_count":0,"max_players":24,"Bots":0,"server_type":"Dedicated","server_os":"Linux","password":true,"vac":true,"version":"7757534","steam_id":85568392924500088,"keywords":["cp","nocrits","nodmgspread","uncletopia"],"game_id":440,"stv_port":27026,"stv_name":"Uncletopia | Montr√©al | 2 | All Maps | STV","players":null},{"server_id":302,"name":"Uncletopia | Montr√©al | 3 | All Maps","name_short":"mtl-3","host":"mtl-1.ca.uncletopia.com","port":27035,"enabled":true,"region":"us-east","cc":"ca","latitude":45.50889,"longitude":-73.56167,"reserved":0,"last_update":"0001-01-01T00:00:00Z","name_a2s":"Uncletopia | Montr√©al | 3 | All Maps","protocol":17,"map":"pl_frontier_final","folder":"tf","game":"Team Fortress","app_id":440,"player_count":0,"max_players":24,"Bots":0,"server_type":"Dedicated","server_os":"Linux","password":true,"vac":true,"version":"7757534","steam_id":85568392924500089,"keywords":["nocrits","nodmgspread","payload","uncletopia"],"game_id":440,"stv_port":27036,"stv_name":"Uncletopia | Montr√©al | 3 | All Maps | STV","players":null},{"server_id":303,"name":"Uncletopia | Montr√©al | 4 | No Payload","name_short":"mtl-4","host":"mtl-1.ca.uncletopia.com","port":27045,"enabled":true,"region":"us-east","cc":"ca","latitude":45.50889,"longitude":-73.56167,"reserved":0,"last_update":"0001-01-01T00:00:00Z","name_a2s":"Uncletopia | Montr√©al | 4 | No Payload","protocol":17,"map":"pl_pier","folder":"tf","game":"Team Fortress","app_id":440,"player_count":0,"max_players":24,"Bots":0,"server_type":"Dedicated","server_os":"Linux","password":true,"vac":true,"version":"7757534","steam_id":85568392924500090,"keywords":["nocrits","nodmgspread","payload","uncletopia"],"game_id":440,"stv_port":27046,"stv_name":"Uncletopia | Montr√©al | 4 | No Payload | STV","players":null},{"server_id":13,"name":"Uncletopia | New York City | 1 | All Maps","name_short":"nyc-1","host":"nyc-1.us.uncletopia.com","port":27015,"enabled":true,"region":"us-east","cc":"us","latitude":40.73061,"longitude":-73.93524,"reserved":0,"last_update":"0001-01-01T00:00:00Z","name_a2s":"Uncletopia | New York City | 1 | All Maps","protocol":17,"map":"koth_cascade","folder":"tf","game":"Team Fortress","app_id":440,"player_count":3,"max_players":24,"Bots":0,"server_type":"Dedicated","server_os":"Linux","password":true,"vac":true,"version":"7757534","steam_id":85568392924469993,"keywords":["cp","nocrits","nodmgspread","uncletopia"],"game_id":440,"stv_port":27016,"stv_name":"Uncletopia | New York City | 1 | All Maps | STV","players":[{"user_id":12,"name":"Violett :)","steam_id":76561198218455220,"connected_time":94000000000,"state":"active","ping":67},{"user_id":10,"name":"eWVra2Vy","steam_id":76561198453565942,"connected_time":1278000000000,"state":"active","ping":70},{"user_id":11,"name":"Cheems","steam_id":76561198269074039,"connected_time":1049000000000,"state":"active","ping":76}]},{"server_id":14,"name":"Uncletopia | New York City | 2 | All Maps","name_short":"nyc-2","host":"nyc-1.us.uncletopia.com","port":27025,"enabled":true,"region":"us-east","cc":"us","latitude":40.73061,"longitude":-73.93524,"reserved":0,"last_update":"0001-01-01T00:00:00Z","name_a2s":"Uncletopia | New York City | 2 | All Maps","protocol":17,"map":"cp_dustbowl","folder":"tf","game":"Team Fortress","app_id":440,"player_count":1,"max_players":24,"Bots":0,"server_type":"Dedicated","server_os":"Linux","password":true,"vac":true,"version":"7757534","steam_id":85568392924469994,"keywords":["cp","nocrits","nodmgspread","uncletopia"],"game_id":440,"stv_port":27026,"stv_name":"Uncletopia | New York City | 2 | All Maps | STV","players":[{"user_id":8,"name":"M.X 234","steam_id":76561198806937802,"connected_time":451000000000,"state":"active","ping":58}]},{"server_id":15,"name":"Uncletopia | New York City | 3 | Stopwatch Beta","name_short":"nyc-3","host":"nyc-1.us.uncletopia.com","port":27035,"enabled":true,"region":"us-east","cc":"us","latitude":40.73061,"longitude":-73.93524,"reserved":0,"last_update":"0001-01-01T00:00:00Z","name_a2s":"Uncletopia | New York City | 3 | Stopwatch Beta","protocol":17,"map":"workshop/pl_summercoast_rc8e.ugc1761528829","folder":"tf","game":"Team Fortress","app_id":440,"player_count":0,"max_players":24,"Bots":0,"server_type":"Dedicated","server_os":"Linux","password":true,"vac":true,"version":"7757534","steam_id":85568392924742820,"keywords":["nocrits","nodmgspread","payload","uncletopia"],"game_id":440,"stv_port":27036,"stv_name":"Uncletopia | New York City | 3 | Stopwatch Beta | STV","players":null},{"server_id":16,"name":"Uncletopia | New York City | 4 | Community","name_short":"nyc-4","host":"nyc-1.us.uncletopia.com","port":27045,"enabled":true,"region":"us-east","cc":"us","latitude":40.73061,"longitude":-73.93524,"reserved":0,"last_update":"0001-01-01T00:00:00Z","name_a2s":"Uncletopia | New York City | 4 | Community","protocol":17,"map":"workshop/cp_fulgur_rc2a.ugc2068252300","folder":"tf","game":"Team Fortress","app_id":440,"player_count":0,"max_players":24,"Bots":0,"server_type":"Dedicated","server_os":"Linux","password":true,"vac":true,"version":"7757534","steam_id":85568392924742821,"keywords":["cp","nocrits","nodmgspread","uncletopia"],"game_id":440,"stv_port":27046,"stv_name":"Uncletopia | New York City | 4 | Community | STV","players":null},{"server_id":142,"name":"Uncletopia | S√£o Paulo | 1 | All Maps","name_short":"sao-1","host":"sao-1.br.uncletopia.com","port":27015,"enabled":true,"region":"sa","cc":"br","latitude":-23.533773,"longitude":-46.62529,"reserved":0,"last_update":"0001-01-01T00:00:00Z","name_a2s":"Uncletopia | S√£o Paulo | 1 | All Maps","protocol":17,"map":"cp_altitude","folder":"tf","game":"Team Fortress","app_id":440,"player_count":0,"max_players":24,"Bots":0,"server_type":"Dedicated","server_os":"Linux","password":true,"vac":true,"version":"7757534","steam_id":85568392924469996,"keywords":["cp","nocrits","nodmgspread","uncletopia"],"game_id":440,"stv_port":27016,"stv_name":"Uncletopia | S√£o Paulo | 1 | All Maps | STV","players":null},{"server_id":143,"name":"Uncletopia | S√£o Paulo | 2 | All Maps","name_short":"sao-2","host":"sao-2.br.uncletopia.com","port":27015,"enabled":true,"region":"sa","cc":"br","latitude":-23.533773,"longitude":-46.62529,"reserved":0,"last_update":"0001-01-01T00:00:00Z","name_a2s":"Uncletopia | S√£o Paulo | 2 | All Maps","protocol":17,"map":"koth_viaduct","folder":"tf","game":"Team Fortress","app_id":440,"player_count":0,"max_players":24,"Bots":0,"server_type":"Dedicated","server_os":"Linux","password":true,"vac":true,"version":"7757534","steam_id":85568392924485349,"keywords":["cp","nocrits","nodmgspread","uncletopia"],"game_id":440,"stv_port":27016,"stv_name":"Uncletopia | S√£o Paulo | 2 | All Maps | STV","players":null},{"server_id":7,"name":"Uncletopia | Seattle | 1 | All Maps","name_short":"sea-1","host":"sea-1.us.uncletopia.com","port":27015,"enabled":true,"region":"us-west","cc":"us","latitude":47.608013,"longitude":-122.33517,"reserved":0,"last_update":"0001-01-01T00:00:00Z","name_a2s":"Uncletopia | Seattle | 1 | All Maps","protocol":17,"map":"pl_frontier_final","folder":"tf","game":"Team Fortress","app_id":440,"player_count":24,"max_players":24,"Bots":0,"server_type":"Dedicated","server_os":"Linux","password":true,"vac":true,"version":"7757534","steam_id":85568392924469997,"keywords":["nocrits","nodmgspread","payload","uncletopia"],"game_id":440,"stv_port":27016,"stv_name":"Uncletopia | Seattle | 1 | All Maps | STV","players":[{"user_id":147,"name":"floppy muppet","steam_id":76561198003076261,"connected_time":980000000000,"state":"active","ping":141},{"user_id":150,"name":"4d4","steam_id":76561198402360789,"connected_time":820000000000,"state":"active","ping":118},{"user_id":141,"name":"Miller2sAv [v][\\]","steam_id":76561197960519403,"connected_time":1384000000000,"state":"active","ping":65},{"user_id":148,"name":"eraser cat","steam_id":76561199045570463,"connected_time":956000000000,"state":"active","ping":45},{"user_id":151,"name":"cement eater","steam_id":76561198042941628,"connected_time":550000000000,"state":"active","ping":109},{"user_id":145,"name":"nitron2","steam_id":76561198089313805,"connected_time":1062000000000,"state":"active","ping":84},{"user_id":9,"name":"rebel","steam_id":76561198026049308,"connected_time":10576000000000,"state":"active","ping":44},{"user_id":146,"name":"Chasubi","steam_id":76561197971618983,"connected_time":981000000000,"state":"active","ping":107},{"user_id":87,"name":"CYBER","steam_id":76561197963237357,"connected_time":6346000000000,"state":"active","ping":84},{"user_id":95,"name":"„Ä£dust„Ä£ -she/it-","steam_id":76561198045218909,"connected_time":5519000000000,"state":"active","ping":40},{"user_id":131,"name":"Tibetan Pop Star","steam_id":76561198844903984,"connected_time":2253000000000,"state":"active","ping":88},{"user_id":135,"name":"Salazar9","steam_id":76561198049903973,"connected_time":1463000000000,"state":"active","ping":53},{"user_id":149,"name":"Pink Beard Man (cant heal)","steam_id":76561198817302192,"connected_time":938000000000,"state":"active","ping":47},{"user_id":143,"name":"YahYeeterson","steam_id":76561198120480906,"connected_time":1307000000000,"state":"active","ping":67},{"user_id":88,"name":"Eduardo Dinero[v][\\]","steam_id":76561198011582976,"connected_time":6312000000000,"state":"active","ping":71},{"user_id":137,"name":"I'm Frost Man","steam_id":76561198393276400,"connected_time":1424000000000,"state":"active","ping":112},{"user_id":144,"name":"TheLonliestThelonius","steam_id":76561198097657243,"connected_time":1232000000000,"state":"active","ping":130},{"user_id":138,"name":"Delacroix","steam_id":76561198842964669,"connected_time":1415000000000,"state":"active","ping":108},{"user_id":55,"name":"Little Linguine","steam_id":76561198816986370,"connected_time":8403000000000,"state":"active","ping":58},{"user_id":126,"name":"Mirari","steam_id":76561198126889358,"connected_time":2532000000000,"state":"active","ping":133},{"user_id":134,"name":"Ylime","steam_id":76561198027878221,"connected_time":1746000000000,"state":"active","ping":55},{"user_id":37,"name":"THE NUT","steam_id":76561198067813626,"connected_time":9649000000000,"state":"active","ping":52},{"user_id":140,"name":"Not So Normal?","steam_id":76561198797627499,"connected_time":1405000000000,"state":"active","ping":93},{"user_id":122,"name":"DuckMann","steam_id":76561198197058638,"connected_time":2791000000000,"state":"active","ping":112}]},{"server_id":119,"name":"Uncletopia | Seattle | 2 | All Maps","name_short":"sea-2","host":"sea-1.us.uncletopia.com","port":27025,"enabled":true,"region":"us-west","cc":"us","latitude":47.608013,"longitude":-122.33517,"reserved":0,"last_update":"0001-01-01T00:00:00Z","name_a2s":"Uncletopia | Seattle | 2 | All Maps","protocol":17,"map":"pl_pier","folder":"tf","game":"Team Fortress","app_id":440,"player_count":0,"max_players":24,"Bots":0,"server_type":"Dedicated","server_os":"Linux","password":true,"vac":true,"version":"7757534","steam_id":85568392924469998,"keywords":["nocrits","nodmgspread","payload","uncletopia"],"game_id":440,"stv_port":27026,"stv_name":"Uncletopia | Seattle | 2 | All Maps | STV","players":null},{"server_id":406,"name":"Uncletopia | Seattle | 3 | Stopwatch Beta","name_short":"sea-3","host":"sea-1.us.uncletopia.com","port":27035,"enabled":true,"region":"us-west","cc":"us","latitude":47.608013,"longitude":-122.33517,"reserved":0,"last_update":"0001-01-01T00:00:00Z","name_a2s":"Uncletopia | Seattle | 3 | Stopwatch Beta","protocol":17,"map":"cp_process_final","folder":"tf","game":"Team Fortress","app_id":440,"player_count":0,"max_players":24,"Bots":0,"server_type":"Dedicated","server_os":"Linux","password":true,"vac":true,"version":"7757534","steam_id":85568392924515217,"keywords":["cp","nocrits","nodmgspread","uncletopia"],"game_id":440,"stv_port":27036,"stv_name":"Uncletopia | Seattle | 3 | Stopwatch Beta | STV","players":null},{"server_id":17,"name":"Uncletopia | San Francisco | 1 | All Maps","name_short":"sfo-1","host":"sfo-1.us.uncletopia.com","port":27015,"enabled":true,"region":"us-west","cc":"us","latitude":37.77397,"longitude":-122.4313,"reserved":0,"last_update":"0001-01-01T00:00:00Z","name_a2s":"Uncletopia | San Francisco | 1 | All Maps","protocol":17,"map":"cp_sunshine","folder":"tf","game":"Team Fortress","app_id":440,"player_count":23,"max_players":24,"Bots":0,"server_type":"Dedicated","server_os":"Linux","password":true,"vac":true,"version":"7757534","steam_id":85568392924469999,"keywords":["cp","nocrits","nodmgspread","uncletopia"],"game_id":440,"stv_port":27016,"stv_name":"Uncletopia | San Francisco | 1 | All Maps | STV","players":[{"user_id":15,"name":"SpaghettiMaster420","steam_id":76561199024321120,"connected_time":4143000000000,"state":"active","ping":70},{"user_id":16,"name":"hersheybargame","steam_id":76561199162003623,"connected_time":3955000000000,"state":"active","ping":51},{"user_id":63,"name":"Oh Captain","steam_id":76561198143992609,"connected_time":151000000000,"state":"active","ping":114},{"user_id":37,"name":"Malevo","steam_id":76561198148606522,"connected_time":1087000000000,"state":"active","ping":109},{"user_id":19,"name":"hoOmIN","steam_id":76561198334947079,"connected_time":3355000000000,"state":"active","ping":45},{"user_id":41,"name":"obbeymaster19","steam_id":76561199197244143,"connected_time":974000000000,"state":"active","ping":118},{"user_id":42,"name":"Woody","steam_id":76561198055842769,"connected_time":940000000000,"state":"active","ping":48},{"user_id":29,"name":"Tinkle Timpson","steam_id":76561199083097754,"connected_time":1417000000000,"state":"active","ping":116},{"user_id":60,"name":"ASCE","steam_id":76561198169768539,"connected_time":618000000000,"state":"active","ping":63},{"user_id":65,"name":"FlameWolf","steam_id":76561198234517204,"connected_time":71000000000,"state":"active","ping":74},{"user_id":43,"name":"killswitch","steam_id":76561199243229769,"connected_time":932000000000,"state":"active","ping":95},{"user_id":61,"name":"Kaffle","steam_id":76561198045447103,"connected_time":173000000000,"state":"active","ping":132},{"user_id":38,"name":"Portal2Player","steam_id":76561198062870114,"connected_time":1079000000000,"state":"active","ping":133},{"user_id":66,"name":"Ham_Techs","steam_id":76561198089866147,"connected_time":58000000000,"state":"active","ping":57},{"user_id":39,"name":"Driffter","steam_id":76561199122194221,"connected_time":1077000000000,"state":"active","ping":135},{"user_id":45,"name":"Wind Fucker","steam_id":76561198275362375,"connected_time":915000000000,"state":"active","ping":46},{"user_id":46,"name":"Ryld","steam_id":76561198010174380,"connected_time":910000000000,"state":"active","ping":74},{"user_id":49,"name":"09robcraft2","steam_id":76561199073189184,"connected_time":859000000000,"state":"active","ping":127},{"user_id":64,"name":"Zobozo","steam_id":76561198028954297,"connected_time":151000000000,"state":"active","ping":59},{"user_id":57,"name":"Amish Robot","steam_id":76561198041156065,"connected_time":740000000000,"state":"active","ping":94},{"user_id":54,"name":"Compress Dong","steam_id":76561198018950826,"connected_time":777000000000,"state":"active","ping":44},{"user_id":55,"name":"‚ô• thedittoguy ‚ô•","steam_id":76561199013129784,"connected_time":769000000000,"state":"active","ping":90},{"user_id":56,"name":"Project Dusk","steam_id":76561198193521149,"connected_time":758000000000,"state":"active","ping":101}]},{"server_id":18,"name":"Uncletopia | San Francisco | 2 | All Maps","name_short":"sfo-2","host":"sfo-1.us.uncletopia.com","port":27025,"enabled":true,"region":"us-west","cc":"us","latitude":37.77397,"longitude":-122.4313,"reserved":0,"last_update":"0001-01-01T00:00:00Z","name_a2s":"Uncletopia | San Francisco | 2 | All Maps","protocol":17,"map":"koth_viaduct","folder":"tf","game":"Team Fortress","app_id":440,"player_count":0,"max_players":24,"Bots":0,"server_type":"Dedicated","server_os":"Linux","password":true,"vac":true,"version":"7757534","steam_id":85568392924470000,"keywords":["cp","nocrits","nodmgspread","uncletopia"],"game_id":440,"stv_port":27026,"stv_name":"Uncletopia | San Francisco | 2 | All Maps | STV","players":null},{"server_id":19,"name":"Uncletopia | San Francisco | 3 | Stopwatch Beta","name_short":"sfo-3","host":"sfo-1.us.uncletopia.com","port":27035,"enabled":true,"region":"us-west","cc":"us","latitude":37.77397,"longitude":-122.4313,"reserved":0,"last_update":"0001-01-01T00:00:00Z","name_a2s":"Uncletopia | San Francisco | 3 | Stopwatch Beta","protocol":17,"map":"workshop/pl_barnblitz_pro7.ugc582280235","folder":"tf","game":"Team Fortress","app_id":440,"player_count":0,"max_players":24,"Bots":0,"server_type":"Dedicated","server_os":"Linux","password":true,"vac":true,"version":"7757534","steam_id":85568392924742824,"keywords":["nocrits","nodmgspread","payload","uncletopia"],"game_id":440,"stv_port":27036,"stv_name":"Uncletopia | San Francisco | 3 | Stopwatch Beta | STV","players":null},{"server_id":20,"name":"Uncletopia | San Francisco | 4 | Community","name_short":"sfo-4","host":"sfo-1.us.uncletopia.com","port":27045,"enabled":true,"region":"us-west","cc":"us","latitude":37.77397,"longitude":-122.4313,"reserved":0,"last_update":"0001-01-01T00:00:00Z","name_a2s":"Uncletopia | San Francisco | 4 | Community","protocol":17,"map":"pl_frontier_final","folder":"tf","game":"Team Fortress","app_id":440,"player_count":0,"max_players":24,"Bots":0,"server_type":"Dedicated","server_os":"Linux","password":true,"vac":true,"version":"7757534","steam_id":85568392924742826,"keywords":["nocrits","nodmgspread","payload","uncletopia"],"game_id":440,"stv_port":27046,"stv_name":"Uncletopia | San Francisco | 4 | Community | STV","players":null},{"server_id":141,"name":"Uncletopia | Sydney | 1 | All Maps","name_short":"syd-1","host":"syd-1.au.uncletopia.com","port":27015,"enabled":true,"region":"au","cc":"au","latitude":-33.865143,"longitude":151.2099,"reserved":0,"last_update":"0001-01-01T00:00:00Z","name_a2s":"Uncletopia | Sydney | 1 | All Maps","protocol":17,"map":"pl_frontier_final","folder":"tf","game":"Team Fortress","app_id":440,"player_count":0,"max_players":24,"Bots":0,"server_type":"Dedicated","server_os":"Linux","password":true,"vac":true,"version":"7757534","steam_id":85568392924470001,"keywords":["nocrits","nodmgspread","payload","uncletopia"],"game_id":440,"stv_port":27016,"stv_name":"Uncletopia | Sydney | 1 | All Maps | STV","players":null},{"server_id":123,"name":"Uncletopia | Sydney | 2 | All Maps","name_short":"syd-2","host":"syd-1.au.uncletopia.com","port":27025,"enabled":true,"region":"au","cc":"au","latitude":-33.865143,"longitude":151.2099,"reserved":0,"last_update":"0001-01-01T00:00:00Z","name_a2s":"Uncletopia | Sydney | 2 | All Maps","protocol":17,"map":"cp_altitude","folder":"tf","game":"Team Fortress","app_id":440,"player_count":0,"max_players":24,"Bots":0,"server_type":"Dedicated","server_os":"Linux","password":true,"vac":true,"version":"7757534","steam_id":85568392924470002,"keywords":["cp","nocrits","nodmgspread","uncletopia"],"game_id":440,"stv_port":27026,"stv_name":"Uncletopia | Sydney | 2 | All Maps | STV","players":null},{"server_id":395,"name":"Uncletopia | Sydney | 3 | All Maps","name_short":"syd-3","host":"syd-1.au.uncletopia.com","port":27035,"enabled":true,"region":"au","cc":"au","latitude":-33.865143,"longitude":151.2099,"reserved":0,"last_update":"0001-01-01T00:00:00Z","name_a2s":"Uncletopia | Sydney | 3 | All Maps","protocol":17,"map":"koth_lakeside_final","folder":"tf","game":"Team Fortress","app_id":440,"player_count":0,"max_players":24,"Bots":0,"server_type":"Dedicated","server_os":"Linux","password":true,"vac":true,"version":"7757534","steam_id":85568392925194467,"keywords":["cp","nocrits","nodmgspread","uncletopia"],"game_id":440,"stv_port":27036,"stv_name":"Uncletopia | Sydney | 3 | All Maps | STV","players":null},{"server_id":396,"name":"Uncletopia | Sydney | 4 | All Maps","name_short":"syd-4","host":"syd-1.au.uncletopia.com","port":27045,"enabled":true,"region":"au","cc":"au","latitude":-33.865143,"longitude":151.2099,"reserved":0,"last_update":"0001-01-01T00:00:00Z","name_a2s":"Uncletopia | Sydney | 4 | All Maps","protocol":17,"map":"koth_viaduct","folder":"tf","game":"Team Fortress","app_id":440,"player_count":0,"max_players":24,"Bots":0,"server_type":"Dedicated","server_os":"Linux","password":true,"vac":true,"version":"7757534","steam_id":85568392925397958,"keywords":["cp","nocrits","nodmgspread","uncletopia"],"game_id":440,"stv_port":27046,"stv_name":"Uncletopia | Sydney | 4 | All Maps | STV","players":null},{"server_id":58,"name":"Uncletopia | Sydney | 5 | Stopwatch Beta","name_short":"syd-5","host":"syd-1.au.uncletopia.com","port":27055,"enabled":true,"region":"au","cc":"au","latitude":-33.865143,"longitude":151.2099,"reserved":0,"last_update":"0001-01-01T00:00:00Z","name_a2s":"Uncletopia | Sydney | 5 | Stopwatch Beta","protocol":17,"map":"koth_cascade","folder":"tf","game":"Team Fortress","app_id":440,"player_count":0,"max_players":24,"Bots":0,"server_type":"Dedicated","server_os":"Linux","password":true,"vac":true,"version":"7757534","steam_id":85568392925397959,"keywords":["cp","nocrits","nodmgspread","uncletopia"],"game_id":440,"stv_port":27056,"stv_name":"Uncletopia | Sydney | 5 | Stopwatch Beta | STV","players":null},{"server_id":59,"name":"Uncletopia | Sydney | 6 | Community","name_short":"syd-6","host":"syd-1.au.uncletopia.com","port":27065,"enabled":true,"region":"au","cc":"au","latitude":-33.865143,"longitude":151.2099,"reserved":0,"last_update":"0001-01-01T00:00:00Z","name_a2s":"Uncletopia | Sydney | 6 | Community","protocol":17,"map":"workshop/cp_glassworks_rc6a.ugc454118349","folder":"tf","game":"Team Fortress","app_id":440,"player_count":0,"max_players":24,"Bots":0,"server_type":"Dedicated","server_os":"Linux","password":true,"vac":true,"version":"7757534","steam_id":85568392925397960,"keywords":["cp","nocrits","nodmgspread","uncletopia"],"game_id":440,"stv_port":27066,"stv_name":"Uncletopia | Sydney | 6 | Community | STV","players":null},{"server_id":49,"name":"Uncletopia | Warsaw | 1 | All Maps","name_short":"waw-1","host":"waw-1.pl.uncletopia.com","port":27015,"enabled":true,"region":"eu","cc":"pl","latitude":52.2297,"longitude":21.017532,"reserved":0,"last_update":"0001-01-01T00:00:00Z","name_a2s":"","protocol":0,"map":"","folder":"","game":"","app_id":0,"player_count":0,"max_players":0,"Bots":0,"server_type":"","server_os":"","password":false,"vac":false,"version":"","steam_id":0,"keywords":null,"game_id":0,"stv_port":0,"stv_name":"","players":null},{"server_id":50,"name":"Uncletopia | Warsaw | 2 | All Maps","name_short":"waw-2","host":"waw-1.pl.uncletopia.com","port":27025,"enabled":true,"region":"eu","cc":"pl","latitude":52.2297,"longitude":21.017532,"reserved":0,"last_update":"0001-01-01T00:00:00Z","name_a2s":"Uncletopia | Warsaw | 2 | All Maps","protocol":17,"map":"koth_highpass","folder":"tf","game":"Team Fortress","app_id":440,"player_count":0,"max_players":24,"Bots":0,"server_type":"Dedicated","server_os":"Linux","password":true,"vac":true,"version":"7757534","steam_id":85568392925397851,"keywords":["cp","nocrits","nodmgspread","uncletopia"],"game_id":440,"stv_port":27026,"stv_name":"Uncletopia | Warsaw | 2 | All Maps | STV","players":null},{"server_id":51,"name":"Uncletopia | Warsaw | 3 | All Maps","name_short":"waw-3","host":"waw-1.pl.uncletopia.com","port":27035,"enabled":true,"region":"eu","cc":"pl","latitude":52.2297,"longitude":21.017532,"reserved":0,"last_update":"0001-01-01T00:00:00Z","name_a2s":"Uncletopia | Warsaw | 3 | All Maps","protocol":17,"map":"koth_lakeside_final","folder":"tf","game":"Team Fortress","app_id":440,"player_count":0,"max_players":24,"Bots":0,"server_type":"Dedicated","server_os":"Linux","password":true,"vac":true,"version":"7757534","steam_id":85568392925397852,"keywords":["cp","nocrits","nodmgspread","uncletopia"],"game_id":440,"stv_port":27036,"stv_name":"Uncletopia | Warsaw | 3 | All Maps | STV","players":null},{"server_id":52,"name":"Uncletopia | Warsaw | 4 | All Maps","name_short":"waw-4","host":"waw-1.pl.uncletopia.com","port":27045,"enabled":true,"region":"eu","cc":"pl","latitude":52.2297,"longitude":21.017532,"reserved":0,"last_update":"0001-01-01T00:00:00Z","name_a2s":"Uncletopia | Warsaw | 4 | All Maps","protocol":17,"map":"cp_process_final","folder":"tf","game":"Team Fortress","app_id":440,"player_count":0,"max_players":24,"Bots":0,"server_type":"Dedicated","server_os":"Linux","password":true,"vac":true,"version":"7757534","steam_id":85568392925397853,"keywords":["cp","nocrits","nodmgspread","uncletopia"],"game_id":440,"stv_port":27046,"stv_name":"Uncletopia | Warsaw | 4 | All Maps | STV","players":null},{"server_id":53,"name":"Uncletopia | Warsaw | 5 | Stopwatch Beta","name_short":"waw-5","host":"waw-1.pl.uncletopia.com","port":27055,"enabled":true,"region":"eu","cc":"pl","latitude":52.2297,"longitude":21.017532,"reserved":0,"last_update":"0001-01-01T00:00:00Z","name_a2s":"Uncletopia | Warsaw | 5 | Stopwatch Beta","protocol":17,"map":"pl_pier","folder":"tf","game":"Team Fortress","app_id":440,"player_count":0,"max_players":24,"Bots":0,"server_type":"Dedicated","server_os":"Linux","password":true,"vac":true,"version":"7757534","steam_id":85568392925397854,"keywords":["nocrits","nodmgspread","payload","uncletopia"],"game_id":440,"stv_port":27056,"stv_name":"Uncletopia | Warsaw | 5 | Stopwatch Beta | STV","players":null},{"server_id":54,"name":"Uncletopia | Warsaw | 6 | Community","name_short":"waw-6","host":"waw-1.pl.uncletopia.com","port":27065,"enabled":true,"region":"eu","cc":"pl","latitude":52.2297,"longitude":21.017532,"reserved":0,"last_update":"0001-01-01T00:00:00Z","name_a2s":"Uncletopia | Warsaw | 6 | Community","protocol":17,"map":"koth_highpass","folder":"tf","game":"Team Fortress","app_id":440,"player_count":0,"max_players":24,"Bots":0,"server_type":"Dedicated","server_os":"Linux","password":true,"vac":true,"version":"7757534","steam_id":85568392925397856,"keywords":["cp","nocrits","nodmgspread","uncletopia"],"game_id":440,"stv_port":27066,"stv_name":"Uncletopia | Warsaw | 6 | Community | STV","players":null}]}