{"status":true,"message":"","result":[{"server_id":9,"name":"Uncletopia | Atlanta | 1 | All Maps","name_short":"atl-1","host":"atl-1.us.uncletopia.com","port":27015,"enabled":true,"region":"us-east","cc":"us","latitude":33.753746,"longitude":-84.38633,"reserved":0,"last_update":"0001-01-01T00:00:00Z","name_a2s":"Uncletopia | Atlanta | 1 | All Maps","protocol":17,"map":"ctf_2fort","folder":"tf","game":"Team Fortress","app_id":440,"player_count":19,"max_players":24,"Bots":0,"server_type":"Dedicated","server_os":"Linux","password":true,"vac":true,"version":"7932396","steam_id":85568392924469982,"keywords":["ctf","gravity","nocrits","nodmgspread","uncletopia"],"game_id":440,"stv_port":27016,"stv_name":"Uncletopia | Atlanta | 1 | All Maps | STV","players":[{"user_id":250,"name":"IZISOO","steam_id":76561198970380577,"connected_time":217000000000,"state":"active","ping":91},{"user_id":246,"name":"OttotheTomato","steam_id":76561198272610597,"connected_time":298000000000,"state":"active","ping":87},{"user_id":251,"name":"comet sooicidy","steam_id":76561198025173479,"connected_time":216000000000,"state":"active","ping":92},{"user_id":252,"name":"Huey","steam_id":76561198972816386,"connected_time":215000000000,"state":"active","ping":100},{"user_id":255,"name":"10KO!","steam_id":76561199134895220,"connected_time":67000000000,"state":"active","ping":83},{"user_id":253,"name":"Zeta","steam_id":76561198178693059,"connected_time":149000000000,"state":"active","ping":75},{"user_id":203,"name":"FinnGator","steam_id":76561198241766488,"connected_time":1663000000000,"state":"active","ping":89},{"user_id":231,"name":"Infantryfilms","steam_id":76561199304068543,"connected_time":744000000000,"state":"active","ping":143},{"user_id":204,"name":"‡ºò ‚ãÜÀöüéßCaffeine‚òï*Àñ¬∞","steam_id":76561199259309294,"connected_time":1559000000000,"state":"active","ping":96},{"user_id":205,"name":"Belmore","steam_id":76561198009355231,"connected_time":1513000000000,"state":"active","ping":119},{"user_id":254,"name":"hxui3506","steam_id":76561199148162329,"connected_time":119000000000,"state":"active","ping":127},{"user_id":211,"name":"chesterwnimitz","steam_id":76561198062664377,"connected_time":1170000000000,"state":"active","ping":115},{"user_id":256,"name":"mdharsy","steam_id":76561198065831053,"connected_time":49000000000,"state":"active","ping":104},{"user_id":248,"name":"Galaxy_42","steam_id":76561198845514831,"connected_time":256000000000,"state":"active","ping":64},{"user_id":242,"name":"FOrce of nature","steam_id":76561198390522839,"connected_time":410000000000,"state":"active","ping":99},{"user_id":257,"name":"HAT-WEARING‚Ñ¢ Maggot Gamer Cat","steam_id":76561197973992705,"connected_time":23000000000,"state":"spawning","ping":139},{"user_id":258,"name":"Golurk with some bitches","steam_id":76561198085888959,"connected_time":21000000000,"state":"spawning","ping":51},{"user_id":219,"name":"Gary Budussy","steam_id":76561197969793969,"connected_time":1067000000000,"state":"active","ping":77},{"user_id":227,"name":"bdlance","steam_id":76561198218846360,"connected_time":889000000000,"state":"active","ping":70}]},{"server_id":104,"name":"Uncletopia | Atlanta | 2 | All Maps","name_short":"atl-2","host":"atl-1.us.uncletopia.com","port":27025,"enabled":true,"region":"us-east","cc":"us","latitude":33.753746,"longitude":-84.38633,"reserved":0,"last_update":"0001-01-01T00:00:00Z","name_a2s":"Uncletopia | Atlanta | 2 | All Maps","protocol":17,"map":"koth_viaduct","folder":"tf","game":"Team Fortress","app_id":440,"player_count":0,"max_players":24,"Bots":0,"server_type":"Dedicated","server_os":"Linux","password":true,"vac":true,"version":"7932396","steam_id":85568392924469983,"keywords":["cp","nocrits","nodmgspread","uncletopia"],"game_id":440,"stv_port":27026,"stv_name":"Uncletopia | Atlanta | 2 | All Maps | STV","players":null},{"server_id":400,"name":"Uncletopia | Atlanta | 3 | Community","name_short":"atl-3","host":"atl-1.us.uncletopia.com","port":27035,"enabled":true,"region":"us-east","cc":"us","latitude":33.753746,"longitude":-84.38633,"reserved":0,"last_update":"0001-01-01T00:00:00Z","name_a2s":"Uncletopia | Atlanta | 3 | Community","protocol":17,"map":"workshop/cp_logjam_rc12.ugc454812035","folder":"tf","game":"Team Fortress","app_id":440,"player_count":0,"max_players":24,"Bots":0,"server_type":"Dedicated","server_os":"Linux","password":true,"vac":true,"version":"7932396","steam_id":85568392924515187,"keywords":["cp","nocrits","nodmgspread","uncletopia"],"game_id":440,"stv_port":27036,"stv_name":"Uncletopia | Atlanta | 3 | Community | STV","players":null},{"server_id":401,"name":"Uncletopia | Atlanta | 4 | No Payload","name_short":"atl-4","host":"atl-1.us.uncletopia.com","port":27045,"enabled":true,"region":"us-east","cc":"us","latitude":33.753746,"longitude":-84.38633,"reserved":0,"last_update":"0001-01-01T00:00:00Z","name_a2s":"","protocol":0,"map":"","folder":"","game":"","app_id":0,"player_count":0,"max_players":0,"Bots":0,"server_type":"","server_os":"","password":false,"vac":false,"version":"","steam_id":0,"keywords":null,"game_id":0,"stv_port":0,"stv_name":"","players":null},{"server_id":2,"name":"Uncletopia | Chicago | 1 | All Maps","name_short":"chi-1","host":"chi-1.us.uncletopia.com","port":27015,"enabled":true,"region":"us-central","cc":"us","latitude":41.881832,"longitude":-87.62318,"reserved":0,"last_update":"0001-01-01T00:00:00Z","name_a2s":"Uncletopia | Chicago | 1 | All Maps","protocol":17,"map":"pl_badwater","folder":"tf","game":"Team Fortress","app_id":440,"player_count":24,"max_players":24,"Bots":0,"server_type":"Dedicated","server_os":"Linux","password":true,"vac":true,"version":"7932396","steam_id":85568392924469984,"keywords":["nocrits","nodmgspread","payload","uncletopia"],"game_id":440,"stv_port":27016,"stv_name":"Uncletopia | Chicago | 1 | All Maps | STV","players":[{"user_id":641,"name":"KBoneski ‚ô°","steam_id":76561198307409065,"connected_time":120000000000,"state":"spawning","ping":92},{"user_id":626,"name":"Hollywood","steam_id":76561198029932451,"connected_time":1600000000000,"state":"active","ping":55},{"user_id":603,"name":"Alvis","steam_id":76561198057179097,"connected_time":4020000000000,"state":"active","ping":60},{"user_id":630,"name":"dave","steam_id":76561198135961731,"connected_time":1429000000000,"state":"active","ping":82},{"user_id":604,"name":"nbwingdinger","steam_id":76561198412627015,"connected_time":4017000000000,"state":"active","ping":116},{"user_id":621,"name":"Squids023","steam_id":76561199013031576,"connected_time":2386000000000,"state":"active","ping":105},{"user_id":636,"name":"M@verick","steam_id":76561198006363519,"connected_time":701000000000,"state":"active","ping":70},{"user_id":631,"name":"Oddball","steam_id":76561198040440984,"connected_time":1232000000000,"state":"active","ping":73},{"user_id":616,"name":"Your Local Queer Librarian","steam_id":76561198013077080,"connected_time":2470000000000,"state":"active","ping":62},{"user_id":607,"name":"Zeyph","steam_id":76561198072416741,"connected_time":3963000000000,"state":"active","ping":40},{"user_id":612,"name":"Mitchacho74","steam_id":76561198087986935,"connected_time":3669000000000,"state":"active","ping":52},{"user_id":634,"name":"Wizard Raccoon","steam_id":76561198072562591,"connected_time":793000000000,"state":"active","ping":82},{"user_id":588,"name":"Stauxie","steam_id":76561198255030077,"connected_time":5578000000000,"state":"active","ping":88},{"user_id":623,"name":"An Erect Penis :)","steam_id":76561198086477485,"connected_time":2137000000000,"state":"active","ping":40},{"user_id":613,"name":"Space","steam_id":76561198350489754,"connected_time":2489000000000,"state":"active","ping":47},{"user_id":617,"name":"Acehay14","steam_id":76561198052373291,"connected_time":2464000000000,"state":"active","ping":54},{"user_id":599,"name":"feed lips","steam_id":76561197971152439,"connected_time":5395000000000,"state":"active","ping":75},{"user_id":564,"name":"Praise_to_the_Flashlight!","steam_id":76561199001728789,"connected_time":7958000000000,"state":"active","ping":64},{"user_id":618,"name":"Merci?","steam_id":76561198096823118,"connected_time":2449000000000,"state":"active","ping":71},{"user_id":625,"name":"‚ôÇ boss of this gym ‚ôÇ","steam_id":76561198027102212,"connected_time":2098000000000,"state":"active","ping":76},{"user_id":542,"name":"Bee_Pirate","steam_id":76561199000599111,"connected_time":9974000000000,"state":"active","ping":59},{"user_id":580,"name":"Khaicchi","steam_id":76561198104454754,"connected_time":6409000000000,"state":"active","ping":173},{"user_id":622,"name":"Goobigan","steam_id":76561198072790366,"connected_time":2386000000000,"state":"active","ping":97},{"user_id":640,"name":"GruntRule","steam_id":76561198039987143,"connected_time":365000000000,"state":"active","ping":71}]},{"server_id":106,"name":"Uncletopia | Chicago | 2 | All Maps","name_short":"chi-2","host":"chi-1.us.uncletopia.com","port":27025,"enabled":true,"region":"us-central","cc":"us","latitude":41.881832,"longitude":-87.62318,"reserved":0,"last_update":"0001-01-01T00:00:00Z","name_a2s":"Uncletopia | Chicago | 2 | All Maps","protocol":17,"map":"pl_upward","folder":"tf","game":"Team Fortress","app_id":440,"player_count":24,"max_players":24,"Bots":0,"server_type":"Dedicated","server_os":"Linux","password":true,"vac":true,"version":"7932396","steam_id":85568392924469985,"keywords":["nocrits","nodmgspread","payload","uncletopia"],"game_id":440,"stv_port":27026,"stv_name":"Uncletopia | Chicago | 2 | All Maps | STV","players":[{"user_id":949,"name":"dinnerboy","steam_id":76561198236966240,"connected_time":606000000000,"state":"active","ping":46},{"user_id":948,"name":"Crisp","steam_id":76561198132644084,"connected_time":625000000000,"state":"active","ping":69},{"user_id":903,"name":"Season Veteran","steam_id":76561198088619665,"connected_time":3282000000000,"state":"active","ping":76},{"user_id":921,"name":"Columbus","steam_id":76561198079473478,"connected_time":3012000000000,"state":"active","ping":85},{"user_id":755,"name":"Swash","steam_id":76561197969421355,"connected_time":10684000000000,"state":"active","ping":74},{"user_id":932,"name":"grandma mode","steam_id":76561198155824631,"connected_time":1674000000000,"state":"active","ping":115},{"user_id":918,"name":"Cogbj√∂rn","steam_id":76561198305487648,"connected_time":3073000000000,"state":"active","ping":57},{"user_id":936,"name":"Vega","steam_id":76561198057374871,"connected_time":1532000000000,"state":"active","ping":57},{"user_id":950,"name":"Jousty","steam_id":76561199162677853,"connected_time":579000000000,"state":"active","ping":94},{"user_id":931,"name":"Weary","steam_id":76561198145767546,"connected_time":1949000000000,"state":"active","ping":59},{"user_id":938,"name":"Goober","steam_id":76561198988863807,"connected_time":1508000000000,"state":"active","ping":79},{"user_id":940,"name":"Tea Enthusiast","steam_id":76561198185583925,"connected_time":1467000000000,"state":"active","ping":60},{"user_id":927,"name":"stupid ape","steam_id":76561198350027075,"connected_time":2599000000000,"state":"active","ping":48},{"user_id":941,"name":"McChicken and some fries","steam_id":76561199164371592,"connected_time":1467000000000,"state":"active","ping":61},{"user_id":913,"name":"Crabgusii","steam_id":76561198079213465,"connected_time":3128000000000,"state":"active","ping":71},{"user_id":842,"name":"Snoopy","steam_id":76561198273735974,"connected_time":5295000000000,"state":"active","ping":92},{"user_id":946,"name":"Jo","steam_id":76561198060447015,"connected_time":955000000000,"state":"active","ping":75},{"user_id":952,"name":"N U T T","steam_id":76561198139661511,"connected_time":79000000000,"state":"active","ping":71},{"user_id":721,"name":"hej","steam_id":76561197996366940,"connected_time":13503000000000,"state":"active","ping":61},{"user_id":944,"name":"Nobody","steam_id":76561198160544586,"connected_time":1111000000000,"state":"active","ping":79},{"user_id":943,"name":"GoldtoothFour","steam_id":76561198055529332,"connected_time":1420000000000,"state":"active","ping":57},{"user_id":916,"name":"Squash","steam_id":76561198376453255,"connected_time":3098000000000,"state":"active","ping":61},{"user_id":817,"name":"Lia_Rein","steam_id":76561198151569597,"connected_time":6542000000000,"state":"active","ping":154},{"user_id":878,"name":"GodandTitans","steam_id":76561198070070155,"connected_time":4372000000000,"state":"active","ping":82}]},{"server_id":402,"name":"Uncletopia | Chicago | 3 | All Maps","name_short":"chi-3","host":"chi-1.us.uncletopia.com","port":27035,"enabled":true,"region":"us-central","cc":"us","latitude":41.881832,"longitude":-87.62318,"reserved":0,"last_update":"0001-01-01T00:00:00Z","name_a2s":"Uncletopia | Chicago | 3 | All Maps","protocol":17,"map":"pl_badwater","folder":"tf","game":"Team Fortress","app_id":440,"player_count":24,"max_players":24,"Bots":0,"server_type":"Dedicated","server_os":"Linux","password":true,"vac":true,"version":"7932396","steam_id":85568392924515191,"keywords":["nocrits","nodmgspread","payload","uncletopia"],"game_id":440,"stv_port":27036,"stv_name":"Uncletopia | Chicago | 3 | All Maps | STV","players":[{"user_id":544,"name":"5mech","steam_id":76561198979167520,"connected_time":10071000000000,"state":"active","ping":47},{"user_id":665,"name":"13¬£","steam_id":76561198425726464,"connected_time":1272000000000,"state":"active","ping":72},{"user_id":652,"name":"BhoBoy","steam_id":76561198988004642,"connected_time":2205000000000,"state":"active","ping":88},{"user_id":674,"name":"Sarbanes-Oxley","steam_id":76561197975898479,"connected_time":712000000000,"state":"active","ping":74},{"user_id":687,"name":"Zoddiee","steam_id":76561198042399764,"connected_time":78000000000,"state":"active","ping":81},{"user_id":668,"name":"Malachi [NGC|ST]","steam_id":76561197995129935,"connected_time":1036000000000,"state":"active","ping":63},{"user_id":672,"name":"Ekohtwo","steam_id":76561198067994868,"connected_time":764000000000,"state":"active","ping":59},{"user_id":636,"name":"Sychke","steam_id":76561198067144055,"connected_time":3905000000000,"state":"active","ping":45},{"user_id":688,"name":"OmniMoto","steam_id":76561198091298557,"connected_time":74000000000,"state":"active","ping":76},{"user_id":682,"name":"minish","steam_id":76561198086618284,"connected_time":508000000000,"state":"active","ping":101},{"user_id":685,"name":"HappyOtterMan","steam_id":76561199051276989,"connected_time":189000000000,"state":"active","ping":71},{"user_id":680,"name":"MoonWolf","steam_id":76561198095735033,"connected_time":625000000000,"state":"active","ping":72},{"user_id":681,"name":"Satori Komeiji","steam_id":76561198158211423,"connected_time":621000000000,"state":"active","ping":101},{"user_id":643,"name":"Sad Robot","steam_id":76561198130822344,"connected_time":3244000000000,"state":"active","ping":45},{"user_id":684,"name":"tacobellwasd","steam_id":76561199230685500,"connected_time":419000000000,"state":"active","ping":103},{"user_id":656,"name":"Jaydyn","steam_id":76561198140326797,"connected_time":2118000000000,"state":"active","ping":83},{"user_id":677,"name":"reymundo","steam_id":76561197989412830,"connected_time":651000000000,"state":"active","ping":117},{"user_id":657,"name":"Yoshimelon","steam_id":76561198253054325,"connected_time":2095000000000,"state":"active","ping":60},{"user_id":658,"name":"√úberBurst inVinci","steam_id":76561198044470684,"connected_time":2084000000000,"state":"active","ping":59},{"user_id":678,"name":"jimmycricket","steam_id":76561199232877274,"connected_time":650000000000,"state":"active","ping":78},{"user_id":641,"name":"Big Bill Hells","steam_id":76561198109323006,"connected_time":3799000000000,"state":"active","ping":62},{"user_id":660,"name":"Rusted Cake","steam_id":76561198209755931,"connected_time":2033000000000,"state":"active","ping":112},{"user_id":644,"name":"Radger","steam_id":76561198204039747,"connected_time":3141000000000,"state":"active","ping":110},{"user_id":679,"name":"car","steam_id":76561198999217575,"connected_time":645000000000,"state":"active","ping":80}]},{"server_id":403,"name":"Uncletopia | Chicago | 4 | All Maps","name_short":"chi-4","host":"chi-1.us.uncletopia.com","port":27045,"enabled":true,"region":"us-central","cc":"us","latitude":41.881832,"longitude":-87.62318,"reserved":0,"last_update":"0001-01-01T00:00:00Z","name_a2s":"Uncletopia | Chicago | 4 | All Maps","protocol":17,"map":"pl_frontier_final","folder":"tf","game":"Team Fortress","app_id":440,"player_count":22,"max_players":24,"Bots":0,"server_type":"Dedicated","server_os":"Linux","password":true,"vac":true,"version":"7932396","steam_id":85568392924515193,"keywords":["nocrits","nodmgspread","payload","uncletopia"],"game_id":440,"stv_port":27046,"stv_name":"Uncletopia | Chicago | 4 | All Maps | STV","players":[{"user_id":770,"name":"Miner2495","steam_id":76561198445904523,"connected_time":10149000000000,"state":"active","ping":71},{"user_id":835,"name":"Heat My Justice","steam_id":76561197995252750,"connected_time":5457000000000,"state":"active","ping":81},{"user_id":820,"name":"thai","steam_id":76561198052462287,"connected_time":6315000000000,"state":"active","ping":89},{"user_id":883,"name":"Kay_Matt","steam_id":76561198168396678,"connected_time":639000000000,"state":"active","ping":85},{"user_id":882,"name":"Wallem","steam_id":76561198052361822,"connected_time":676000000000,"state":"active","ping":73},{"user_id":866,"name":"xFactr","steam_id":76561198129007422,"connected_time":1327000000000,"state":"active","ping":54},{"user_id":851,"name":"Mr8bittripper","steam_id":76561198133894229,"connected_time":4618000000000,"state":"active","ping":92},{"user_id":854,"name":"raggy","steam_id":76561198121767390,"connected_time":3966000000000,"state":"active","ping":55},{"user_id":821,"name":"Viennetta","steam_id":76561198044088335,"connected_time":6301000000000,"state":"active","ping":59},{"user_id":865,"name":"Protato","steam_id":76561198061182563,"connected_time":1417000000000,"state":"active","ping":66},{"user_id":884,"name":"Mister Rattlebones","steam_id":76561198065560157,"connected_time":28000000000,"state":"spawning","ping":60},{"user_id":867,"name":"Q47","steam_id":76561198087128341,"connected_time":1321000000000,"state":"active","ping":131},{"user_id":885,"name":"Stapler","steam_id":76561198099295077,"connected_time":12000000000,"state":"active","ping":104},{"user_id":886,"name":"el muchacho","steam_id":76561198282632562,"connected_time":7000000000,"state":"spawning","ping":73},{"user_id":871,"name":"Magical.Puffin","steam_id":76561198129039275,"connected_time":1145000000000,"state":"active","ping":109},{"user_id":864,"name":"Rafl","steam_id":76561198055222756,"connected_time":1508000000000,"state":"active","ping":65},{"user_id":873,"name":"thanksgiving turkey","steam_id":76561198976876859,"connected_time":1099000000000,"state":"active","ping":89},{"user_id":857,"name":"Hawksgamer","steam_id":76561198152405941,"connected_time":3005000000000,"state":"active","ping":149},{"user_id":849,"name":"Shazzy","steam_id":76561198145460523,"connected_time":4843000000000,"state":"active","ping":79},{"user_id":875,"name":"ceres","steam_id":76561198291976960,"connected_time":1043000000000,"state":"active","ping":104},{"user_id":876,"name":"dzcreeper","steam_id":76561198072250723,"connected_time":1038000000000,"state":"active","ping":76},{"user_id":877,"name":"eWVra2Vy","steam_id":76561198453565942,"connected_time":1034000000000,"state":"active","ping":83}]},{"server_id":36,"name":"Uncletopia | Chicago | 5 | All Maps","name_short":"chi-5","host":"chi-2.us.uncletopia.com","port":27015,"enabled":true,"region":"us-central","cc":"us","latitude":41.881832,"longitude":-87.62318,"reserved":0,"last_update":"0001-01-01T00:00:00Z","name_a2s":"Uncletopia | Chicago | 5 | All Maps","protocol":17,"map":"pl_pier","folder":"tf","game":"Team Fortress","app_id":440,"player_count":16,"max_players":24,"Bots":0,"server_type":"Dedicated","server_os":"Linux","password":true,"vac":true,"version":"7932396","steam_id":85568392924866362,"keywords":["nocrits","nodmgspread","payload","uncletopia"],"game_id":440,"stv_port":27016,"stv_name":"Uncletopia | Chicago | 5 | All Maps | STV","players":[{"user_id":630,"name":"fwaeoij-4","steam_id":76561198057691823,"connected_time":141000000000,"state":"connecting","ping":78},{"user_id":591,"name":"Fireheart","steam_id":76561198171109323,"connected_time":3724000000000,"state":"connecting","ping":120},{"user_id":628,"name":"Bruce Applesburg","steam_id":76561198869159718,"connected_time":736000000000,"state":"connecting","ping":96},{"user_id":592,"name":"Whizper","steam_id":76561199125746067,"connected_time":3702000000000,"state":"connecting","ping":80},{"user_id":597,"name":"A Can of AriZona Green Tea","steam_id":76561198062481133,"connected_time":3444000000000,"state":"connecting","ping":83},{"user_id":631,"name":"Calcium anthropology","steam_id":76561198063313115,"connected_time":19000000000,"state":"connecting","ping":57},{"user_id":582,"name":"noellehound","steam_id":76561198108844158,"connected_time":4552000000000,"state":"connecting","ping":111},{"user_id":625,"name":"._.","steam_id":76561198110775575,"connected_time":1010000000000,"state":"connecting","ping":99},{"user_id":594,"name":"ZeroBiscuits","steam_id":76561199015600057,"connected_time":3617000000000,"state":"connecting","ping":55},{"user_id":629,"name":"Matra R.550 Magic 2","steam_id":76561198155103123,"connected_time":301000000000,"state":"connecting","ping":105},{"user_id":596,"name":"Sin¬∞","steam_id":76561198952843442,"connected_time":3522000000000,"state":"connecting","ping":118},{"user_id":627,"name":"owlbortch","steam_id":76561198042849350,"connected_time":965000000000,"state":"connecting","ping":95},{"user_id":578,"name":"worst day ever","steam_id":76561198048925904,"connected_time":4663000000000,"state":"connecting","ping":135},{"user_id":616,"name":"J21","steam_id":76561198066590783,"connected_time":1699000000000,"state":"connecting","ping":90}]},{"server_id":37,"name":"Uncletopia | Chicago | 6 | All Maps","name_short":"chi-6","host":"chi-2.us.uncletopia.com","port":27025,"enabled":true,"region":"us-central","cc":"us","latitude":41.881832,"longitude":-87.62318,"reserved":0,"last_update":"0001-01-01T00:00:00Z","name_a2s":"Uncletopia | Chicago | 6 | All Maps","protocol":17,"map":"pl_barnblitz","folder":"tf","game":"Team Fortress","app_id":440,"player_count":22,"max_players":24,"Bots":0,"server_type":"Dedicated","server_os":"Linux","password":true,"vac":true,"version":"7932396","steam_id":85568392924866363,"keywords":["nocrits","nodmgspread","payload","uncletopia"],"game_id":440,"stv_port":27026,"stv_name":"Uncletopia | Chicago | 6 | All Maps | STV","players":[{"user_id":558,"name":"sankara","steam_id":76561198013806060,"connected_time":2642000000000,"state":"active","ping":53},{"user_id":574,"name":"xLeoparrd","steam_id":76561198940657194,"connected_time":306000000000,"state":"active","ping":72},{"user_id":567,"name":"Rice + Chicken Combo ($4.17)","steam_id":76561198077789314,"connected_time":1582000000000,"state":"active","ping":64},{"user_id":541,"name":"selling rice","steam_id":76561198063357023,"connected_time":3376000000000,"state":"active","ping":93},{"user_id":562,"name":"Amari","steam_id":76561198272446730,"connected_time":2049000000000,"state":"active","ping":58},{"user_id":556,"name":"Yummy Kabobz","steam_id":76561198067661705,"connected_time":2918000000000,"state":"active","ping":61},{"user_id":494,"name":"Juno","steam_id":76561198042417277,"connected_time":6975000000000,"state":"active","ping":69},{"user_id":578,"name":"BLOCKHEAD","steam_id":76561198808224331,"connected_time":68000000000,"state":"active","ping":123},{"user_id":579,"name":"little_neb","steam_id":76561198117396733,"connected_time":50000000000,"state":"active","ping":94},{"user_id":576,"name":"kazoo2","steam_id":76561198260473504,"connected_time":168000000000,"state":"active","ping":82},{"user_id":546,"name":"Dzhoshua","steam_id":76561198071915251,"connected_time":3295000000000,"state":"active","ping":58},{"user_id":575,"name":"A Puppy","steam_id":76561198828184456,"connected_time":293000000000,"state":"active","ping":59},{"user_id":486,"name":"Shrimp Fried Rice","steam_id":76561198149063013,"connected_time":7619000000000,"state":"active","ping":64},{"user_id":572,"name":"no brain","steam_id":76561198451032322,"connected_time":462000000000,"state":"active","ping":87},{"user_id":484,"name":"0.17$ american sales tax","steam_id":76561198067153390,"connected_time":7737000000000,"state":"active","ping":53},{"user_id":563,"name":"notdoxed","steam_id":76561197992591404,"connected_time":2044000000000,"state":"active","ping":40},{"user_id":580,"name":"LambKraut","steam_id":76561198061695514,"connected_time":21000000000,"state":"spawning","ping":37},{"user_id":550,"name":"eish","steam_id":76561198089463603,"connected_time":3226000000000,"state":"active","ping":129},{"user_id":561,"name":"Sax","steam_id":76561198055425123,"connected_time":2214000000000,"state":"active","ping":115},{"user_id":568,"name":"blue of days","steam_id":76561199113013688,"connected_time":1500000000000,"state":"active","ping":87},{"user_id":581,"name":"7__2","steam_id":76561198074184077,"connected_time":16000000000,"state":"spawning","ping":74},{"user_id":455,"name":"Strange Festive Rice ($22.99AUD","steam_id":76561198028157625,"connected_time":9022000000000,"state":"active","ping":77}]},{"server_id":38,"name":"Uncletopia | Chicago | 7 | Stopwatch Beta","name_short":"chi-7","host":"chi-2.us.uncletopia.com","port":27035,"enabled":true,"region":"us-central","cc":"us","latitude":41.881832,"longitude":-87.62318,"reserved":0,"last_update":"0001-01-01T00:00:00Z","name_a2s":"Uncletopia | Chicago | 7 | Stopwatch Beta","protocol":17,"map":"cp_sunshine","folder":"tf","game":"Team Fortress","app_id":440,"player_count":16,"max_players":24,"Bots":0,"server_type":"Dedicated","server_os":"Linux","password":true,"vac":true,"version":"7932396","steam_id":85568392924866364,"keywords":["cp","nocrits","nodmgspread","uncletopia"],"game_id":440,"stv_port":27036,"stv_name":"Uncletopia | Chicago | 7 | Stopwatch Beta | STV","players":[{"user_id":181,"name":"Joe Sloppy","steam_id":76561198130329863,"connected_time":1060000000000,"state":"active","ping":49},{"user_id":191,"name":"BiPrideMothman","steam_id":76561199218732222,"connected_time":91000000000,"state":"active","ping":123},{"user_id":136,"name":"Pizza","steam_id":76561198118748364,"connected_time":4635000000000,"state":"active","ping":77},{"user_id":166,"name":"8bean","steam_id":76561198239138132,"connected_time":2670000000000,"state":"active","ping":56},{"user_id":192,"name":"ultralisk52","steam_id":76561198051666604,"connected_time":81000000000,"state":"active","ping":59},{"user_id":188,"name":"Demonica","steam_id":76561198841858340,"connected_time":275000000000,"state":"active","ping":70},{"user_id":189,"name":"im gay","steam_id":76561198344168732,"connected_time":275000000000,"state":"active","ping":142},{"user_id":193,"name":"himbomccree","steam_id":76561198373330850,"connected_time":50000000000,"state":"active","ping":117},{"user_id":190,"name":"Isaac Clarke","steam_id":76561198317662346,"connected_time":163000000000,"state":"active","ping":74},{"user_id":147,"name":"Cluckimus Prime","steam_id":76561198051346739,"connected_time":4124000000000,"state":"active","ping":74},{"user_id":194,"name":"twink floyd","steam_id":76561199487086586,"connected_time":12000000000,"state":"active","ping":52},{"user_id":177,"name":"Hero8171","steam_id":76561199239824271,"connected_time":1840000000000,"state":"active","ping":60},{"user_id":168,"name":"PootisPowHAHA","steam_id":76561199023536209,"connected_time":2621000000000,"state":"active","ping":84},{"user_id":163,"name":"GreekGoat_Coffee","steam_id":76561198129331088,"connected_time":2685000000000,"state":"active","ping":45},{"user_id":169,"name":"D.A.V.I.D","steam_id":76561199443570634,"connected_time":2613000000000,"state":"active","ping":118},{"user_id":164,"name":"Jim","steam_id":76561198998398262,"connected_time":2680000000000,"state":"active","ping":102}]},{"server_id":39,"name":"Uncletopia | Chicago | 8 | Community","name_short":"chi-8","host":"chi-2.us.uncletopia.com","port":27045,"enabled":true,"region":"us-central","cc":"us","latitude":41.881832,"longitude":-87.62318,"reserved":0,"last_update":"0001-01-01T00:00:00Z","name_a2s":"Uncletopia | Chicago | 8 | Community","protocol":17,"map":"workshop/pl_shoreleave_rc2.ugc1238849347","folder":"tf","game":"Team Fortress","app_id":440,"player_count":20,"max_players":24,"Bots":0,"server_type":"Dedicated","server_os":"Linux","password":true,"vac":true,"version":"7932396","steam_id":85568392924866365,"keywords":["nocrits","nodmgspread","payload","uncletopia"],"game_id":440,"stv_port":27046,"stv_name":"Uncletopia | Chicago | 8 | Community | STV","players":[{"user_id":471,"name":"Tockbird","steam_id":76561199437964594,"connected_time":1534000000000,"state":"active","ping":113},{"user_id":495,"name":"e77","steam_id":76561198069309111,"connected_time":141000000000,"state":"active","ping":43},{"user_id":498,"name":"Slashes","steam_id":76561197968573499,"connected_time":9000000000,"state":"spawning","ping":110},{"user_id":463,"name":"SilentFootba11","steam_id":76561199006570947,"connected_time":3054000000000,"state":"active","ping":79},{"user_id":422,"name":"Captain S. Forrest","steam_id":76561198062463029,"connected_time":6431000000000,"state":"active","ping":64},{"user_id":470,"name":"Scoundrel","steam_id":76561198056672372,"connected_time":1589000000000,"state":"active","ping":71},{"user_id":465,"name":"Danmar33","steam_id":76561198056453091,"connected_time":2140000000000,"state":"active","ping":46},{"user_id":408,"name":"I GOT LAID AT SHEN YUN 2023","steam_id":76561198844003641,"connected_time":6921000000000,"state":"active","ping":106},{"user_id":472,"name":"FOOL","steam_id":76561198370866973,"connected_time":1519000000000,"state":"active","ping":117},{"user_id":315,"name":"Neophyte","steam_id":76561198027183394,"connected_time":13463000000000,"state":"active","ping":86},{"user_id":449,"name":"FRANKY!!!","steam_id":76561199211305343,"connected_time":4774000000000,"state":"active","ping":98},{"user_id":492,"name":"natassja","steam_id":76561198197047443,"connected_time":806000000000,"state":"active","ping":77},{"user_id":485,"name":"b","steam_id":76561198118211523,"connected_time":1205000000000,"state":"active","ping":56},{"user_id":487,"name":"(pro) semitic ye","steam_id":76561198068830312,"connected_time":1004000000000,"state":"active","ping":47},{"user_id":480,"name":"Kyle H. McCloud","steam_id":76561198025050432,"connected_time":1369000000000,"state":"active","ping":82},{"user_id":497,"name":"NOLSEY","steam_id":76561198108959504,"connected_time":78000000000,"state":"active","ping":34},{"user_id":482,"name":"Nessie is my Waifu","steam_id":76561198076021620,"connected_time":1283000000000,"state":"active","ping":70},{"user_id":491,"name":"Big Oil","steam_id":76561199238964574,"connected_time":925000000000,"state":"active","ping":62},{"user_id":496,"name":"Count Ejacula","steam_id":76561198058400387,"connected_time":130000000000,"state":"active","ping":89},{"user_id":494,"name":"harison86","steam_id":76561198060100647,"connected_time":298000000000,"state":"active","ping":90}]},{"server_id":8,"name":"Uncletopia | Dallas | 1 | All Maps","name_short":"dal-1","host":"dal-1.us.uncletopia.com","port":27015,"enabled":true,"region":"us-central","cc":"us","latitude":32.779167,"longitude":-96.80889,"reserved":0,"last_update":"0001-01-01T00:00:00Z","name_a2s":"Uncletopia | Dallas | 1 | All Maps","protocol":17,"map":"cp_sunshine","folder":"tf","game":"Team Fortress","app_id":440,"player_count":24,"max_players":24,"Bots":0,"server_type":"Dedicated","server_os":"Linux","password":true,"vac":true,"version":"7932396","steam_id":85568392924469986,"keywords":["cp","nocrits","nodmgspread","uncletopia"],"game_id":440,"stv_port":27016,"stv_name":"Uncletopia | Dallas | 1 | All Maps | STV","players":[{"user_id":796,"name":"Moon_Man","steam_id":76561199028500370,"connected_time":338000000000,"state":"active","ping":94},{"user_id":681,"name":"Sableye","steam_id":76561198061247147,"connected_time":9624000000000,"state":"active","ping":69},{"user_id":777,"name":"hood rich ben shapiro","steam_id":76561198984612489,"connected_time":1092000000000,"state":"active","ping":82},{"user_id":778,"name":"Pinetree w/ apples.","steam_id":76561198105411709,"connected_time":1091000000000,"state":"active","ping":113},{"user_id":793,"name":"Grand Wizard Autismo","steam_id":76561198069834979,"connected_time":602000000000,"state":"active","ping":60},{"user_id":800,"name":"bea","steam_id":76561199085645300,"connected_time":175000000000,"state":"active","ping":64},{"user_id":748,"name":"Foohymaster2","steam_id":76561198050239992,"connected_time":3945000000000,"state":"active","ping":76},{"user_id":802,"name":"ash","steam_id":76561198127890645,"connected_time":73000000000,"state":"active","ping":85},{"user_id":659,"name":"Greg Boberton 2012","steam_id":76561198983566026,"connected_time":11572000000000,"state":"active","ping":83},{"user_id":797,"name":"Squiddysquibbles","steam_id":76561198268476001,"connected_time":336000000000,"state":"active","ping":87},{"user_id":794,"name":"Manic","steam_id":76561198128149670,"connected_time":352000000000,"state":"active","ping":45},{"user_id":779,"name":"‰ªôÂ•≥Â§¥Â≠ê‰∫éË∞¶","steam_id":76561199031075505,"connected_time":1085000000000,"state":"active","ping":163},{"user_id":781,"name":"ark","steam_id":76561198041066271,"connected_time":994000000000,"state":"active","ping":78},{"user_id":799,"name":"errant","steam_id":76561197961758410,"connected_time":213000000000,"state":"active","ping":37},{"user_id":752,"name":"DocDankDandy","steam_id":76561197999440195,"connected_time":3773000000000,"state":"active","ping":91},{"user_id":768,"name":"`o2","steam_id":76561197992030936,"connected_time":2289000000000,"state":"active","ping":88},{"user_id":733,"name":"BADWOLF42","steam_id":76561198055447523,"connected_time":5529000000000,"state":"active","ping":57},{"user_id":783,"name":"TF2C | fac -AA-","steam_id":76561198009818412,"connected_time":986000000000,"state":"active","ping":59},{"user_id":738,"name":"Borgir","steam_id":76561198325390265,"connected_time":4818000000000,"state":"active","ping":70},{"user_id":732,"name":"gadisboss","steam_id":76561198301704975,"connected_time":5632000000000,"state":"active","ping":94},{"user_id":775,"name":"Ace","steam_id":76561198878661482,"connected_time":1473000000000,"state":"active","ping":43},{"user_id":784,"name":"Duh Slug God","steam_id":76561198347280079,"connected_time":984000000000,"state":"active","ping":82},{"user_id":758,"name":"pinglefingle","steam_id":76561198216580197,"connected_time":3022000000000,"state":"active","ping":60},{"user_id":786,"name":"gruae","steam_id":76561198123901933,"connected_time":974000000000,"state":"active","ping":88}]},{"server_id":108,"name":"Uncletopia | Dallas | 2 | All Maps","name_short":"dal-2","host":"dal-1.us.uncletopia.com","port":27025,"enabled":true,"region":"us-central","cc":"us","latitude":32.779167,"longitude":-96.80889,"reserved":0,"last_update":"0001-01-01T00:00:00Z","name_a2s":"Uncletopia | Dallas | 2 | All Maps","protocol":17,"map":"pl_thundermountain","folder":"tf","game":"Team Fortress","app_id":440,"player_count":24,"max_players":24,"Bots":0,"server_type":"Dedicated","server_os":"Linux","password":true,"vac":true,"version":"7932396","steam_id":85568392924469988,"keywords":["nocrits","nodmgspread","payload","uncletopia"],"game_id":440,"stv_port":27026,"stv_name":"Uncletopia | Dallas | 2 | All Maps | STV","players":[{"user_id":752,"name":"plink","steam_id":76561198057829889,"connected_time":2997000000000,"state":"active","ping":85},{"user_id":775,"name":"Saucy Boy","steam_id":76561198178332031,"connected_time":1059000000000,"state":"active","ping":88},{"user_id":731,"name":"Unlock The Shock (She/They)","steam_id":76561198823616667,"connected_time":5363000000000,"state":"active","ping":56},{"user_id":759,"name":"Palamedes Sextus","steam_id":76561198096306325,"connected_time":2018000000000,"state":"active","ping":91},{"user_id":773,"name":"Mint Jelly","steam_id":76561197991286751,"connected_time":1067000000000,"state":"active","ping":72},{"user_id":736,"name":"Video Game Andy Reid","steam_id":76561198202195792,"connected_time":5038000000000,"state":"active","ping":78},{"user_id":785,"name":"sleepless","steam_id":76561199118761255,"connected_time":71000000000,"state":"active","ping":78},{"user_id":748,"name":"peebs","steam_id":76561198261319753,"connected_time":3883000000000,"state":"active","ping":53},{"user_id":784,"name":"Caboose","steam_id":76561198215451935,"connected_time":167000000000,"state":"active","ping":54},{"user_id":707,"name":"Woozy","steam_id":76561198008220735,"connected_time":6427000000000,"state":"active","ping":94},{"user_id":755,"name":"Nebe0","steam_id":76561199133770186,"connected_time":2259000000000,"state":"active","ping":99},{"user_id":739,"name":"blossom","steam_id":76561198042735130,"connected_time":4569000000000,"state":"active","ping":104},{"user_id":786,"name":"wakeupbdot","steam_id":76561198160786631,"connected_time":8000000000,"state":"active","ping":95},{"user_id":783,"name":"Soviet Potato","steam_id":76561198068546113,"connected_time":189000000000,"state":"active","ping":82},{"user_id":778,"name":"xiPoison","steam_id":76561198064961659,"connected_time":750000000000,"state":"active","ping":63},{"user_id":660,"name":"apcsmoore","steam_id":76561199124727793,"connected_time":9799000000000,"state":"active","ping":88},{"user_id":754,"name":"Riff III","steam_id":76561198066921423,"connected_time":2391000000000,"state":"active","ping":68},{"user_id":745,"name":"Donnie Blasto","steam_id":76561198043432005,"connected_time":4040000000000,"state":"active","ping":77},{"user_id":762,"name":"all toasters toast toast","steam_id":76561198140846580,"connected_time":1880000000000,"state":"active","ping":86},{"user_id":777,"name":"selvhat","steam_id":76561198114225509,"connected_time":894000000000,"state":"active","ping":80},{"user_id":768,"name":"Four","steam_id":76561198413077658,"connected_time":1458000000000,"state":"active","ping":61},{"user_id":709,"name":"Lunatic Kaguya H.","steam_id":76561198345276434,"connected_time":6337000000000,"state":"active","ping":67},{"user_id":782,"name":"Aldos","steam_id":76561198210968752,"connected_time":267000000000,"state":"active","ping":82},{"user_id":763,"name":"TOKENLIZARD","steam_id":76561198218765205,"connected_time":1826000000000,"state":"active","ping":70}]},{"server_id":5,"name":"Uncletopia | Frankfurt | 1 | All Maps","name_short":"frk-1","host":"frk-1.de.uncletopia.com","port":27015,"enabled":true,"region":"eu","cc":"de","latitude":50.110924,"longitude":8.682127,"reserved":0,"last_update":"0001-01-01T00:00:00Z","name_a2s":"Uncletopia | Frankfurt | 1 | All Maps","protocol":17,"map":"pl_badwater","folder":"tf","game":"Team Fortress","app_id":440,"player_count":0,"max_players":24,"Bots":0,"server_type":"Dedicated","server_os":"Linux","password":true,"vac":true,"version":"7932396","steam_id":85568392924469989,"keywords":["nocrits","nodmgspread","payload","uncletopia"],"game_id":440,"stv_port":27016,"stv_name":"Uncletopia | Frankfurt | 1 | All Maps | STV","players":null},{"server_id":110,"name":"Uncletopia | Frankfurt | 2 | All Maps","name_short":"frk-2","host":"frk-1.de.uncletopia.com","port":27025,"enabled":true,"region":"eu","cc":"de","latitude":50.110924,"longitude":8.682127,"reserved":0,"last_update":"0001-01-01T00:00:00Z","name_a2s":"Uncletopia | Frankfurt | 2 | All Maps","protocol":17,"map":"pl_borneo","folder":"tf","game":"Team Fortress","app_id":440,"player_count":0,"max_players":24,"Bots":0,"server_type":"Dedicated","server_os":"Linux","password":true,"vac":true,"version":"7932396","steam_id":85568392924469990,"keywords":["nocrits","nodmgspread","payload","uncletopia"],"game_id":440,"stv_port":27026,"stv_name":"Uncletopia | Frankfurt | 2 | All Maps | STV","players":null},{"server_id":308,"name":"Uncletopia | Frankfurt | 3 | All Maps","name_short":"frk-3","host":"frk-1.de.uncletopia.com","port":27035,"enabled":true,"region":"eu","cc":"de","latitude":50.110924,"longitude":8.682127,"reserved":0,"last_update":"0001-01-01T00:00:00Z","name_a2s":"Uncletopia | Frankfurt | 3 | All Maps","protocol":17,"map":"pl_badwater","folder":"tf","game":"Team Fortress","app_id":440,"player_count":0,"max_players":24,"Bots":0,"server_type":"Dedicated","server_os":"Linux","password":true,"vac":true,"version":"7932396","steam_id":85568392924504274,"keywords":["nocrits","nodmgspread","payload","uncletopia"],"game_id":440,"stv_port":27036,"stv_name":"Uncletopia | Frankfurt | 3 | All Maps | STV","players":null},{"server_id":309,"name":"Uncletopia | Frankfurt | 4 | All Maps","name_short":"frk-4","host":"frk-1.de.uncletopia.com","port":27045,"enabled":true,"region":"eu","cc":"de","latitude":50.110924,"longitude":8.682127,"reserved":0,"last_update":"0001-01-01T00:00:00Z","name_a2s":"Uncletopia | Frankfurt | 4 | All Maps","protocol":17,"map":"pl_upward","folder":"tf","game":"Team Fortress","app_id":440,"player_count":0,"max_players":24,"Bots":0,"server_type":"Dedicated","server_os":"Linux","password":true,"vac":true,"version":"7932396","steam_id":85568392924504275,"keywords":["nocrits","nodmgspread","payload","uncletopia"],"game_id":440,"stv_port":27046,"stv_name":"Uncletopia | Frankfurt | 4 | All Maps | STV","players":null},{"server_id":310,"name":"Uncletopia | Frankfurt | 5 | All Maps","name_short":"frk-5","host":"frk-1.de.uncletopia.com","port":27055,"enabled":true,"region":"eu","cc":"de","latitude":50.110924,"longitude":8.682127,"reserved":0,"last_update":"0001-01-01T00:00:00Z","name_a2s":"Uncletopia | Frankfurt | 5 | All Maps","protocol":17,"map":"pl_badwater","folder":"tf","game":"Team Fortress","app_id":440,"player_count":0,"max_players":24,"Bots":0,"server_type":"Dedicated","server_os":"Linux","password":true,"vac":true,"version":"7932396","steam_id":85568392924504277,"keywords":["nocrits","nodmgspread","payload","uncletopia"],"game_id":440,"stv_port":27056,"stv_name":"Uncletopia | Frankfurt | 5 | All Maps | STV","players":null},{"server_id":311,"name":"Uncletopia | Frankfurt | 6 | All Maps","name_short":"frk-6","host":"frk-1.de.uncletopia.com","port":27065,"enabled":true,"region":"eu","cc":"de","latitude":50.110924,"longitude":8.682127,"reserved":0,"last_update":"0001-01-01T00:00:00Z","name_a2s":"Uncletopia | Frankfurt | 6 | All Maps","protocol":17,"map":"koth_viaduct","folder":"tf","game":"Team Fortress","app_id":440,"player_count":0,"max_players":24,"Bots":0,"server_type":"Dedicated","server_os":"Linux","password":true,"vac":true,"version":"7932396","steam_id":85568392924504278,"keywords":["cp","nocrits","nodmgspread","uncletopia"],"game_id":440,"stv_port":27066,"stv_name":"Uncletopia | Frankfurt | 6 | All Maps | STV","players":null},{"server_id":23,"name":"Uncletopia | Frankfurt | 7 | Stopwatch Beta","name_short":"frk-7","host":"frk-1.de.uncletopia.com","port":27075,"enabled":true,"region":"eu","cc":"de","latitude":50.110924,"longitude":8.682127,"reserved":0,"last_update":"0001-01-01T00:00:00Z","name_a2s":"Uncletopia | Frankfurt | 7 | Stopwatch Beta","protocol":17,"map":"pl_snowycoast","folder":"tf","game":"Team Fortress","app_id":440,"player_count":0,"max_players":24,"Bots":0,"server_type":"Dedicated","server_os":"Linux","password":true,"vac":true,"version":"7932396","steam_id":85568392924742827,"keywords":["nocrits","nodmgspread","payload","uncletopia"],"game_id":440,"stv_port":27076,"stv_name":"Uncletopia | Frankfurt | 7 | Stopwatch Beta | STV","players":null},{"server_id":24,"name":"Uncletopia | Frankfurt | 8 | Community","name_short":"frk-8","host":"frk-1.de.uncletopia.com","port":27085,"enabled":true,"region":"eu","cc":"de","latitude":50.110924,"longitude":8.682127,"reserved":0,"last_update":"0001-01-01T00:00:00Z","name_a2s":"Uncletopia | Frankfurt | 8 | Community","protocol":17,"map":"pl_barnblitz","folder":"tf","game":"Team Fortress","app_id":440,"player_count":0,"max_players":24,"Bots":0,"server_type":"Dedicated","server_os":"Linux","password":true,"vac":true,"version":"7932396","steam_id":85568392924742828,"keywords":["nocrits","nodmgspread","payload","uncletopia"],"game_id":440,"stv_port":27086,"stv_name":"Uncletopia | Frankfurt | 8 | Community | STV","players":null},{"server_id":202,"name":"Uncletopia | Hong Kong | 1 | All Maps","name_short":"hgk-1","host":"hgk-1.hk.uncletopia.com","port":27015,"enabled":true,"region":"asia","cc":"hk","latitude":22.302711,"longitude":114.177216,"reserved":0,"last_update":"0001-01-01T00:00:00Z","name_a2s":"Uncletopia | Hong Kong | 1 | All Maps","protocol":17,"map":"cp_altitude","folder":"tf","game":"Team Fortress","app_id":440,"player_count":24,"max_players":24,"Bots":0,"server_type":"Dedicated","server_os":"Linux","password":true,"vac":true,"version":"7932396","steam_id":85568392924494504,"keywords":["cp","nocrits","nodmgspread","uncletopia"],"game_id":440,"stv_port":27016,"stv_name":"Uncletopia | Hong Kong | 1 | All Maps | STV","players":[{"user_id":29,"name":"MS PowerPoint","steam_id":76561198369523192,"connected_time":5099000000000,"state":"spawning","ping":72},{"user_id":25,"name":"Hay","steam_id":76561199438952901,"connected_time":6291000000000,"state":"active","ping":44},{"user_id":97,"name":"hasbro sombrero","steam_id":76561199105026659,"connected_time":62000000000,"state":"active","ping":112},{"user_id":62,"name":"SAFHEY3456","steam_id":76561198268113089,"connected_time":2715000000000,"state":"spawning","ping":84},{"user_id":99,"name":"TomTom","steam_id":76561198006117424,"connected_time":32000000000,"state":"active","ping":64},{"user_id":56,"name":"‚ú™Silence‚ú™","steam_id":76561198278787384,"connected_time":3156000000000,"state":"active","ping":74},{"user_id":92,"name":"vintage","steam_id":76561198230213828,"connected_time":520000000000,"state":"active","ping":115},{"user_id":88,"name":"Mystery cheese üßÄ","steam_id":76561198304002409,"connected_time":840000000000,"state":"active","ping":73},{"user_id":90,"name":"BP","steam_id":76561199235739057,"connected_time":621000000000,"state":"active","ping":85},{"user_id":95,"name":"¬ßaveh!","steam_id":76561198141410845,"connected_time":259000000000,"state":"active","ping":59},{"user_id":96,"name":"Male Detected!","steam_id":76561199082459598,"connected_time":80000000000,"state":"active","ping":88},{"user_id":74,"name":"coakDeLera","steam_id":76561199262817512,"connected_time":2147000000000,"state":"active","ping":85},{"user_id":93,"name":"Milk‚ù§","steam_id":76561198163911560,"connected_time":460000000000,"state":"active","ping":121},{"user_id":98,"name":"Battery","steam_id":76561198004583032,"connected_time":62000000000,"state":"active","ping":90},{"user_id":61,"name":"oppai of the bocchi","steam_id":76561198008307645,"connected_time":2907000000000,"state":"active","ping":130},{"user_id":69,"name":"screaming sniper","steam_id":76561199085568674,"connected_time":2401000000000,"state":"active","ping":58},{"user_id":76,"name":"p1st0n","steam_id":76561198992723983,"connected_time":2003000000000,"state":"active","ping":99},{"user_id":84,"name":"Beef Wellington","steam_id":76561197995635241,"connected_time":1487000000000,"state":"active","ping":120},{"user_id":72,"name":"Med","steam_id":76561199087727164,"connected_time":2330000000000,"state":"active","ping":87},{"user_id":83,"name":"Streety","steam_id":76561199098969003,"connected_time":1687000000000,"state":"active","ping":81},{"user_id":77,"name":"spinach (old mouse)","steam_id":76561198042539541,"connected_time":1933000000000,"state":"active","ping":76},{"user_id":81,"name":"Pillboi","steam_id":76561198011172886,"connected_time":1742000000000,"state":"active","ping":37},{"user_id":82,"name":"UltraFat","steam_id":76561198253918132,"connected_time":1725000000000,"state":"active","ping":90},{"user_id":86,"name":"juvenile jimmy","steam_id":76561198055553140,"connected_time":1232000000000,"state":"active","ping":75}]},{"server_id":1,"name":"Uncletopia | Los Angeles | 1 | All Maps","name_short":"lax-1","host":"lax-1.us.uncletopia.com","port":27015,"enabled":true,"region":"us-west","cc":"us","latitude":33.94279,"longitude":-118.41004,"reserved":0,"last_update":"0001-01-01T00:00:00Z","name_a2s":"Uncletopia | Los Angeles | 1 | All Maps","protocol":17,"map":"pl_snowycoast","folder":"tf","game":"Team Fortress","app_id":440,"player_count":24,"max_players":24,"Bots":0,"server_type":"Dedicated","server_os":"Linux","password":true,"vac":true,"version":"7932396","steam_id":85568392924469991,"keywords":["nocrits","nodmgspread","payload","uncletopia"],"game_id":440,"stv_port":27016,"stv_name":"Uncletopia | Los Angeles | 1 | All Maps | STV","players":[{"user_id":567,"name":"flo rida","steam_id":76561198226169704,"connected_time":5058000000000,"state":"active","ping":56},{"user_id":572,"name":"trigger_hurt","steam_id":76561198036209556,"connected_time":4194000000000,"state":"active","ping":114},{"user_id":608,"name":"Schnitz","steam_id":76561198265484253,"connected_time":497000000000,"state":"active","ping":54},{"user_id":580,"name":"stick","steam_id":76561198134334367,"connected_time":2970000000000,"state":"active","ping":73},{"user_id":598,"name":"Ralph Kramden (Slim Charles)","steam_id":76561197981687895,"connected_time":1449000000000,"state":"active","ping":57},{"user_id":610,"name":"goofy little guy","steam_id":76561199261778396,"connected_time":260000000000,"state":"active","ping":107},{"user_id":589,"name":"Why Me...","steam_id":76561199124019937,"connected_time":2434000000000,"state":"active","ping":65},{"user_id":568,"name":"Sweattadpole","steam_id":76561199456100100,"connected_time":4901000000000,"state":"active","ping":126},{"user_id":595,"name":"xbox record that","steam_id":76561198150117455,"connected_time":1485000000000,"state":"active","ping":56},{"user_id":579,"name":"Samurai Sam","steam_id":76561198274223636,"connected_time":2982000000000,"state":"active","ping":119},{"user_id":611,"name":"Chalupa Jones","steam_id":76561198335855588,"connected_time":252000000000,"state":"active","ping":52},{"user_id":599,"name":"RazuIce","steam_id":76561199279200907,"connected_time":1447000000000,"state":"active","ping":80},{"user_id":592,"name":"Nate","steam_id":76561198045186954,"connected_time":2066000000000,"state":"active","ping":61},{"user_id":539,"name":"the dishtv1605","steam_id":76561198061284371,"connected_time":7582000000000,"state":"active","ping":107},{"user_id":601,"name":"Fargo","steam_id":76561198044703931,"connected_time":1432000000000,"state":"active","ping":85},{"user_id":495,"name":"shitass | troutsupply.net","steam_id":76561198210572481,"connected_time":13295000000000,"state":"active","ping":45},{"user_id":604,"name":"CrystalClear","steam_id":76561198210417120,"connected_time":1046000000000,"state":"active","ping":67},{"user_id":591,"name":"Walrus","steam_id":76561198001799905,"connected_time":2098000000000,"state":"active","ping":48},{"user_id":477,"name":"Zigadox","steam_id":76561198079813479,"connected_time":15346000000000,"state":"active","ping":120},{"user_id":565,"name":"Canned Lobster","steam_id":76561198110847328,"connected_time":5091000000000,"state":"active","ping":59},{"user_id":504,"name":"ozbulu","steam_id":76561198067176829,"connected_time":12132000000000,"state":"active","ping":53},{"user_id":597,"name":"luigiclub","steam_id":76561198180548194,"connected_time":1467000000000,"state":"active","ping":76},{"user_id":602,"name":"ChipE","steam_id":76561198137146627,"connected_time":1420000000000,"state":"active","ping":68},{"user_id":607,"name":"ROCKET RACCOON","steam_id":76561198009304655,"connected_time":754000000000,"state":"active","ping":80}]},{"server_id":112,"name":"Uncletopia | Los Angeles | 2 | All Maps","name_short":"lax-2","host":"lax-1.us.uncletopia.com","port":27025,"enabled":true,"region":"us-west","cc":"us","latitude":33.94279,"longitude":-118.41004,"reserved":0,"last_update":"0001-01-01T00:00:00Z","name_a2s":"Uncletopia | Los Angeles | 2 | All Maps","protocol":17,"map":"cp_sunshine","folder":"tf","game":"Team Fortress","app_id":440,"player_count":24,"max_players":24,"Bots":0,"server_type":"Dedicated","server_os":"Linux","password":true,"vac":true,"version":"7932396","steam_id":85568392924469992,"keywords":["cp","nocrits","nodmgspread","uncletopia"],"game_id":440,"stv_port":27026,"stv_name":"Uncletopia | Los Angeles | 2 | All Maps | STV","players":[{"user_id":479,"name":"Komada337","steam_id":76561198153971124,"connected_time":3583000000000,"state":"active","ping":105},{"user_id":529,"name":"dudescore","steam_id":76561199091453555,"connected_time":253000000000,"state":"active","ping":62},{"user_id":511,"name":"DAInstant","steam_id":76561198861615617,"connected_time":662000000000,"state":"active","ping":67},{"user_id":531,"name":"An00bis","steam_id":76561198044084508,"connected_time":234000000000,"state":"active","ping":58},{"user_id":512,"name":"tunafish64","steam_id":76561199488561842,"connected_time":650000000000,"state":"active","ping":40},{"user_id":514,"name":"Revenant-6","steam_id":76561198124566666,"connected_time":539000000000,"state":"active","ping":39},{"user_id":468,"name":"pinkacrash","steam_id":76561198110723576,"connected_time":4781000000000,"state":"active","ping":32},{"user_id":518,"name":"Kdash","steam_id":76561198043829155,"connected_time":490000000000,"state":"active","ping":79},{"user_id":515,"name":"Thequirka","steam_id":76561198968058652,"connected_time":524000000000,"state":"active","ping":69},{"user_id":513,"name":"choodle","steam_id":76561198930608649,"connected_time":620000000000,"state":"active","ping":32},{"user_id":516,"name":"Portaljumper02","steam_id":76561199199139402,"connected_time":524000000000,"state":"active","ping":59},{"user_id":530,"name":"Riven","steam_id":76561198248102226,"connected_time":249000000000,"state":"active","ping":85},{"user_id":527,"name":"Ink","steam_id":76561198328781175,"connected_time":339000000000,"state":"active","ping":58},{"user_id":519,"name":"desk","steam_id":76561199115711719,"connected_time":447000000000,"state":"active","ping":46},{"user_id":532,"name":"FaceLaces","steam_id":76561198194417725,"connected_time":228000000000,"state":"active","ping":53},{"user_id":446,"name":"crumbles","steam_id":76561198168707036,"connected_time":5229000000000,"state":"active","ping":63},{"user_id":521,"name":"Theo","steam_id":76561198147484780,"connected_time":406000000000,"state":"active","ping":78},{"user_id":528,"name":"meow","steam_id":76561198298140571,"connected_time":279000000000,"state":"active","ping":57},{"user_id":523,"name":"Mat-Shades","steam_id":76561198013998031,"connected_time":398000000000,"state":"active","ping":116},{"user_id":524,"name":"hypo","steam_id":76561198062479158,"connected_time":397000000000,"state":"active","ping":86},{"user_id":525,"name":"mocer","steam_id":76561198329367716,"connected_time":379000000000,"state":"active","ping":63},{"user_id":533,"name":"‚ù§[S'more]‚ù§","steam_id":76561198817361963,"connected_time":215000000000,"state":"active","ping":77},{"user_id":526,"name":"Testament-In-Training","steam_id":76561198281251327,"connected_time":365000000000,"state":"active","ping":95},{"user_id":534,"name":"JayTown","steam_id":76561199013245207,"connected_time":110000000000,"state":"active","ping":99}]},{"server_id":324,"name":"Uncletopia | Los Angeles | 3 | All Maps","name_short":"lax-3","host":"lax-1.us.uncletopia.com","port":27035,"enabled":true,"region":"us-west","cc":"us","latitude":33.94279,"longitude":-118.41004,"reserved":0,"last_update":"0001-01-01T00:00:00Z","name_a2s":"Uncletopia | Los Angeles | 3 | All Maps","protocol":17,"map":"pl_badwater","folder":"tf","game":"Team Fortress","app_id":440,"player_count":24,"max_players":24,"Bots":0,"server_type":"Dedicated","server_os":"Linux","password":true,"vac":true,"version":"7932396","steam_id":85568392924510198,"keywords":["nocrits","nodmgspread","payload","uncletopia"],"game_id":440,"stv_port":27036,"stv_name":"Uncletopia | Los Angeles | 3 | All Maps | STV","players":[{"user_id":194,"name":"Ice cream sandwich","steam_id":76561198172748357,"connected_time":1867000000000,"state":"active","ping":59},{"user_id":165,"name":"breakfast","steam_id":76561198043712978,"connected_time":3089000000000,"state":"active","ping":58},{"user_id":198,"name":"grassyboulder","steam_id":76561199083593292,"connected_time":1465000000000,"state":"active","ping":141},{"user_id":81,"name":"UnReLinked","steam_id":76561199366044663,"connected_time":9740000000000,"state":"active","ping":79},{"user_id":213,"name":"Biggest Dude In Town 4U","steam_id":76561198070281464,"connected_time":63000000000,"state":"active","ping":82},{"user_id":205,"name":"nori_420","steam_id":76561199117134203,"connected_time":784000000000,"state":"active","ping":56},{"user_id":197,"name":"Buckethead","steam_id":76561198210181296,"connected_time":1523000000000,"state":"active","ping":61},{"user_id":210,"name":"üå∏ Rena üå∏","steam_id":76561198048995563,"connected_time":275000000000,"state":"active","ping":57},{"user_id":160,"name":"TheLegend27","steam_id":76561199012721121,"connected_time":3168000000000,"state":"active","ping":63},{"user_id":182,"name":"hatsune miku","steam_id":76561199445009981,"connected_time":2876000000000,"state":"active","ping":71},{"user_id":208,"name":"SAVECASEY","steam_id":76561198857896847,"connected_time":444000000000,"state":"active","ping":45},{"user_id":186,"name":"Shinnooooo","steam_id":76561198152128596,"connected_time":2478000000000,"state":"active","ping":57},{"user_id":184,"name":"im high asf","steam_id":76561198198781598,"connected_time":2848000000000,"state":"active","ping":50},{"user_id":199,"name":"simcye","steam_id":76561198010991761,"connected_time":1465000000000,"state":"active","ping":65},{"user_id":192,"name":"Riko","steam_id":76561198028097118,"connected_time":2021000000000,"state":"active","ping":99},{"user_id":193,"name":"ShockinglyCaucasian","steam_id":76561198076775164,"connected_time":1998000000000,"state":"active","ping":122},{"user_id":214,"name":"hotguy6pack","steam_id":76561198881665250,"connected_time":30000000000,"state":"active","ping":89},{"user_id":209,"name":"Fernando","steam_id":76561198443038047,"connected_time":437000000000,"state":"active","ping":49},{"user_id":204,"name":"Nesster","steam_id":76561198071688242,"connected_time":840000000000,"state":"active","ping":109},{"user_id":206,"name":"chilis baby back ribs","steam_id":76561198813516435,"connected_time":778000000000,"state":"active","ping":43},{"user_id":56,"name":"Zion Chavez","steam_id":76561198178536999,"connected_time":11154000000000,"state":"active","ping":60},{"user_id":176,"name":"naturia","steam_id":76561198092317849,"connected_time":2957000000000,"state":"active","ping":46},{"user_id":212,"name":"Ashes!","steam_id":76561197998475441,"connected_time":105000000000,"state":"active","ping":121},{"user_id":203,"name":"dAiLyGrInD","steam_id":76561198163531915,"connected_time":906000000000,"state":"active","ping":91}]},{"server_id":25,"name":"Uncletopia | Los Angeles | 4 | Stopwatch Beta","name_short":"lax-4","host":"lax-1.us.uncletopia.com","port":27045,"enabled":true,"region":"us-west","cc":"us","latitude":33.94279,"longitude":-118.41004,"reserved":0,"last_update":"0001-01-01T00:00:00Z","name_a2s":"Uncletopia | Los Angeles | 4 | Stopwatch Beta","protocol":17,"map":"pl_swiftwater_final1","folder":"tf","game":"Team Fortress","app_id":440,"player_count":0,"max_players":24,"Bots":0,"server_type":"Dedicated","server_os":"Linux","password":true,"vac":true,"version":"7932396","steam_id":85568392924510199,"keywords":["nocrits","nodmgspread","payload","uncletopia"],"game_id":440,"stv_port":27046,"stv_name":"Uncletopia | Los Angeles | 4 | Stopwatch Beta | STV","players":null},{"server_id":11,"name":"Uncletopia | London | 1 | All Maps","name_short":"lon-1","host":"lon-1.uk.uncletopia.com","port":27015,"enabled":true,"region":"eu","cc":"gb","latitude":51.509865,"longitude":-0.118092,"reserved":0,"last_update":"0001-01-01T00:00:00Z","name_a2s":"Uncletopia | London | 1 | All Maps","protocol":17,"map":"cp_snakewater_final1","folder":"tf","game":"Team Fortress","app_id":440,"player_count":0,"max_players":24,"Bots":0,"server_type":"Dedicated","server_os":"Linux","password":true,"vac":true,"version":"7932396","steam_id":85568392924367362,"keywords":["cp","nocrits","nodmgspread","uncletopia"],"game_id":440,"stv_port":27016,"stv_name":"Uncletopia | London | 1 | All Maps | STV","players":null},{"server_id":114,"name":"Uncletopia | London | 2 | All Maps","name_short":"lon-2","host":"lon-1.uk.uncletopia.com","port":27025,"enabled":true,"region":"eu","cc":"gb","latitude":51.509865,"longitude":-0.118092,"reserved":0,"last_update":"0001-01-01T00:00:00Z","name_a2s":"Uncletopia | London | 2 | All Maps","protocol":17,"map":"koth_highpass","folder":"tf","game":"Team Fortress","app_id":440,"player_count":0,"max_players":24,"Bots":0,"server_type":"Dedicated","server_os":"Linux","password":true,"vac":true,"version":"7932396","steam_id":85568392924470941,"keywords":["cp","nocrits","nodmgspread","uncletopia"],"game_id":440,"stv_port":27026,"stv_name":"Uncletopia | London | 2 | All Maps | STV","players":null},{"server_id":320,"name":"Uncletopia | London | 3 | All Maps","name_short":"lon-3","host":"lon-1.uk.uncletopia.com","port":27035,"enabled":true,"region":"eu","cc":"gb","latitude":51.509865,"longitude":-0.118092,"reserved":0,"last_update":"0001-01-01T00:00:00Z","name_a2s":"Uncletopia | London | 3 | All Maps","protocol":17,"map":"cp_altitude","folder":"tf","game":"Team Fortress","app_id":440,"player_count":0,"max_players":24,"Bots":0,"server_type":"Dedicated","server_os":"Linux","password":true,"vac":true,"version":"7932396","steam_id":85568392924510192,"keywords":["cp","nocrits","nodmgspread","uncletopia"],"game_id":440,"stv_port":27036,"stv_name":"Uncletopia | London | 3 | All Maps | STV","players":null},{"server_id":321,"name":"Uncletopia | London | 4 | All Maps","name_short":"lon-4","host":"lon-1.uk.uncletopia.com","port":27045,"enabled":true,"region":"eu","cc":"gb","latitude":51.509865,"longitude":-0.118092,"reserved":0,"last_update":"0001-01-01T00:00:00Z","name_a2s":"Uncletopia | London | 4 | All Maps","protocol":17,"map":"cp_snakewater_final1","folder":"tf","game":"Team Fortress","app_id":440,"player_count":0,"max_players":24,"Bots":0,"server_type":"Dedicated","server_os":"Linux","password":true,"vac":true,"version":"7932396","steam_id":85568392924510193,"keywords":["cp","nocrits","nodmgspread","uncletopia"],"game_id":440,"stv_port":27046,"stv_name":"Uncletopia | London | 4 | All Maps | STV","players":null},{"server_id":21,"name":"Uncletopia | London | 5 | All Maps","name_short":"lon-5","host":"lon-1.uk.uncletopia.com","port":27055,"enabled":true,"region":"eu","cc":"gb","latitude":51.509865,"longitude":-0.118092,"reserved":0,"last_update":"0001-01-01T00:00:00Z","name_a2s":"Uncletopia | London | 5 | All Maps","protocol":17,"map":"pl_borneo","folder":"tf","game":"Team Fortress","app_id":440,"player_count":0,"max_players":24,"Bots":0,"server_type":"Dedicated","server_os":"Linux","password":true,"vac":true,"version":"7932396","steam_id":85568392924742829,"keywords":["nocrits","nodmgspread","payload","uncletopia"],"game_id":440,"stv_port":27056,"stv_name":"Uncletopia | London | 5 | All Maps | STV","players":null},{"server_id":22,"name":"Uncletopia | London | 6 | All Maps","name_short":"lon-6","host":"lon-1.uk.uncletopia.com","port":27065,"enabled":true,"region":"eu","cc":"gb","latitude":51.509865,"longitude":-0.118092,"reserved":0,"last_update":"0001-01-01T00:00:00Z","name_a2s":"Uncletopia | London | 6 | All Maps","protocol":17,"map":"cp_mountainlab","folder":"tf","game":"Team Fortress","app_id":440,"player_count":0,"max_players":24,"Bots":0,"server_type":"Dedicated","server_os":"Linux","password":true,"vac":true,"version":"7932396","steam_id":85568392924742830,"keywords":["cp","nocrits","nodmgspread","uncletopia"],"game_id":440,"stv_port":27066,"stv_name":"Uncletopia | London | 6 | All Maps | STV","players":null},{"server_id":40,"name":"Uncletopia | London | 7 | No Payload","name_short":"lon-7","host":"lon-1.uk.uncletopia.com","port":27075,"enabled":true,"region":"eu","cc":"gb","latitude":51.509865,"longitude":-0.118092,"reserved":0,"last_update":"0001-01-01T00:00:00Z","name_a2s":"Uncletopia | London | 7 | No Payload","protocol":17,"map":"pl_snowycoast","folder":"tf","game":"Team Fortress","app_id":440,"player_count":0,"max_players":24,"Bots":0,"server_type":"Dedicated","server_os":"Linux","password":true,"vac":true,"version":"7932396","steam_id":85568392924964314,"keywords":["nocrits","nodmgspread","payload","uncletopia"],"game_id":440,"stv_port":27076,"stv_name":"Uncletopia | London | 7 | No Payload | STV","players":null},{"server_id":41,"name":"Uncletopia | London | 8 | Community","name_short":"lon-8","host":"lon-1.uk.uncletopia.com","port":27085,"enabled":true,"region":"eu","cc":"gb","latitude":51.509865,"longitude":-0.118092,"reserved":0,"last_update":"0001-01-01T00:00:00Z","name_a2s":"Uncletopia | London | 8 | Community","protocol":17,"map":"pl_barnblitz","folder":"tf","game":"Team Fortress","app_id":440,"player_count":0,"max_players":24,"Bots":0,"server_type":"Dedicated","server_os":"Linux","password":true,"vac":true,"version":"7932396","steam_id":85568392924964315,"keywords":["nocrits","nodmgspread","payload","uncletopia"],"game_id":440,"stv_port":27086,"stv_name":"Uncletopia | London | 8 | Community | STV","players":null},{"server_id":300,"name":"Uncletopia | Montr√©al | 1 | All Maps","name_short":"mtl-1","host":"mtl-1.ca.uncletopia.com","port":27015,"enabled":true,"region":"us-east","cc":"ca","latitude":45.50889,"longitude":-73.56167,"reserved":0,"last_update":"0001-01-01T00:00:00Z","name_a2s":"Uncletopia | Montr√©al | 1 | All Maps","protocol":17,"map":"cp_altitude","folder":"tf","game":"Team Fortress","app_id":440,"player_count":0,"max_players":24,"Bots":0,"server_type":"Dedicated","server_os":"Linux","password":true,"vac":true,"version":"7932396","steam_id":85568392924500087,"keywords":["cp","nocrits","nodmgspread","uncletopia"],"game_id":440,"stv_port":27016,"stv_name":"Uncletopia | Montr√©al | 1 | All Maps | STV","players":null},{"server_id":301,"name":"Uncletopia | Montr√©al | 2 | All Maps","name_short":"mtl-2","host":"mtl-1.ca.uncletopia.com","port":27025,"enabled":true,"region":"us-east","cc":"ca","latitude":45.50889,"longitude":-73.56167,"reserved":0,"last_update":"0001-01-01T00:00:00Z","name_a2s":"Uncletopia | Montr√©al | 2 | All Maps","protocol":17,"map":"cp_snakewater_final1","folder":"tf","game":"Team Fortress","app_id":440,"player_count":0,"max_players":24,"Bots":0,"server_type":"Dedicated","server_os":"Linux","password":true,"vac":true,"version":"7932396","steam_id":85568392924500088,"keywords":["cp","nocrits","nodmgspread","uncletopia"],"game_id":440,"stv_port":27026,"stv_name":"Uncletopia | Montr√©al | 2 | All Maps | STV","players":null},{"server_id":302,"name":"Uncletopia | Montr√©al | 3 | All Maps","name_short":"mtl-3","host":"mtl-1.ca.uncletopia.com","port":27035,"enabled":true,"region":"us-east","cc":"ca","latitude":45.50889,"longitude":-73.56167,"reserved":0,"last_update":"0001-01-01T00:00:00Z","name_a2s":"Uncletopia | Montr√©al | 3 | All Maps","protocol":17,"map":"koth_viaduct","folder":"tf","game":"Team Fortress","app_id":440,"player_count":10,"max_players":24,"Bots":0,"server_type":"Dedicated","server_os":"Linux","password":true,"vac":true,"version":"7932396","steam_id":85568392924500089,"keywords":["cp","nocrits","nodmgspread","uncletopia"],"game_id":440,"stv_port":27036,"stv_name":"Uncletopia | Montr√©al | 3 | All Maps | STV","players":[{"user_id":13,"name":"Marineland","steam_id":76561198081285187,"connected_time":6421000000000,"state":"active","ping":62},{"user_id":10,"name":"SteadyMetal0623","steam_id":76561198144942370,"connected_time":7346000000000,"state":"active","ping":69},{"user_id":43,"name":"Piyono","steam_id":76561197962188504,"connected_time":3292000000000,"state":"active","ping":59},{"user_id":73,"name":"LalitoTV","steam_id":76561198334302951,"connected_time":188000000000,"state":"active","ping":116},{"user_id":70,"name":"lost in spaaaaace","steam_id":76561199085974120,"connected_time":856000000000,"state":"active","ping":70},{"user_id":74,"name":"bloodyboorp","steam_id":76561199177105829,"connected_time":22000000000,"state":"active","ping":171},{"user_id":72,"name":"Vendetta","steam_id":76561198302883042,"connected_time":287000000000,"state":"active","ping":61},{"user_id":53,"name":"Freddy fazballs","steam_id":76561198310677935,"connected_time":2691000000000,"state":"active","ping":89},{"user_id":54,"name":"Sergeant Joker #savetf2","steam_id":76561198854616604,"connected_time":2673000000000,"state":"active","ping":45},{"user_id":38,"name":"evdoke","steam_id":76561198044555219,"connected_time":3672000000000,"state":"active","ping":49}]},{"server_id":303,"name":"Uncletopia | Montr√©al | 4 | No Payload","name_short":"mtl-4","host":"mtl-1.ca.uncletopia.com","port":27045,"enabled":true,"region":"us-east","cc":"ca","latitude":45.50889,"longitude":-73.56167,"reserved":0,"last_update":"0001-01-01T00:00:00Z","name_a2s":"Uncletopia | Montr√©al | 4 | No Payload","protocol":17,"map":"koth_lakeside_final","folder":"tf","game":"Team Fortress","app_id":440,"player_count":0,"max_players":24,"Bots":0,"server_type":"Dedicated","server_os":"Linux","password":true,"vac":true,"version":"7932396","steam_id":85568392924500090,"keywords":["cp","nocrits","nodmgspread","uncletopia"],"game_id":440,"stv_port":27046,"stv_name":"Uncletopia | Montr√©al | 4 | No Payload | STV","players":null},{"server_id":13,"name":"Uncletopia | New York City | 1 | All Maps","name_short":"nyc-1","host":"nyc-1.us.uncletopia.com","port":27015,"enabled":true,"region":"us-east","cc":"us","latitude":40.73061,"longitude":-73.93524,"reserved":0,"last_update":"0001-01-01T00:00:00Z","name_a2s":"Uncletopia | New York City | 1 | All Maps","protocol":17,"map":"pl_goldrush","folder":"tf","game":"Team Fortress","app_id":440,"player_count":22,"max_players":24,"Bots":0,"server_type":"Dedicated","server_os":"Linux","password":true,"vac":true,"version":"7932396","steam_id":85568392924469993,"keywords":["nocrits","nodmgspread","payload","uncletopia"],"game_id":440,"stv_port":27016,"stv_name":"Uncletopia | New York City | 1 | All Maps | STV","players":[{"user_id":691,"name":"Elecman7","steam_id":76561198185357062,"connected_time":504000000000,"state":"active","ping":121},{"user_id":670,"name":"Primitive","steam_id":76561198060500671,"connected_time":2688000000000,"state":"active","ping":44},{"user_id":677,"name":"Rabbi Shlomo Berkowitz","steam_id":76561199166380439,"connected_time":1271000000000,"state":"active","ping":45},{"user_id":673,"name":"Jabs","steam_id":76561198004411240,"connected_time":1591000000000,"state":"active","ping":56},{"user_id":678,"name":"Punga","steam_id":76561198083529226,"connected_time":1267000000000,"state":"active","ping":170},{"user_id":680,"name":"Sahalanthro","steam_id":76561199073298722,"connected_time":1228000000000,"state":"active","ping":115},{"user_id":687,"name":"Loaf","steam_id":76561198446378419,"connected_time":721000000000,"state":"active","ping":84},{"user_id":683,"name":"KP","steam_id":76561198077911451,"connected_time":955000000000,"state":"active","ping":100},{"user_id":684,"name":"„Äê‚Ñ≠‚Ñ¥‚Ñ∞„ÄëAn_Apple","steam_id":76561198054324087,"connected_time":869000000000,"state":"active","ping":83},{"user_id":692,"name":"Orenji","steam_id":76561199229204857,"connected_time":499000000000,"state":"active","ping":120},{"user_id":698,"name":"two","steam_id":76561199067334982,"connected_time":205000000000,"state":"active","ping":169},{"user_id":676,"name":"One Chill Daddio","steam_id":76561198074026282,"connected_time":1284000000000,"state":"active","ping":65},{"user_id":693,"name":"Epifiny","steam_id":76561198027958086,"connected_time":457000000000,"state":"active","ping":79},{"user_id":675,"name":"Duchess","steam_id":76561198042490743,"connected_time":1296000000000,"state":"active","ping":41},{"user_id":688,"name":"Whip (5'3)","steam_id":76561199385343210,"connected_time":698000000000,"state":"active","ping":48},{"user_id":672,"name":"Dilbert","steam_id":76561198195613682,"connected_time":1831000000000,"state":"active","ping":77},{"user_id":694,"name":"snos","steam_id":76561198075334330,"connected_time":456000000000,"state":"active","ping":50},{"user_id":695,"name":"Bunni","steam_id":76561198065169997,"connected_time":404000000000,"state":"active","ping":80},{"user_id":696,"name":"DroidX19","steam_id":76561198867783457,"connected_time":401000000000,"state":"active","ping":113},{"user_id":669,"name":"McLOVIN","steam_id":76561198347286009,"connected_time":2947000000000,"state":"active","ping":60},{"user_id":697,"name":"Admiral Catradora","steam_id":76561198017271944,"connected_time":368000000000,"state":"active","ping":85},{"user_id":668,"name":"Dementophobic_Dude","steam_id":76561199470601524,"connected_time":3096000000000,"state":"active","ping":86}]},{"server_id":14,"name":"Uncletopia | New York City | 2 | All Maps","name_short":"nyc-2","host":"nyc-1.us.uncletopia.com","port":27025,"enabled":true,"region":"us-east","cc":"us","latitude":40.73061,"longitude":-73.93524,"reserved":0,"last_update":"0001-01-01T00:00:00Z","name_a2s":"Uncletopia | New York City | 2 | All Maps","protocol":17,"map":"cp_gorge","folder":"tf","game":"Team Fortress","app_id":440,"player_count":23,"max_players":24,"Bots":0,"server_type":"Dedicated","server_os":"Linux","password":true,"vac":true,"version":"7932396","steam_id":85568392924469994,"keywords":["cp","nocrits","nodmgspread","uncletopia"],"game_id":440,"stv_port":27026,"stv_name":"Uncletopia | New York City | 2 | All Maps | STV","players":[{"user_id":798,"name":"Earl Acton","steam_id":76561198064273772,"connected_time":546000000000,"state":"active","ping":76},{"user_id":799,"name":"MyokomoJ","steam_id":76561198168623557,"connected_time":540000000000,"state":"active","ping":93},{"user_id":764,"name":"ElectronX","steam_id":76561198116034988,"connected_time":3443000000000,"state":"active","ping":104},{"user_id":800,"name":"DolphiN | RGL.gg","steam_id":76561198048614515,"connected_time":512000000000,"state":"active","ping":44},{"user_id":801,"name":"gideon nav my beloved","steam_id":76561198259092181,"connected_time":497000000000,"state":"active","ping":63},{"user_id":794,"name":"LordOfTheNoobs","steam_id":76561197962697523,"connected_time":1313000000000,"state":"active","ping":68},{"user_id":784,"name":"Bim","steam_id":76561198155979811,"connected_time":1746000000000,"state":"active","ping":55},{"user_id":785,"name":"Juvice","steam_id":76561198843371502,"connected_time":1718000000000,"state":"active","ping":44},{"user_id":679,"name":"deadpixel","steam_id":76561198150249843,"connected_time":11364000000000,"state":"active","ping":74},{"user_id":739,"name":"Charlotte","steam_id":76561198194975870,"connected_time":6421000000000,"state":"active","ping":63},{"user_id":601,"name":"alpharuby","steam_id":76561198051638462,"connected_time":17514000000000,"state":"active","ping":105},{"user_id":786,"name":"FluffiestTail (She/Her)","steam_id":76561198061209061,"connected_time":1703000000000,"state":"active","ping":111},{"user_id":804,"name":"mat_phong 0","steam_id":76561198041101188,"connected_time":325000000000,"state":"active","ping":60},{"user_id":797,"name":"AxialST","steam_id":76561198119276532,"connected_time":648000000000,"state":"active","ping":105},{"user_id":572,"name":"Phil Collins","steam_id":76561198068868644,"connected_time":19600000000000,"state":"active","ping":119},{"user_id":788,"name":"BurritoCat","steam_id":76561198059822805,"connected_time":1658000000000,"state":"active","ping":130},{"user_id":771,"name":"A_Malebolgia","steam_id":76561198097722818,"connected_time":3233000000000,"state":"active","ping":86},{"user_id":789,"name":"REspecWizard","steam_id":76561198097950624,"connected_time":1640000000000,"state":"active","ping":118},{"user_id":772,"name":"Amaretto Sour","steam_id":76561198063112844,"connected_time":2790000000000,"state":"active","ping":53},{"user_id":790,"name":"CurryWeek","steam_id":76561198050890046,"connected_time":1612000000000,"state":"active","ping":116},{"user_id":791,"name":"Pancake Lizard","steam_id":76561198057311158,"connected_time":1609000000000,"state":"active","ping":109},{"user_id":773,"name":"only a spoonful","steam_id":76561198113180616,"connected_time":2784000000000,"state":"active","ping":83},{"user_id":803,"name":"sheeum","steam_id":76561198277403366,"connected_time":428000000000,"state":"active","ping":90}]},{"server_id":15,"name":"Uncletopia | New York City | 3 | Stopwatch Beta","name_short":"nyc-3","host":"nyc-1.us.uncletopia.com","port":27035,"enabled":true,"region":"us-east","cc":"us","latitude":40.73061,"longitude":-73.93524,"reserved":0,"last_update":"0001-01-01T00:00:00Z","name_a2s":"Uncletopia | New York City | 3 | Stopwatch Beta","protocol":17,"map":"workshop/koth_bagel_rc6.ugc2514036946","folder":"tf","game":"Team Fortress","app_id":440,"player_count":0,"max_players":24,"Bots":0,"server_type":"Dedicated","server_os":"Linux","password":true,"vac":true,"version":"7932396","steam_id":85568392924742820,"keywords":["cp","nocrits","nodmgspread","uncletopia"],"game_id":440,"stv_port":27036,"stv_name":"Uncletopia | New York City | 3 | Stopwatch Beta | STV","players":null},{"server_id":16,"name":"Uncletopia | New York City | 4 | Community","name_short":"nyc-4","host":"nyc-1.us.uncletopia.com","port":27045,"enabled":true,"region":"us-east","cc":"us","latitude":40.73061,"longitude":-73.93524,"reserved":0,"last_update":"0001-01-01T00:00:00Z","name_a2s":"Uncletopia | New York City | 4 | Community","protocol":17,"map":"workshop/pl_badwater_pro_v12.ugc2142942074","folder":"tf","game":"Team Fortress","app_id":440,"player_count":4,"max_players":24,"Bots":0,"server_type":"Dedicated","server_os":"Linux","password":true,"vac":true,"version":"7932396","steam_id":85568392924742821,"keywords":["nocrits","nodmgspread","payload","uncletopia"],"game_id":440,"stv_port":27046,"stv_name":"Uncletopia | New York City | 4 | Community | STV","players":[{"user_id":71,"name":"ArchitectNeo","steam_id":76561198065433877,"connected_time":873000000000,"state":"active","ping":71},{"user_id":72,"name":"quantumexistenc3","steam_id":76561199379634118,"connected_time":9000000000,"state":"spawning","ping":261},{"user_id":66,"name":"Acronymph","steam_id":76561198059761423,"connected_time":3758000000000,"state":"active","ping":100},{"user_id":70,"name":"Squibble","steam_id":76561198124800572,"connected_time":2824000000000,"state":"active","ping":65}]},{"server_id":142,"name":"Uncletopia | S√£o Paulo | 1 | All Maps","name_short":"sao-1","host":"sao-1.br.uncletopia.com","port":27015,"enabled":true,"region":"sa","cc":"br","latitude":-23.533773,"longitude":-46.62529,"reserved":0,"last_update":"0001-01-01T00:00:00Z","name_a2s":"Uncletopia | S√£o Paulo | 1 | All Maps","protocol":17,"map":"koth_highpass","folder":"tf","game":"Team Fortress","app_id":440,"player_count":0,"max_players":24,"Bots":0,"server_type":"Dedicated","server_os":"Linux","password":true,"vac":true,"version":"7932396","steam_id":85568392924469996,"keywords":["cp","nocrits","nodmgspread","uncletopia"],"game_id":440,"stv_port":27016,"stv_name":"Uncletopia | S√£o Paulo | 1 | All Maps | STV","players":null},{"server_id":143,"name":"Uncletopia | S√£o Paulo | 2 | All Maps","name_short":"sao-2","host":"sao-2.br.uncletopia.com","port":27015,"enabled":true,"region":"sa","cc":"br","latitude":-23.533773,"longitude":-46.62529,"reserved":0,"last_update":"0001-01-01T00:00:00Z","name_a2s":"Uncletopia | S√£o Paulo | 2 | All Maps","protocol":17,"map":"koth_brazil","folder":"tf","game":"Team Fortress","app_id":440,"player_count":0,"max_players":24,"Bots":0,"server_type":"Dedicated","server_os":"Linux","password":true,"vac":true,"version":"7932396","steam_id":85568392924485349,"keywords":["cp","nocrits","nodmgspread","uncletopia"],"game_id":440,"stv_port":27016,"stv_name":"Uncletopia | S√£o Paulo | 2 | All Maps | STV","players":null},{"server_id":7,"name":"Uncletopia | Seattle | 1 | All Maps","name_short":"sea-1","host":"sea-1.us.uncletopia.com","port":27015,"enabled":true,"region":"us-west","cc":"us","latitude":47.608013,"longitude":-122.33517,"reserved":0,"last_update":"0001-01-01T00:00:00Z","name_a2s":"Uncletopia | Seattle | 1 | All Maps","protocol":17,"map":"pl_rumford_event","folder":"tf","game":"Team Fortress","app_id":440,"player_count":26,"max_players":24,"Bots":0,"server_type":"Dedicated","server_os":"Linux","password":true,"vac":true,"version":"7932396","steam_id":85568392924469997,"keywords":["nocrits","nodmgspread","payload","uncletopia"],"game_id":440,"stv_port":27016,"stv_name":"Uncletopia | Seattle | 1 | All Maps | STV","players":[{"user_id":711,"name":"Ducks","steam_id":76561198130038345,"connected_time":634000000000,"state":"active","ping":62},{"user_id":701,"name":"rat gets the cheese","steam_id":76561198031234032,"connected_time":2574000000000,"state":"active","ping":102},{"user_id":664,"name":"girl let me she/them titties","steam_id":76561198107941274,"connected_time":6661000000000,"state":"active","ping":80},{"user_id":707,"name":"soup","steam_id":76561198043209046,"connected_time":1357000000000,"state":"active","ping":84},{"user_id":702,"name":"mike, 2.4 GPA","steam_id":76561198225411004,"connected_time":2440000000000,"state":"active","ping":61},{"user_id":697,"name":"NeptuneÀñ‚Å∫ÔΩ°Àö‚ãÜÀô‚ô•","steam_id":76561199054203198,"connected_time":2892000000000,"state":"active","ping":130},{"user_id":706,"name":"Doctor‚Ñ¢","steam_id":76561198134309750,"connected_time":1804000000000,"state":"active","ping":99},{"user_id":688,"name":"ismellgood","steam_id":76561199005142939,"connected_time":3709000000000,"state":"active","ping":63},{"user_id":722,"name":"jorts","steam_id":76561199041179985,"connected_time":398000000000,"state":"active","ping":53},{"user_id":692,"name":"cassielee13","steam_id":76561198272718759,"connected_time":3489000000000,"state":"active","ping":66},{"user_id":676,"name":"Attrition","steam_id":76561197969881916,"connected_time":4790000000000,"state":"active","ping":58},{"user_id":679,"name":"lusty","steam_id":76561198138478947,"connected_time":4611000000000,"state":"active","ping":43},{"user_id":681,"name":"swarm of bee","steam_id":76561198059604047,"connected_time":4595000000000,"state":"active","ping":40},{"user_id":642,"name":"Mocha Josie","steam_id":76561198066452726,"connected_time":8278000000000,"state":"active","ping":78},{"user_id":716,"name":"Florist","steam_id":76561198009121060,"connected_time":599000000000,"state":"active","ping":52},{"user_id":685,"name":"[TrC] Nosy","steam_id":76561197978859310,"connected_time":3739000000000,"state":"active","ping":63},{"user_id":715,"name":"William P. Ennis","steam_id":76561198073464877,"connected_time":614000000000,"state":"active","ping":89},{"user_id":660,"name":"Nea","steam_id":76561198408792773,"connected_time":7064000000000,"state":"active","ping":53},{"user_id":684,"name":"i love ants","steam_id":76561198169755734,"connected_time":3744000000000,"state":"active","ping":64},{"user_id":721,"name":"NEBULA","steam_id":76561198086878595,"connected_time":434000000000,"state":"active","ping":75},{"user_id":594,"name":"goldhed","steam_id":76561198051751133,"connected_time":13119000000000,"state":"active","ping":56},{"user_id":712,"name":"Arsonist Goose","steam_id":76561198147441830,"connected_time":634000000000,"state":"active","ping":74},{"user_id":683,"name":"[TrC] Dackstrus","steam_id":76561197973518509,"connected_time":3919000000000,"state":"active","ping":63},{"user_id":690,"name":"Qas","steam_id":76561198067564482,"connected_time":3622000000000,"state":"active","ping":77},{"user_id":723,"name":"rorywashere /·ê† - Àï -„Éû ‚≥ä","steam_id":76561198065825165,"connected_time":300000000000,"state":"active","ping":109},{"user_id":714,"name":"Luca","steam_id":76561198125087140,"connected_time":633000000000,"state":"active","ping":41}]},{"server_id":119,"name":"Uncletopia | Seattle | 2 | All Maps","name_short":"sea-2","host":"sea-1.us.uncletopia.com","port":27025,"enabled":true,"region":"us-west","cc":"us","latitude":47.608013,"longitude":-122.33517,"reserved":0,"last_update":"0001-01-01T00:00:00Z","name_a2s":"Uncletopia | Seattle | 2 | All Maps","protocol":17,"map":"pl_thundermountain","folder":"tf","game":"Team Fortress","app_id":440,"player_count":23,"max_players":24,"Bots":0,"server_type":"Dedicated","server_os":"Linux","password":true,"vac":true,"version":"7932396","steam_id":85568392924469998,"keywords":["nocrits","nodmgspread","payload","uncletopia"],"game_id":440,"stv_port":27026,"stv_name":"Uncletopia | Seattle | 2 | All Maps | STV","players":[{"user_id":647,"name":"Big Inch","steam_id":76561198052513500,"connected_time":663000000000,"state":"active","ping":95},{"user_id":626,"name":"suffering from suckass","steam_id":76561198065662025,"connected_time":3439000000000,"state":"active","ping":69},{"user_id":644,"name":"soltuno","steam_id":76561198074430565,"connected_time":1961000000000,"state":"active","ping":95},{"user_id":638,"name":"FullOfLife","steam_id":76561197997974674,"connected_time":2108000000000,"state":"active","ping":70},{"user_id":630,"name":"Merdoc","steam_id":76561198320116172,"connected_time":2947000000000,"state":"active","ping":110},{"user_id":597,"name":"PJROCK101","steam_id":76561198070616561,"connected_time":6384000000000,"state":"active","ping":61},{"user_id":639,"name":"WaffleWithNoToppings","steam_id":76561199088280111,"connected_time":2104000000000,"state":"active","ping":47},{"user_id":571,"name":"BLU3","steam_id":76561198059652670,"connected_time":9314000000000,"state":"active","ping":48},{"user_id":646,"name":"bishiro","steam_id":76561198129564488,"connected_time":922000000000,"state":"active","ping":63},{"user_id":607,"name":"a cat plushie","steam_id":76561198080046542,"connected_time":5584000000000,"state":"active","ping":46},{"user_id":449,"name":"a single goal","steam_id":76561198042913843,"connected_time":18035000000000,"state":"active","ping":59},{"user_id":648,"name":"THAT CAT","steam_id":76561198010828625,"connected_time":360000000000,"state":"active","ping":43},{"user_id":649,"name":"Fusionharbor302","steam_id":76561198993091253,"connected_time":315000000000,"state":"active","ping":59},{"user_id":650,"name":"Robbotjam","steam_id":76561198165681209,"connected_time":313000000000,"state":"active","ping":55},{"user_id":576,"name":"ORANGE","steam_id":76561198000401769,"connected_time":8830000000000,"state":"active","ping":47},{"user_id":640,"name":"Wheaties","steam_id":76561198060909578,"connected_time":2097000000000,"state":"active","ping":60},{"user_id":641,"name":"Biden Blast","steam_id":76561198366729030,"connected_time":2061000000000,"state":"active","ping":75},{"user_id":610,"name":"mrthugpug1732","steam_id":76561198881200768,"connected_time":5432000000000,"state":"active","ping":95},{"user_id":642,"name":"John Johnson","steam_id":76561198347510093,"connected_time":2042000000000,"state":"active","ping":63},{"user_id":624,"name":"lil boogie","steam_id":76561198064059721,"connected_time":3677000000000,"state":"active","ping":53},{"user_id":582,"name":"Hindmost","steam_id":76561199081837220,"connected_time":7617000000000,"state":"active","ping":114},{"user_id":653,"name":"Stev the Prurient Oxymoron","steam_id":76561197999442625,"connected_time":172000000000,"state":"active","ping":62},{"user_id":643,"name":"HideOnTate","steam_id":76561198209880837,"connected_time":2040000000000,"state":"active","ping":45}]},{"server_id":406,"name":"Uncletopia | Seattle | 3 | Stopwatch Beta","name_short":"sea-3","host":"sea-1.us.uncletopia.com","port":27035,"enabled":true,"region":"us-west","cc":"us","latitude":47.608013,"longitude":-122.33517,"reserved":0,"last_update":"0001-01-01T00:00:00Z","name_a2s":"Uncletopia | Seattle | 3 | Stopwatch Beta","protocol":17,"map":"cp_snakewater_final1","folder":"tf","game":"Team Fortress","app_id":440,"player_count":0,"max_players":24,"Bots":0,"server_type":"Dedicated","server_os":"Linux","password":true,"vac":true,"version":"7932396","steam_id":85568392924515217,"keywords":["cp","nocrits","nodmgspread","uncletopia"],"game_id":440,"stv_port":27036,"stv_name":"Uncletopia | Seattle | 3 | Stopwatch Beta | STV","players":null},{"server_id":17,"name":"Uncletopia | San Francisco | 1 | All Maps","name_short":"sfo-1","host":"sfo-1.us.uncletopia.com","port":27015,"enabled":true,"region":"us-west","cc":"us","latitude":37.77397,"longitude":-122.4313,"reserved":0,"last_update":"0001-01-01T00:00:00Z","name_a2s":"Uncletopia | San Francisco | 1 | All Maps","protocol":17,"map":"cp_steel","folder":"tf","game":"Team Fortress","app_id":440,"player_count":24,"max_players":24,"Bots":0,"server_type":"Dedicated","server_os":"Linux","password":true,"vac":true,"version":"7932396","steam_id":85568392924469999,"keywords":["cp","nocrits","nodmgspread","uncletopia"],"game_id":440,"stv_port":27016,"stv_name":"Uncletopia | San Francisco | 1 | All Maps | STV","players":[{"user_id":559,"name":"lili","steam_id":76561199391478575,"connected_time":7725000000000,"state":"active","ping":83},{"user_id":640,"name":"Butman902","steam_id":76561198190200054,"connected_time":1805000000000,"state":"active","ping":97},{"user_id":627,"name":"minimalpair","steam_id":76561198071788709,"connected_time":2431000000000,"state":"active","ping":115},{"user_id":643,"name":"Your Moms Busted Minge","steam_id":76561198059124876,"connected_time":1621000000000,"state":"active","ping":55},{"user_id":667,"name":"elephant thumb","steam_id":76561198118859752,"connected_time":530000000000,"state":"active","ping":58},{"user_id":656,"name":"ice","steam_id":76561197994528974,"connected_time":886000000000,"state":"active","ping":102},{"user_id":668,"name":"Adalbern","steam_id":76561197991785034,"connected_time":521000000000,"state":"active","ping":61},{"user_id":606,"name":"Girth Control","steam_id":76561198060780467,"connected_time":3694000000000,"state":"active","ping":63},{"user_id":658,"name":"klopse","steam_id":76561198314981454,"connected_time":840000000000,"state":"active","ping":102},{"user_id":653,"name":"Giorno Giovanna","steam_id":76561198044106874,"connected_time":954000000000,"state":"active","ping":61},{"user_id":671,"name":"Leterq8","steam_id":76561198331432556,"connected_time":166000000000,"state":"active","ping":77},{"user_id":652,"name":"talkingseed","steam_id":76561198050339120,"connected_time":1069000000000,"state":"active","ping":56},{"user_id":672,"name":"tropis","steam_id":76561198067365603,"connected_time":95000000000,"state":"active","ping":87},{"user_id":644,"name":"Ian","steam_id":76561198159334435,"connected_time":1472000000000,"state":"active","ping":177},{"user_id":670,"name":"TalkingLoud","steam_id":76561198431528011,"connected_time":452000000000,"state":"active","ping":108},{"user_id":662,"name":"Zombie812","steam_id":76561198197838571,"connected_time":698000000000,"state":"active","ping":70},{"user_id":660,"name":"Antwan","steam_id":76561198246200638,"connected_time":809000000000,"state":"active","ping":82},{"user_id":609,"name":"Honey-Fox","steam_id":76561198133244742,"connected_time":3680000000000,"state":"active","ping":108},{"user_id":611,"name":"lol","steam_id":76561198026491738,"connected_time":3658000000000,"state":"active","ping":99},{"user_id":648,"name":"ZAZA","steam_id":76561198133963493,"connected_time":1433000000000,"state":"active","ping":48},{"user_id":595,"name":"Mr. Carfox","steam_id":76561198041664428,"connected_time":5406000000000,"state":"active","ping":51},{"user_id":663,"name":"Lucide","steam_id":76561197998530400,"connected_time":682000000000,"state":"active","ping":50},{"user_id":669,"name":"csmith","steam_id":76561198880096493,"connected_time":502000000000,"state":"active","ping":119},{"user_id":666,"name":"demon„ÉÑ","steam_id":76561199351440240,"connected_time":636000000000,"state":"active","ping":47}]},{"server_id":18,"name":"Uncletopia | San Francisco | 2 | All Maps","name_short":"sfo-2","host":"sfo-1.us.uncletopia.com","port":27025,"enabled":true,"region":"us-west","cc":"us","latitude":37.77397,"longitude":-122.4313,"reserved":0,"last_update":"0001-01-01T00:00:00Z","name_a2s":"Uncletopia | San Francisco | 2 | All Maps","protocol":17,"map":"cp_process_final","folder":"tf","game":"Team Fortress","app_id":440,"player_count":24,"max_players":24,"Bots":0,"server_type":"Dedicated","server_os":"Linux","password":true,"vac":true,"version":"7932396","steam_id":85568392924470000,"keywords":["cp","nocrits","nodmgspread","uncletopia"],"game_id":440,"stv_port":27026,"stv_name":"Uncletopia | San Francisco | 2 | All Maps | STV","players":[{"user_id":441,"name":"..flop","steam_id":76561197989058876,"connected_time":1619000000000,"state":"active","ping":77},{"user_id":464,"name":"heisenberg","steam_id":76561198075341060,"connected_time":590000000000,"state":"active","ping":69},{"user_id":471,"name":"Deer Twilight","steam_id":76561198340866343,"connected_time":99000000000,"state":"active","ping":110},{"user_id":472,"name":"Haloman","steam_id":76561198119610371,"connected_time":92000000000,"state":"active","ping":82},{"user_id":401,"name":"Facepalm","steam_id":76561198001935226,"connected_time":5484000000000,"state":"active","ping":59},{"user_id":465,"name":"Shingles","steam_id":76561199225619586,"connected_time":587000000000,"state":"active","ping":63},{"user_id":467,"name":"Pyrotek‚Å¥","steam_id":76561198072747672,"connected_time":554000000000,"state":"active","ping":51},{"user_id":443,"name":"Zero","steam_id":76561198137754636,"connected_time":1580000000000,"state":"active","ping":58},{"user_id":450,"name":"Trevor","steam_id":76561198127387322,"connected_time":1463000000000,"state":"active","ping":90},{"user_id":437,"name":":\u003c","steam_id":76561198072789439,"connected_time":1991000000000,"state":"active","ping":59},{"user_id":438,"name":":3 (rat star)","steam_id":76561198058890821,"connected_time":1977000000000,"state":"active","ping":96},{"user_id":470,"name":"Copy","steam_id":76561198025031590,"connected_time":214000000000,"state":"active","ping":82},{"user_id":457,"name":"Tacobell","steam_id":76561197963619134,"connected_time":1095000000000,"state":"active","ping":57},{"user_id":473,"name":"Doctor Sex","steam_id":76561198136205032,"connected_time":69000000000,"state":"active","ping":80},{"user_id":446,"name":"Conjurer","steam_id":76561198316256275,"connected_time":1543000000000,"state":"active","ping":97},{"user_id":474,"name":"Chi -fr","steam_id":76561198121085178,"connected_time":60000000000,"state":"active","ping":101},{"user_id":460,"name":"salt","steam_id":76561198343693346,"connected_time":941000000000,"state":"active","ping":100},{"user_id":447,"name":"American freedom bird","steam_id":76561198366142388,"connected_time":1543000000000,"state":"active","ping":68},{"user_id":449,"name":"Hydroxianchaos","steam_id":76561198043786828,"connected_time":1479000000000,"state":"active","ping":112},{"user_id":407,"name":"Dead Dandy","steam_id":76561199052569511,"connected_time":4323000000000,"state":"active","ping":60},{"user_id":421,"name":"gidmarsh","steam_id":76561198057199456,"connected_time":3755000000000,"state":"active","ping":55},{"user_id":408,"name":"NaeNaeChungusBozo","steam_id":76561199446407203,"connected_time":4321000000000,"state":"active","ping":102},{"user_id":433,"name":"Retrace","steam_id":76561198080620966,"connected_time":2587000000000,"state":"active","ping":75},{"user_id":463,"name":"lana_del_Rei.com","steam_id":76561198172447621,"connected_time":677000000000,"state":"active","ping":64}]},{"server_id":19,"name":"Uncletopia | San Francisco | 3 | Stopwatch Beta","name_short":"sfo-3","host":"sfo-1.us.uncletopia.com","port":27035,"enabled":true,"region":"us-west","cc":"us","latitude":37.77397,"longitude":-122.4313,"reserved":0,"last_update":"0001-01-01T00:00:00Z","name_a2s":"Uncletopia | San Francisco | 3 | Stopwatch Beta","protocol":17,"map":"workshop/koth_ramjam_rc1.ugc459778887","folder":"tf","game":"Team Fortress","app_id":440,"player_count":0,"max_players":24,"Bots":0,"server_type":"Dedicated","server_os":"Linux","password":true,"vac":true,"version":"7932396","steam_id":85568392924742824,"keywords":["cp","nocrits","nodmgspread","uncletopia"],"game_id":440,"stv_port":27036,"stv_name":"Uncletopia | San Francisco | 3 | Stopwatch Beta | STV","players":null},{"server_id":20,"name":"Uncletopia | San Francisco | 4 | Community","name_short":"sfo-4","host":"sfo-1.us.uncletopia.com","port":27045,"enabled":true,"region":"us-west","cc":"us","latitude":37.77397,"longitude":-122.4313,"reserved":0,"last_update":"0001-01-01T00:00:00Z","name_a2s":"Uncletopia | San Francisco | 4 | Community","protocol":17,"map":"workshop/koth_ashville_final.ugc2130459942","folder":"tf","game":"Team Fortress","app_id":440,"player_count":0,"max_players":24,"Bots":0,"server_type":"Dedicated","server_os":"Linux","password":true,"vac":true,"version":"7932396","steam_id":85568392924742826,"keywords":["cp","nocrits","nodmgspread","uncletopia"],"game_id":440,"stv_port":27046,"stv_name":"Uncletopia | San Francisco | 4 | Community | STV","players":null},{"server_id":141,"name":"Uncletopia | Sydney | 1 | All Maps","name_short":"syd-1","host":"syd-1.au.uncletopia.com","port":27015,"enabled":true,"region":"au","cc":"au","latitude":-33.865143,"longitude":151.2099,"reserved":0,"last_update":"0001-01-01T00:00:00Z","name_a2s":"Uncletopia | Sydney | 1 | All Maps","protocol":17,"map":"pl_snowycoast","folder":"tf","game":"Team Fortress","app_id":440,"player_count":3,"max_players":24,"Bots":0,"server_type":"Dedicated","server_os":"Linux","password":true,"vac":true,"version":"7932396","steam_id":85568392924470001,"keywords":["nocrits","nodmgspread","payload","uncletopia"],"game_id":440,"stv_port":27016,"stv_name":"Uncletopia | Sydney | 1 | All Maps | STV","players":[{"user_id":44,"name":"N0thing_but_pure_lag_and_luck","steam_id":76561199002102933,"connected_time":5677000000000,"state":"active","ping":406},{"user_id":55,"name":"Okie Dokie","steam_id":76561198125237921,"connected_time":734000000000,"state":"active","ping":38},{"user_id":57,"name":"Moonwatcher","steam_id":76561198362354521,"connected_time":35000000000,"state":"spawning","ping":38}]},{"server_id":123,"name":"Uncletopia | Sydney | 2 | All Maps","name_short":"syd-2","host":"syd-1.au.uncletopia.com","port":27025,"enabled":true,"region":"au","cc":"au","latitude":-33.865143,"longitude":151.2099,"reserved":0,"last_update":"0001-01-01T00:00:00Z","name_a2s":"Uncletopia | Sydney | 2 | All Maps","protocol":17,"map":"koth_lakeside_final","folder":"tf","game":"Team Fortress","app_id":440,"player_count":0,"max_players":24,"Bots":0,"server_type":"Dedicated","server_os":"Linux","password":true,"vac":true,"version":"7932396","steam_id":85568392924470002,"keywords":["cp","nocrits","nodmgspread","uncletopia"],"game_id":440,"stv_port":27026,"stv_name":"Uncletopia | Sydney | 2 | All Maps | STV","players":null},{"server_id":395,"name":"Uncletopia | Sydney | 3 | All Maps","name_short":"syd-3","host":"syd-1.au.uncletopia.com","port":27035,"enabled":true,"region":"au","cc":"au","latitude":-33.865143,"longitude":151.2099,"reserved":0,"last_update":"0001-01-01T00:00:00Z","name_a2s":"Uncletopia | Sydney | 3 | All Maps","protocol":17,"map":"pl_snowycoast","folder":"tf","game":"Team Fortress","app_id":440,"player_count":17,"max_players":24,"Bots":0,"server_type":"Dedicated","server_os":"Linux","password":true,"vac":true,"version":"7932396","steam_id":85568392925194467,"keywords":["nocrits","nodmgspread","payload","uncletopia"],"game_id":440,"stv_port":27036,"stv_name":"Uncletopia | Sydney | 3 | All Maps | STV","players":[{"user_id":28,"name":"tim88435","steam_id":76561198089653987,"connected_time":6538000000000,"state":"active","ping":54},{"user_id":83,"name":"Disco_Tomato","steam_id":76561198107495545,"connected_time":643000000000,"state":"active","ping":59},{"user_id":92,"name":"Zilvera","steam_id":76561198065801850,"connected_time":99000000000,"state":"active","ping":53},{"user_id":86,"name":"yoran edgar","steam_id":76561198193620930,"connected_time":430000000000,"state":"active","ping":31},{"user_id":84,"name":"Hertog van Damme","steam_id":76561198152470958,"connected_time":625000000000,"state":"active","ping":54},{"user_id":42,"name":"Benskii","steam_id":76561198070130470,"connected_time":3450000000000,"state":"active","ping":66},{"user_id":93,"name":"Kremmen","steam_id":76561198051368641,"connected_time":19000000000,"state":"active","ping":64},{"user_id":37,"name":"UrAvgDMG","steam_id":76561199214859141,"connected_time":4594000000000,"state":"active","ping":141},{"user_id":58,"name":"‚óòQuetz‚óò","steam_id":76561198163198481,"connected_time":1935000000000,"state":"active","ping":83},{"user_id":88,"name":"adammagee","steam_id":76561197972653972,"connected_time":301000000000,"state":"active","ping":48},{"user_id":48,"name":"pancakelover","steam_id":76561198885258799,"connected_time":2718000000000,"state":"active","ping":101},{"user_id":62,"name":"MikkyD","steam_id":76561198043452962,"connected_time":1675000000000,"state":"active","ping":61},{"user_id":64,"name":"Phobia¬≤","steam_id":76561198038833524,"connected_time":1432000000000,"state":"active","ping":55},{"user_id":73,"name":"L0p","steam_id":76561199036756814,"connected_time":979000000000,"state":"active","ping":58},{"user_id":74,"name":"Shaboi","steam_id":76561198048944885,"connected_time":966000000000,"state":"active","ping":55},{"user_id":77,"name":"Hungry for thumbtacks","steam_id":76561198059129270,"connected_time":918000000000,"state":"active","ping":67},{"user_id":80,"name":"Phibs","steam_id":76561199323730865,"connected_time":852000000000,"state":"active","ping":44}]},{"server_id":396,"name":"Uncletopia | Sydney | 4 | All Maps","name_short":"syd-4","host":"syd-1.au.uncletopia.com","port":27045,"enabled":true,"region":"au","cc":"au","latitude":-33.865143,"longitude":151.2099,"reserved":0,"last_update":"0001-01-01T00:00:00Z","name_a2s":"Uncletopia | Sydney | 4 | All Maps","protocol":17,"map":"pl_upward","folder":"tf","game":"Team Fortress","app_id":440,"player_count":24,"max_players":24,"Bots":0,"server_type":"Dedicated","server_os":"Linux","password":true,"vac":true,"version":"7932396","steam_id":85568392925397958,"keywords":["nocrits","nodmgspread","payload","uncletopia"],"game_id":440,"stv_port":27046,"stv_name":"Uncletopia | Sydney | 4 | All Maps | STV","players":[{"user_id":159,"name":"ex0dia","steam_id":76561198048349719,"connected_time":161000000000,"state":"active","ping":46},{"user_id":155,"name":"Fleetfoot","steam_id":76561198072845816,"connected_time":728000000000,"state":"active","ping":54},{"user_id":111,"name":"LightningBlock","steam_id":76561198289997742,"connected_time":4117000000000,"state":"active","ping":35},{"user_id":142,"name":"FIX","steam_id":76561197995157189,"connected_time":1793000000000,"state":"active","ping":54},{"user_id":114,"name":"locust no.3","steam_id":76561198060024585,"connected_time":4047000000000,"state":"active","ping":32},{"user_id":135,"name":"theory haver","steam_id":76561198133867907,"connected_time":2281000000000,"state":"active","ping":63},{"user_id":136,"name":"trjnx","steam_id":76561198253592498,"connected_time":2266000000000,"state":"active","ping":61},{"user_id":151,"name":"distraction","steam_id":76561198119112358,"connected_time":1129000000000,"state":"active","ping":46},{"user_id":137,"name":"The Spy with No Name","steam_id":76561198077721185,"connected_time":2138000000000,"state":"active","ping":44},{"user_id":116,"name":"mazoingbur splorgnorbus","steam_id":76561198063481761,"connected_time":4035000000000,"state":"active","ping":45},{"user_id":132,"name":"horrid webbon ·òõ‚ÅêÃ§·ïê·ê∑","steam_id":76561198061998379,"connected_time":2497000000000,"state":"active","ping":55},{"user_id":160,"name":"bird up","steam_id":76561198347964028,"connected_time":160000000000,"state":"active","ping":73},{"user_id":154,"name":"Jodelk√∂nig Franzl Lang","steam_id":76561198007667830,"connected_time":865000000000,"state":"active","ping":59},{"user_id":131,"name":"you will be boiled","steam_id":76561198079351541,"connected_time":2708000000000,"state":"active","ping":46},{"user_id":129,"name":"actions speak louder than Merv","steam_id":76561198301282416,"connected_time":2829000000000,"state":"active","ping":57},{"user_id":139,"name":"Kumbya","steam_id":76561198117979249,"connected_time":1992000000000,"state":"active","ping":63},{"user_id":95,"name":"Stab Calloway","steam_id":76561198027827983,"connected_time":5342000000000,"state":"active","ping":50},{"user_id":147,"name":"Trotter","steam_id":76561198343965263,"connected_time":1457000000000,"state":"active","ping":61},{"user_id":150,"name":"Muffin","steam_id":76561198075391119,"connected_time":1269000000000,"state":"active","ping":54},{"user_id":126,"name":"pedal powered brain","steam_id":76561198000568803,"connected_time":3565000000000,"state":"active","ping":53},{"user_id":156,"name":"no teles 4 u","steam_id":76561198018478297,"connected_time":465000000000,"state":"active","ping":73},{"user_id":162,"name":"precious.","steam_id":76561198054804209,"connected_time":38000000000,"state":"active","ping":88},{"user_id":124,"name":"PhD in Shoe Shining","steam_id":76561198972095766,"connected_time":3701000000000,"state":"active","ping":49},{"user_id":144,"name":"Dr. Hoppity","steam_id":76561197999715646,"connected_time":1742000000000,"state":"active","ping":55}]},{"server_id":58,"name":"Uncletopia | Sydney | 5 | Stopwatch Beta","name_short":"syd-5","host":"syd-1.au.uncletopia.com","port":27055,"enabled":true,"region":"au","cc":"au","latitude":-33.865143,"longitude":151.2099,"reserved":0,"last_update":"0001-01-01T00:00:00Z","name_a2s":"Uncletopia | Sydney | 5 | Stopwatch Beta","protocol":17,"map":"workshop/koth_ashville_final.ugc2130459942","folder":"tf","game":"Team Fortress","app_id":440,"player_count":0,"max_players":24,"Bots":0,"server_type":"Dedicated","server_os":"Linux","password":true,"vac":true,"version":"7932396","steam_id":85568392925397959,"keywords":["cp","nocrits","nodmgspread","uncletopia"],"game_id":440,"stv_port":27056,"stv_name":"Uncletopia | Sydney | 5 | Stopwatch Beta | STV","players":null},{"server_id":59,"name":"Uncletopia | Sydney | 6 | Community","name_short":"syd-6","host":"syd-1.au.uncletopia.com","port":27065,"enabled":true,"region":"au","cc":"au","latitude":-33.865143,"longitude":151.2099,"reserved":0,"last_update":"0001-01-01T00:00:00Z","name_a2s":"Uncletopia | Sydney | 6 | Community","protocol":17,"map":"pl_badwater","folder":"tf","game":"Team Fortress","app_id":440,"player_count":0,"max_players":24,"Bots":0,"server_type":"Dedicated","server_os":"Linux","password":true,"vac":true,"version":"7932396","steam_id":85568392925397960,"keywords":["nocrits","nodmgspread","payload","uncletopia"],"game_id":440,"stv_port":27066,"stv_name":"Uncletopia | Sydney | 6 | Community | STV","players":null},{"server_id":49,"name":"Uncletopia | Warsaw | 1 | All Maps","name_short":"waw-1","host":"waw-1.pl.uncletopia.com","port":27015,"enabled":true,"region":"eu","cc":"pl","latitude":52.2297,"longitude":21.017532,"reserved":0,"last_update":"0001-01-01T00:00:00Z","name_a2s":"","protocol":0,"map":"","folder":"","game":"","app_id":0,"player_count":0,"max_players":0,"Bots":0,"server_type":"","server_os":"","password":false,"vac":false,"version":"","steam_id":0,"keywords":null,"game_id":0,"stv_port":0,"stv_name":"","players":null},{"server_id":50,"name":"Uncletopia | Warsaw | 2 | All Maps","name_short":"waw-2","host":"waw-1.pl.uncletopia.com","port":27025,"enabled":true,"region":"eu","cc":"pl","latitude":52.2297,"longitude":21.017532,"reserved":0,"last_update":"0001-01-01T00:00:00Z","name_a2s":"Uncletopia | Warsaw | 2 | All Maps","protocol":17,"map":"cp_sunshine","folder":"tf","game":"Team Fortress","app_id":440,"player_count":0,"max_players":24,"Bots":0,"server_type":"Dedicated","server_os":"Linux","password":true,"vac":true,"version":"7932396","steam_id":85568392925397851,"keywords":["cp","nocrits","nodmgspread","uncletopia"],"game_id":440,"stv_port":27026,"stv_name":"Uncletopia | Warsaw | 2 | All Maps | STV","players":null},{"server_id":51,"name":"Uncletopia | Warsaw | 3 | All Maps","name_short":"waw-3","host":"waw-1.pl.uncletopia.com","port":27035,"enabled":true,"region":"eu","cc":"pl","latitude":52.2297,"longitude":21.017532,"reserved":0,"last_update":"0001-01-01T00:00:00Z","name_a2s":"Uncletopia | Warsaw | 3 | All Maps","protocol":17,"map":"koth_lakeside_final","folder":"tf","game":"Team Fortress","app_id":440,"player_count":0,"max_players":24,"Bots":0,"server_type":"Dedicated","server_os":"Linux","password":true,"vac":true,"version":"7932396","steam_id":85568392925397852,"keywords":["cp","nocrits","nodmgspread","uncletopia"],"game_id":440,"stv_port":27036,"stv_name":"Uncletopia | Warsaw | 3 | All Maps | STV","players":null},{"server_id":52,"name":"Uncletopia | Warsaw | 4 | All Maps","name_short":"waw-4","host":"waw-1.pl.uncletopia.com","port":27045,"enabled":true,"region":"eu","cc":"pl","latitude":52.2297,"longitude":21.017532,"reserved":0,"last_update":"0001-01-01T00:00:00Z","name_a2s":"Uncletopia | Warsaw | 4 | All Maps","protocol":17,"map":"pl_swiftwater_final1","folder":"tf","game":"Team Fortress","app_id":440,"player_count":0,"max_players":24,"Bots":0,"server_type":"Dedicated","server_os":"Linux","password":true,"vac":true,"version":"7932396","steam_id":85568392925397853,"keywords":["nocrits","nodmgspread","payload","uncletopia"],"game_id":440,"stv_port":27046,"stv_name":"Uncletopia | Warsaw | 4 | All Maps | STV","players":null},{"server_id":53,"name":"Uncletopia | Warsaw | 5 | Stopwatch Beta","name_short":"waw-5","host":"waw-1.pl.uncletopia.com","port":27055,"enabled":true,"region":"eu","cc":"pl","latitude":52.2297,"longitude":21.017532,"reserved":0,"last_update":"0001-01-01T00:00:00Z","name_a2s":"Uncletopia | Warsaw | 5 | Stopwatch Beta","protocol":17,"map":"koth_highpass","folder":"tf","game":"Team Fortress","app_id":440,"player_count":0,"max_players":24,"Bots":0,"server_type":"Dedicated","server_os":"Linux","password":true,"vac":true,"version":"7932396","steam_id":85568392925397854,"keywords":["cp","nocrits","nodmgspread","uncletopia"],"game_id":440,"stv_port":27056,"stv_name":"Uncletopia | Warsaw | 5 | Stopwatch Beta | STV","players":null},{"server_id":54,"name":"Uncletopia | Warsaw | 6 | Community","name_short":"waw-6","host":"waw-1.pl.uncletopia.com","port":27065,"enabled":true,"region":"eu","cc":"pl","latitude":52.2297,"longitude":21.017532,"reserved":0,"last_update":"0001-01-01T00:00:00Z","name_a2s":"Uncletopia | Warsaw | 6 | Community","protocol":17,"map":"pl_upward","folder":"tf","game":"Team Fortress","app_id":440,"player_count":0,"max_players":24,"Bots":0,"server_type":"Dedicated","server_os":"Linux","password":true,"vac":true,"version":"7932396","steam_id":85568392925397856,"keywords":["nocrits","nodmgspread","payload","uncletopia"],"game_id":440,"stv_port":27066,"stv_name":"Uncletopia | Warsaw | 6 | Community | STV","players":null}]}