{"status":true,"message":"","result":[{"server_id":9,"name":"Uncletopia | Atlanta | 1 | All Maps","name_short":"atl-1","host":"atl-1.us.uncletopia.com","port":27015,"enabled":true,"region":"us-east","cc":"us","latitude":33.753746,"longitude":-84.38633,"reserved":0,"last_update":"0001-01-01T00:00:00Z","name_a2s":"Uncletopia | Atlanta | 1 | All Maps","protocol":17,"map":"pl_snowycoast","folder":"tf","game":"Team Fortress","app_id":440,"player_count":24,"max_players":24,"Bots":0,"server_type":"Dedicated","server_os":"Linux","password":true,"vac":true,"version":"7961495","steam_id":85568392924469982,"keywords":["nocrits","nodmgspread","payload","uncletopia"],"game_id":440,"stv_port":27016,"stv_name":"Uncletopia | Atlanta | 1 | All Maps | STV","players":null},{"server_id":104,"name":"Uncletopia | Atlanta | 2 | All Maps","name_short":"atl-2","host":"atl-1.us.uncletopia.com","port":27025,"enabled":true,"region":"us-east","cc":"us","latitude":33.753746,"longitude":-84.38633,"reserved":0,"last_update":"0001-01-01T00:00:00Z","name_a2s":"Uncletopia | Atlanta | 2 | All Maps","protocol":17,"map":"koth_suijin","folder":"tf","game":"Team Fortress","app_id":440,"player_count":24,"max_players":24,"Bots":0,"server_type":"Dedicated","server_os":"Linux","password":true,"vac":true,"version":"7961495","steam_id":85568392924469983,"keywords":["cp","nocrits","nodmgspread","uncletopia"],"game_id":440,"stv_port":27026,"stv_name":"Uncletopia | Atlanta | 2 | All Maps | STV","players":null},{"server_id":400,"name":"Uncletopia | Atlanta | 3 | All Maps","name_short":"atl-3","host":"atl-1.us.uncletopia.com","port":27035,"enabled":true,"region":"us-east","cc":"us","latitude":33.753746,"longitude":-84.38633,"reserved":0,"last_update":"0001-01-01T00:00:00Z","name_a2s":"Uncletopia | Atlanta | 3 | All Maps","protocol":17,"map":"koth_nucleus","folder":"tf","game":"Team Fortress","app_id":440,"player_count":23,"max_players":24,"Bots":0,"server_type":"Dedicated","server_os":"Linux","password":true,"vac":true,"version":"7961495","steam_id":85568392924515187,"keywords":["cp","nocrits","nodmgspread","uncletopia"],"game_id":440,"stv_port":27036,"stv_name":"Uncletopia | Atlanta | 3 | All Maps | STV","players":null},{"server_id":401,"name":"Uncletopia | Atlanta | 4 | Community","name_short":"atl-4","host":"atl-1.us.uncletopia.com","port":27045,"enabled":true,"region":"us-east","cc":"us","latitude":33.753746,"longitude":-84.38633,"reserved":0,"last_update":"0001-01-01T00:00:00Z","name_a2s":"Uncletopia | Atlanta | 4 | Community","protocol":17,"map":"koth_trenchfoot_b1a","folder":"tf","game":"Team Fortress","app_id":440,"player_count":0,"max_players":24,"Bots":0,"server_type":"Dedicated","server_os":"Linux","password":true,"vac":true,"version":"7961495","steam_id":85568392924515188,"keywords":["cp","nocrits","nodmgspread","uncletopia"],"game_id":440,"stv_port":27046,"stv_name":"Uncletopia | Atlanta | 4 | Community | STV","players":null},{"server_id":2,"name":"Uncletopia | Chicago | 1 | All Maps","name_short":"chi-1","host":"chi-1.us.uncletopia.com","port":27015,"enabled":true,"region":"us-central","cc":"us","latitude":41.881832,"longitude":-87.62318,"reserved":0,"last_update":"0001-01-01T00:00:00Z","name_a2s":"Uncletopia | Chicago | 1 | All Maps","protocol":17,"map":"pl_borneo","folder":"tf","game":"Team Fortress","app_id":440,"player_count":23,"max_players":24,"Bots":0,"server_type":"Dedicated","server_os":"Linux","password":true,"vac":true,"version":"7961495","steam_id":85568392924469984,"keywords":["nocrits","nodmgspread","payload","uncletopia"],"game_id":440,"stv_port":27016,"stv_name":"Uncletopia | Chicago | 1 | All Maps | STV","players":[{"user_id":245,"name":"hammy","steam_id":76561198035751911,"connected_time":105000000000,"state":"active","ping":70},{"user_id":159,"name":"OldNickDonald","steam_id":76561199082618992,"connected_time":1646000000000,"state":"active","ping":62},{"user_id":128,"name":"Oli B\u003eQS/BP/Bulk w/ 1.5k+ keys","steam_id":76561198140316312,"connected_time":2234000000000,"state":"active","ping":55},{"user_id":160,"name":"Vierkant","steam_id":76561198357574307,"connected_time":1621000000000,"state":"active","ping":55},{"user_id":114,"name":"Konyek","steam_id":76561198164591872,"connected_time":2479000000000,"state":"active","ping":56},{"user_id":61,"name":"Astoriae!","steam_id":76561199090168858,"connected_time":3854000000000,"state":"active","ping":66},{"user_id":89,"name":"Kyrie Irving","steam_id":76561198163350103,"connected_time":3283000000000,"state":"active","ping":71},{"user_id":101,"name":"Watermelon Cooler","steam_id":76561198170628789,"connected_time":2863000000000,"state":"active","ping":120},{"user_id":127,"name":"jrdoran","steam_id":76561197984753094,"connected_time":2242000000000,"state":"active","ping":51},{"user_id":240,"name":"waaaaaa","steam_id":76561198966942136,"connected_time":191000000000,"state":"active","ping":98},{"user_id":65,"name":"Your Local Queer Librarian","steam_id":76561198013077080,"connected_time":3832000000000,"state":"active","ping":56},{"user_id":84,"name":"Devoid","steam_id":76561198254039012,"connected_time":3387000000000,"state":"active","ping":47},{"user_id":90,"name":"Keymaster","steam_id":76561198881514228,"connected_time":3275000000000,"state":"active","ping":82},{"user_id":246,"name":"Alexander1353","steam_id":76561198249641266,"connected_time":86000000000,"state":"active","ping":91},{"user_id":219,"name":"Owen","steam_id":76561198025446908,"connected_time":485000000000,"state":"active","ping":65},{"user_id":107,"name":"real fnaf fazbear","steam_id":76561198142146861,"connected_time":2707000000000,"state":"active","ping":56},{"user_id":72,"name":":()","steam_id":76561198071991975,"connected_time":3770000000000,"state":"active","ping":60},{"user_id":192,"name":"craxyt","steam_id":76561198050192689,"connected_time":1102000000000,"state":"active","ping":100},{"user_id":234,"name":"Punsequence64","steam_id":76561199201885917,"connected_time":299000000000,"state":"active","ping":63},{"user_id":76,"name":"IMYS","steam_id":76561198096223200,"connected_time":3720000000000,"state":"active","ping":49},{"user_id":215,"name":"pikmin-master","steam_id":76561198814588201,"connected_time":629000000000,"state":"active","ping":102},{"user_id":145,"name":"GoofyAhGamingGuy","steam_id":76561199331315881,"connected_time":1945000000000,"state":"active","ping":71},{"user_id":93,"name":"goliath birdeater","steam_id":76561198089852954,"connected_time":3157000000000,"state":"active","ping":89}]},{"server_id":106,"name":"Uncletopia | Chicago | 2 | All Maps","name_short":"chi-2","host":"chi-1.us.uncletopia.com","port":27025,"enabled":true,"region":"us-central","cc":"us","latitude":41.881832,"longitude":-87.62318,"reserved":0,"last_update":"0001-01-01T00:00:00Z","name_a2s":"Uncletopia | Chicago | 2 | All Maps","protocol":17,"map":"cp_process_final","folder":"tf","game":"Team Fortress","app_id":440,"player_count":24,"max_players":24,"Bots":0,"server_type":"Dedicated","server_os":"Linux","password":true,"vac":true,"version":"7961495","steam_id":85568392924469985,"keywords":["cp","nocrits","nodmgspread","uncletopia"],"game_id":440,"stv_port":27026,"stv_name":"Uncletopia | Chicago | 2 | All Maps | STV","players":[{"user_id":406,"name":"magnolia","steam_id":76561199376721697,"connected_time":3179000000000,"state":"active","ping":58},{"user_id":444,"name":"Chlorm","steam_id":76561198147052737,"connected_time":131000000000,"state":"active","ping":45},{"user_id":407,"name":"Spy (I Love spy)","steam_id":76561199138738952,"connected_time":3179000000000,"state":"active","ping":74},{"user_id":408,"name":"Boomer Gaming","steam_id":76561198037803087,"connected_time":3143000000000,"state":"active","ping":67},{"user_id":424,"name":"emerge","steam_id":76561198186882891,"connected_time":1855000000000,"state":"active","ping":72},{"user_id":445,"name":"Cyclops_672","steam_id":76561198080169497,"connected_time":54000000000,"state":"active","ping":54},{"user_id":283,"name":"Yongle","steam_id":76561198068591156,"connected_time":12844000000000,"state":"active","ping":47},{"user_id":438,"name":"0100101101100001011100100110110","steam_id":76561198034028769,"connected_time":672000000000,"state":"active","ping":55},{"user_id":437,"name":"squaggles!","steam_id":76561197994995011,"connected_time":786000000000,"state":"active","ping":46},{"user_id":446,"name":"b","steam_id":76561198118211523,"connected_time":53000000000,"state":"active","ping":60},{"user_id":447,"name":"SWISS!","steam_id":76561198271971252,"connected_time":48000000000,"state":"active","ping":69},{"user_id":443,"name":"Bailster","steam_id":76561198091530428,"connected_time":135000000000,"state":"active","ping":61},{"user_id":432,"name":"Zeek","steam_id":76561197987204351,"connected_time":1556000000000,"state":"active","ping":55},{"user_id":319,"name":"det lft","steam_id":76561198170859755,"connected_time":10586000000000,"state":"active","ping":57},{"user_id":430,"name":"mio","steam_id":76561198239286750,"connected_time":1619000000000,"state":"active","ping":69},{"user_id":431,"name":"Al Cabone","steam_id":76561198956823243,"connected_time":1591000000000,"state":"active","ping":60},{"user_id":394,"name":"Ice dispenser(real)","steam_id":76561198298310744,"connected_time":4433000000000,"state":"active","ping":75},{"user_id":359,"name":"Hindmost","steam_id":76561199081837220,"connected_time":7218000000000,"state":"active","ping":83},{"user_id":434,"name":"Gailus","steam_id":76561198319509387,"connected_time":982000000000,"state":"active","ping":70},{"user_id":448,"name":"define ok","steam_id":76561198068190834,"connected_time":42000000000,"state":"active","ping":105},{"user_id":449,"name":"Bartolito.jpg","steam_id":76561199072803317,"connected_time":37000000000,"state":"active","ping":149},{"user_id":450,"name":"Jimothy Pickens","steam_id":76561199020884797,"connected_time":18000000000,"state":"active","ping":392},{"user_id":427,"name":"Crunchy","steam_id":76561198060342804,"connected_time":1825000000000,"state":"active","ping":71},{"user_id":429,"name":"hoos","steam_id":76561198045985910,"connected_time":1816000000000,"state":"active","ping":106}]},{"server_id":402,"name":"Uncletopia | Chicago | 3 | All Maps","name_short":"chi-3","host":"chi-1.us.uncletopia.com","port":27035,"enabled":true,"region":"us-central","cc":"us","latitude":41.881832,"longitude":-87.62318,"reserved":0,"last_update":"0001-01-01T00:00:00Z","name_a2s":"Uncletopia | Chicago | 3 | All Maps","protocol":17,"map":"cp_badlands","folder":"tf","game":"Team Fortress","app_id":440,"player_count":0,"max_players":24,"Bots":0,"server_type":"Dedicated","server_os":"Linux","password":true,"vac":true,"version":"7961495","steam_id":85568392924515191,"keywords":["cp","nocrits","nodmgspread","uncletopia"],"game_id":440,"stv_port":27036,"stv_name":"Uncletopia | Chicago | 3 | All Maps | STV","players":null},{"server_id":403,"name":"Uncletopia | Chicago | 4 | All Maps","name_short":"chi-4","host":"chi-1.us.uncletopia.com","port":27045,"enabled":true,"region":"us-central","cc":"us","latitude":41.881832,"longitude":-87.62318,"reserved":0,"last_update":"0001-01-01T00:00:00Z","name_a2s":"Uncletopia | Chicago | 4 | All Maps","protocol":17,"map":"pl_pier","folder":"tf","game":"Team Fortress","app_id":440,"player_count":24,"max_players":24,"Bots":0,"server_type":"Dedicated","server_os":"Linux","password":true,"vac":true,"version":"7961495","steam_id":85568392924515193,"keywords":["nocrits","nodmgspread","payload","uncletopia"],"game_id":440,"stv_port":27046,"stv_name":"Uncletopia | Chicago | 4 | All Maps | STV","players":[{"user_id":127,"name":"✠CrustyCake✠","steam_id":76561198155062405,"connected_time":110000000000,"state":"active","ping":100},{"user_id":112,"name":"Dalvarious","steam_id":76561198052771928,"connected_time":1093000000000,"state":"active","ping":69},{"user_id":124,"name":"Riff III","steam_id":76561198066921423,"connected_time":361000000000,"state":"active","ping":72},{"user_id":93,"name":"d4efeb","steam_id":76561198148098761,"connected_time":2345000000000,"state":"active","ping":44},{"user_id":122,"name":"Joe Nathan","steam_id":76561198041030399,"connected_time":402000000000,"state":"active","ping":73},{"user_id":126,"name":"Wan Shi Tong","steam_id":76561198076441225,"connected_time":175000000000,"state":"active","ping":66},{"user_id":69,"name":"Tankless Water Heater","steam_id":76561198014574925,"connected_time":4523000000000,"state":"active","ping":75},{"user_id":99,"name":"slime","steam_id":76561198986041100,"connected_time":1988000000000,"state":"active","ping":62},{"user_id":103,"name":"shaq$","steam_id":76561198045246504,"connected_time":1445000000000,"state":"active","ping":59},{"user_id":106,"name":"Truck-kun2107","steam_id":76561199161417910,"connected_time":1361000000000,"state":"active","ping":90},{"user_id":107,"name":"󠁳 ⁧Argo","steam_id":76561198353725622,"connected_time":1350000000000,"state":"active","ping":75},{"user_id":114,"name":"the goon","steam_id":76561198334091260,"connected_time":1022000000000,"state":"active","ping":72},{"user_id":63,"name":"1-800-GHOST-DANCE","steam_id":76561198835430429,"connected_time":5231000000000,"state":"active","ping":89},{"user_id":78,"name":"Bloop","steam_id":76561198253563271,"connected_time":3845000000000,"state":"active","ping":49},{"user_id":98,"name":"MY LOVE DRIPS IN RED","steam_id":76561198072179483,"connected_time":2090000000000,"state":"active","ping":93},{"user_id":51,"name":"Shoeshocker","steam_id":76561198174302467,"connected_time":6120000000000,"state":"active","ping":68},{"user_id":101,"name":"do the bug shaker","steam_id":76561198201259645,"connected_time":1926000000000,"state":"active","ping":75},{"user_id":118,"name":"Irritated Duck","steam_id":76561198247792076,"connected_time":893000000000,"state":"active","ping":124},{"user_id":58,"name":"El Bondin","steam_id":76561198820792434,"connected_time":5458000000000,"state":"active","ping":95},{"user_id":109,"name":"scrub","steam_id":76561198284916494,"connected_time":1341000000000,"state":"active","ping":47},{"user_id":119,"name":"sailor","steam_id":76561198091015050,"connected_time":663000000000,"state":"active","ping":47},{"user_id":111,"name":"я гомосексуал","steam_id":76561199013466162,"connected_time":1275000000000,"state":"active","ping":89},{"user_id":50,"name":"Piyono","steam_id":76561197962188504,"connected_time":6245000000000,"state":"active","ping":70}]},{"server_id":36,"name":"Uncletopia | Chicago | 5 | All Maps","name_short":"chi-5","host":"chi-2.us.uncletopia.com","port":27015,"enabled":true,"region":"us-central","cc":"us","latitude":41.881832,"longitude":-87.62318,"reserved":0,"last_update":"0001-01-01T00:00:00Z","name_a2s":"Uncletopia | Chicago | 5 | All Maps","protocol":17,"map":"pl_badwater","folder":"tf","game":"Team Fortress","app_id":440,"player_count":23,"max_players":24,"Bots":0,"server_type":"Dedicated","server_os":"Linux","password":true,"vac":true,"version":"7961495","steam_id":85568392924866362,"keywords":["nocrits","nodmgspread","payload","uncletopia"],"game_id":440,"stv_port":27016,"stv_name":"Uncletopia | Chicago | 5 | All Maps | STV","players":[{"user_id":157,"name":"LToschi","steam_id":76561198124099320,"connected_time":1751000000000,"state":"active","ping":63},{"user_id":176,"name":"gromit","steam_id":76561198037746805,"connected_time":686000000000,"state":"active","ping":75},{"user_id":52,"name":"THORNFIELDGAMER","steam_id":76561199087167473,"connected_time":7974000000000,"state":"active","ping":87},{"user_id":142,"name":"GalacticHero2068","steam_id":76561199063612661,"connected_time":2355000000000,"state":"active","ping":90},{"user_id":99,"name":"Butters495","steam_id":76561197998689042,"connected_time":4552000000000,"state":"active","ping":80},{"user_id":143,"name":"nova","steam_id":76561199129194252,"connected_time":2336000000000,"state":"active","ping":80},{"user_id":182,"name":"Enatum","steam_id":76561199014386069,"connected_time":470000000000,"state":"active","ping":88},{"user_id":146,"name":"Crystall","steam_id":76561198346607700,"connected_time":2036000000000,"state":"active","ping":69},{"user_id":186,"name":"Npc","steam_id":76561199231259229,"connected_time":228000000000,"state":"active","ping":105},{"user_id":168,"name":"Joe","steam_id":76561198247499954,"connected_time":888000000000,"state":"active","ping":68},{"user_id":148,"name":"Kamin","steam_id":76561198255299559,"connected_time":1945000000000,"state":"active","ping":90},{"user_id":175,"name":"Prof. Prostate","steam_id":76561199103869446,"connected_time":695000000000,"state":"active","ping":69},{"user_id":190,"name":"Weerk","steam_id":76561199209543551,"connected_time":138000000000,"state":"active","ping":86},{"user_id":188,"name":"Tlaloc","steam_id":76561198375215983,"connected_time":203000000000,"state":"active","ping":121},{"user_id":189,"name":"An Erect Penis :)","steam_id":76561198086477485,"connected_time":178000000000,"state":"active","ping":40},{"user_id":191,"name":"thug warrior","steam_id":76561199004451589,"connected_time":132000000000,"state":"active","ping":60},{"user_id":184,"name":"BananaArm","steam_id":76561199087528350,"connected_time":361000000000,"state":"active","ping":60},{"user_id":180,"name":"Harold Manshaft, CEO","steam_id":76561198046563712,"connected_time":562000000000,"state":"active","ping":87},{"user_id":177,"name":"CPU","steam_id":76561199029383454,"connected_time":653000000000,"state":"active","ping":68},{"user_id":178,"name":"JelloSniffer","steam_id":76561198142770733,"connected_time":643000000000,"state":"active","ping":56},{"user_id":192,"name":"HOODOO_LOVER_2007","steam_id":76561199087691214,"connected_time":128000000000,"state":"active","ping":91},{"user_id":165,"name":"elijahlong9841","steam_id":76561198977541452,"connected_time":1155000000000,"state":"active","ping":69},{"user_id":181,"name":"TrueNorth","steam_id":76561198036663369,"connected_time":562000000000,"state":"active","ping":87}]},{"server_id":37,"name":"Uncletopia | Chicago | 6 | All Maps","name_short":"chi-6","host":"chi-2.us.uncletopia.com","port":27025,"enabled":true,"region":"us-central","cc":"us","latitude":41.881832,"longitude":-87.62318,"reserved":0,"last_update":"0001-01-01T00:00:00Z","name_a2s":"Uncletopia | Chicago | 6 | All Maps","protocol":17,"map":"cp_mountainlab","folder":"tf","game":"Team Fortress","app_id":440,"player_count":24,"max_players":24,"Bots":0,"server_type":"Dedicated","server_os":"Linux","password":true,"vac":true,"version":"7961495","steam_id":85568392924866363,"keywords":["cp","nocrits","nodmgspread","uncletopia"],"game_id":440,"stv_port":27026,"stv_name":"Uncletopia | Chicago | 6 | All Maps | STV","players":[{"user_id":282,"name":"bakkhertz","steam_id":76561198046745579,"connected_time":311000000000,"state":"active","ping":86},{"user_id":262,"name":"Makhnovian","steam_id":76561199090548721,"connected_time":2408000000000,"state":"active","ping":66},{"user_id":281,"name":"Mr.Silver","steam_id":76561198156382508,"connected_time":587000000000,"state":"active","ping":55},{"user_id":263,"name":"Hannibal of Carthage","steam_id":76561198037820457,"connected_time":2398000000000,"state":"active","ping":83},{"user_id":280,"name":"Rappitor","steam_id":76561198105613110,"connected_time":762000000000,"state":"active","ping":60},{"user_id":259,"name":"fish","steam_id":76561198426446512,"connected_time":2838000000000,"state":"active","ping":89},{"user_id":258,"name":"yes daddy","steam_id":76561198166100997,"connected_time":2992000000000,"state":"active","ping":62},{"user_id":279,"name":"Rornir","steam_id":76561198081829615,"connected_time":775000000000,"state":"active","ping":36},{"user_id":283,"name":"mr pocahontas","steam_id":76561198051881047,"connected_time":274000000000,"state":"active","ping":44},{"user_id":284,"name":"ispongebobz11","steam_id":76561198862843572,"connected_time":207000000000,"state":"active","ping":70},{"user_id":278,"name":"poopshitter9000","steam_id":76561198074624639,"connected_time":893000000000,"state":"active","ping":56},{"user_id":286,"name":"100FootTallGoose","steam_id":76561198056611082,"connected_time":153000000000,"state":"active","ping":47},{"user_id":271,"name":"20yumyum","steam_id":76561199252493269,"connected_time":1954000000000,"state":"active","ping":76},{"user_id":264,"name":"zbskelton","steam_id":76561198097949855,"connected_time":2393000000000,"state":"active","ping":82},{"user_id":268,"name":"Hero","steam_id":76561198044117696,"connected_time":2360000000000,"state":"active","ping":69},{"user_id":272,"name":"TheDude","steam_id":76561198314764519,"connected_time":1786000000000,"state":"active","ping":109},{"user_id":178,"name":"Jesse Bear","steam_id":76561198217075305,"connected_time":8424000000000,"state":"active","ping":84},{"user_id":285,"name":"glankinator","steam_id":76561198354077256,"connected_time":194000000000,"state":"active","ping":46},{"user_id":266,"name":"r3cebarnett","steam_id":76561198052705849,"connected_time":2370000000000,"state":"active","ping":77},{"user_id":287,"name":"Willem Dafoe","steam_id":76561198037453253,"connected_time":138000000000,"state":"active","ping":58},{"user_id":288,"name":"Provocator","steam_id":76561197961830410,"connected_time":99000000000,"state":"active","ping":75},{"user_id":277,"name":"selvage","steam_id":76561198313364985,"connected_time":993000000000,"state":"active","ping":71},{"user_id":274,"name":"Willham","steam_id":76561198065755781,"connected_time":1463000000000,"state":"active","ping":79},{"user_id":289,"name":"Civic Duty MK II Enthusiast","steam_id":76561198144049265,"connected_time":80000000000,"state":"active","ping":69}]},{"server_id":38,"name":"Uncletopia | Chicago | 7 | Stopwatch Beta","name_short":"chi-7","host":"chi-2.us.uncletopia.com","port":27035,"enabled":true,"region":"us-central","cc":"us","latitude":41.881832,"longitude":-87.62318,"reserved":0,"last_update":"0001-01-01T00:00:00Z","name_a2s":"Uncletopia | Chicago | 7 | Stopwatch Beta","protocol":17,"map":"pl_badwater","folder":"tf","game":"Team Fortress","app_id":440,"player_count":0,"max_players":24,"Bots":0,"server_type":"Dedicated","server_os":"Linux","password":true,"vac":true,"version":"7961495","steam_id":85568392924866364,"keywords":["nocrits","nodmgspread","payload","uncletopia"],"game_id":440,"stv_port":27036,"stv_name":"Uncletopia | Chicago | 7 | Stopwatch Beta | STV","players":null},{"server_id":39,"name":"Uncletopia | Chicago | 8 | Community","name_short":"chi-8","host":"chi-2.us.uncletopia.com","port":27045,"enabled":true,"region":"us-central","cc":"us","latitude":41.881832,"longitude":-87.62318,"reserved":0,"last_update":"0001-01-01T00:00:00Z","name_a2s":"Uncletopia | Chicago | 8 | Community","protocol":17,"map":"workshop/pl_highwood_b13.ugc1769496557","folder":"tf","game":"Team Fortress","app_id":440,"player_count":22,"max_players":24,"Bots":0,"server_type":"Dedicated","server_os":"Linux","password":true,"vac":true,"version":"7961495","steam_id":85568392924866365,"keywords":["nocrits","nodmgspread","payload","uncletopia"],"game_id":440,"stv_port":27046,"stv_name":"Uncletopia | Chicago | 8 | Community | STV","players":[{"user_id":244,"name":"Uplego13","steam_id":76561198135415659,"connected_time":688000000000,"state":"active","ping":134},{"user_id":251,"name":"MrDuck","steam_id":76561199194675734,"connected_time":426000000000,"state":"active","ping":73},{"user_id":249,"name":"top10skater","steam_id":76561199471507997,"connected_time":541000000000,"state":"active","ping":118},{"user_id":257,"name":"CoralBlue","steam_id":76561199085138970,"connected_time":127000000000,"state":"active","ping":100},{"user_id":222,"name":"Cleverless Biped","steam_id":76561198045984856,"connected_time":2949000000000,"state":"active","ping":117},{"user_id":245,"name":"UNCLE RUCKUS","steam_id":76561199380604147,"connected_time":651000000000,"state":"active","ping":72},{"user_id":194,"name":"Venk","steam_id":76561198251131422,"connected_time":3933000000000,"state":"active","ping":70},{"user_id":246,"name":"lx_smoke_xl","steam_id":76561199485453065,"connected_time":607000000000,"state":"active","ping":97},{"user_id":240,"name":"Raccoon.Of.Waffle.House","steam_id":76561199018770554,"connected_time":1101000000000,"state":"active","ping":70},{"user_id":209,"name":"Aeonspassed","steam_id":76561198014016451,"connected_time":3426000000000,"state":"active","ping":57},{"user_id":258,"name":"goober","steam_id":76561198344499440,"connected_time":45000000000,"state":"spawning","ping":210},{"user_id":219,"name":"Skiddy","steam_id":76561198125942665,"connected_time":3056000000000,"state":"active","ping":70},{"user_id":237,"name":"White_Wizard_Named_Corona","steam_id":76561198055652735,"connected_time":1921000000000,"state":"active","ping":92},{"user_id":242,"name":"The Pan Man From Slavic Land","steam_id":76561198401875841,"connected_time":1059000000000,"state":"active","ping":46},{"user_id":243,"name":"franz","steam_id":76561199384188496,"connected_time":910000000000,"state":"active","ping":93},{"user_id":186,"name":"Pdawgdavis02","steam_id":76561199209633860,"connected_time":4024000000000,"state":"active","ping":71},{"user_id":256,"name":"TrustworthyStranger","steam_id":76561198154105678,"connected_time":313000000000,"state":"active","ping":79},{"user_id":231,"name":"The Original Toaster","steam_id":76561198984718975,"connected_time":2486000000000,"state":"active","ping":47},{"user_id":254,"name":"Cheese4Everyone","steam_id":76561198022333985,"connected_time":395000000000,"state":"active","ping":72},{"user_id":255,"name":"Donkyy","steam_id":76561199054461440,"connected_time":376000000000,"state":"active","ping":77},{"user_id":236,"name":"firstlastmcgee","steam_id":76561198170187989,"connected_time":2005000000000,"state":"active","ping":61},{"user_id":239,"name":"Neophyte","steam_id":76561198027183394,"connected_time":1161000000000,"state":"active","ping":90}]},{"server_id":8,"name":"Uncletopia | Dallas | 1 | All Maps","name_short":"dal-1","host":"dal-1.us.uncletopia.com","port":27015,"enabled":true,"region":"us-central","cc":"us","latitude":32.779167,"longitude":-96.80889,"reserved":0,"last_update":"0001-01-01T00:00:00Z","name_a2s":"Uncletopia | Dallas | 1 | All Maps","protocol":17,"map":"pl_borneo","folder":"tf","game":"Team Fortress","app_id":440,"player_count":24,"max_players":24,"Bots":0,"server_type":"Dedicated","server_os":"Linux","password":true,"vac":true,"version":"7961495","steam_id":85568392924469986,"keywords":["nocrits","nodmgspread","payload","uncletopia"],"game_id":440,"stv_port":27016,"stv_name":"Uncletopia | Dallas | 1 | All Maps | STV","players":[{"user_id":347,"name":"ven the foreskin haver","steam_id":76561198880428283,"connected_time":1632000000000,"state":"active","ping":93},{"user_id":372,"name":"creeeeeee","steam_id":76561198392539722,"connected_time":300000000000,"state":"active","ping":90},{"user_id":366,"name":"ѕυ【ʕ•ᴥ•ʔ】","steam_id":76561198071233302,"connected_time":852000000000,"state":"active","ping":85},{"user_id":369,"name":"40K","steam_id":76561198070599668,"connected_time":569000000000,"state":"active","ping":100},{"user_id":183,"name":"CeLeb144","steam_id":76561199089907740,"connected_time":16781000000000,"state":"active","ping":69},{"user_id":359,"name":"Rob","steam_id":76561199187786660,"connected_time":1223000000000,"state":"active","ping":53},{"user_id":361,"name":"Sanvɨƈɦ ɢʊʏ","steam_id":76561199183275282,"connected_time":1099000000000,"state":"active","ping":65},{"user_id":305,"name":"A Straw","steam_id":76561199367935846,"connected_time":5013000000000,"state":"active","ping":70},{"user_id":338,"name":"mkl","steam_id":76561197986401685,"connected_time":2704000000000,"state":"active","ping":59},{"user_id":355,"name":"Jesus","steam_id":76561198018890911,"connected_time":1424000000000,"state":"active","ping":43},{"user_id":368,"name":"Levi","steam_id":76561198089832776,"connected_time":700000000000,"state":"active","ping":52},{"user_id":274,"name":"Lucky","steam_id":76561198418262145,"connected_time":9001000000000,"state":"active","ping":133},{"user_id":371,"name":"Manic","steam_id":76561198128149670,"connected_time":415000000000,"state":"active","ping":45},{"user_id":325,"name":"Sabbatire","steam_id":76561199152501677,"connected_time":3079000000000,"state":"active","ping":45},{"user_id":363,"name":"Reeeeeeech","steam_id":76561197979913480,"connected_time":959000000000,"state":"active","ping":90},{"user_id":329,"name":"ratthew","steam_id":76561198418172095,"connected_time":3001000000000,"state":"active","ping":87},{"user_id":344,"name":"Trashgaming","steam_id":76561199184268442,"connected_time":2463000000000,"state":"active","ping":106},{"user_id":367,"name":"Rodgedan","steam_id":76561198226236524,"connected_time":800000000000,"state":"active","ping":98},{"user_id":333,"name":"nonagon infinity","steam_id":76561198397662124,"connected_time":2937000000000,"state":"active","ping":68},{"user_id":358,"name":"Fernando","steam_id":76561198443038047,"connected_time":1341000000000,"state":"active","ping":74},{"user_id":370,"name":"Wistful","steam_id":76561198798187576,"connected_time":546000000000,"state":"active","ping":45},{"user_id":284,"name":"De MonkE","steam_id":76561198140626221,"connected_time":8049000000000,"state":"active","ping":34},{"user_id":317,"name":"NoobCesar","steam_id":76561198095250755,"connected_time":4431000000000,"state":"active","ping":87},{"user_id":374,"name":"mitanashi","steam_id":76561198074573932,"connected_time":254000000000,"state":"active","ping":150}]},{"server_id":108,"name":"Uncletopia | Dallas | 2 | All Maps","name_short":"dal-2","host":"dal-1.us.uncletopia.com","port":27025,"enabled":true,"region":"us-central","cc":"us","latitude":32.779167,"longitude":-96.80889,"reserved":0,"last_update":"0001-01-01T00:00:00Z","name_a2s":"Uncletopia | Dallas | 2 | All Maps","protocol":17,"map":"koth_lakeside_final","folder":"tf","game":"Team Fortress","app_id":440,"player_count":11,"max_players":24,"Bots":0,"server_type":"Dedicated","server_os":"Linux","password":true,"vac":true,"version":"7961495","steam_id":85568392924469988,"keywords":["cp","nocrits","nodmgspread","uncletopia"],"game_id":440,"stv_port":27026,"stv_name":"Uncletopia | Dallas | 2 | All Maps | STV","players":[{"user_id":28,"name":"Shisho","steam_id":76561198800199201,"connected_time":2823000000000,"state":"active","ping":55},{"user_id":29,"name":"violent monkey porn","steam_id":76561199285074344,"connected_time":1703000000000,"state":"active","ping":190},{"user_id":30,"name":"sambrozee","steam_id":76561199160733886,"connected_time":1599000000000,"state":"active","ping":57},{"user_id":33,"name":"artichoke","steam_id":76561198980994364,"connected_time":609000000000,"state":"active","ping":98},{"user_id":32,"name":"Dknight2","steam_id":76561199187382295,"connected_time":1305000000000,"state":"active","ping":68},{"user_id":35,"name":"Cheddar","steam_id":76561199123994392,"connected_time":262000000000,"state":"active","ping":133},{"user_id":36,"name":"hforce11","steam_id":76561198087647130,"connected_time":255000000000,"state":"active","ping":54},{"user_id":39,"name":"StillNotGinger","steam_id":76561198063419189,"connected_time":126000000000,"state":"active","ping":55},{"user_id":38,"name":"Smug","steam_id":76561198448205229,"connected_time":163000000000,"state":"active","ping":63},{"user_id":40,"name":"Blaze","steam_id":76561199057409736,"connected_time":95000000000,"state":"active","ping":63},{"user_id":41,"name":"ammonia and bleach","steam_id":76561199091585278,"connected_time":2000000000,"state":"spawning","ping":54}]},{"server_id":404,"name":"Uncletopia | Dallas | 3 | All Maps","name_short":"dal-3","host":"dal-1.us.uncletopia.com","port":27035,"enabled":true,"region":"us-central","cc":"us","latitude":32.779167,"longitude":-96.80889,"reserved":0,"last_update":"0001-01-01T00:00:00Z","name_a2s":"Uncletopia | Dallas | 3 | All Maps","protocol":17,"map":"pl_swiftwater_final1","folder":"tf","game":"Team Fortress","app_id":440,"player_count":0,"max_players":24,"Bots":0,"server_type":"Dedicated","server_os":"Linux","password":true,"vac":true,"version":"7961495","steam_id":85568392924515219,"keywords":["nocrits","nodmgspread","payload","uncletopia"],"game_id":440,"stv_port":27036,"stv_name":"Uncletopia | Dallas | 3 | All Maps | STV","players":null},{"server_id":405,"name":"Uncletopia | Dallas | 4 | Community","name_short":"dal-4","host":"dal-1.us.uncletopia.com","port":27045,"enabled":true,"region":"us-central","cc":"us","latitude":32.779167,"longitude":-96.80889,"reserved":0,"last_update":"0001-01-01T00:00:00Z","name_a2s":"Uncletopia | Dallas | 4 | Community","protocol":17,"map":"workshop/pl_badwater_pro_v12.ugc2142942074","folder":"tf","game":"Team Fortress","app_id":440,"player_count":0,"max_players":24,"Bots":0,"server_type":"Dedicated","server_os":"Linux","password":true,"vac":true,"version":"7961495","steam_id":85568392924515220,"keywords":["nocrits","nodmgspread","payload","uncletopia"],"game_id":440,"stv_port":27046,"stv_name":"Uncletopia | Dallas | 4 | Community | STV","players":null},{"server_id":5,"name":"Uncletopia | Frankfurt | 1 | All Maps","name_short":"frk-1","host":"frk-1.de.uncletopia.com","port":27015,"enabled":true,"region":"eu","cc":"de","latitude":50.110924,"longitude":8.682127,"reserved":0,"last_update":"0001-01-01T00:00:00Z","name_a2s":"Uncletopia | Frankfurt | 1 | All Maps","protocol":17,"map":"pl_borneo","folder":"tf","game":"Team Fortress","app_id":440,"player_count":24,"max_players":24,"Bots":0,"server_type":"Dedicated","server_os":"Linux","password":true,"vac":true,"version":"7961495","steam_id":85568392924469989,"keywords":["nocrits","nodmgspread","payload","uncletopia"],"game_id":440,"stv_port":27016,"stv_name":"Uncletopia | Frankfurt | 1 | All Maps | STV","players":[{"user_id":433,"name":"Metalli","steam_id":76561198078735026,"connected_time":4289000000000,"state":"active","ping":98},{"user_id":475,"name":"BŁäck..","steam_id":76561198300644952,"connected_time":619000000000,"state":"active","ping":72},{"user_id":464,"name":"Not A Fake Uncletopia Server","steam_id":76561198152871288,"connected_time":1205000000000,"state":"active","ping":64},{"user_id":463,"name":"the one who grips","steam_id":76561198381106289,"connected_time":1263000000000,"state":"active","ping":72},{"user_id":393,"name":"Fu Manchu","steam_id":76561197995224539,"connected_time":7325000000000,"state":"active","ping":75},{"user_id":364,"name":"Engie's best friend","steam_id":76561197961707932,"connected_time":8997000000000,"state":"active","ping":47},{"user_id":473,"name":"Saint","steam_id":76561198003296382,"connected_time":763000000000,"state":"active","ping":62},{"user_id":426,"name":"jill sandwich","steam_id":76561198075068529,"connected_time":4909000000000,"state":"active","ping":63},{"user_id":453,"name":"smell_my_cheese","steam_id":76561198008517427,"connected_time":2320000000000,"state":"active","ping":69},{"user_id":438,"name":"ksg","steam_id":76561198042894236,"connected_time":3753000000000,"state":"active","ping":65},{"user_id":478,"name":"JujuBalu","steam_id":76561198207253071,"connected_time":127000000000,"state":"active","ping":46},{"user_id":458,"name":"pretty dick peso","steam_id":76561198798177799,"connected_time":1948000000000,"state":"active","ping":66},{"user_id":266,"name":"Carter","steam_id":76561198005243938,"connected_time":15120000000000,"state":"active","ping":84},{"user_id":479,"name":"Smilo","steam_id":76561198841481172,"connected_time":119000000000,"state":"active","ping":106},{"user_id":454,"name":"vurtun","steam_id":76561198857395274,"connected_time":2268000000000,"state":"active","ping":49},{"user_id":476,"name":"vMatyn","steam_id":76561198438929275,"connected_time":208000000000,"state":"active","ping":67},{"user_id":474,"name":"Drip-O-bama","steam_id":76561199135631057,"connected_time":715000000000,"state":"active","ping":73},{"user_id":469,"name":"Bob Booger Banger","steam_id":76561198127937602,"connected_time":1158000000000,"state":"active","ping":45},{"user_id":462,"name":"Shadow_kick","steam_id":76561198188851373,"connected_time":1472000000000,"state":"active","ping":81},{"user_id":472,"name":"HelwiiHill","steam_id":76561198066730552,"connected_time":912000000000,"state":"active","ping":86},{"user_id":456,"name":"Sabour","steam_id":76561197963965445,"connected_time":2254000000000,"state":"active","ping":61},{"user_id":449,"name":"EagleDeath","steam_id":76561198282441198,"connected_time":2771000000000,"state":"active","ping":78},{"user_id":480,"name":"Benzo Fury","steam_id":76561198025259336,"connected_time":112000000000,"state":"active","ping":59},{"user_id":457,"name":"Cookies and Bakies","steam_id":76561198017442928,"connected_time":2248000000000,"state":"active","ping":62}]},{"server_id":110,"name":"Uncletopia | Frankfurt | 2 | All Maps","name_short":"frk-2","host":"frk-1.de.uncletopia.com","port":27025,"enabled":true,"region":"eu","cc":"de","latitude":50.110924,"longitude":8.682127,"reserved":0,"last_update":"0001-01-01T00:00:00Z","name_a2s":"Uncletopia | Frankfurt | 2 | All Maps","protocol":17,"map":"cp_mountainlab","folder":"tf","game":"Team Fortress","app_id":440,"player_count":24,"max_players":24,"Bots":0,"server_type":"Dedicated","server_os":"Linux","password":true,"vac":true,"version":"7961495","steam_id":85568392924469990,"keywords":["cp","nocrits","nodmgspread","uncletopia"],"game_id":440,"stv_port":27026,"stv_name":"Uncletopia | Frankfurt | 2 | All Maps | STV","players":[{"user_id":379,"name":"squib","steam_id":76561198049170360,"connected_time":1082000000000,"state":"active","ping":53},{"user_id":358,"name":"BigChunk","steam_id":76561198215962313,"connected_time":2934000000000,"state":"active","ping":33},{"user_id":356,"name":"aabracadabra","steam_id":76561198061248329,"connected_time":3296000000000,"state":"active","ping":57},{"user_id":386,"name":"Bobo","steam_id":76561198052308399,"connected_time":916000000000,"state":"active","ping":63},{"user_id":388,"name":"Varsk","steam_id":76561198061398890,"connected_time":539000000000,"state":"active","ping":58},{"user_id":392,"name":"Rarky","steam_id":76561198054398642,"connected_time":412000000000,"state":"active","ping":56},{"user_id":377,"name":"Silver","steam_id":76561198175238807,"connected_time":1122000000000,"state":"active","ping":65},{"user_id":338,"name":"Hector","steam_id":76561198028618586,"connected_time":3791000000000,"state":"active","ping":61},{"user_id":381,"name":"iniT","steam_id":76561198019883794,"connected_time":1053000000000,"state":"active","ping":53},{"user_id":339,"name":"Ma͡xim͜us","steam_id":76561197970986094,"connected_time":3771000000000,"state":"active","ping":62},{"user_id":364,"name":"Gio'sMonkey","steam_id":76561198892432223,"connected_time":2673000000000,"state":"active","ping":74},{"user_id":389,"name":"Rigby","steam_id":76561198021552128,"connected_time":535000000000,"state":"active","ping":98},{"user_id":342,"name":"chair 2.0","steam_id":76561199233470150,"connected_time":3720000000000,"state":"active","ping":57},{"user_id":253,"name":"Just Navlis","steam_id":76561198090479609,"connected_time":10319000000000,"state":"active","ping":44},{"user_id":328,"name":"Adam","steam_id":76561198259467867,"connected_time":4609000000000,"state":"active","ping":80},{"user_id":375,"name":"Pogi820","steam_id":76561198320573568,"connected_time":1339000000000,"state":"active","ping":108},{"user_id":329,"name":"endlesshills","steam_id":76561198081908373,"connected_time":4607000000000,"state":"active","ping":54},{"user_id":387,"name":"xavier","steam_id":76561198076494034,"connected_time":803000000000,"state":"active","ping":57},{"user_id":380,"name":"TarekInnit","steam_id":76561198298618127,"connected_time":1081000000000,"state":"active","ping":50},{"user_id":369,"name":"hananamanna","steam_id":76561198006570285,"connected_time":2224000000000,"state":"active","ping":108},{"user_id":220,"name":"hyvakii705","steam_id":76561198086630552,"connected_time":12794000000000,"state":"active","ping":88},{"user_id":390,"name":"Vershal Smershal","steam_id":76561198116223995,"connected_time":528000000000,"state":"active","ping":60},{"user_id":383,"name":"snsmac","steam_id":76561198082821185,"connected_time":1031000000000,"state":"active","ping":53},{"user_id":393,"name":"\u003e\u003c\u003e","steam_id":76561198190225954,"connected_time":412000000000,"state":"active","ping":102}]},{"server_id":308,"name":"Uncletopia | Frankfurt | 3 | All Maps","name_short":"frk-3","host":"frk-1.de.uncletopia.com","port":27035,"enabled":true,"region":"eu","cc":"de","latitude":50.110924,"longitude":8.682127,"reserved":0,"last_update":"0001-01-01T00:00:00Z","name_a2s":"Uncletopia | Frankfurt | 3 | All Maps","protocol":17,"map":"pl_borneo","folder":"tf","game":"Team Fortress","app_id":440,"player_count":24,"max_players":24,"Bots":0,"server_type":"Dedicated","server_os":"Linux","password":true,"vac":true,"version":"7961495","steam_id":85568392924504274,"keywords":["nocrits","nodmgspread","payload","uncletopia"],"game_id":440,"stv_port":27036,"stv_name":"Uncletopia | Frankfurt | 3 | All Maps | STV","players":[{"user_id":384,"name":"Keke","steam_id":76561198042032908,"connected_time":1338000000000,"state":"active","ping":111},{"user_id":393,"name":"ash","steam_id":76561198159073505,"connected_time":437000000000,"state":"active","ping":108},{"user_id":391,"name":"Walle","steam_id":76561197995148937,"connected_time":1088000000000,"state":"active","ping":68},{"user_id":381,"name":"Makłowicz","steam_id":76561198281831506,"connected_time":1379000000000,"state":"active","ping":76},{"user_id":398,"name":"Volterion #SaveTf2","steam_id":76561198293088484,"connected_time":306000000000,"state":"active","ping":59},{"user_id":401,"name":"Dolcelatte","steam_id":76561198038501770,"connected_time":3000000000,"state":"spawning","ping":58},{"user_id":399,"name":"Glenn Quagmire","steam_id":76561199348527880,"connected_time":277000000000,"state":"active","ping":85},{"user_id":395,"name":"Ank0","steam_id":76561198214180388,"connected_time":406000000000,"state":"active","ping":76},{"user_id":386,"name":"bruh","steam_id":76561198109262927,"connected_time":1311000000000,"state":"active","ping":66},{"user_id":320,"name":"Gekyu","steam_id":76561198848485666,"connected_time":6366000000000,"state":"active","ping":48},{"user_id":376,"name":"Nozzo","steam_id":76561198012367783,"connected_time":2054000000000,"state":"active","ping":74},{"user_id":382,"name":"cof","steam_id":76561199128417805,"connected_time":1375000000000,"state":"active","ping":71},{"user_id":372,"name":"Astyloblatta","steam_id":76561199222909666,"connected_time":2180000000000,"state":"active","ping":58},{"user_id":373,"name":"walluu","steam_id":76561198121830870,"connected_time":2175000000000,"state":"active","ping":75},{"user_id":324,"name":"♂ Animan ♂ Studios ♂","steam_id":76561198308302932,"connected_time":6262000000000,"state":"active","ping":109},{"user_id":400,"name":"MrvicaKing69","steam_id":76561199268407840,"connected_time":101000000000,"state":"active","ping":86},{"user_id":387,"name":"Archive","steam_id":76561198071255385,"connected_time":1276000000000,"state":"active","ping":82},{"user_id":388,"name":"MelonLad","steam_id":76561198975335528,"connected_time":1266000000000,"state":"active","ping":71},{"user_id":350,"name":"zek","steam_id":76561198862763731,"connected_time":4909000000000,"state":"active","ping":60},{"user_id":389,"name":"nobodyy","steam_id":76561198027735766,"connected_time":1261000000000,"state":"active","ping":74},{"user_id":380,"name":"Koullis","steam_id":76561198427001796,"connected_time":1444000000000,"state":"active","ping":85},{"user_id":275,"name":"ne0n","steam_id":76561198032101031,"connected_time":8522000000000,"state":"active","ping":114},{"user_id":377,"name":"LucasX","steam_id":76561198370237881,"connected_time":2013000000000,"state":"active","ping":112},{"user_id":397,"name":"誰かが見ている","steam_id":76561198834913692,"connected_time":383000000000,"state":"active","ping":75}]},{"server_id":309,"name":"Uncletopia | Frankfurt | 4 | All Maps","name_short":"frk-4","host":"frk-1.de.uncletopia.com","port":27045,"enabled":true,"region":"eu","cc":"de","latitude":50.110924,"longitude":8.682127,"reserved":0,"last_update":"0001-01-01T00:00:00Z","name_a2s":"Uncletopia | Frankfurt | 4 | All Maps","protocol":17,"map":"pl_badwater","folder":"tf","game":"Team Fortress","app_id":440,"player_count":24,"max_players":24,"Bots":0,"server_type":"Dedicated","server_os":"Linux","password":true,"vac":true,"version":"7961495","steam_id":85568392924504275,"keywords":["nocrits","nodmgspread","payload","uncletopia"],"game_id":440,"stv_port":27046,"stv_name":"Uncletopia | Frankfurt | 4 | All Maps | STV","players":[{"user_id":442,"name":"Guy :)","steam_id":76561199095049662,"connected_time":889000000000,"state":"active","ping":64},{"user_id":432,"name":"KarlRanzeier","steam_id":76561198066281337,"connected_time":2065000000000,"state":"active","ping":48},{"user_id":137,"name":"SneaK","steam_id":76561198280344773,"connected_time":21716000000000,"state":"active","ping":81},{"user_id":385,"name":"G/3","steam_id":76561198234844188,"connected_time":5241000000000,"state":"active","ping":55},{"user_id":429,"name":"Envy","steam_id":76561198132723219,"connected_time":2086000000000,"state":"active","ping":92},{"user_id":440,"name":"TJ1212","steam_id":76561199013575313,"connected_time":966000000000,"state":"active","ping":65},{"user_id":444,"name":"Tugazu","steam_id":76561198144223649,"connected_time":486000000000,"state":"active","ping":60},{"user_id":437,"name":"‡LIĆVIN TROL‡","steam_id":76561198113127466,"connected_time":1705000000000,"state":"active","ping":100},{"user_id":443,"name":"Kappa","steam_id":76561198089341471,"connected_time":820000000000,"state":"active","ping":68},{"user_id":386,"name":"Summer ♥","steam_id":76561198047723907,"connected_time":5223000000000,"state":"active","ping":47},{"user_id":427,"name":"Bottle","steam_id":76561198067168441,"connected_time":2395000000000,"state":"active","ping":58},{"user_id":447,"name":"Fem","steam_id":76561198398529841,"connected_time":158000000000,"state":"active","ping":70},{"user_id":422,"name":"Zaka","steam_id":76561198148434957,"connected_time":3583000000000,"state":"active","ping":97},{"user_id":449,"name":"Doctor racism (OFFICIAL)","steam_id":76561199196316280,"connected_time":91000000000,"state":"active","ping":77},{"user_id":446,"name":"Qwertuss","steam_id":76561198026305366,"connected_time":183000000000,"state":"active","ping":57},{"user_id":406,"name":"Bottle O' Scrumpy","steam_id":76561199244250562,"connected_time":4218000000000,"state":"active","ping":114},{"user_id":413,"name":"YunikkoN","steam_id":76561198211962412,"connected_time":3912000000000,"state":"active","ping":83},{"user_id":438,"name":"some noob","steam_id":76561199081452666,"connected_time":1703000000000,"state":"active","ping":59},{"user_id":373,"name":"wasto-/-™","steam_id":76561198102888038,"connected_time":6143000000000,"state":"active","ping":51},{"user_id":439,"name":"Hetmanych","steam_id":76561198870926865,"connected_time":1679000000000,"state":"active","ping":56},{"user_id":450,"name":"margaret thatcher's girl power","steam_id":76561199401283123,"connected_time":33000000000,"state":"active","ping":61},{"user_id":434,"name":"Adushka","steam_id":76561198053095808,"connected_time":2022000000000,"state":"active","ping":67},{"user_id":409,"name":"Mudderbad","steam_id":76561199040869510,"connected_time":4161000000000,"state":"active","ping":70},{"user_id":425,"name":"Finnish Farmer","steam_id":76561198205366043,"connected_time":3245000000000,"state":"active","ping":87}]},{"server_id":310,"name":"Uncletopia | Frankfurt | 5 | All Maps","name_short":"frk-5","host":"frk-1.de.uncletopia.com","port":27055,"enabled":true,"region":"eu","cc":"de","latitude":50.110924,"longitude":8.682127,"reserved":0,"last_update":"0001-01-01T00:00:00Z","name_a2s":"Uncletopia | Frankfurt | 5 | All Maps","protocol":17,"map":"cp_snakewater_final1","folder":"tf","game":"Team Fortress","app_id":440,"player_count":24,"max_players":24,"Bots":0,"server_type":"Dedicated","server_os":"Linux","password":true,"vac":true,"version":"7961495","steam_id":85568392924504277,"keywords":["cp","nocrits","nodmgspread","uncletopia"],"game_id":440,"stv_port":27056,"stv_name":"Uncletopia | Frankfurt | 5 | All Maps | STV","players":[{"user_id":417,"name":"Urfangonultasadana","steam_id":76561199389286151,"connected_time":735000000000,"state":"active","ping":96},{"user_id":418,"name":"P3rsErkki","steam_id":76561198063093495,"connected_time":726000000000,"state":"active","ping":58},{"user_id":411,"name":"Scrufhead_54","steam_id":76561198135596846,"connected_time":891000000000,"state":"active","ping":73},{"user_id":419,"name":"ᴋᴇʙᴜ","steam_id":76561199006025475,"connected_time":713000000000,"state":"active","ping":103},{"user_id":401,"name":"ozz-man","steam_id":76561198084676522,"connected_time":1342000000000,"state":"active","ping":96},{"user_id":358,"name":"\"w\"esley \"s\"o","steam_id":76561199415989636,"connected_time":4522000000000,"state":"active","ping":91},{"user_id":420,"name":"¿Dónde está el sanguche?","steam_id":76561198119622375,"connected_time":697000000000,"state":"active","ping":74},{"user_id":386,"name":"clean carp","steam_id":76561198127053294,"connected_time":1998000000000,"state":"active","ping":67},{"user_id":425,"name":"n-ski","steam_id":76561198020550849,"connected_time":502000000000,"state":"active","ping":74},{"user_id":310,"name":"Быдла вой","steam_id":76561198041371314,"connected_time":7552000000000,"state":"active","ping":120},{"user_id":421,"name":"Ixsus\u003c3","steam_id":76561198094756869,"connected_time":685000000000,"state":"active","ping":56},{"user_id":415,"name":"Lopat","steam_id":76561198820264239,"connected_time":799000000000,"state":"active","ping":80},{"user_id":422,"name":"он","steam_id":76561198172046813,"connected_time":659000000000,"state":"active","ping":73},{"user_id":412,"name":"Majami","steam_id":76561198054365738,"connected_time":889000000000,"state":"active","ping":82},{"user_id":413,"name":"Baba Sraka","steam_id":76561198128292318,"connected_time":885000000000,"state":"active","ping":128},{"user_id":423,"name":"Egtu","steam_id":76561198013757235,"connected_time":656000000000,"state":"active","ping":60},{"user_id":369,"name":"miiko22","steam_id":76561198296394929,"connected_time":4019000000000,"state":"active","ping":116},{"user_id":402,"name":"Rock..","steam_id":76561198004641963,"connected_time":1214000000000,"state":"active","ping":82},{"user_id":280,"name":"realness","steam_id":76561199129226935,"connected_time":8984000000000,"state":"active","ping":90},{"user_id":424,"name":"We are in a world of magic","steam_id":76561198104745492,"connected_time":650000000000,"state":"active","ping":76},{"user_id":427,"name":"dylu","steam_id":76561199127788008,"connected_time":294000000000,"state":"active","ping":73},{"user_id":398,"name":"The Pootis Power","steam_id":76561198022798306,"connected_time":1369000000000,"state":"active","ping":62},{"user_id":426,"name":"momo","steam_id":76561198120008008,"connected_time":497000000000,"state":"active","ping":66},{"user_id":399,"name":"[SIEGE]Tevzi","steam_id":76561198046007448,"connected_time":1361000000000,"state":"active","ping":69}]},{"server_id":311,"name":"Uncletopia | Frankfurt | 6 | All Maps","name_short":"frk-6","host":"frk-1.de.uncletopia.com","port":27065,"enabled":true,"region":"eu","cc":"de","latitude":50.110924,"longitude":8.682127,"reserved":0,"last_update":"0001-01-01T00:00:00Z","name_a2s":"Uncletopia | Frankfurt | 6 | All Maps","protocol":17,"map":"koth_viaduct","folder":"tf","game":"Team Fortress","app_id":440,"player_count":0,"max_players":24,"Bots":0,"server_type":"Dedicated","server_os":"Linux","password":true,"vac":true,"version":"7961495","steam_id":85568392924504278,"keywords":["cp","nocrits","nodmgspread","uncletopia"],"game_id":440,"stv_port":27066,"stv_name":"Uncletopia | Frankfurt | 6 | All Maps | STV","players":null},{"server_id":23,"name":"Uncletopia | Frankfurt | 7 | Stopwatch Beta","name_short":"frk-7","host":"frk-1.de.uncletopia.com","port":27075,"enabled":true,"region":"eu","cc":"de","latitude":50.110924,"longitude":8.682127,"reserved":0,"last_update":"0001-01-01T00:00:00Z","name_a2s":"Uncletopia | Frankfurt | 7 | Stopwatch Beta","protocol":17,"map":"workshop/koth_product_final.ugc454272353","folder":"tf","game":"Team Fortress","app_id":440,"player_count":5,"max_players":24,"Bots":0,"server_type":"Dedicated","server_os":"Linux","password":true,"vac":true,"version":"7961495","steam_id":85568392924742827,"keywords":["cp","nocrits","nodmgspread","uncletopia"],"game_id":440,"stv_port":27076,"stv_name":"Uncletopia | Frankfurt | 7 | Stopwatch Beta | STV","players":[{"user_id":31,"name":"63756d","steam_id":76561198808699024,"connected_time":906000000000,"state":"active","ping":67},{"user_id":33,"name":"Fat Pigeon","steam_id":76561198817940142,"connected_time":33000000000,"state":"active","ping":45},{"user_id":12,"name":"kdhbuilder","steam_id":76561199058095193,"connected_time":4121000000000,"state":"active","ping":183},{"user_id":23,"name":"aidux86","steam_id":76561198975008961,"connected_time":2487000000000,"state":"active","ping":59},{"user_id":32,"name":"Godjan","steam_id":76561198077554447,"connected_time":740000000000,"state":"active","ping":136}]},{"server_id":24,"name":"Uncletopia | Frankfurt | 8 | Community","name_short":"frk-8","host":"frk-1.de.uncletopia.com","port":27085,"enabled":true,"region":"eu","cc":"de","latitude":50.110924,"longitude":8.682127,"reserved":0,"last_update":"0001-01-01T00:00:00Z","name_a2s":"Uncletopia | Frankfurt | 8 | Community","protocol":17,"map":"workshop/pl_shoreleave_rc2.ugc1238849347","folder":"tf","game":"Team Fortress","app_id":440,"player_count":3,"max_players":24,"Bots":0,"server_type":"Dedicated","server_os":"Linux","password":true,"vac":true,"version":"7961495","steam_id":85568392924742828,"keywords":["nocrits","nodmgspread","payload","uncletopia"],"game_id":440,"stv_port":27086,"stv_name":"Uncletopia | Frankfurt | 8 | Community | STV","players":[{"user_id":12,"name":"Henry Fonda","steam_id":76561199378865926,"connected_time":2517000000000,"state":"active","ping":85},{"user_id":13,"name":"stefanbejenari","steam_id":76561199466718294,"connected_time":2132000000000,"state":"active","ping":75},{"user_id":16,"name":"OzKo","steam_id":76561198245355476,"connected_time":235000000000,"state":"active","ping":160}]},{"server_id":202,"name":"Uncletopia | Hong Kong | 1 | All Maps","name_short":"hgk-1","host":"hgk-1.hk.uncletopia.com","port":27015,"enabled":true,"region":"asia","cc":"hk","latitude":22.302711,"longitude":114.177216,"reserved":0,"last_update":"0001-01-01T00:00:00Z","name_a2s":"Uncletopia | Hong Kong | 1 | All Maps","protocol":17,"map":"pl_borneo","folder":"tf","game":"Team Fortress","app_id":440,"player_count":0,"max_players":24,"Bots":0,"server_type":"Dedicated","server_os":"Linux","password":true,"vac":true,"version":"7961495","steam_id":85568392924494504,"keywords":["nocrits","nodmgspread","payload","uncletopia"],"game_id":440,"stv_port":27016,"stv_name":"Uncletopia | Hong Kong | 1 | All Maps | STV","players":null},{"server_id":1,"name":"Uncletopia | Los Angeles | 1 | All Maps","name_short":"lax-1","host":"lax-1.us.uncletopia.com","port":27015,"enabled":true,"region":"us-west","cc":"us","latitude":33.94279,"longitude":-118.41004,"reserved":0,"last_update":"0001-01-01T00:00:00Z","name_a2s":"Uncletopia | Los Angeles | 1 | All Maps","protocol":17,"map":"pl_borneo","folder":"tf","game":"Team Fortress","app_id":440,"player_count":23,"max_players":24,"Bots":0,"server_type":"Dedicated","server_os":"Linux","password":true,"vac":true,"version":"7961495","steam_id":85568392924469991,"keywords":["nocrits","nodmgspread","payload","uncletopia"],"game_id":440,"stv_port":27016,"stv_name":"Uncletopia | Los Angeles | 1 | All Maps | STV","players":[{"user_id":146,"name":"NFL.com","steam_id":76561198113405376,"connected_time":579000000000,"state":"active","ping":47},{"user_id":148,"name":"i cant aim","steam_id":76561198065873462,"connected_time":505000000000,"state":"active","ping":42},{"user_id":110,"name":"ConcussedBrick","steam_id":76561199200439305,"connected_time":3706000000000,"state":"active","ping":79},{"user_id":68,"name":"the pizza","steam_id":76561198221331476,"connected_time":5936000000000,"state":"active","ping":50},{"user_id":149,"name":"Knock on the sky and listen","steam_id":76561198077597130,"connected_time":488000000000,"state":"active","ping":59},{"user_id":141,"name":"ElephantHydrogen4277882","steam_id":76561198175741741,"connected_time":1280000000000,"state":"active","ping":104},{"user_id":150,"name":"snuppy","steam_id":76561199157666657,"connected_time":378000000000,"state":"active","ping":84},{"user_id":128,"name":"judesro","steam_id":76561198352244888,"connected_time":2166000000000,"state":"active","ping":129},{"user_id":122,"name":"DEQUAVIS","steam_id":76561198843060075,"connected_time":2856000000000,"state":"active","ping":56},{"user_id":157,"name":"George Washington 2","steam_id":76561199202527150,"connected_time":78000000000,"state":"active","ping":111},{"user_id":151,"name":"||BassMan||","steam_id":76561198279865229,"connected_time":335000000000,"state":"active","ping":88},{"user_id":142,"name":"ForAPessimistImPrettyOptimistic","steam_id":76561198170128009,"connected_time":1272000000000,"state":"active","ping":59},{"user_id":131,"name":"old birb man","steam_id":76561199410269097,"connected_time":1948000000000,"state":"active","ping":103},{"user_id":153,"name":"tew","steam_id":76561198142893056,"connected_time":262000000000,"state":"active","ping":49},{"user_id":119,"name":"canadian skeleton","steam_id":76561199251749108,"connected_time":2984000000000,"state":"active","ping":116},{"user_id":156,"name":"Saddam","steam_id":76561197985725267,"connected_time":163000000000,"state":"active","ping":85},{"user_id":89,"name":"Satori Komeiji","steam_id":76561198158211423,"connected_time":4846000000000,"state":"active","ping":57},{"user_id":129,"name":"Dr. Bubs","steam_id":76561198011696595,"connected_time":2108000000000,"state":"active","ping":50},{"user_id":147,"name":"YellowMandy","steam_id":76561198276009119,"connected_time":570000000000,"state":"active","ping":61},{"user_id":145,"name":"PunyHappyFace","steam_id":76561198118059305,"connected_time":1019000000000,"state":"active","ping":45},{"user_id":154,"name":"joyful07","steam_id":76561199440999022,"connected_time":258000000000,"state":"active","ping":99},{"user_id":155,"name":"Jimbei","steam_id":76561198081630453,"connected_time":254000000000,"state":"active","ping":73},{"user_id":120,"name":"Fozzy","steam_id":76561198258458765,"connected_time":2963000000000,"state":"active","ping":67}]},{"server_id":112,"name":"Uncletopia | Los Angeles | 2 | All Maps","name_short":"lax-2","host":"lax-1.us.uncletopia.com","port":27025,"enabled":true,"region":"us-west","cc":"us","latitude":33.94279,"longitude":-118.41004,"reserved":0,"last_update":"0001-01-01T00:00:00Z","name_a2s":"Uncletopia | Los Angeles | 2 | All Maps","protocol":17,"map":"cp_process_final","folder":"tf","game":"Team Fortress","app_id":440,"player_count":0,"max_players":24,"Bots":0,"server_type":"Dedicated","server_os":"Linux","password":true,"vac":true,"version":"7961495","steam_id":85568392924469992,"keywords":["cp","nocrits","nodmgspread","uncletopia"],"game_id":440,"stv_port":27026,"stv_name":"Uncletopia | Los Angeles | 2 | All Maps | STV","players":null},{"server_id":324,"name":"Uncletopia | Los Angeles | 3 | All Maps","name_short":"lax-3","host":"lax-1.us.uncletopia.com","port":27035,"enabled":true,"region":"us-west","cc":"us","latitude":33.94279,"longitude":-118.41004,"reserved":0,"last_update":"0001-01-01T00:00:00Z","name_a2s":"Uncletopia | Los Angeles | 3 | All Maps","protocol":17,"map":"pl_badwater","folder":"tf","game":"Team Fortress","app_id":440,"player_count":12,"max_players":24,"Bots":0,"server_type":"Dedicated","server_os":"Linux","password":true,"vac":true,"version":"7961495","steam_id":85568392924510198,"keywords":["nocrits","nodmgspread","payload","uncletopia"],"game_id":440,"stv_port":27036,"stv_name":"Uncletopia | Los Angeles | 3 | All Maps | STV","players":[{"user_id":275,"name":"19037189","steam_id":76561198053960810,"connected_time":3273000000000,"state":"active","ping":89},{"user_id":4,"name":"Biden Blast","steam_id":76561198366729030,"connected_time":22950000000000,"state":"active","ping":43},{"user_id":309,"name":"Bryan_tf2","steam_id":76561198053069006,"connected_time":660000000000,"state":"active","ping":95},{"user_id":307,"name":"Quarterstaff","steam_id":76561199013391231,"connected_time":1102000000000,"state":"active","ping":56},{"user_id":310,"name":"dudememe666","steam_id":76561199208963540,"connected_time":568000000000,"state":"active","ping":91},{"user_id":311,"name":"big stinky!","steam_id":76561198176651787,"connected_time":420000000000,"state":"active","ping":78},{"user_id":312,"name":"bebop_ty","steam_id":76561198370017766,"connected_time":414000000000,"state":"active","ping":74},{"user_id":313,"name":"C Sharp Minor","steam_id":76561199185191710,"connected_time":348000000000,"state":"active","ping":112},{"user_id":314,"name":"mega knight","steam_id":76561199176211866,"connected_time":181000000000,"state":"active","ping":114},{"user_id":315,"name":"Destroyer1004","steam_id":76561199367685913,"connected_time":179000000000,"state":"active","ping":71},{"user_id":292,"name":"Genius Meme","steam_id":76561198162911254,"connected_time":1993000000000,"state":"active","ping":69},{"user_id":317,"name":"Skillshare TF2","steam_id":76561198401455467,"connected_time":84000000000,"state":"active","ping":55}]},{"server_id":25,"name":"Uncletopia | Los Angeles | 4 | Stopwatch Beta","name_short":"lax-4","host":"lax-1.us.uncletopia.com","port":27045,"enabled":true,"region":"us-west","cc":"us","latitude":33.94279,"longitude":-118.41004,"reserved":0,"last_update":"0001-01-01T00:00:00Z","name_a2s":"Uncletopia | Los Angeles | 4 | Stopwatch Beta","protocol":17,"map":"pl_upward","folder":"tf","game":"Team Fortress","app_id":440,"player_count":0,"max_players":24,"Bots":0,"server_type":"Dedicated","server_os":"Linux","password":true,"vac":true,"version":"7961495","steam_id":85568392924510199,"keywords":["nocrits","nodmgspread","payload","uncletopia"],"game_id":440,"stv_port":27046,"stv_name":"Uncletopia | Los Angeles | 4 | Stopwatch Beta | STV","players":null},{"server_id":11,"name":"Uncletopia | London | 1 | All Maps","name_short":"lon-1","host":"lon-1.uk.uncletopia.com","port":27015,"enabled":true,"region":"eu","cc":"gb","latitude":51.509865,"longitude":-0.118092,"reserved":0,"last_update":"0001-01-01T00:00:00Z","name_a2s":"Uncletopia | London | 1 | All Maps","protocol":17,"map":"pl_upward","folder":"tf","game":"Team Fortress","app_id":440,"player_count":24,"max_players":24,"Bots":0,"server_type":"Dedicated","server_os":"Linux","password":true,"vac":true,"version":"7961495","steam_id":85568392924367362,"keywords":["nocrits","nodmgspread","payload","uncletopia"],"game_id":440,"stv_port":27016,"stv_name":"Uncletopia | London | 1 | All Maps | STV","players":[{"user_id":447,"name":"Dark ^^","steam_id":76561198036241064,"connected_time":2949000000000,"state":"active","ping":77},{"user_id":478,"name":"Sixie","steam_id":76561198251675360,"connected_time":135000000000,"state":"active","ping":53},{"user_id":395,"name":"png.png","steam_id":76561198444446521,"connected_time":7089000000000,"state":"active","ping":117},{"user_id":420,"name":"unconditional love","steam_id":76561199026097466,"connected_time":5706000000000,"state":"active","ping":73},{"user_id":423,"name":"Lyra","steam_id":76561198043601838,"connected_time":5467000000000,"state":"active","ping":66},{"user_id":457,"name":"Na záchodě","steam_id":76561198383952144,"connected_time":2066000000000,"state":"active","ping":148},{"user_id":459,"name":"cobblestone","steam_id":76561198079123043,"connected_time":1985000000000,"state":"active","ping":86},{"user_id":436,"name":"Trapezoid","steam_id":76561198059369295,"connected_time":4121000000000,"state":"active","ping":68},{"user_id":444,"name":"yup that extream78711","steam_id":76561198106049954,"connected_time":3422000000000,"state":"active","ping":151},{"user_id":285,"name":"Snake-chan","steam_id":76561199044755854,"connected_time":15248000000000,"state":"active","ping":88},{"user_id":472,"name":"Lux","steam_id":76561198060417740,"connected_time":980000000000,"state":"active","ping":46},{"user_id":453,"name":"trite","steam_id":76561197983765323,"connected_time":2226000000000,"state":"active","ping":54},{"user_id":343,"name":"Tails8521","steam_id":76561198051747164,"connected_time":11450000000000,"state":"active","ping":55},{"user_id":473,"name":"Joy","steam_id":76561198155314925,"connected_time":947000000000,"state":"active","ping":58},{"user_id":475,"name":"Nootchan","steam_id":76561198407830954,"connected_time":734000000000,"state":"active","ping":55},{"user_id":477,"name":"Puss in Boots","steam_id":76561198211599767,"connected_time":312000000000,"state":"active","ping":49},{"user_id":474,"name":"Carrot","steam_id":76561198119340863,"connected_time":927000000000,"state":"active","ping":53},{"user_id":430,"name":"gayboi farti","steam_id":76561199121999431,"connected_time":4686000000000,"state":"active","ping":35},{"user_id":468,"name":"ein'd","steam_id":76561198152162834,"connected_time":1137000000000,"state":"active","ping":103},{"user_id":398,"name":"Acanda","steam_id":76561198123246537,"connected_time":7046000000000,"state":"active","ping":69},{"user_id":416,"name":"ROX","steam_id":76561198272289320,"connected_time":6301000000000,"state":"active","ping":59},{"user_id":454,"name":"fence_","steam_id":76561198150386379,"connected_time":2215000000000,"state":"active","ping":47},{"user_id":467,"name":"Intimatt","steam_id":76561198066393546,"connected_time":1183000000000,"state":"active","ping":53},{"user_id":469,"name":"Walnut","steam_id":76561198978146428,"connected_time":1090000000000,"state":"active","ping":66}]},{"server_id":114,"name":"Uncletopia | London | 2 | All Maps","name_short":"lon-2","host":"lon-1.uk.uncletopia.com","port":27025,"enabled":true,"region":"eu","cc":"gb","latitude":51.509865,"longitude":-0.118092,"reserved":0,"last_update":"0001-01-01T00:00:00Z","name_a2s":"Uncletopia | London | 2 | All Maps","protocol":17,"map":"pl_upward","folder":"tf","game":"Team Fortress","app_id":440,"player_count":24,"max_players":24,"Bots":0,"server_type":"Dedicated","server_os":"Linux","password":true,"vac":true,"version":"7961495","steam_id":85568392924470941,"keywords":["nocrits","nodmgspread","payload","uncletopia"],"game_id":440,"stv_port":27026,"stv_name":"Uncletopia | London | 2 | All Maps | STV","players":[{"user_id":546,"name":"Liamish11","steam_id":76561198176235318,"connected_time":96000000000,"state":"active","ping":99},{"user_id":539,"name":"Miquel128","steam_id":76561198274955794,"connected_time":396000000000,"state":"active","ping":74},{"user_id":547,"name":"Mébh Óg MacTíre","steam_id":76561198346399624,"connected_time":9000000000,"state":"spawning","ping":109},{"user_id":513,"name":"You slumber","steam_id":76561198344639692,"connected_time":1787000000000,"state":"active","ping":84},{"user_id":537,"name":"patik","steam_id":76561199123582305,"connected_time":483000000000,"state":"active","ping":114},{"user_id":490,"name":"MaeMae","steam_id":76561198252524452,"connected_time":3073000000000,"state":"active","ping":48},{"user_id":544,"name":"quickfast","steam_id":76561199438900919,"connected_time":207000000000,"state":"active","ping":46},{"user_id":500,"name":"NotChloe","steam_id":76561198080658092,"connected_time":2760000000000,"state":"active","ping":63},{"user_id":408,"name":"jona3838","steam_id":76561199097658195,"connected_time":8620000000000,"state":"active","ping":103},{"user_id":510,"name":"T12a55","steam_id":76561199228993903,"connected_time":2025000000000,"state":"active","ping":86},{"user_id":538,"name":"dobrekGolbin","steam_id":76561198074745885,"connected_time":434000000000,"state":"active","ping":85},{"user_id":545,"name":"FoOzTV","steam_id":76561197998636728,"connected_time":177000000000,"state":"active","ping":64},{"user_id":542,"name":"Castellan","steam_id":76561197994861142,"connected_time":378000000000,"state":"active","ping":62},{"user_id":527,"name":"ʲᶠᵍ ♛","steam_id":76561199062437546,"connected_time":832000000000,"state":"active","ping":53},{"user_id":543,"name":"the catboy","steam_id":76561198236015506,"connected_time":351000000000,"state":"active","ping":90},{"user_id":507,"name":"Wardruna96","steam_id":76561199057083828,"connected_time":2546000000000,"state":"active","ping":76},{"user_id":540,"name":"demonit","steam_id":76561199220439812,"connected_time":388000000000,"state":"active","ping":47},{"user_id":529,"name":"fiddlesticks","steam_id":76561198155229347,"connected_time":820000000000,"state":"active","ping":30},{"user_id":531,"name":"najed","steam_id":76561198107767664,"connected_time":789000000000,"state":"active","ping":47},{"user_id":536,"name":"fröga","steam_id":76561198412559828,"connected_time":528000000000,"state":"active","ping":111},{"user_id":521,"name":"Plep","steam_id":76561198840259819,"connected_time":1481000000000,"state":"active","ping":60},{"user_id":534,"name":"bigmazi","steam_id":76561198133276643,"connected_time":750000000000,"state":"active","ping":104},{"user_id":506,"name":"DrExplosive","steam_id":76561198063678579,"connected_time":2647000000000,"state":"active","ping":30},{"user_id":518,"name":"glyph","steam_id":76561197980736364,"connected_time":1620000000000,"state":"active","ping":89}]},{"server_id":320,"name":"Uncletopia | London | 3 | All Maps","name_short":"lon-3","host":"lon-1.uk.uncletopia.com","port":27035,"enabled":true,"region":"eu","cc":"gb","latitude":51.509865,"longitude":-0.118092,"reserved":0,"last_update":"0001-01-01T00:00:00Z","name_a2s":"Uncletopia | London | 3 | All Maps","protocol":17,"map":"cp_sunshine","folder":"tf","game":"Team Fortress","app_id":440,"player_count":24,"max_players":24,"Bots":0,"server_type":"Dedicated","server_os":"Linux","password":true,"vac":true,"version":"7961495","steam_id":85568392924510192,"keywords":["cp","nocrits","nodmgspread","uncletopia"],"game_id":440,"stv_port":27036,"stv_name":"Uncletopia | London | 3 | All Maps | STV","players":[{"user_id":171,"name":"Phlogmaster Flex","steam_id":76561198033695429,"connected_time":29000000000,"state":"connecting","ping":164},{"user_id":157,"name":"Twiggu","steam_id":76561198070853128,"connected_time":1293000000000,"state":"connecting","ping":93},{"user_id":147,"name":"justajem101","steam_id":76561199228510573,"connected_time":2532000000000,"state":"connecting","ping":103},{"user_id":172,"name":"Tren Brother #1","steam_id":76561199042470246,"connected_time":14000000000,"state":"connecting","ping":89},{"user_id":138,"name":"rets","steam_id":76561198061551392,"connected_time":3127000000000,"state":"connecting","ping":99},{"user_id":152,"name":"obscure","steam_id":76561198119532381,"connected_time":2296000000000,"state":"spawning","ping":53},{"user_id":118,"name":"tjeeena gubbbnnn","steam_id":76561199163884827,"connected_time":4141000000000,"state":"connecting","ping":121},{"user_id":168,"name":"silicon based life form","steam_id":76561199127121346,"connected_time":379000000000,"state":"connecting","ping":58},{"user_id":87,"name":"Surry Fex","steam_id":76561198090586031,"connected_time":5729000000000,"state":"connecting","ping":99},{"user_id":158,"name":"Literal Bread","steam_id":76561199188332023,"connected_time":1282000000000,"state":"connecting","ping":67},{"user_id":119,"name":"griffith","steam_id":76561198178227903,"connected_time":4106000000000,"state":"connecting","ping":112},{"user_id":120,"name":"Baiterz","steam_id":76561198030815786,"connected_time":4056000000000,"state":"connecting","ping":97},{"user_id":96,"name":"zeppa114","steam_id":76561198065192734,"connected_time":5187000000000,"state":"connecting","ping":57},{"user_id":173,"name":"Dewotter","steam_id":76561198007653168,"connected_time":13000000000,"state":"connecting","ping":82},{"user_id":174,"name":"ROM","steam_id":76561199097604633,"connected_time":11000000000,"state":"connecting","ping":59},{"user_id":175,"name":"Max Power","steam_id":76561198019269089,"connected_time":4000000000,"state":"connecting","ping":134},{"user_id":165,"name":"im wearing gunnars","steam_id":76561198045413005,"connected_time":940000000000,"state":"connecting","ping":75},{"user_id":176,"name":"i am the biggest monke","steam_id":76561199178788640,"connected_time":3000000000,"state":"connecting","ping":123},{"user_id":155,"name":"Fizz","steam_id":76561197994814990,"connected_time":1484000000000,"state":"connecting","ping":90},{"user_id":167,"name":"BackDoorExit","steam_id":76561199136645382,"connected_time":390000000000,"state":"connecting","ping":64},{"user_id":136,"name":"Soup","steam_id":76561199081651572,"connected_time":3268000000000,"state":"connecting","ping":58},{"user_id":163,"name":"gait analysis expert","steam_id":76561197963706968,"connected_time":1235000000000,"state":"spawning","ping":89}]},{"server_id":321,"name":"Uncletopia | London | 4 | All Maps","name_short":"lon-4","host":"lon-1.uk.uncletopia.com","port":27045,"enabled":true,"region":"eu","cc":"gb","latitude":51.509865,"longitude":-0.118092,"reserved":0,"last_update":"0001-01-01T00:00:00Z","name_a2s":"Uncletopia | London | 4 | All Maps","protocol":17,"map":"pl_swiftwater_final1","folder":"tf","game":"Team Fortress","app_id":440,"player_count":24,"max_players":24,"Bots":0,"server_type":"Dedicated","server_os":"Linux","password":true,"vac":true,"version":"7961495","steam_id":85568392924510193,"keywords":["nocrits","nodmgspread","payload","uncletopia"],"game_id":440,"stv_port":27046,"stv_name":"Uncletopia | London | 4 | All Maps | STV","players":[{"user_id":410,"name":"W42P","steam_id":76561198451290410,"connected_time":2241000000000,"state":"active","ping":89},{"user_id":423,"name":"gothmoth","steam_id":76561198386910896,"connected_time":1640000000000,"state":"active","ping":84},{"user_id":425,"name":"Dr. Cox","steam_id":76561198246629218,"connected_time":1615000000000,"state":"active","ping":106},{"user_id":312,"name":"Kiogeki","steam_id":76561197996707843,"connected_time":9299000000000,"state":"active","ping":39},{"user_id":445,"name":"Mr. Heartaches","steam_id":76561198932426600,"connected_time":297000000000,"state":"active","ping":83},{"user_id":442,"name":"fernandobmwm355555","steam_id":76561198086609447,"connected_time":893000000000,"state":"active","ping":59},{"user_id":404,"name":"raiku","steam_id":76561198008959901,"connected_time":2623000000000,"state":"active","ping":67},{"user_id":419,"name":"Punker","steam_id":76561198255964089,"connected_time":1707000000000,"state":"active","ping":120},{"user_id":412,"name":"Hey, I´m Andy!","steam_id":76561198060337777,"connected_time":2149000000000,"state":"active","ping":82},{"user_id":359,"name":"apetor rip","steam_id":76561198140517762,"connected_time":6034000000000,"state":"active","ping":70},{"user_id":427,"name":"Samus","steam_id":76561198045943019,"connected_time":1591000000000,"state":"active","ping":82},{"user_id":408,"name":"Avitz","steam_id":76561197986150359,"connected_time":2422000000000,"state":"active","ping":43},{"user_id":434,"name":"shaheen45","steam_id":76561198334819486,"connected_time":1461000000000,"state":"active","ping":140},{"user_id":428,"name":"TurboTabs","steam_id":76561198009785131,"connected_time":1584000000000,"state":"active","ping":49},{"user_id":438,"name":"fartcollector","steam_id":76561198048304703,"connected_time":1298000000000,"state":"active","ping":46},{"user_id":389,"name":"jge","steam_id":76561198123186387,"connected_time":3453000000000,"state":"active","ping":62},{"user_id":361,"name":"finbar","steam_id":76561198056812396,"connected_time":5697000000000,"state":"active","ping":76},{"user_id":430,"name":"de_base","steam_id":76561198285847974,"connected_time":1571000000000,"state":"active","ping":86},{"user_id":443,"name":"mista white","steam_id":76561199387233667,"connected_time":788000000000,"state":"active","ping":72},{"user_id":444,"name":"emag live","steam_id":76561198047164140,"connected_time":667000000000,"state":"active","ping":63},{"user_id":432,"name":"Linguini","steam_id":76561198327750625,"connected_time":1559000000000,"state":"active","ping":29},{"user_id":433,"name":"someone","steam_id":76561199471582243,"connected_time":1543000000000,"state":"active","ping":99},{"user_id":436,"name":"Maximilian1359","steam_id":76561198152439608,"connected_time":1400000000000,"state":"active","ping":66},{"user_id":440,"name":"Yoss","steam_id":76561198013655572,"connected_time":1117000000000,"state":"active","ping":35}]},{"server_id":21,"name":"Uncletopia | London | 5 | All Maps","name_short":"lon-5","host":"lon-1.uk.uncletopia.com","port":27055,"enabled":true,"region":"eu","cc":"gb","latitude":51.509865,"longitude":-0.118092,"reserved":0,"last_update":"0001-01-01T00:00:00Z","name_a2s":"Uncletopia | London | 5 | All Maps","protocol":17,"map":"pl_borneo","folder":"tf","game":"Team Fortress","app_id":440,"player_count":14,"max_players":24,"Bots":0,"server_type":"Dedicated","server_os":"Linux","password":true,"vac":true,"version":"7961495","steam_id":85568392924742829,"keywords":["nocrits","nodmgspread","payload","uncletopia"],"game_id":440,"stv_port":27056,"stv_name":"Uncletopia | London | 5 | All Maps | STV","players":[{"user_id":424,"name":"big pizza","steam_id":76561198082377293,"connected_time":954000000000,"state":"active","ping":42},{"user_id":405,"name":"dumbai","steam_id":76561199098418729,"connected_time":2357000000000,"state":"active","ping":97},{"user_id":373,"name":"Ewelinka Zniszczenia","steam_id":76561198307374456,"connected_time":4466000000000,"state":"active","ping":76},{"user_id":428,"name":"Gosman","steam_id":76561198062956955,"connected_time":476000000000,"state":"spawning","ping":126},{"user_id":382,"name":"DANDELION","steam_id":76561198038451376,"connected_time":4022000000000,"state":"active","ping":43},{"user_id":427,"name":"limbicsystem","steam_id":76561198025612680,"connected_time":787000000000,"state":"active","ping":54},{"user_id":350,"name":"Mr. Mundy","steam_id":76561198132008918,"connected_time":5716000000000,"state":"active","ping":76},{"user_id":389,"name":"Eoghan","steam_id":76561198095344395,"connected_time":3498000000000,"state":"active","ping":33},{"user_id":409,"name":"electro","steam_id":76561198024536979,"connected_time":1718000000000,"state":"active","ping":86},{"user_id":397,"name":"Hexagon","steam_id":76561198151205758,"connected_time":3197000000000,"state":"active","ping":69},{"user_id":406,"name":"Pan Piotr","steam_id":76561198140016126,"connected_time":2008000000000,"state":"active","ping":98},{"user_id":420,"name":"Kernel Panic","steam_id":76561198215811047,"connected_time":1197000000000,"state":"active","ping":42},{"user_id":419,"name":"Suicidal Sausage","steam_id":76561197992039624,"connected_time":1389000000000,"state":"active","ping":98},{"user_id":429,"name":"Seron-Lowell","steam_id":76561198070291347,"connected_time":310000000000,"state":"active","ping":61}]},{"server_id":22,"name":"Uncletopia | London | 6 | All Maps","name_short":"lon-6","host":"lon-1.uk.uncletopia.com","port":27065,"enabled":true,"region":"eu","cc":"gb","latitude":51.509865,"longitude":-0.118092,"reserved":0,"last_update":"0001-01-01T00:00:00Z","name_a2s":"Uncletopia | London | 6 | All Maps","protocol":17,"map":"pl_swiftwater_final1","folder":"tf","game":"Team Fortress","app_id":440,"player_count":23,"max_players":24,"Bots":0,"server_type":"Dedicated","server_os":"Linux","password":true,"vac":true,"version":"7961495","steam_id":85568392924742830,"keywords":["nocrits","nodmgspread","payload","uncletopia"],"game_id":440,"stv_port":27066,"stv_name":"Uncletopia | London | 6 | All Maps | STV","players":[{"user_id":188,"name":"WaffleCat","steam_id":76561198300396822,"connected_time":1601000000000,"state":"active","ping":113},{"user_id":208,"name":"skullhead289","steam_id":76561199086481600,"connected_time":733000000000,"state":"active","ping":95},{"user_id":183,"name":"goga","steam_id":76561198280507478,"connected_time":2287000000000,"state":"active","ping":64},{"user_id":199,"name":"TheFluffyCrano","steam_id":76561198058832960,"connected_time":1233000000000,"state":"active","ping":42},{"user_id":187,"name":"ANGELFISH","steam_id":76561198027536466,"connected_time":1613000000000,"state":"active","ping":103},{"user_id":204,"name":"Mc Cheezy","steam_id":76561198834780242,"connected_time":1145000000000,"state":"active","ping":112},{"user_id":80,"name":"Ark-e","steam_id":76561198261870909,"connected_time":12930000000000,"state":"active","ping":58},{"user_id":218,"name":"The Sun in Rags","steam_id":76561198169990975,"connected_time":289000000000,"state":"active","ping":43},{"user_id":214,"name":"Gaius Flavius Sextus","steam_id":76561199017652087,"connected_time":430000000000,"state":"active","ping":100},{"user_id":219,"name":"Pvt. Prinny","steam_id":76561198030278562,"connected_time":38000000000,"state":"active","ping":33},{"user_id":215,"name":"Emerald","steam_id":76561199141384216,"connected_time":416000000000,"state":"active","ping":48},{"user_id":209,"name":"Michael","steam_id":76561198003146906,"connected_time":728000000000,"state":"active","ping":43},{"user_id":193,"name":"bob","steam_id":76561198353212719,"connected_time":1329000000000,"state":"active","ping":46},{"user_id":174,"name":"Khrinde","steam_id":76561198036744526,"connected_time":4192000000000,"state":"active","ping":94},{"user_id":168,"name":"Ørigami","steam_id":76561198199996946,"connected_time":4851000000000,"state":"active","ping":53},{"user_id":194,"name":"Psyche","steam_id":76561198091662001,"connected_time":1326000000000,"state":"active","ping":61},{"user_id":211,"name":"I hate balls","steam_id":76561198119400677,"connected_time":535000000000,"state":"active","ping":124},{"user_id":200,"name":"Hleno","steam_id":76561198060442619,"connected_time":1200000000000,"state":"active","ping":59},{"user_id":198,"name":"Kiers","steam_id":76561198834266801,"connected_time":1264000000000,"state":"active","ping":70},{"user_id":217,"name":"alex jones gaming","steam_id":76561199090730414,"connected_time":296000000000,"state":"active","ping":101},{"user_id":181,"name":"blåhaj","steam_id":76561198094268619,"connected_time":2585000000000,"state":"active","ping":74},{"user_id":202,"name":"fast3r","steam_id":76561198415542035,"connected_time":1198000000000,"state":"active","ping":44},{"user_id":203,"name":"protëin","steam_id":76561197998423616,"connected_time":1190000000000,"state":"active","ping":69}]},{"server_id":40,"name":"Uncletopia | London | 7 | No Payload","name_short":"lon-7","host":"lon-1.uk.uncletopia.com","port":27075,"enabled":true,"region":"eu","cc":"gb","latitude":51.509865,"longitude":-0.118092,"reserved":0,"last_update":"0001-01-01T00:00:00Z","name_a2s":"Uncletopia | London | 7 | No Payload","protocol":17,"map":"koth_harvest_final","folder":"tf","game":"Team Fortress","app_id":440,"player_count":0,"max_players":24,"Bots":0,"server_type":"Dedicated","server_os":"Linux","password":true,"vac":true,"version":"7961495","steam_id":85568392924964314,"keywords":["cp","nocrits","nodmgspread","uncletopia"],"game_id":440,"stv_port":27076,"stv_name":"Uncletopia | London | 7 | No Payload | STV","players":null},{"server_id":41,"name":"Uncletopia | London | 8 | Community","name_short":"lon-8","host":"lon-1.uk.uncletopia.com","port":27085,"enabled":true,"region":"eu","cc":"gb","latitude":51.509865,"longitude":-0.118092,"reserved":0,"last_update":"0001-01-01T00:00:00Z","name_a2s":"Uncletopia | London | 8 | Community","protocol":17,"map":"workshop/cp_bruhstbowl_b6.ugc2878604990","folder":"tf","game":"Team Fortress","app_id":440,"player_count":0,"max_players":24,"Bots":0,"server_type":"Dedicated","server_os":"Linux","password":true,"vac":true,"version":"7961495","steam_id":85568392924964315,"keywords":["cp","nocrits","nodmgspread","uncletopia"],"game_id":440,"stv_port":27086,"stv_name":"Uncletopia | London | 8 | Community | STV","players":null},{"server_id":300,"name":"Uncletopia | Montréal | 1 | All Maps","name_short":"mtl-1","host":"mtl-1.ca.uncletopia.com","port":27015,"enabled":true,"region":"us-east","cc":"ca","latitude":45.50889,"longitude":-73.56167,"reserved":0,"last_update":"0001-01-01T00:00:00Z","name_a2s":"","protocol":0,"map":"","folder":"","game":"","app_id":0,"player_count":24,"max_players":0,"Bots":0,"server_type":"","server_os":"","password":false,"vac":false,"version":"","steam_id":0,"keywords":null,"game_id":0,"stv_port":0,"stv_name":"","players":[{"user_id":41,"name":"noahjwarner09","steam_id":76561199444479988,"connected_time":1414000000000,"state":"active","ping":82},{"user_id":60,"name":"RyInc","steam_id":76561198874261643,"connected_time":289000000000,"state":"active","ping":39},{"user_id":61,"name":"shmood","steam_id":76561198241948526,"connected_time":167000000000,"state":"active","ping":46},{"user_id":10,"name":"RHD BRAZIL [\u003c O \u003e]","steam_id":76561198028190080,"connected_time":5550000000000,"state":"active","ping":166},{"user_id":62,"name":"❤[S'more]❤","steam_id":76561198817361963,"connected_time":162000000000,"state":"active","ping":126},{"user_id":24,"name":"FooFLit","steam_id":76561198236967080,"connected_time":3258000000000,"state":"active","ping":73},{"user_id":35,"name":"DrDan64","steam_id":76561199013363718,"connected_time":1677000000000,"state":"active","ping":69},{"user_id":21,"name":"Dr.Barber","steam_id":76561198053164815,"connected_time":3558000000000,"state":"active","ping":59},{"user_id":22,"name":"Omegacat69","steam_id":76561199224022636,"connected_time":3557000000000,"state":"active","ping":102},{"user_id":38,"name":"Pom","steam_id":76561198043235509,"connected_time":1589000000000,"state":"active","ping":47},{"user_id":59,"name":"Infinity","steam_id":76561199134919099,"connected_time":536000000000,"state":"active","ping":71},{"user_id":56,"name":"Maxmind24","steam_id":76561198859888778,"connected_time":667000000000,"state":"active","ping":103},{"user_id":43,"name":"Ros","steam_id":76561199055963822,"connected_time":1340000000000,"state":"active","ping":80},{"user_id":33,"name":"lamb eater","steam_id":76561198166894383,"connected_time":1821000000000,"state":"active","ping":65},{"user_id":36,"name":"Spiral Mountain","steam_id":76561198058683715,"connected_time":1651000000000,"state":"active","ping":73},{"user_id":54,"name":"Gerald Jay Sussman","steam_id":76561198114515026,"connected_time":681000000000,"state":"active","ping":47},{"user_id":42,"name":"Muffin","steam_id":76561198111403028,"connected_time":1382000000000,"state":"active","ping":48},{"user_id":46,"name":"Crouching Noob Hidden Sniper","steam_id":76561197971328473,"connected_time":1239000000000,"state":"active","ping":76},{"user_id":47,"name":"he munch","steam_id":76561198339644583,"connected_time":1209000000000,"state":"active","ping":67},{"user_id":48,"name":"Yangathan","steam_id":76561198040138815,"connected_time":1170000000000,"state":"active","ping":79},{"user_id":55,"name":"Slob and Sup","steam_id":76561198123441203,"connected_time":674000000000,"state":"active","ping":57},{"user_id":57,"name":"Mrs.Frizzle","steam_id":76561198117157085,"connected_time":617000000000,"state":"active","ping":61},{"user_id":58,"name":"SpectraUnseen","steam_id":76561198073501022,"connected_time":614000000000,"state":"active","ping":37},{"user_id":64,"name":"Vladimir Puddin","steam_id":76561198139674520,"connected_time":58000000000,"state":"active","ping":70}]},{"server_id":301,"name":"Uncletopia | Montréal | 2 | All Maps","name_short":"mtl-2","host":"mtl-1.ca.uncletopia.com","port":27025,"enabled":true,"region":"us-east","cc":"ca","latitude":45.50889,"longitude":-73.56167,"reserved":0,"last_update":"0001-01-01T00:00:00Z","name_a2s":"","protocol":0,"map":"","folder":"","game":"","app_id":0,"player_count":0,"max_players":0,"Bots":0,"server_type":"","server_os":"","password":false,"vac":false,"version":"","steam_id":0,"keywords":null,"game_id":0,"stv_port":0,"stv_name":"","players":null},{"server_id":302,"name":"Uncletopia | Montréal | 3 | All Maps","name_short":"mtl-3","host":"mtl-1.ca.uncletopia.com","port":27035,"enabled":true,"region":"us-east","cc":"ca","latitude":45.50889,"longitude":-73.56167,"reserved":0,"last_update":"0001-01-01T00:00:00Z","name_a2s":"","protocol":0,"map":"","folder":"","game":"","app_id":0,"player_count":0,"max_players":0,"Bots":0,"server_type":"","server_os":"","password":false,"vac":false,"version":"","steam_id":0,"keywords":null,"game_id":0,"stv_port":0,"stv_name":"","players":null},{"server_id":303,"name":"Uncletopia | Montréal | 4 | No Payload","name_short":"mtl-4","host":"mtl-1.ca.uncletopia.com","port":27045,"enabled":true,"region":"us-east","cc":"ca","latitude":45.50889,"longitude":-73.56167,"reserved":0,"last_update":"0001-01-01T00:00:00Z","name_a2s":"","protocol":0,"map":"","folder":"","game":"","app_id":0,"player_count":0,"max_players":0,"Bots":0,"server_type":"","server_os":"","password":false,"vac":false,"version":"","steam_id":0,"keywords":null,"game_id":0,"stv_port":0,"stv_name":"","players":null},{"server_id":13,"name":"Uncletopia | New York City | 1 | All Maps","name_short":"nyc-1","host":"nyc-1.us.uncletopia.com","port":27015,"enabled":true,"region":"us-east","cc":"us","latitude":40.73061,"longitude":-73.93524,"reserved":0,"last_update":"0001-01-01T00:00:00Z","name_a2s":"Uncletopia | New York City | 1 | All Maps","protocol":17,"map":"pl_badwater","folder":"tf","game":"Team Fortress","app_id":440,"player_count":24,"max_players":24,"Bots":0,"server_type":"Dedicated","server_os":"Linux","password":true,"vac":true,"version":"7961495","steam_id":85568392924469993,"keywords":["nocrits","nodmgspread","payload","uncletopia"],"game_id":440,"stv_port":27016,"stv_name":"Uncletopia | New York City | 1 | All Maps | STV","players":[{"user_id":263,"name":"Layer Cake","steam_id":76561198281693747,"connected_time":20000000000,"state":"active","ping":45},{"user_id":257,"name":"Andale","steam_id":76561198326236983,"connected_time":306000000000,"state":"active","ping":118},{"user_id":241,"name":"Nice21","steam_id":76561199427548141,"connected_time":1297000000000,"state":"active","ping":72},{"user_id":232,"name":"Chuck Person","steam_id":76561198079515134,"connected_time":2151000000000,"state":"active","ping":81},{"user_id":233,"name":"GummybearKillr","steam_id":76561198031235750,"connected_time":2104000000000,"state":"active","ping":55},{"user_id":248,"name":"Mr_Frosty","steam_id":76561199380389079,"connected_time":1184000000000,"state":"active","ping":73},{"user_id":238,"name":"I HATE A.I ART I HATE A.I ART I","steam_id":76561199101373436,"connected_time":1462000000000,"state":"active","ping":71},{"user_id":239,"name":"uheggwhite","steam_id":76561199199795741,"connected_time":1426000000000,"state":"active","ping":89},{"user_id":259,"name":"big red boots","steam_id":76561199493946100,"connected_time":265000000000,"state":"active","ping":33},{"user_id":206,"name":"noided","steam_id":76561198353924837,"connected_time":3500000000000,"state":"active","ping":63},{"user_id":252,"name":"Chocolate the bear","steam_id":76561198115402561,"connected_time":900000000000,"state":"active","ping":62},{"user_id":184,"name":"Jalapeño","steam_id":76561198113373333,"connected_time":5766000000000,"state":"active","ping":144},{"user_id":244,"name":"Jimbo Slice","steam_id":76561198064830847,"connected_time":1245000000000,"state":"active","ping":59},{"user_id":53,"name":"Chris","steam_id":76561198044278802,"connected_time":13869000000000,"state":"active","ping":48},{"user_id":251,"name":"grzybiarz2022","steam_id":76561199409218561,"connected_time":1156000000000,"state":"active","ping":157},{"user_id":160,"name":"Temujin","steam_id":76561198030936583,"connected_time":7192000000000,"state":"active","ping":44},{"user_id":223,"name":"nizumi","steam_id":76561198375159043,"connected_time":2425000000000,"state":"active","ping":154},{"user_id":212,"name":"Punchy","steam_id":76561198200000641,"connected_time":2828000000000,"state":"active","ping":42},{"user_id":202,"name":"Mr. Sandman","steam_id":76561198091900067,"connected_time":4283000000000,"state":"active","ping":47},{"user_id":207,"name":"gallowsCalibrator","steam_id":76561198076388445,"connected_time":3180000000000,"state":"active","ping":77},{"user_id":253,"name":"TheVikingTheRed","steam_id":76561199221731253,"connected_time":826000000000,"state":"active","ping":122},{"user_id":261,"name":"agent cody banks","steam_id":76561197999215868,"connected_time":164000000000,"state":"active","ping":74},{"user_id":209,"name":"wow12000000000000098","steam_id":76561198016826181,"connected_time":2945000000000,"state":"active","ping":66},{"user_id":260,"name":"Spring Beans","steam_id":76561197978546259,"connected_time":258000000000,"state":"active","ping":76}]},{"server_id":14,"name":"Uncletopia | New York City | 2 | All Maps","name_short":"nyc-2","host":"nyc-1.us.uncletopia.com","port":27025,"enabled":true,"region":"us-east","cc":"us","latitude":40.73061,"longitude":-73.93524,"reserved":0,"last_update":"0001-01-01T00:00:00Z","name_a2s":"Uncletopia | New York City | 2 | All Maps","protocol":17,"map":"pl_barnblitz","folder":"tf","game":"Team Fortress","app_id":440,"player_count":24,"max_players":24,"Bots":0,"server_type":"Dedicated","server_os":"Linux","password":true,"vac":true,"version":"7961495","steam_id":85568392924469994,"keywords":["nocrits","nodmgspread","payload","uncletopia"],"game_id":440,"stv_port":27026,"stv_name":"Uncletopia | New York City | 2 | All Maps | STV","players":[{"user_id":110,"name":"Frog \"The Walking Jukebox\"","steam_id":76561199052554459,"connected_time":2619000000000,"state":"active","ping":61},{"user_id":79,"name":"Sir Rimmington","steam_id":76561198019476636,"connected_time":4140000000000,"state":"active","ping":55},{"user_id":99,"name":"My Form Empties","steam_id":76561197993777553,"connected_time":2823000000000,"state":"active","ping":110},{"user_id":120,"name":"Kiervce","steam_id":76561199175427371,"connected_time":1213000000000,"state":"active","ping":65},{"user_id":119,"name":"RazDaz","steam_id":76561198280695081,"connected_time":1255000000000,"state":"active","ping":62},{"user_id":125,"name":"Stonks","steam_id":76561199490085068,"connected_time":985000000000,"state":"active","ping":65},{"user_id":93,"name":"Verified Bumpkin","steam_id":76561199065533658,"connected_time":2919000000000,"state":"active","ping":128},{"user_id":137,"name":"cold","steam_id":76561198027963611,"connected_time":331000000000,"state":"active","ping":67},{"user_id":95,"name":"ThatOneLatiasUser","steam_id":76561198968544387,"connected_time":2855000000000,"state":"active","ping":132},{"user_id":113,"name":"Top Frog","steam_id":76561198072793446,"connected_time":1836000000000,"state":"active","ping":84},{"user_id":136,"name":"DNS Error","steam_id":76561198030731216,"connected_time":688000000000,"state":"active","ping":86},{"user_id":123,"name":"el wiwi","steam_id":76561198857304367,"connected_time":1068000000000,"state":"active","ping":64},{"user_id":131,"name":"Swifgz","steam_id":76561198162875756,"connected_time":876000000000,"state":"active","ping":45},{"user_id":98,"name":"Schizophrenic Hallucination","steam_id":76561199489855499,"connected_time":2825000000000,"state":"active","ping":123},{"user_id":132,"name":"FoxyTheFish","steam_id":76561199074190919,"connected_time":842000000000,"state":"active","ping":121},{"user_id":102,"name":"ObsessedNerd505","steam_id":76561199045531456,"connected_time":2774000000000,"state":"active","ping":51},{"user_id":133,"name":"dilligaf_1","steam_id":76561198069023056,"connected_time":824000000000,"state":"active","ping":56},{"user_id":36,"name":"Clumsy","steam_id":76561198056345245,"connected_time":6440000000000,"state":"active","ping":69},{"user_id":135,"name":"PieTheMan","steam_id":76561198027825469,"connected_time":766000000000,"state":"active","ping":85},{"user_id":115,"name":"xavant202","steam_id":76561199121817230,"connected_time":1670000000000,"state":"active","ping":55},{"user_id":128,"name":"Gravity","steam_id":76561198066875223,"connected_time":959000000000,"state":"active","ping":101},{"user_id":129,"name":"GumGum Muldoon","steam_id":76561198018397709,"connected_time":917000000000,"state":"active","ping":70},{"user_id":53,"name":"Void","steam_id":76561199186496740,"connected_time":5911000000000,"state":"active","ping":99},{"user_id":54,"name":"Liver stealer","steam_id":76561199029954287,"connected_time":5895000000000,"state":"active","ping":140}]},{"server_id":15,"name":"Uncletopia | New York City | 3 | Stopwatch Beta","name_short":"nyc-3","host":"nyc-1.us.uncletopia.com","port":27035,"enabled":true,"region":"us-east","cc":"us","latitude":40.73061,"longitude":-73.93524,"reserved":0,"last_update":"0001-01-01T00:00:00Z","name_a2s":"Uncletopia | New York City | 3 | Stopwatch Beta","protocol":17,"map":"cp_sunshine","folder":"tf","game":"Team Fortress","app_id":440,"player_count":0,"max_players":24,"Bots":0,"server_type":"Dedicated","server_os":"Linux","password":true,"vac":true,"version":"7961495","steam_id":85568392924742820,"keywords":["cp","nocrits","nodmgspread","uncletopia"],"game_id":440,"stv_port":27036,"stv_name":"Uncletopia | New York City | 3 | Stopwatch Beta | STV","players":null},{"server_id":16,"name":"Uncletopia | New York City | 4 | Community","name_short":"nyc-4","host":"nyc-1.us.uncletopia.com","port":27045,"enabled":true,"region":"us-east","cc":"us","latitude":40.73061,"longitude":-73.93524,"reserved":0,"last_update":"0001-01-01T00:00:00Z","name_a2s":"Uncletopia | New York City | 4 | Community","protocol":17,"map":"workshop/pl_badwater_pro_v12.ugc2142942074","folder":"tf","game":"Team Fortress","app_id":440,"player_count":7,"max_players":24,"Bots":0,"server_type":"Dedicated","server_os":"Linux","password":true,"vac":true,"version":"7961495","steam_id":85568392924742821,"keywords":["nocrits","nodmgspread","payload","uncletopia"],"game_id":440,"stv_port":27046,"stv_name":"Uncletopia | New York City | 4 | Community | STV","players":[{"user_id":10,"name":"Jimmy Jr","steam_id":76561198961051367,"connected_time":1284000000000,"state":"active","ping":72},{"user_id":11,"name":"DigitLuck","steam_id":76561199222376379,"connected_time":1245000000000,"state":"active","ping":62},{"user_id":15,"name":"NightEmerald","steam_id":76561198878856805,"connected_time":351000000000,"state":"active","ping":42},{"user_id":14,"name":"EEssential","steam_id":76561199317594248,"connected_time":822000000000,"state":"active","ping":65},{"user_id":20,"name":"iightning","steam_id":76561199067138887,"connected_time":53000000000,"state":"active","ping":60},{"user_id":18,"name":"Sliam Diam","steam_id":76561199091493572,"connected_time":149000000000,"state":"active","ping":55},{"user_id":19,"name":"Finn","steam_id":76561199038429679,"connected_time":78000000000,"state":"active","ping":65}]},{"server_id":142,"name":"Uncletopia | São Paulo | 1 | All Maps","name_short":"sao-1","host":"sao-1.br.uncletopia.com","port":27015,"enabled":true,"region":"sa","cc":"br","latitude":-23.533773,"longitude":-46.62529,"reserved":0,"last_update":"0001-01-01T00:00:00Z","name_a2s":"Uncletopia | São Paulo | 1 | All Maps","protocol":17,"map":"pl_pier","folder":"tf","game":"Team Fortress","app_id":440,"player_count":24,"max_players":24,"Bots":0,"server_type":"Dedicated","server_os":"Linux","password":true,"vac":true,"version":"7961495","steam_id":85568392924469996,"keywords":["nocrits","nodmgspread","payload","uncletopia"],"game_id":440,"stv_port":27016,"stv_name":"Uncletopia | São Paulo | 1 | All Maps | STV","players":[{"user_id":7,"name":"Bossman","steam_id":76561198989109613,"connected_time":5746000000000,"state":"active","ping":28},{"user_id":8,"name":"Eletrycity","steam_id":76561198438061708,"connected_time":5742000000000,"state":"active","ping":91},{"user_id":18,"name":"Evaldo","steam_id":76561198127614670,"connected_time":3598000000000,"state":"active","ping":53},{"user_id":10,"name":"Cuutc","steam_id":76561199117093999,"connected_time":5513000000000,"state":"active","ping":59},{"user_id":13,"name":"josemanuel","steam_id":76561198356171214,"connected_time":4892000000000,"state":"active","ping":169},{"user_id":14,"name":"MrNikeythor","steam_id":76561198210907841,"connected_time":4862000000000,"state":"active","ping":156},{"user_id":19,"name":"vacaloca25","steam_id":76561198082683352,"connected_time":3570000000000,"state":"active","ping":60},{"user_id":45,"name":"hadinode","steam_id":76561198191475573,"connected_time":1906000000000,"state":"active","ping":50},{"user_id":38,"name":"Gummer SOOS","steam_id":76561199183124361,"connected_time":2268000000000,"state":"active","ping":89},{"user_id":21,"name":"G0LD3N","steam_id":76561198125139387,"connected_time":3485000000000,"state":"active","ping":35},{"user_id":22,"name":"LeOptic","steam_id":76561198131106666,"connected_time":3472000000000,"state":"active","ping":50},{"user_id":23,"name":"anaheisenberg","steam_id":76561198304847307,"connected_time":3462000000000,"state":"active","ping":60},{"user_id":25,"name":"SWAGsnorlax","steam_id":76561198448929255,"connected_time":3330000000000,"state":"active","ping":81},{"user_id":26,"name":"Aust","steam_id":76561198067966650,"connected_time":3313000000000,"state":"active","ping":48},{"user_id":55,"name":"Gogoyle50","steam_id":76561198148524228,"connected_time":108000000000,"state":"active","ping":51},{"user_id":30,"name":"gman smokeing weed","steam_id":76561198286428191,"connected_time":2801000000000,"state":"active","ping":72},{"user_id":39,"name":"pablogamer.120","steam_id":76561199001995992,"connected_time":2237000000000,"state":"active","ping":84},{"user_id":51,"name":"kadme","steam_id":76561198059057839,"connected_time":1111000000000,"state":"active","ping":107},{"user_id":50,"name":"murijo","steam_id":76561198308314565,"connected_time":1438000000000,"state":"active","ping":60},{"user_id":52,"name":"Copas","steam_id":76561198131478483,"connected_time":1087000000000,"state":"active","ping":59},{"user_id":42,"name":"YellowEyePatch Guy","steam_id":76561199108111310,"connected_time":2111000000000,"state":"active","ping":57},{"user_id":53,"name":"caven","steam_id":76561198042679563,"connected_time":1064000000000,"state":"active","ping":63},{"user_id":48,"name":"ヽ༼ຈل͜ຈ༽ﾉ","steam_id":76561198049898909,"connected_time":1689000000000,"state":"active","ping":77},{"user_id":54,"name":"Blue9Fairy","steam_id":76561198039942928,"connected_time":1048000000000,"state":"active","ping":57}]},{"server_id":143,"name":"Uncletopia | São Paulo | 2 | Community","name_short":"sao-2","host":"sao-2.br.uncletopia.com","port":27015,"enabled":true,"region":"sa","cc":"br","latitude":-23.533773,"longitude":-46.62529,"reserved":0,"last_update":"0001-01-01T00:00:00Z","name_a2s":"Uncletopia | São Paulo | 2 | Community","protocol":17,"map":"workshop/pl_vigil_rc9.ugc1266210012","folder":"tf","game":"Team Fortress","app_id":440,"player_count":0,"max_players":24,"Bots":0,"server_type":"Dedicated","server_os":"Linux","password":true,"vac":true,"version":"7961495","steam_id":85568392924485349,"keywords":["nocrits","nodmgspread","payload","uncletopia"],"game_id":440,"stv_port":27016,"stv_name":"Uncletopia | São Paulo | 2 | Community | STV","players":null},{"server_id":7,"name":"Uncletopia | Seattle | 1 | All Maps","name_short":"sea-1","host":"sea-1.us.uncletopia.com","port":27015,"enabled":true,"region":"us-west","cc":"us","latitude":47.608013,"longitude":-122.33517,"reserved":0,"last_update":"0001-01-01T00:00:00Z","name_a2s":"Uncletopia | Seattle | 1 | All Maps","protocol":17,"map":"pl_borneo","folder":"tf","game":"Team Fortress","app_id":440,"player_count":23,"max_players":24,"Bots":0,"server_type":"Dedicated","server_os":"Linux","password":true,"vac":true,"version":"7961495","steam_id":85568392924469997,"keywords":["nocrits","nodmgspread","payload","uncletopia"],"game_id":440,"stv_port":27016,"stv_name":"Uncletopia | Seattle | 1 | All Maps | STV","players":[{"user_id":166,"name":"Daz","steam_id":76561198041431938,"connected_time":3592000000000,"state":"active","ping":49},{"user_id":172,"name":"O","steam_id":76561198450073779,"connected_time":2288000000000,"state":"active","ping":45},{"user_id":198,"name":"Nebe0","steam_id":76561199133770186,"connected_time":80000000000,"state":"active","ping":125},{"user_id":183,"name":"fountain Mann","steam_id":76561198834350355,"connected_time":928000000000,"state":"active","ping":72},{"user_id":187,"name":"zinnk","steam_id":76561198092081825,"connected_time":678000000000,"state":"active","ping":58},{"user_id":199,"name":"Little Linguine","steam_id":76561198816986370,"connected_time":75000000000,"state":"active","ping":56},{"user_id":179,"name":"ScoobieSlayer79","steam_id":76561198061701905,"connected_time":1570000000000,"state":"active","ping":109},{"user_id":194,"name":"my mom","steam_id":76561199225201569,"connected_time":232000000000,"state":"active","ping":123},{"user_id":197,"name":"Franz","steam_id":76561198041929745,"connected_time":166000000000,"state":"active","ping":72},{"user_id":170,"name":"ThePriceIsRice","steam_id":76561198079069543,"connected_time":2994000000000,"state":"active","ping":61},{"user_id":190,"name":"human (real)","steam_id":76561199001855562,"connected_time":489000000000,"state":"active","ping":53},{"user_id":178,"name":"oo","steam_id":76561198119626492,"connected_time":1756000000000,"state":"active","ping":78},{"user_id":192,"name":"Keamy","steam_id":76561199471434875,"connected_time":458000000000,"state":"active","ping":39},{"user_id":196,"name":"A Can of AriZona Green Tea","steam_id":76561198062481133,"connected_time":198000000000,"state":"active","ping":84},{"user_id":165,"name":"french","steam_id":76561198380447190,"connected_time":3607000000000,"state":"active","ping":150},{"user_id":193,"name":"Librinox / Irrith","steam_id":76561198008996805,"connected_time":446000000000,"state":"active","ping":117},{"user_id":160,"name":"Wolfman","steam_id":76561198095264646,"connected_time":3765000000000,"state":"active","ping":112},{"user_id":109,"name":"Common Duck","steam_id":76561198201700567,"connected_time":6809000000000,"state":"active","ping":121},{"user_id":168,"name":"Level 99 Mudcrab","steam_id":76561198077452771,"connected_time":3533000000000,"state":"active","ping":86},{"user_id":176,"name":"Plague Of Jam","steam_id":76561198455703197,"connected_time":2096000000000,"state":"active","ping":112},{"user_id":200,"name":"ttv_shingo_is_live","steam_id":76561198998571073,"connected_time":8000000000,"state":"spawning","ping":59},{"user_id":110,"name":"Hope","steam_id":76561199182558088,"connected_time":6764000000000,"state":"active","ping":75},{"user_id":177,"name":"Peakt","steam_id":76561198096328768,"connected_time":1872000000000,"state":"active","ping":53}]},{"server_id":119,"name":"Uncletopia | Seattle | 2 | All Maps","name_short":"sea-2","host":"sea-1.us.uncletopia.com","port":27025,"enabled":true,"region":"us-west","cc":"us","latitude":47.608013,"longitude":-122.33517,"reserved":0,"last_update":"0001-01-01T00:00:00Z","name_a2s":"Uncletopia | Seattle | 2 | All Maps","protocol":17,"map":"pl_badwater","folder":"tf","game":"Team Fortress","app_id":440,"player_count":0,"max_players":24,"Bots":0,"server_type":"Dedicated","server_os":"Linux","password":true,"vac":true,"version":"7961495","steam_id":85568392924469998,"keywords":["nocrits","nodmgspread","payload","uncletopia"],"game_id":440,"stv_port":27026,"stv_name":"Uncletopia | Seattle | 2 | All Maps | STV","players":null},{"server_id":406,"name":"Uncletopia | Seattle | 3 | Stopwatch Beta","name_short":"sea-3","host":"sea-1.us.uncletopia.com","port":27035,"enabled":true,"region":"us-west","cc":"us","latitude":47.608013,"longitude":-122.33517,"reserved":0,"last_update":"0001-01-01T00:00:00Z","name_a2s":"Uncletopia | Seattle | 3 | Stopwatch Beta","protocol":17,"map":"koth_lakeside_final","folder":"tf","game":"Team Fortress","app_id":440,"player_count":0,"max_players":24,"Bots":0,"server_type":"Dedicated","server_os":"Linux","password":true,"vac":true,"version":"7961495","steam_id":85568392924515217,"keywords":["cp","nocrits","nodmgspread","uncletopia"],"game_id":440,"stv_port":27036,"stv_name":"Uncletopia | Seattle | 3 | Stopwatch Beta | STV","players":null},{"server_id":17,"name":"Uncletopia | San Francisco | 1 | All Maps","name_short":"sfo-1","host":"sfo-1.us.uncletopia.com","port":27015,"enabled":true,"region":"us-west","cc":"us","latitude":37.77397,"longitude":-122.4313,"reserved":0,"last_update":"0001-01-01T00:00:00Z","name_a2s":"Uncletopia | San Francisco | 1 | All Maps","protocol":17,"map":"pl_frontier_final","folder":"tf","game":"Team Fortress","app_id":440,"player_count":24,"max_players":24,"Bots":0,"server_type":"Dedicated","server_os":"Linux","password":true,"vac":true,"version":"7961495","steam_id":85568392924469999,"keywords":["nocrits","nodmgspread","payload","uncletopia"],"game_id":440,"stv_port":27016,"stv_name":"Uncletopia | San Francisco | 1 | All Maps | STV","players":[{"user_id":66,"name":"sauce","steam_id":76561198155481540,"connected_time":1128000000000,"state":"active","ping":57},{"user_id":15,"name":"Dush Garnett","steam_id":76561198300278502,"connected_time":4844000000000,"state":"active","ping":75},{"user_id":79,"name":"FumiGatorFred","steam_id":76561199163789104,"connected_time":359000000000,"state":"active","ping":114},{"user_id":83,"name":"radical","steam_id":76561199194112599,"connected_time":272000000000,"state":"active","ping":115},{"user_id":80,"name":"zinqi","steam_id":76561198376838848,"connected_time":308000000000,"state":"active","ping":139},{"user_id":81,"name":"Dunkaccino","steam_id":76561198025302625,"connected_time":307000000000,"state":"active","ping":91},{"user_id":68,"name":"Truffle","steam_id":76561198074327454,"connected_time":1084000000000,"state":"active","ping":54},{"user_id":22,"name":"MAGGOT!","steam_id":76561198213290696,"connected_time":4110000000000,"state":"active","ping":62},{"user_id":82,"name":"redbrite","steam_id":76561198389370871,"connected_time":282000000000,"state":"active","ping":58},{"user_id":76,"name":"TwoBit","steam_id":76561198062437559,"connected_time":649000000000,"state":"active","ping":134},{"user_id":60,"name":"jozthebob","steam_id":76561199476198856,"connected_time":1679000000000,"state":"active","ping":111},{"user_id":69,"name":"HOMARUS AMERICANUS","steam_id":76561198068275402,"connected_time":1079000000000,"state":"active","ping":60},{"user_id":63,"name":"rad killl raccoon","steam_id":76561198980975595,"connected_time":1594000000000,"state":"active","ping":88},{"user_id":59,"name":"Who loves orange soda?","steam_id":76561198059808982,"connected_time":1736000000000,"state":"active","ping":60},{"user_id":77,"name":"primordialheath","steam_id":76561199386942638,"connected_time":520000000000,"state":"active","ping":107},{"user_id":74,"name":"Priestess of Spiders","steam_id":76561198111286397,"connected_time":796000000000,"state":"active","ping":64},{"user_id":88,"name":"shelf","steam_id":76561198260021696,"connected_time":65000000000,"state":"active","ping":60},{"user_id":84,"name":"Blows","steam_id":76561198065349185,"connected_time":249000000000,"state":"active","ping":51},{"user_id":54,"name":"cupcakedealer69402","steam_id":76561199122061900,"connected_time":2496000000000,"state":"active","ping":123},{"user_id":85,"name":"Cheff cook","steam_id":76561198451203268,"connected_time":233000000000,"state":"active","ping":92},{"user_id":43,"name":"Peepster","steam_id":76561198297854733,"connected_time":3494000000000,"state":"active","ping":116},{"user_id":73,"name":"Lo-Pan","steam_id":76561198085670133,"connected_time":853000000000,"state":"active","ping":118},{"user_id":78,"name":"BlazedBunny","steam_id":76561198243610560,"connected_time":468000000000,"state":"active","ping":97},{"user_id":87,"name":"PizzaMuncher89","steam_id":76561199121856753,"connected_time":227000000000,"state":"active","ping":95}]},{"server_id":18,"name":"Uncletopia | San Francisco | 2 | All Maps","name_short":"sfo-2","host":"sfo-1.us.uncletopia.com","port":27025,"enabled":true,"region":"us-west","cc":"us","latitude":37.77397,"longitude":-122.4313,"reserved":0,"last_update":"0001-01-01T00:00:00Z","name_a2s":"Uncletopia | San Francisco | 2 | All Maps","protocol":17,"map":"koth_highpass","folder":"tf","game":"Team Fortress","app_id":440,"player_count":0,"max_players":24,"Bots":0,"server_type":"Dedicated","server_os":"Linux","password":true,"vac":true,"version":"7961495","steam_id":85568392924470000,"keywords":["cp","nocrits","nodmgspread","uncletopia"],"game_id":440,"stv_port":27026,"stv_name":"Uncletopia | San Francisco | 2 | All Maps | STV","players":null},{"server_id":19,"name":"Uncletopia | San Francisco | 3 | Stopwatch Beta","name_short":"sfo-3","host":"sfo-1.us.uncletopia.com","port":27035,"enabled":true,"region":"us-west","cc":"us","latitude":37.77397,"longitude":-122.4313,"reserved":0,"last_update":"0001-01-01T00:00:00Z","name_a2s":"Uncletopia | San Francisco | 3 | Stopwatch Beta","protocol":17,"map":"pl_borneo","folder":"tf","game":"Team Fortress","app_id":440,"player_count":0,"max_players":24,"Bots":0,"server_type":"Dedicated","server_os":"Linux","password":true,"vac":true,"version":"7961495","steam_id":85568392924742824,"keywords":["nocrits","nodmgspread","payload","uncletopia"],"game_id":440,"stv_port":27036,"stv_name":"Uncletopia | San Francisco | 3 | Stopwatch Beta | STV","players":null},{"server_id":20,"name":"Uncletopia | San Francisco | 4 | Community","name_short":"sfo-4","host":"sfo-1.us.uncletopia.com","port":27045,"enabled":true,"region":"us-west","cc":"us","latitude":37.77397,"longitude":-122.4313,"reserved":0,"last_update":"0001-01-01T00:00:00Z","name_a2s":"Uncletopia | San Francisco | 4 | Community","protocol":17,"map":"koth_viaduct","folder":"tf","game":"Team Fortress","app_id":440,"player_count":0,"max_players":24,"Bots":0,"server_type":"Dedicated","server_os":"Linux","password":true,"vac":true,"version":"7961495","steam_id":85568392924742826,"keywords":["cp","nocrits","nodmgspread","uncletopia"],"game_id":440,"stv_port":27046,"stv_name":"Uncletopia | San Francisco | 4 | Community | STV","players":null},{"server_id":141,"name":"Uncletopia | Sydney | 1 | All Maps","name_short":"syd-1","host":"syd-1.au.uncletopia.com","port":27015,"enabled":true,"region":"au","cc":"au","latitude":-33.865143,"longitude":151.2099,"reserved":0,"last_update":"0001-01-01T00:00:00Z","name_a2s":"Uncletopia | Sydney | 1 | All Maps","protocol":17,"map":"cp_mountainlab","folder":"tf","game":"Team Fortress","app_id":440,"player_count":0,"max_players":24,"Bots":0,"server_type":"Dedicated","server_os":"Linux","password":true,"vac":true,"version":"7961495","steam_id":85568392924470001,"keywords":["cp","nocrits","nodmgspread","uncletopia"],"game_id":440,"stv_port":27016,"stv_name":"Uncletopia | Sydney | 1 | All Maps | STV","players":null},{"server_id":123,"name":"Uncletopia | Sydney | 2 | All Maps","name_short":"syd-2","host":"syd-1.au.uncletopia.com","port":27025,"enabled":true,"region":"au","cc":"au","latitude":-33.865143,"longitude":151.2099,"reserved":0,"last_update":"0001-01-01T00:00:00Z","name_a2s":"Uncletopia | Sydney | 2 | All Maps","protocol":17,"map":"pl_snowycoast","folder":"tf","game":"Team Fortress","app_id":440,"player_count":0,"max_players":24,"Bots":0,"server_type":"Dedicated","server_os":"Linux","password":true,"vac":true,"version":"7961495","steam_id":85568392924470002,"keywords":["nocrits","nodmgspread","payload","uncletopia"],"game_id":440,"stv_port":27026,"stv_name":"Uncletopia | Sydney | 2 | All Maps | STV","players":null},{"server_id":395,"name":"Uncletopia | Sydney | 3 | All Maps","name_short":"syd-3","host":"syd-1.au.uncletopia.com","port":27035,"enabled":true,"region":"au","cc":"au","latitude":-33.865143,"longitude":151.2099,"reserved":0,"last_update":"0001-01-01T00:00:00Z","name_a2s":"Uncletopia | Sydney | 3 | All Maps","protocol":17,"map":"koth_viaduct","folder":"tf","game":"Team Fortress","app_id":440,"player_count":0,"max_players":24,"Bots":0,"server_type":"Dedicated","server_os":"Linux","password":true,"vac":true,"version":"7961495","steam_id":85568392925194467,"keywords":["cp","nocrits","nodmgspread","uncletopia"],"game_id":440,"stv_port":27036,"stv_name":"Uncletopia | Sydney | 3 | All Maps | STV","players":null},{"server_id":396,"name":"Uncletopia | Sydney | 4 | All Maps","name_short":"syd-4","host":"syd-1.au.uncletopia.com","port":27045,"enabled":true,"region":"au","cc":"au","latitude":-33.865143,"longitude":151.2099,"reserved":0,"last_update":"0001-01-01T00:00:00Z","name_a2s":"Uncletopia | Sydney | 4 | All Maps","protocol":17,"map":"pl_frontier_final","folder":"tf","game":"Team Fortress","app_id":440,"player_count":0,"max_players":24,"Bots":0,"server_type":"Dedicated","server_os":"Linux","password":true,"vac":true,"version":"7961495","steam_id":85568392925397958,"keywords":["nocrits","nodmgspread","payload","uncletopia"],"game_id":440,"stv_port":27046,"stv_name":"Uncletopia | Sydney | 4 | All Maps | STV","players":null},{"server_id":58,"name":"Uncletopia | Sydney | 5 | Stopwatch Beta","name_short":"syd-5","host":"syd-1.au.uncletopia.com","port":27055,"enabled":true,"region":"au","cc":"au","latitude":-33.865143,"longitude":151.2099,"reserved":0,"last_update":"0001-01-01T00:00:00Z","name_a2s":"Uncletopia | Sydney | 5 | Stopwatch Beta","protocol":17,"map":"koth_viaduct","folder":"tf","game":"Team Fortress","app_id":440,"player_count":0,"max_players":24,"Bots":0,"server_type":"Dedicated","server_os":"Linux","password":true,"vac":true,"version":"7961495","steam_id":85568392925397959,"keywords":["cp","nocrits","nodmgspread","uncletopia"],"game_id":440,"stv_port":27056,"stv_name":"Uncletopia | Sydney | 5 | Stopwatch Beta | STV","players":null},{"server_id":59,"name":"Uncletopia | Sydney | 6 | Community","name_short":"syd-6","host":"syd-1.au.uncletopia.com","port":27065,"enabled":true,"region":"au","cc":"au","latitude":-33.865143,"longitude":151.2099,"reserved":0,"last_update":"0001-01-01T00:00:00Z","name_a2s":"Uncletopia | Sydney | 6 | Community","protocol":17,"map":"koth_cascade","folder":"tf","game":"Team Fortress","app_id":440,"player_count":0,"max_players":24,"Bots":0,"server_type":"Dedicated","server_os":"Linux","password":true,"vac":true,"version":"7961495","steam_id":85568392925397960,"keywords":["cp","nocrits","nodmgspread","uncletopia"],"game_id":440,"stv_port":27066,"stv_name":"Uncletopia | Sydney | 6 | Community | STV","players":null},{"server_id":49,"name":"Uncletopia | Warsaw | 1 | All Maps","name_short":"waw-1","host":"waw-1.pl.uncletopia.com","port":27015,"enabled":true,"region":"eu","cc":"pl","latitude":52.2297,"longitude":21.017532,"reserved":0,"last_update":"0001-01-01T00:00:00Z","name_a2s":"Uncletopia | Warsaw | 1 | All Maps","protocol":17,"map":"koth_highpass","folder":"tf","game":"Team Fortress","app_id":440,"player_count":0,"max_players":24,"Bots":0,"server_type":"Dedicated","server_os":"Linux","password":true,"vac":true,"version":"7961495","steam_id":85568392925397850,"keywords":["cp","nocrits","nodmgspread","uncletopia"],"game_id":440,"stv_port":27016,"stv_name":"Uncletopia | Warsaw | 1 | All Maps | STV","players":null},{"server_id":50,"name":"Uncletopia | Warsaw | 2 | All Maps","name_short":"waw-2","host":"waw-1.pl.uncletopia.com","port":27025,"enabled":true,"region":"eu","cc":"pl","latitude":52.2297,"longitude":21.017532,"reserved":0,"last_update":"0001-01-01T00:00:00Z","name_a2s":"Uncletopia | Warsaw | 2 | All Maps","protocol":17,"map":"koth_viaduct","folder":"tf","game":"Team Fortress","app_id":440,"player_count":0,"max_players":24,"Bots":0,"server_type":"Dedicated","server_os":"Linux","password":true,"vac":true,"version":"7961495","steam_id":85568392925397851,"keywords":["cp","nocrits","nodmgspread","uncletopia"],"game_id":440,"stv_port":27026,"stv_name":"Uncletopia | Warsaw | 2 | All Maps | STV","players":null},{"server_id":51,"name":"Uncletopia | Warsaw | 3 | All Maps","name_short":"waw-3","host":"waw-1.pl.uncletopia.com","port":27035,"enabled":true,"region":"eu","cc":"pl","latitude":52.2297,"longitude":21.017532,"reserved":0,"last_update":"0001-01-01T00:00:00Z","name_a2s":"Uncletopia | Warsaw | 3 | All Maps","protocol":17,"map":"koth_highpass","folder":"tf","game":"Team Fortress","app_id":440,"player_count":22,"max_players":24,"Bots":0,"server_type":"Dedicated","server_os":"Linux","password":true,"vac":true,"version":"7961495","steam_id":85568392925397852,"keywords":["cp","nocrits","nodmgspread","uncletopia"],"game_id":440,"stv_port":27036,"stv_name":"Uncletopia | Warsaw | 3 | All Maps | STV","players":[{"user_id":102,"name":"buff men","steam_id":76561198996092998,"connected_time":1052000000000,"state":"active","ping":63},{"user_id":105,"name":"Trujo","steam_id":76561199002203871,"connected_time":694000000000,"state":"active","ping":84},{"user_id":106,"name":"orphan smeller","steam_id":76561198107876224,"connected_time":625000000000,"state":"active","ping":59},{"user_id":107,"name":"Flying skyhigh","steam_id":76561198372971096,"connected_time":617000000000,"state":"active","ping":89},{"user_id":115,"name":"lunaire","steam_id":76561198163344452,"connected_time":216000000000,"state":"active","ping":64},{"user_id":109,"name":"Dr. Sayori Miko","steam_id":76561198935543136,"connected_time":559000000000,"state":"active","ping":94},{"user_id":49,"name":"Douglas MacDrip The Second","steam_id":76561198865364180,"connected_time":3963000000000,"state":"active","ping":44},{"user_id":86,"name":"Pivox g4skins","steam_id":76561198105297959,"connected_time":2060000000000,"state":"active","ping":63},{"user_id":68,"name":"Flared","steam_id":76561198018673136,"connected_time":3167000000000,"state":"active","ping":81},{"user_id":97,"name":"apple","steam_id":76561198142581128,"connected_time":1594000000000,"state":"active","ping":80},{"user_id":57,"name":"Kfer","steam_id":76561198809708638,"connected_time":3595000000000,"state":"active","ping":59},{"user_id":111,"name":"marfull89","steam_id":76561199059363362,"connected_time":506000000000,"state":"active","ping":95},{"user_id":62,"name":"Osmo","steam_id":76561199286764992,"connected_time":3331000000000,"state":"active","ping":51},{"user_id":95,"name":"det","steam_id":76561198261505536,"connected_time":1753000000000,"state":"active","ping":44},{"user_id":112,"name":"Shadow Wizard Money Gang","steam_id":76561198157128867,"connected_time":454000000000,"state":"active","ping":107},{"user_id":113,"name":"Tomfool","steam_id":76561197993256481,"connected_time":434000000000,"state":"active","ping":89},{"user_id":114,"name":"Lukas","steam_id":76561198009118452,"connected_time":381000000000,"state":"active","ping":79},{"user_id":103,"name":"ais","steam_id":76561198040543390,"connected_time":718000000000,"state":"active","ping":56},{"user_id":101,"name":"Smuggs","steam_id":76561197999456003,"connected_time":1166000000000,"state":"active","ping":70},{"user_id":104,"name":"PashaVerti","steam_id":76561199013963024,"connected_time":708000000000,"state":"active","ping":67},{"user_id":116,"name":"qwnt_","steam_id":76561198383276251,"connected_time":84000000000,"state":"active","ping":127},{"user_id":96,"name":"toe sucking freak","steam_id":76561198411069806,"connected_time":1672000000000,"state":"active","ping":50}]},{"server_id":52,"name":"Uncletopia | Warsaw | 4 | All Maps","name_short":"waw-4","host":"waw-1.pl.uncletopia.com","port":27045,"enabled":true,"region":"eu","cc":"pl","latitude":52.2297,"longitude":21.017532,"reserved":0,"last_update":"0001-01-01T00:00:00Z","name_a2s":"Uncletopia | Warsaw | 4 | All Maps","protocol":17,"map":"pl_swiftwater_final1","folder":"tf","game":"Team Fortress","app_id":440,"player_count":0,"max_players":24,"Bots":0,"server_type":"Dedicated","server_os":"Linux","password":true,"vac":true,"version":"7961495","steam_id":85568392925397853,"keywords":["nocrits","nodmgspread","payload","uncletopia"],"game_id":440,"stv_port":27046,"stv_name":"Uncletopia | Warsaw | 4 | All Maps | STV","players":null},{"server_id":53,"name":"Uncletopia | Warsaw | 5 | Stopwatch Beta","name_short":"waw-5","host":"waw-1.pl.uncletopia.com","port":27055,"enabled":true,"region":"eu","cc":"pl","latitude":52.2297,"longitude":21.017532,"reserved":0,"last_update":"0001-01-01T00:00:00Z","name_a2s":"Uncletopia | Warsaw | 5 | Stopwatch Beta","protocol":17,"map":"workshop/koth_ramjam_rc1.ugc459778887","folder":"tf","game":"Team Fortress","app_id":440,"player_count":0,"max_players":24,"Bots":0,"server_type":"Dedicated","server_os":"Linux","password":true,"vac":true,"version":"7961495","steam_id":85568392925397854,"keywords":["cp","nocrits","nodmgspread","uncletopia"],"game_id":440,"stv_port":27056,"stv_name":"Uncletopia | Warsaw | 5 | Stopwatch Beta | STV","players":null},{"server_id":54,"name":"Uncletopia | Warsaw | 6 | Community","name_short":"waw-6","host":"waw-1.pl.uncletopia.com","port":27065,"enabled":true,"region":"eu","cc":"pl","latitude":52.2297,"longitude":21.017532,"reserved":0,"last_update":"0001-01-01T00:00:00Z","name_a2s":"Uncletopia | Warsaw | 6 | Community","protocol":17,"map":"workshop/pl_vigil_rc9.ugc1266210012","folder":"tf","game":"Team Fortress","app_id":440,"player_count":0,"max_players":24,"Bots":0,"server_type":"Dedicated","server_os":"Linux","password":true,"vac":true,"version":"7961495","steam_id":85568392925397856,"keywords":["nocrits","nodmgspread","payload","uncletopia"],"game_id":440,"stv_port":27066,"stv_name":"Uncletopia | Warsaw | 6 | Community | STV","players":null}]}