{"status":true,"message":"","result":[{"server_id":9,"name":"Uncletopia | Atlanta | 1 | All Maps","name_short":"atl-1","host":"atl-1.us.uncletopia.com","port":27015,"enabled":true,"region":"us-east","cc":"us","latitude":33.753746,"longitude":-84.38633,"reserved":0,"last_update":"0001-01-01T00:00:00Z","name_a2s":"Uncletopia | Atlanta | 1 | All Maps","protocol":17,"map":"cp_dustbowl","folder":"tf","game":"Team Fortress","app_id":440,"player_count":24,"max_players":24,"Bots":0,"server_type":"Dedicated","server_os":"Linux","password":true,"vac":true,"version":"7757534","steam_id":85568392924469982,"keywords":["cp","nocrits","nodmgspread","uncletopia"],"game_id":440,"stv_port":27016,"stv_name":"Uncletopia | Atlanta | 1 | All Maps | STV","players":[{"user_id":515,"name":"vid_","steam_id":76561198065159053,"connected_time":4000000000,"state":"spawning","ping":79},{"user_id":507,"name":"large baja blast","steam_id":76561198101971132,"connected_time":690000000000,"state":"active","ping":75},{"user_id":476,"name":"You Want Me","steam_id":76561198135492119,"connected_time":3697000000000,"state":"active","ping":81},{"user_id":506,"name":"FemboyNate","steam_id":76561198146636410,"connected_time":910000000000,"state":"active","ping":58},{"user_id":472,"name":"Bottom Trans Cowgirl","steam_id":76561198304239680,"connected_time":3896000000000,"state":"active","ping":76},{"user_id":439,"name":"melancholy","steam_id":76561198024301465,"connected_time":7189000000000,"state":"active","ping":42},{"user_id":457,"name":"BIG HOG","steam_id":76561198079923652,"connected_time":5676000000000,"state":"active","ping":74},{"user_id":494,"name":"atl1 Quality","steam_id":76561198361132101,"connected_time":2123000000000,"state":"active","ping":92},{"user_id":458,"name":"Yukko Aioi TF2","steam_id":76561198889857835,"connected_time":5676000000000,"state":"active","ping":137},{"user_id":325,"name":"Firebug","steam_id":76561198081832157,"connected_time":17399000000000,"state":"active","ping":88},{"user_id":478,"name":"HOG1 | Moderate Hog","steam_id":76561198299175965,"connected_time":3637000000000,"state":"active","ping":63},{"user_id":498,"name":"SparkStorm","steam_id":76561198095817025,"connected_time":1276000000000,"state":"active","ping":38},{"user_id":493,"name":"Styx","steam_id":76561198104657428,"connected_time":2180000000000,"state":"active","ping":60},{"user_id":510,"name":"50 DPM :(","steam_id":76561198927517471,"connected_time":356000000000,"state":"active","ping":60},{"user_id":512,"name":"lu","steam_id":76561198080731872,"connected_time":147000000000,"state":"active","ping":77},{"user_id":480,"name":"O'Keearns","steam_id":76561198042213797,"connected_time":3497000000000,"state":"active","ping":46},{"user_id":496,"name":"Sojuounr (overwatch 2)","steam_id":76561198968337022,"connected_time":1372000000000,"state":"active","ping":58},{"user_id":497,"name":"ATL1 | on my hunting trip","steam_id":76561198315341646,"connected_time":1305000000000,"state":"active","ping":78},{"user_id":482,"name":"atl1icyy","steam_id":76561198968001329,"connected_time":3091000000000,"state":"active","ping":46},{"user_id":514,"name":"ATL2 | S4tisfactoree","steam_id":76561198088337557,"connected_time":50000000000,"state":"active","ping":55},{"user_id":451,"name":"lil hog","steam_id":76561199230929836,"connected_time":5956000000000,"state":"active","ping":95},{"user_id":488,"name":"ATL1 | Pango","steam_id":76561198069811545,"connected_time":2440000000000,"state":"active","ping":47},{"user_id":509,"name":"[txc] garf","steam_id":76561198083078030,"connected_time":461000000000,"state":"active","ping":50},{"user_id":403,"name":"Brian","steam_id":76561198089908485,"connected_time":11477000000000,"state":"active","ping":63}]},{"server_id":400,"name":"Uncletopia | Atlanta | 3 | Community","name_short":"atl-3","host":"atl-1.us.uncletopia.com","port":27035,"enabled":true,"region":"us-east","cc":"us","latitude":33.753746,"longitude":-84.38633,"reserved":0,"last_update":"0001-01-01T00:00:00Z","name_a2s":"Uncletopia | Atlanta | 3 | Community","protocol":17,"map":"workshop/pl_emerge_rc2.ugc888027758","folder":"tf","game":"Team Fortress","app_id":440,"player_count":0,"max_players":24,"Bots":0,"server_type":"Dedicated","server_os":"Linux","password":true,"vac":true,"version":"7757534","steam_id":85568392924515187,"keywords":["nocrits","nodmgspread","payload","uncletopia"],"game_id":440,"stv_port":27036,"stv_name":"Uncletopia | Atlanta | 3 | Community | STV","players":null},{"server_id":401,"name":"Uncletopia | Atlanta | 4 | No Payload","name_short":"atl-4","host":"atl-1.us.uncletopia.com","port":27045,"enabled":true,"region":"us-east","cc":"us","latitude":33.753746,"longitude":-84.38633,"reserved":0,"last_update":"0001-01-01T00:00:00Z","name_a2s":"","protocol":0,"map":"","folder":"","game":"","app_id":0,"player_count":0,"max_players":0,"Bots":0,"server_type":"","server_os":"","password":false,"vac":false,"version":"","steam_id":0,"keywords":null,"game_id":0,"stv_port":0,"stv_name":"","players":null},{"server_id":2,"name":"Uncletopia | Chicago | 1 | All Maps","name_short":"chi-1","host":"chi-1.us.uncletopia.com","port":27015,"enabled":true,"region":"us-central","cc":"us","latitude":41.881832,"longitude":-87.62318,"reserved":0,"last_update":"0001-01-01T00:00:00Z","name_a2s":"Uncletopia | Chicago | 1 | All Maps","protocol":17,"map":"pl_borneo","folder":"tf","game":"Team Fortress","app_id":440,"player_count":24,"max_players":24,"Bots":0,"server_type":"Dedicated","server_os":"Linux","password":true,"vac":true,"version":"7757534","steam_id":85568392924469984,"keywords":["nocrits","nodmgspread","payload","uncletopia"],"game_id":440,"stv_port":27016,"stv_name":"Uncletopia | Chicago | 1 | All Maps | STV","players":[{"user_id":308,"name":"Mister Frank","steam_id":76561198161473385,"connected_time":2112000000000,"state":"active","ping":64},{"user_id":340,"name":"Zero","steam_id":76561199383267408,"connected_time":202000000000,"state":"active","ping":75},{"user_id":296,"name":"LunarrD","steam_id":76561198811220107,"connected_time":2853000000000,"state":"active","ping":84},{"user_id":326,"name":"♡Alyx♡","steam_id":76561198024303978,"connected_time":1598000000000,"state":"active","ping":62},{"user_id":241,"name":"worker","steam_id":76561198039608940,"connected_time":6751000000000,"state":"active","ping":130},{"user_id":338,"name":"Dan","steam_id":76561198205054883,"connected_time":322000000000,"state":"active","ping":107},{"user_id":341,"name":"tapewyrm","steam_id":76561198072632696,"connected_time":122000000000,"state":"active","ping":74},{"user_id":336,"name":"Yuhh","steam_id":76561199112894955,"connected_time":600000000000,"state":"active","ping":73},{"user_id":316,"name":"Dispenser (Twan)","steam_id":76561197991064908,"connected_time":1837000000000,"state":"active","ping":60},{"user_id":332,"name":"pepsibobby","steam_id":76561198853864511,"connected_time":1229000000000,"state":"active","ping":76},{"user_id":236,"name":"Dokkibai","steam_id":76561198355935693,"connected_time":6921000000000,"state":"active","ping":48},{"user_id":343,"name":"juok4994","steam_id":76561199379228748,"connected_time":94000000000,"state":"active","ping":85},{"user_id":297,"name":"SinkPinkles","steam_id":76561197987805095,"connected_time":2825000000000,"state":"active","ping":91},{"user_id":312,"name":"Jeugh","steam_id":76561198073498865,"connected_time":2034000000000,"state":"active","ping":94},{"user_id":317,"name":"Dapper Bubble","steam_id":76561198094007434,"connected_time":1754000000000,"state":"active","ping":86},{"user_id":330,"name":"Snoball","steam_id":76561198205838372,"connected_time":1314000000000,"state":"active","ping":81},{"user_id":344,"name":"IcemanF12","steam_id":76561198140010054,"connected_time":79000000000,"state":"active","ping":74},{"user_id":337,"name":"hypercam_2","steam_id":76561198970079700,"connected_time":586000000000,"state":"active","ping":78},{"user_id":302,"name":"Lawnmower","steam_id":76561198186680197,"connected_time":2767000000000,"state":"active","ping":102},{"user_id":320,"name":"big fish","steam_id":76561198186479818,"connected_time":1730000000000,"state":"active","ping":113},{"user_id":334,"name":"toho","steam_id":76561198117747254,"connected_time":696000000000,"state":"active","ping":64},{"user_id":323,"name":"Bobby","steam_id":76561198164004939,"connected_time":1681000000000,"state":"active","ping":127},{"user_id":322,"name":"ATL1 | Lylith!!!","steam_id":76561198386687546,"connected_time":1704000000000,"state":"active","ping":62},{"user_id":331,"name":"get shmelled","steam_id":76561198255825452,"connected_time":1285000000000,"state":"active","ping":68}]},{"server_id":106,"name":"Uncletopia | Chicago | 2 | All Maps","name_short":"chi-2","host":"chi-1.us.uncletopia.com","port":27025,"enabled":true,"region":"us-central","cc":"us","latitude":41.881832,"longitude":-87.62318,"reserved":0,"last_update":"0001-01-01T00:00:00Z","name_a2s":"Uncletopia | Chicago | 2 | All Maps","protocol":17,"map":"cp_snakewater_final1","folder":"tf","game":"Team Fortress","app_id":440,"player_count":24,"max_players":24,"Bots":0,"server_type":"Dedicated","server_os":"Linux","password":true,"vac":true,"version":"7757534","steam_id":85568392924469985,"keywords":["cp","nocrits","nodmgspread","uncletopia"],"game_id":440,"stv_port":27026,"stv_name":"Uncletopia | Chicago | 2 | All Maps | STV","players":[{"user_id":247,"name":"mikey | I'm Burning Bright!","steam_id":76561198985847893,"connected_time":983000000000,"state":"active","ping":72},{"user_id":260,"name":"Stormz64","steam_id":76561198239036482,"connected_time":163000000000,"state":"active","ping":61},{"user_id":245,"name":"chinese dark food technology","steam_id":76561198039909187,"connected_time":1397000000000,"state":"active","ping":57},{"user_id":246,"name":"floral green","steam_id":76561198332519926,"connected_time":1004000000000,"state":"active","ping":82},{"user_id":241,"name":"bash -lc ./asshat.sh","steam_id":76561198004584315,"connected_time":1558000000000,"state":"active","ping":72},{"user_id":223,"name":"LemonLimeSoda","steam_id":76561198287682469,"connected_time":2633000000000,"state":"active","ping":65},{"user_id":225,"name":"Kapitan Bomba","steam_id":76561199102087660,"connected_time":2427000000000,"state":"active","ping":70},{"user_id":242,"name":"RipHunter77","steam_id":76561198272973014,"connected_time":1549000000000,"state":"active","ping":95},{"user_id":188,"name":"4 life","steam_id":76561198175961598,"connected_time":5595000000000,"state":"active","ping":119},{"user_id":249,"name":"Air Fryer - $39.99 (4 Payments)","steam_id":76561198043572048,"connected_time":871000000000,"state":"active","ping":69},{"user_id":258,"name":"ice cream enthusiast","steam_id":76561198372994028,"connected_time":444000000000,"state":"active","ping":76},{"user_id":255,"name":"swan","steam_id":76561198012569200,"connected_time":696000000000,"state":"active","ping":72},{"user_id":261,"name":"RaixaR","steam_id":76561198025289430,"connected_time":142000000000,"state":"active","ping":74},{"user_id":250,"name":"Bok Bok","steam_id":76561199473296583,"connected_time":858000000000,"state":"active","ping":73},{"user_id":262,"name":"CPUnit","steam_id":76561198162881878,"connected_time":105000000000,"state":"active","ping":88},{"user_id":244,"name":"Black Mage","steam_id":76561198031667381,"connected_time":1515000000000,"state":"active","ping":66},{"user_id":211,"name":"soup","steam_id":76561198077790130,"connected_time":3636000000000,"state":"active","ping":60},{"user_id":206,"name":"wuddles","steam_id":76561198025782349,"connected_time":3800000000000,"state":"active","ping":104},{"user_id":252,"name":"The Bray","steam_id":76561198330843049,"connected_time":851000000000,"state":"active","ping":97},{"user_id":253,"name":"Lambda Gamer","steam_id":76561198392280580,"connected_time":828000000000,"state":"active","ping":74},{"user_id":254,"name":"Morgster","steam_id":76561198131697761,"connected_time":807000000000,"state":"active","ping":71},{"user_id":232,"name":"StompOnYourFace!!!!","steam_id":76561198065581117,"connected_time":2257000000000,"state":"active","ping":68},{"user_id":234,"name":"the grungler!","steam_id":76561198058485742,"connected_time":2172000000000,"state":"active","ping":53},{"user_id":239,"name":"Terismith","steam_id":76561198196600533,"connected_time":1643000000000,"state":"active","ping":90}]},{"server_id":402,"name":"Uncletopia | Chicago | 3 | All Maps","name_short":"chi-3","host":"chi-1.us.uncletopia.com","port":27035,"enabled":true,"region":"us-central","cc":"us","latitude":41.881832,"longitude":-87.62318,"reserved":0,"last_update":"0001-01-01T00:00:00Z","name_a2s":"Uncletopia | Chicago | 3 | All Maps","protocol":17,"map":"pl_borneo","folder":"tf","game":"Team Fortress","app_id":440,"player_count":24,"max_players":24,"Bots":0,"server_type":"Dedicated","server_os":"Linux","password":true,"vac":true,"version":"7757534","steam_id":85568392924515191,"keywords":["nocrits","nodmgspread","payload","uncletopia"],"game_id":440,"stv_port":27036,"stv_name":"Uncletopia | Chicago | 3 | All Maps | STV","players":[{"user_id":16,"name":"drillerman115","steam_id":76561198362523323,"connected_time":7281000000000,"state":"active","ping":108},{"user_id":111,"name":"Defragmented","steam_id":76561198854210081,"connected_time":2796000000000,"state":"active","ping":70},{"user_id":118,"name":"wretched thing","steam_id":76561198120973162,"connected_time":2183000000000,"state":"active","ping":73},{"user_id":116,"name":"rofflehouse","steam_id":76561198090470768,"connected_time":2216000000000,"state":"active","ping":65},{"user_id":132,"name":"she sucked me in a peculiar way","steam_id":76561198081220016,"connected_time":781000000000,"state":"active","ping":48},{"user_id":24,"name":"watchfull","steam_id":76561198433266742,"connected_time":5666000000000,"state":"active","ping":97},{"user_id":126,"name":"Syringe Trooper","steam_id":76561199114290266,"connected_time":1485000000000,"state":"active","ping":60},{"user_id":117,"name":"GreedyTexan","steam_id":76561198141358806,"connected_time":2211000000000,"state":"active","ping":86},{"user_id":141,"name":"RiverEgg","steam_id":76561198888913405,"connected_time":140000000000,"state":"active","ping":53},{"user_id":140,"name":"the d do be big","steam_id":76561199101981082,"connected_time":170000000000,"state":"active","ping":60},{"user_id":119,"name":"gaysex14","steam_id":76561198096737300,"connected_time":2178000000000,"state":"active","ping":74},{"user_id":138,"name":"Donkski","steam_id":76561198406895347,"connected_time":546000000000,"state":"active","ping":74},{"user_id":139,"name":"Shrymp","steam_id":76561198130165656,"connected_time":172000000000,"state":"active","ping":55},{"user_id":122,"name":"Nickson1","steam_id":76561198175839309,"connected_time":1976000000000,"state":"active","ping":67},{"user_id":142,"name":"shweet","steam_id":76561198240046822,"connected_time":88000000000,"state":"active","ping":65},{"user_id":38,"name":"Brain Rot Zee","steam_id":76561198094070642,"connected_time":4992000000000,"state":"active","ping":99},{"user_id":137,"name":"loudpisser","steam_id":76561198078802110,"connected_time":560000000000,"state":"active","ping":70},{"user_id":131,"name":"Captain tikleBLLZ","steam_id":76561198824521027,"connected_time":800000000000,"state":"active","ping":65},{"user_id":67,"name":"drdoofus123","steam_id":76561198016826181,"connected_time":4668000000000,"state":"active","ping":73},{"user_id":136,"name":"TheSnipersHat","steam_id":76561198057684066,"connected_time":641000000000,"state":"active","ping":55},{"user_id":97,"name":"adrenaline","steam_id":76561198077902438,"connected_time":3529000000000,"state":"active","ping":65},{"user_id":125,"name":"FredTheGreater4","steam_id":76561198046542305,"connected_time":1687000000000,"state":"active","ping":124},{"user_id":121,"name":"knip","steam_id":76561198147061182,"connected_time":1993000000000,"state":"active","ping":75},{"user_id":134,"name":"6t26j","steam_id":76561198278282836,"connected_time":739000000000,"state":"active","ping":59}]},{"server_id":403,"name":"Uncletopia | Chicago | 4 | All Maps","name_short":"chi-4","host":"chi-1.us.uncletopia.com","port":27045,"enabled":true,"region":"us-central","cc":"us","latitude":41.881832,"longitude":-87.62318,"reserved":0,"last_update":"0001-01-01T00:00:00Z","name_a2s":"Uncletopia | Chicago | 4 | All Maps","protocol":17,"map":"koth_cascade","folder":"tf","game":"Team Fortress","app_id":440,"player_count":0,"max_players":24,"Bots":0,"server_type":"Dedicated","server_os":"Linux","password":true,"vac":true,"version":"7757534","steam_id":85568392924515193,"keywords":["cp","nocrits","nodmgspread","uncletopia"],"game_id":440,"stv_port":27046,"stv_name":"Uncletopia | Chicago | 4 | All Maps | STV","players":null},{"server_id":36,"name":"Uncletopia | Chicago | 5 | All Maps","name_short":"chi-5","host":"chi-2.us.uncletopia.com","port":27015,"enabled":true,"region":"us-central","cc":"us","latitude":41.881832,"longitude":-87.62318,"reserved":0,"last_update":"0001-01-01T00:00:00Z","name_a2s":"Uncletopia | Chicago | 5 | All Maps","protocol":17,"map":"koth_suijin","folder":"tf","game":"Team Fortress","app_id":440,"player_count":3,"max_players":24,"Bots":0,"server_type":"Dedicated","server_os":"Linux","password":true,"vac":true,"version":"7757534","steam_id":85568392924866362,"keywords":["cp","nocrits","nodmgspread","uncletopia"],"game_id":440,"stv_port":27016,"stv_name":"Uncletopia | Chicago | 5 | All Maps | STV","players":[{"user_id":37,"name":"PersonWhoJustDiedMaybeIDontKnow","steam_id":76561199109564855,"connected_time":675000000000,"state":"active","ping":91},{"user_id":38,"name":"Eclipse530","steam_id":76561198897055930,"connected_time":559000000000,"state":"active","ping":51},{"user_id":30,"name":"Mr_Blue_Sun","steam_id":76561198803462433,"connected_time":1970000000000,"state":"active","ping":60}]},{"server_id":37,"name":"Uncletopia | Chicago | 6 | All Maps","name_short":"chi-6","host":"chi-2.us.uncletopia.com","port":27025,"enabled":true,"region":"us-central","cc":"us","latitude":41.881832,"longitude":-87.62318,"reserved":0,"last_update":"0001-01-01T00:00:00Z","name_a2s":"Uncletopia | Chicago | 6 | All Maps","protocol":17,"map":"cp_sunshine","folder":"tf","game":"Team Fortress","app_id":440,"player_count":24,"max_players":24,"Bots":0,"server_type":"Dedicated","server_os":"Linux","password":true,"vac":true,"version":"7757534","steam_id":85568392924866363,"keywords":["cp","nocrits","nodmgspread","uncletopia"],"game_id":440,"stv_port":27026,"stv_name":"Uncletopia | Chicago | 6 | All Maps | STV","players":[{"user_id":117,"name":"Recursive Gamer","steam_id":76561198042102952,"connected_time":1120000000000,"state":"active","ping":63},{"user_id":87,"name":"ECCO","steam_id":76561198002821513,"connected_time":3731000000000,"state":"active","ping":59},{"user_id":118,"name":"diesel_carsuite","steam_id":76561198229903328,"connected_time":1070000000000,"state":"active","ping":79},{"user_id":129,"name":"PorSurface","steam_id":76561198999584253,"connected_time":670000000000,"state":"active","ping":47},{"user_id":97,"name":"The_Pacific_gamer","steam_id":76561198089491446,"connected_time":3133000000000,"state":"active","ping":91},{"user_id":130,"name":"maS","steam_id":76561198033846407,"connected_time":650000000000,"state":"active","ping":64},{"user_id":71,"name":"bojack from the show bojack hor","steam_id":76561198053006712,"connected_time":4310000000000,"state":"active","ping":60},{"user_id":137,"name":"Jill the Owl","steam_id":76561197999210583,"connected_time":177000000000,"state":"active","ping":74},{"user_id":121,"name":"RedSock","steam_id":76561198161243404,"connected_time":1014000000000,"state":"active","ping":45},{"user_id":122,"name":"fice","steam_id":76561198860361610,"connected_time":984000000000,"state":"active","ping":73},{"user_id":123,"name":"Dookie","steam_id":76561198354025894,"connected_time":926000000000,"state":"active","ping":70},{"user_id":124,"name":"Chrys","steam_id":76561198371208774,"connected_time":921000000000,"state":"active","ping":74},{"user_id":114,"name":"Billybob7712","steam_id":76561199000291076,"connected_time":1801000000000,"state":"active","ping":108},{"user_id":125,"name":"John Creasman","steam_id":76561199107330009,"connected_time":835000000000,"state":"active","ping":156},{"user_id":126,"name":"Venclaire","steam_id":76561198053837612,"connected_time":787000000000,"state":"active","ping":61},{"user_id":127,"name":"GooniOoni","steam_id":76561198102154561,"connected_time":735000000000,"state":"active","ping":45},{"user_id":113,"name":"Steen","steam_id":76561198122992510,"connected_time":1814000000000,"state":"active","ping":157},{"user_id":128,"name":"Huggle","steam_id":76561198141491662,"connected_time":702000000000,"state":"active","ping":77},{"user_id":132,"name":"MetalTao","steam_id":76561198189408110,"connected_time":630000000000,"state":"active","ping":89},{"user_id":133,"name":"blossom❦","steam_id":76561198042735130,"connected_time":629000000000,"state":"active","ping":109},{"user_id":107,"name":"Boom Spy \u003c3","steam_id":76561198126796502,"connected_time":2828000000000,"state":"active","ping":82},{"user_id":138,"name":"420 Shrek It","steam_id":76561198399854981,"connected_time":16000000000,"state":"active","ping":113},{"user_id":108,"name":"MrVegasAguitar","steam_id":76561198084466946,"connected_time":2637000000000,"state":"active","ping":91},{"user_id":136,"name":"baguette","steam_id":76561198066048980,"connected_time":409000000000,"state":"active","ping":45}]},{"server_id":38,"name":"Uncletopia | Chicago | 7 | Stopwatch Beta","name_short":"chi-7","host":"chi-2.us.uncletopia.com","port":27035,"enabled":true,"region":"us-central","cc":"us","latitude":41.881832,"longitude":-87.62318,"reserved":0,"last_update":"0001-01-01T00:00:00Z","name_a2s":"Uncletopia | Chicago | 7 | Stopwatch Beta","protocol":17,"map":"cp_metalworks","folder":"tf","game":"Team Fortress","app_id":440,"player_count":3,"max_players":24,"Bots":0,"server_type":"Dedicated","server_os":"Linux","password":true,"vac":true,"version":"7757534","steam_id":85568392924866364,"keywords":["cp","nocrits","nodmgspread","uncletopia"],"game_id":440,"stv_port":27036,"stv_name":"Uncletopia | Chicago | 7 | Stopwatch Beta | STV","players":[{"user_id":4,"name":"Lakhesis","steam_id":76561197969796919,"connected_time":2453000000000,"state":"active","ping":58},{"user_id":5,"name":"FartExploder01","steam_id":76561199124760806,"connected_time":2437000000000,"state":"active","ping":59},{"user_id":7,"name":"All Class Gaming","steam_id":76561198806729611,"connected_time":133000000000,"state":"active","ping":90}]},{"server_id":39,"name":"Uncletopia | Chicago | 8 | Community","name_short":"chi-8","host":"chi-2.us.uncletopia.com","port":27045,"enabled":true,"region":"us-central","cc":"us","latitude":41.881832,"longitude":-87.62318,"reserved":0,"last_update":"0001-01-01T00:00:00Z","name_a2s":"Uncletopia | Chicago | 8 | Community","protocol":17,"map":"koth_lakeside_final","folder":"tf","game":"Team Fortress","app_id":440,"player_count":0,"max_players":24,"Bots":0,"server_type":"Dedicated","server_os":"Linux","password":true,"vac":true,"version":"7757534","steam_id":85568392924866365,"keywords":["cp","nocrits","nodmgspread","uncletopia"],"game_id":440,"stv_port":27046,"stv_name":"Uncletopia | Chicago | 8 | Community | STV","players":null},{"server_id":8,"name":"Uncletopia | Dallas | 1 | All Maps","name_short":"dal-1","host":"dal-1.us.uncletopia.com","port":27015,"enabled":true,"region":"us-central","cc":"us","latitude":32.779167,"longitude":-96.80889,"reserved":0,"last_update":"0001-01-01T00:00:00Z","name_a2s":"Uncletopia | Dallas | 1 | All Maps","protocol":17,"map":"pl_badwater","folder":"tf","game":"Team Fortress","app_id":440,"player_count":24,"max_players":24,"Bots":0,"server_type":"Dedicated","server_os":"Linux","password":true,"vac":true,"version":"7757534","steam_id":85568392924469986,"keywords":["nocrits","nodmgspread","payload","uncletopia"],"game_id":440,"stv_port":27016,"stv_name":"Uncletopia | Dallas | 1 | All Maps | STV","players":[{"user_id":361,"name":"The Ultimate Coomer","steam_id":76561199128833757,"connected_time":2970000000000,"state":"active","ping":49},{"user_id":395,"name":"Nolan (Femboy)","steam_id":76561198082534795,"connected_time":122000000000,"state":"active","ping":83},{"user_id":371,"name":"Legit_Jaxer","steam_id":76561198172234053,"connected_time":1859000000000,"state":"active","ping":106},{"user_id":383,"name":"Cofi","steam_id":76561199026721822,"connected_time":674000000000,"state":"active","ping":86},{"user_id":375,"name":"Red Dragoon","steam_id":76561198976237598,"connected_time":1217000000000,"state":"active","ping":59},{"user_id":387,"name":"k1tty","steam_id":76561198869348268,"connected_time":557000000000,"state":"active","ping":73},{"user_id":390,"name":"I.C.","steam_id":76561198049256017,"connected_time":436000000000,"state":"active","ping":46},{"user_id":372,"name":"grunch","steam_id":76561198354292689,"connected_time":1766000000000,"state":"active","ping":53},{"user_id":336,"name":"Huge eevee fan","steam_id":76561198128057732,"connected_time":4103000000000,"state":"active","ping":84},{"user_id":360,"name":"Huell Howser","steam_id":76561198006387337,"connected_time":3032000000000,"state":"active","ping":78},{"user_id":396,"name":"nay ners","steam_id":76561199238480644,"connected_time":109000000000,"state":"active","ping":90},{"user_id":389,"name":"Pope","steam_id":76561198053768137,"connected_time":477000000000,"state":"active","ping":51},{"user_id":385,"name":"Flat Eric","steam_id":76561198114922735,"connected_time":630000000000,"state":"active","ping":93},{"user_id":397,"name":"Florist","steam_id":76561198009121060,"connected_time":89000000000,"state":"active","ping":102},{"user_id":388,"name":"Fatcat.win(false) ;","steam_id":76561198069007806,"connected_time":489000000000,"state":"active","ping":46},{"user_id":378,"name":"CFG Ponder","steam_id":76561198127039453,"connected_time":876000000000,"state":"active","ping":72},{"user_id":398,"name":"§loth","steam_id":76561197998378462,"connected_time":87000000000,"state":"active","ping":104},{"user_id":394,"name":"CGamer6155","steam_id":76561199440141596,"connected_time":245000000000,"state":"active","ping":88},{"user_id":379,"name":"GLG.Liz","steam_id":76561198021957956,"connected_time":874000000000,"state":"active","ping":46},{"user_id":400,"name":"Vensita","steam_id":76561198372434928,"connected_time":47000000000,"state":"active","ping":55},{"user_id":352,"name":"A Gamer [F2P]","steam_id":76561198138712892,"connected_time":3436000000000,"state":"active","ping":44},{"user_id":370,"name":"Gottaphdindat","steam_id":76561198057353767,"connected_time":2208000000000,"state":"active","ping":86},{"user_id":176,"name":"BamboozleMcdoozle","steam_id":76561198166510167,"connected_time":17296000000000,"state":"active","ping":88},{"user_id":399,"name":"catharticgemini","steam_id":76561198125334041,"connected_time":82000000000,"state":"active","ping":57}]},{"server_id":108,"name":"Uncletopia | Dallas | 2 | All Maps","name_short":"dal-2","host":"dal-1.us.uncletopia.com","port":27025,"enabled":true,"region":"us-central","cc":"us","latitude":32.779167,"longitude":-96.80889,"reserved":0,"last_update":"0001-01-01T00:00:00Z","name_a2s":"Uncletopia | Dallas | 2 | All Maps","protocol":17,"map":"koth_cascade","folder":"tf","game":"Team Fortress","app_id":440,"player_count":0,"max_players":24,"Bots":0,"server_type":"Dedicated","server_os":"Linux","password":true,"vac":true,"version":"7757534","steam_id":85568392924469988,"keywords":["cp","nocrits","nodmgspread","uncletopia"],"game_id":440,"stv_port":27026,"stv_name":"Uncletopia | Dallas | 2 | All Maps | STV","players":null},{"server_id":5,"name":"Uncletopia | Frankfurt | 1 | All Maps","name_short":"frk-1","host":"frk-1.de.uncletopia.com","port":27015,"enabled":true,"region":"eu","cc":"de","latitude":50.110924,"longitude":8.682127,"reserved":0,"last_update":"0001-01-01T00:00:00Z","name_a2s":"Uncletopia | Frankfurt | 1 | All Maps","protocol":17,"map":"cp_sunshine","folder":"tf","game":"Team Fortress","app_id":440,"player_count":0,"max_players":24,"Bots":0,"server_type":"Dedicated","server_os":"Linux","password":true,"vac":true,"version":"7757534","steam_id":85568392924469989,"keywords":["cp","nocrits","nodmgspread","uncletopia"],"game_id":440,"stv_port":27016,"stv_name":"Uncletopia | Frankfurt | 1 | All Maps | STV","players":null},{"server_id":110,"name":"Uncletopia | Frankfurt | 2 | All Maps","name_short":"frk-2","host":"frk-1.de.uncletopia.com","port":27025,"enabled":true,"region":"eu","cc":"de","latitude":50.110924,"longitude":8.682127,"reserved":0,"last_update":"0001-01-01T00:00:00Z","name_a2s":"Uncletopia | Frankfurt | 2 | All Maps","protocol":17,"map":"cp_dustbowl","folder":"tf","game":"Team Fortress","app_id":440,"player_count":0,"max_players":24,"Bots":0,"server_type":"Dedicated","server_os":"Linux","password":true,"vac":true,"version":"7757534","steam_id":85568392924469990,"keywords":["cp","nocrits","nodmgspread","uncletopia"],"game_id":440,"stv_port":27026,"stv_name":"Uncletopia | Frankfurt | 2 | All Maps | STV","players":null},{"server_id":308,"name":"Uncletopia | Frankfurt | 3 | All Maps","name_short":"frk-3","host":"frk-1.de.uncletopia.com","port":27035,"enabled":true,"region":"eu","cc":"de","latitude":50.110924,"longitude":8.682127,"reserved":0,"last_update":"0001-01-01T00:00:00Z","name_a2s":"Uncletopia | Frankfurt | 3 | All Maps","protocol":17,"map":"pl_frontier_final","folder":"tf","game":"Team Fortress","app_id":440,"player_count":24,"max_players":24,"Bots":0,"server_type":"Dedicated","server_os":"Linux","password":true,"vac":true,"version":"7757534","steam_id":85568392924504274,"keywords":["nocrits","nodmgspread","payload","uncletopia"],"game_id":440,"stv_port":27036,"stv_name":"Uncletopia | Frankfurt | 3 | All Maps | STV","players":[{"user_id":478,"name":"Psychicpie","steam_id":76561198126065206,"connected_time":2775000000000,"state":"active","ping":54},{"user_id":509,"name":"randompixel","steam_id":76561198003941207,"connected_time":1629000000000,"state":"active","ping":68},{"user_id":513,"name":"godmodule","steam_id":76561198165995444,"connected_time":1306000000000,"state":"active","ping":69},{"user_id":531,"name":"tfbeast","steam_id":76561198245940512,"connected_time":624000000000,"state":"active","ping":161},{"user_id":532,"name":"Haku*","steam_id":76561198013292193,"connected_time":557000000000,"state":"active","ping":62},{"user_id":487,"name":"PootisCoin Investor","steam_id":76561197970114051,"connected_time":2458000000000,"state":"active","ping":54},{"user_id":488,"name":"Charon","steam_id":76561198061714753,"connected_time":2456000000000,"state":"active","ping":89},{"user_id":533,"name":"Russenluster","steam_id":76561198118016220,"connected_time":532000000000,"state":"active","ping":53},{"user_id":536,"name":"Private_tm","steam_id":76561198056281480,"connected_time":317000000000,"state":"active","ping":61},{"user_id":519,"name":"nedilya","steam_id":76561198039692077,"connected_time":1134000000000,"state":"active","ping":58},{"user_id":517,"name":"Frank","steam_id":76561198086672774,"connected_time":1163000000000,"state":"active","ping":63},{"user_id":493,"name":"Femboy with the wrong pronouns","steam_id":76561198072320671,"connected_time":2429000000000,"state":"active","ping":47},{"user_id":535,"name":"poopshitter33","steam_id":76561199135483712,"connected_time":501000000000,"state":"active","ping":187},{"user_id":518,"name":"ночь на ладоне","steam_id":76561197994492154,"connected_time":1156000000000,"state":"active","ping":72},{"user_id":499,"name":"Phalcon","steam_id":76561197987051394,"connected_time":2237000000000,"state":"active","ping":74},{"user_id":500,"name":"DarthMurloc_OW","steam_id":76561198075577711,"connected_time":2237000000000,"state":"active","ping":73},{"user_id":525,"name":"Joint the Ripper","steam_id":76561198126762760,"connected_time":913000000000,"state":"active","ping":56},{"user_id":506,"name":"Turner","steam_id":76561198394155315,"connected_time":1960000000000,"state":"active","ping":51},{"user_id":508,"name":"pablo","steam_id":76561198002913482,"connected_time":1943000000000,"state":"active","ping":96},{"user_id":521,"name":"Беляш-eбляш","steam_id":76561198122946306,"connected_time":1050000000000,"state":"active","ping":78},{"user_id":528,"name":"tm`","steam_id":76561197993580412,"connected_time":832000000000,"state":"active","ping":54},{"user_id":527,"name":"Pico","steam_id":76561198063552545,"connected_time":875000000000,"state":"active","ping":101},{"user_id":526,"name":"oldy","steam_id":76561198031899043,"connected_time":904000000000,"state":"active","ping":91},{"user_id":530,"name":"fish","steam_id":76561198205475839,"connected_time":702000000000,"state":"active","ping":106}]},{"server_id":309,"name":"Uncletopia | Frankfurt | 4 | All Maps","name_short":"frk-4","host":"frk-1.de.uncletopia.com","port":27045,"enabled":true,"region":"eu","cc":"de","latitude":50.110924,"longitude":8.682127,"reserved":0,"last_update":"0001-01-01T00:00:00Z","name_a2s":"Uncletopia | Frankfurt | 4 | All Maps","protocol":17,"map":"koth_highpass","folder":"tf","game":"Team Fortress","app_id":440,"player_count":0,"max_players":24,"Bots":0,"server_type":"Dedicated","server_os":"Linux","password":true,"vac":true,"version":"7757534","steam_id":85568392924504275,"keywords":["cp","nocrits","nodmgspread","uncletopia"],"game_id":440,"stv_port":27046,"stv_name":"Uncletopia | Frankfurt | 4 | All Maps | STV","players":null},{"server_id":310,"name":"Uncletopia | Frankfurt | 5 | All Maps","name_short":"frk-5","host":"frk-1.de.uncletopia.com","port":27055,"enabled":true,"region":"eu","cc":"de","latitude":50.110924,"longitude":8.682127,"reserved":0,"last_update":"0001-01-01T00:00:00Z","name_a2s":"Uncletopia | Frankfurt | 5 | All Maps","protocol":17,"map":"ctf_2fort","folder":"tf","game":"Team Fortress","app_id":440,"player_count":9,"max_players":24,"Bots":0,"server_type":"Dedicated","server_os":"Linux","password":true,"vac":true,"version":"7757534","steam_id":85568392924504277,"keywords":["ctf","nocrits","nodmgspread","uncletopia"],"game_id":440,"stv_port":27056,"stv_name":"Uncletopia | Frankfurt | 5 | All Maps | STV","players":[{"user_id":456,"name":"Bobo","steam_id":76561198052308399,"connected_time":2397000000000,"state":"active","ping":56},{"user_id":487,"name":"cloudnine","steam_id":76561198436092200,"connected_time":143000000000,"state":"active","ping":100},{"user_id":488,"name":"die","steam_id":76561198283638355,"connected_time":118000000000,"state":"active","ping":69},{"user_id":489,"name":"fish","steam_id":76561198400938559,"connected_time":17000000000,"state":"active","ping":148},{"user_id":472,"name":"♥ TRANS RIGHTS ♥","steam_id":76561198066258544,"connected_time":1684000000000,"state":"active","ping":45},{"user_id":475,"name":"Bootleg Hawkeye","steam_id":76561198410598772,"connected_time":1493000000000,"state":"active","ping":62},{"user_id":434,"name":"Ged","steam_id":76561198079288943,"connected_time":3972000000000,"state":"active","ping":99},{"user_id":461,"name":"Bonca","steam_id":76561198137503531,"connected_time":1974000000000,"state":"active","ping":73},{"user_id":480,"name":"Great recession of 2008","steam_id":76561198881151562,"connected_time":1291000000000,"state":"active","ping":88}]},{"server_id":311,"name":"Uncletopia | Frankfurt | 6 | All Maps","name_short":"frk-6","host":"frk-1.de.uncletopia.com","port":27065,"enabled":true,"region":"eu","cc":"de","latitude":50.110924,"longitude":8.682127,"reserved":0,"last_update":"0001-01-01T00:00:00Z","name_a2s":"Uncletopia | Frankfurt | 6 | All Maps","protocol":17,"map":"pl_upward","folder":"tf","game":"Team Fortress","app_id":440,"player_count":24,"max_players":24,"Bots":0,"server_type":"Dedicated","server_os":"Linux","password":true,"vac":true,"version":"7757534","steam_id":85568392924504278,"keywords":["nocrits","nodmgspread","payload","uncletopia"],"game_id":440,"stv_port":27066,"stv_name":"Uncletopia | Frankfurt | 6 | All Maps | STV","players":[{"user_id":488,"name":"orneps489","steam_id":76561199124755916,"connected_time":896000000000,"state":"active","ping":148},{"user_id":466,"name":"Mr Manager","steam_id":76561198021775885,"connected_time":2540000000000,"state":"active","ping":49},{"user_id":493,"name":"cockwater","steam_id":76561198209101861,"connected_time":516000000000,"state":"active","ping":70},{"user_id":439,"name":"Yangus","steam_id":76561198147796010,"connected_time":5661000000000,"state":"active","ping":57},{"user_id":492,"name":"Videogamer","steam_id":76561198106012909,"connected_time":554000000000,"state":"active","ping":67},{"user_id":487,"name":"fénix","steam_id":76561198083199151,"connected_time":989000000000,"state":"active","ping":64},{"user_id":491,"name":"Athomix","steam_id":76561198170108402,"connected_time":605000000000,"state":"active","ping":47},{"user_id":500,"name":"P Diddy","steam_id":76561198829344838,"connected_time":251000000000,"state":"active","ping":64},{"user_id":479,"name":"Topme","steam_id":76561198091734693,"connected_time":1802000000000,"state":"active","ping":76},{"user_id":495,"name":"Sparky","steam_id":76561198036754195,"connected_time":359000000000,"state":"active","ping":43},{"user_id":460,"name":"Duetts","steam_id":76561198450246954,"connected_time":3485000000000,"state":"active","ping":56},{"user_id":481,"name":"tralalaOuiOui","steam_id":76561197963471507,"connected_time":1743000000000,"state":"active","ping":59},{"user_id":470,"name":"Regan","steam_id":76561198100631086,"connected_time":2478000000000,"state":"active","ping":67},{"user_id":476,"name":"Vershal Smershal","steam_id":76561198116223995,"connected_time":2176000000000,"state":"active","ping":61},{"user_id":472,"name":"Zogg","steam_id":76561198352683491,"connected_time":2472000000000,"state":"active","ping":46},{"user_id":496,"name":"tobs","steam_id":76561197987616937,"connected_time":344000000000,"state":"active","ping":61},{"user_id":420,"name":"Pilaarius","steam_id":76561198120273212,"connected_time":6618000000000,"state":"active","ping":113},{"user_id":473,"name":"JeanCorben","steam_id":76561197965133561,"connected_time":2455000000000,"state":"active","ping":45},{"user_id":505,"name":"Ready Rice™","steam_id":76561198091969871,"connected_time":158000000000,"state":"active","ping":96},{"user_id":498,"name":"true","steam_id":76561198031145243,"connected_time":302000000000,"state":"active","ping":76},{"user_id":499,"name":"Tonne","steam_id":76561197970856766,"connected_time":293000000000,"state":"active","ping":63},{"user_id":506,"name":"BeefHammer","steam_id":76561198078426223,"connected_time":151000000000,"state":"active","ping":98},{"user_id":504,"name":"THVG","steam_id":76561199156685368,"connected_time":207000000000,"state":"active","ping":62},{"user_id":503,"name":"oscail","steam_id":76561198180640198,"connected_time":223000000000,"state":"active","ping":87}]},{"server_id":23,"name":"Uncletopia | Frankfurt | 7 | Stopwatch Beta","name_short":"frk-7","host":"frk-1.de.uncletopia.com","port":27075,"enabled":true,"region":"eu","cc":"de","latitude":50.110924,"longitude":8.682127,"reserved":0,"last_update":"0001-01-01T00:00:00Z","name_a2s":"Uncletopia | Frankfurt | 7 | Stopwatch Beta","protocol":17,"map":"pl_borneo","folder":"tf","game":"Team Fortress","app_id":440,"player_count":0,"max_players":24,"Bots":0,"server_type":"Dedicated","server_os":"Linux","password":true,"vac":true,"version":"7757534","steam_id":85568392924742827,"keywords":["nocrits","nodmgspread","payload","uncletopia"],"game_id":440,"stv_port":27076,"stv_name":"Uncletopia | Frankfurt | 7 | Stopwatch Beta | STV","players":null},{"server_id":24,"name":"Uncletopia | Frankfurt | 8 | Community","name_short":"frk-8","host":"frk-1.de.uncletopia.com","port":27085,"enabled":true,"region":"eu","cc":"de","latitude":50.110924,"longitude":8.682127,"reserved":0,"last_update":"0001-01-01T00:00:00Z","name_a2s":"Uncletopia | Frankfurt | 8 | Community","protocol":17,"map":"workshop/koth_synthetic_rc6a.ugc1549817316","folder":"tf","game":"Team Fortress","app_id":440,"player_count":0,"max_players":24,"Bots":0,"server_type":"Dedicated","server_os":"Linux","password":true,"vac":true,"version":"7757534","steam_id":85568392924742828,"keywords":["cp","nocrits","nodmgspread","uncletopia"],"game_id":440,"stv_port":27086,"stv_name":"Uncletopia | Frankfurt | 8 | Community | STV","players":null},{"server_id":202,"name":"Uncletopia | Hong Kong | 1 | All Maps","name_short":"hgk-1","host":"hgk-1.hk.uncletopia.com","port":27015,"enabled":true,"region":"asia","cc":"hk","latitude":22.302711,"longitude":114.177216,"reserved":0,"last_update":"0001-01-01T00:00:00Z","name_a2s":"Uncletopia | Hong Kong | 1 | All Maps","protocol":17,"map":"cp_altitude","folder":"tf","game":"Team Fortress","app_id":440,"player_count":0,"max_players":24,"Bots":0,"server_type":"Dedicated","server_os":"Linux","password":true,"vac":true,"version":"7757534","steam_id":85568392924494504,"keywords":["cp","nocrits","nodmgspread","uncletopia"],"game_id":440,"stv_port":27016,"stv_name":"Uncletopia | Hong Kong | 1 | All Maps | STV","players":null},{"server_id":1,"name":"Uncletopia | Los Angeles | 1 | All Maps","name_short":"lax-1","host":"lax-1.us.uncletopia.com","port":27015,"enabled":true,"region":"us-west","cc":"us","latitude":33.94279,"longitude":-118.41004,"reserved":0,"last_update":"0001-01-01T00:00:00Z","name_a2s":"Uncletopia | Los Angeles | 1 | All Maps","protocol":17,"map":"cp_snakewater_final1","folder":"tf","game":"Team Fortress","app_id":440,"player_count":0,"max_players":24,"Bots":0,"server_type":"Dedicated","server_os":"Linux","password":true,"vac":true,"version":"7757534","steam_id":85568392924469991,"keywords":["cp","nocrits","nodmgspread","uncletopia"],"game_id":440,"stv_port":27016,"stv_name":"Uncletopia | Los Angeles | 1 | All Maps | STV","players":null},{"server_id":112,"name":"Uncletopia | Los Angeles | 2 | All Maps","name_short":"lax-2","host":"lax-1.us.uncletopia.com","port":27025,"enabled":true,"region":"us-west","cc":"us","latitude":33.94279,"longitude":-118.41004,"reserved":0,"last_update":"0001-01-01T00:00:00Z","name_a2s":"Uncletopia | Los Angeles | 2 | All Maps","protocol":17,"map":"koth_viaduct","folder":"tf","game":"Team Fortress","app_id":440,"player_count":0,"max_players":24,"Bots":0,"server_type":"Dedicated","server_os":"Linux","password":true,"vac":true,"version":"7757534","steam_id":85568392924469992,"keywords":["cp","nocrits","nodmgspread","uncletopia"],"game_id":440,"stv_port":27026,"stv_name":"Uncletopia | Los Angeles | 2 | All Maps | STV","players":null},{"server_id":324,"name":"Uncletopia | Los Angeles | 3 | All Maps","name_short":"lax-3","host":"lax-1.us.uncletopia.com","port":27035,"enabled":true,"region":"us-west","cc":"us","latitude":33.94279,"longitude":-118.41004,"reserved":0,"last_update":"0001-01-01T00:00:00Z","name_a2s":"Uncletopia | Los Angeles | 3 | All Maps","protocol":17,"map":"cp_altitude","folder":"tf","game":"Team Fortress","app_id":440,"player_count":0,"max_players":24,"Bots":0,"server_type":"Dedicated","server_os":"Linux","password":true,"vac":true,"version":"7757534","steam_id":85568392924510198,"keywords":["cp","nocrits","nodmgspread","uncletopia"],"game_id":440,"stv_port":27036,"stv_name":"Uncletopia | Los Angeles | 3 | All Maps | STV","players":null},{"server_id":25,"name":"Uncletopia | Los Angeles | 4 | Stopwatch Beta","name_short":"lax-4","host":"lax-1.us.uncletopia.com","port":27045,"enabled":true,"region":"us-west","cc":"us","latitude":33.94279,"longitude":-118.41004,"reserved":0,"last_update":"0001-01-01T00:00:00Z","name_a2s":"Uncletopia | Los Angeles | 4 | Stopwatch Beta","protocol":17,"map":"cp_dustbowl","folder":"tf","game":"Team Fortress","app_id":440,"player_count":0,"max_players":24,"Bots":0,"server_type":"Dedicated","server_os":"Linux","password":true,"vac":true,"version":"7757534","steam_id":85568392924510199,"keywords":["cp","nocrits","nodmgspread","uncletopia"],"game_id":440,"stv_port":27046,"stv_name":"Uncletopia | Los Angeles | 4 | Stopwatch Beta | STV","players":null},{"server_id":11,"name":"Uncletopia | London | 1 | All Maps","name_short":"lon-1","host":"lon-1.uk.uncletopia.com","port":27015,"enabled":true,"region":"eu","cc":"gb","latitude":51.509865,"longitude":-0.118092,"reserved":0,"last_update":"0001-01-01T00:00:00Z","name_a2s":"Uncletopia | London | 1 | All Maps","protocol":17,"map":"pl_frontier_final","folder":"tf","game":"Team Fortress","app_id":440,"player_count":24,"max_players":24,"Bots":0,"server_type":"Dedicated","server_os":"Linux","password":true,"vac":true,"version":"7757534","steam_id":85568392924367362,"keywords":["nocrits","nodmgspread","payload","uncletopia"],"game_id":440,"stv_port":27016,"stv_name":"Uncletopia | London | 1 | All Maps | STV","players":[{"user_id":676,"name":"✪ J","steam_id":76561198094911581,"connected_time":4377000000000,"state":"active","ping":47},{"user_id":733,"name":"Hlib","steam_id":76561199183397939,"connected_time":235000000000,"state":"active","ping":79},{"user_id":681,"name":"Thalgorock","steam_id":76561198195315022,"connected_time":3991000000000,"state":"active","ping":70},{"user_id":728,"name":"kry4e_Цrуа i БОГА","steam_id":76561199277727142,"connected_time":536000000000,"state":"active","ping":109},{"user_id":694,"name":"aslloc((sizeof(U64) \u003c\u003c 0xff));","steam_id":76561198365870439,"connected_time":3052000000000,"state":"active","ping":97},{"user_id":704,"name":"Aaron","steam_id":76561197990046953,"connected_time":2391000000000,"state":"active","ping":69},{"user_id":696,"name":"✪ Danny","steam_id":76561198104483241,"connected_time":2811000000000,"state":"active","ping":51},{"user_id":683,"name":"Hotgamerdad","steam_id":76561198085940613,"connected_time":3920000000000,"state":"active","ping":62},{"user_id":727,"name":"Gnarville","steam_id":76561198006373329,"connected_time":819000000000,"state":"active","ping":47},{"user_id":732,"name":"TheEventGuy","steam_id":76561197972797744,"connected_time":317000000000,"state":"active","ping":71},{"user_id":714,"name":"skai","steam_id":76561198184881255,"connected_time":1194000000000,"state":"active","ping":67},{"user_id":711,"name":"bullbdoog","steam_id":76561198332951792,"connected_time":1251000000000,"state":"active","ping":71},{"user_id":705,"name":"Uncle Owen","steam_id":76561198157999291,"connected_time":2147000000000,"state":"active","ping":88},{"user_id":735,"name":"JOHN GAMING (based)","steam_id":76561199085822219,"connected_time":151000000000,"state":"active","ping":88},{"user_id":715,"name":"Marquis de Hoto","steam_id":76561198080687708,"connected_time":1185000000000,"state":"active","ping":75},{"user_id":717,"name":"Sin-T Gaming","steam_id":76561199105173837,"connected_time":1152000000000,"state":"active","ping":81},{"user_id":730,"name":"Bo","steam_id":76561198023975550,"connected_time":457000000000,"state":"active","ping":49},{"user_id":677,"name":"sora","steam_id":76561198096547662,"connected_time":4375000000000,"state":"active","ping":284},{"user_id":721,"name":"Roger Slippers","steam_id":76561198188642265,"connected_time":1081000000000,"state":"active","ping":67},{"user_id":720,"name":"rummy","steam_id":76561197997573379,"connected_time":1129000000000,"state":"active","ping":45},{"user_id":724,"name":"U1F","steam_id":76561198053700703,"connected_time":1028000000000,"state":"active","ping":63},{"user_id":734,"name":".erik (real)","steam_id":76561197962112424,"connected_time":163000000000,"state":"active","ping":73},{"user_id":726,"name":"Anjero","steam_id":76561199013508066,"connected_time":995000000000,"state":"active","ping":115},{"user_id":688,"name":"The Bean Man","steam_id":76561198046932811,"connected_time":3814000000000,"state":"active","ping":66}]},{"server_id":114,"name":"Uncletopia | London | 2 | All Maps","name_short":"lon-2","host":"lon-1.uk.uncletopia.com","port":27025,"enabled":true,"region":"eu","cc":"gb","latitude":51.509865,"longitude":-0.118092,"reserved":0,"last_update":"0001-01-01T00:00:00Z","name_a2s":"Uncletopia | London | 2 | All Maps","protocol":17,"map":"koth_lakeside_final","folder":"tf","game":"Team Fortress","app_id":440,"player_count":0,"max_players":24,"Bots":0,"server_type":"Dedicated","server_os":"Linux","password":true,"vac":true,"version":"7757534","steam_id":85568392924470941,"keywords":["cp","nocrits","nodmgspread","uncletopia"],"game_id":440,"stv_port":27026,"stv_name":"Uncletopia | London | 2 | All Maps | STV","players":null},{"server_id":320,"name":"Uncletopia | London | 3 | All Maps","name_short":"lon-3","host":"lon-1.uk.uncletopia.com","port":27035,"enabled":true,"region":"eu","cc":"gb","latitude":51.509865,"longitude":-0.118092,"reserved":0,"last_update":"0001-01-01T00:00:00Z","name_a2s":"Uncletopia | London | 3 | All Maps","protocol":17,"map":"cp_steel","folder":"tf","game":"Team Fortress","app_id":440,"player_count":24,"max_players":24,"Bots":0,"server_type":"Dedicated","server_os":"Linux","password":true,"vac":true,"version":"7757534","steam_id":85568392924510192,"keywords":["cp","nocrits","nodmgspread","uncletopia"],"game_id":440,"stv_port":27036,"stv_name":"Uncletopia | London | 3 | All Maps | STV","players":[{"user_id":454,"name":"regimiro","steam_id":76561198120457008,"connected_time":912000000000,"state":"active","ping":45},{"user_id":451,"name":"Shyrem","steam_id":76561198409094815,"connected_time":1243000000000,"state":"active","ping":57},{"user_id":422,"name":"John Noob","steam_id":76561197999170026,"connected_time":4105000000000,"state":"active","ping":98},{"user_id":391,"name":"SuperBob103","steam_id":76561199175360012,"connected_time":6051000000000,"state":"active","ping":49},{"user_id":439,"name":"meriones","steam_id":76561198034234373,"connected_time":2511000000000,"state":"active","ping":41},{"user_id":441,"name":"Julez #pizdaaim","steam_id":76561198045505082,"connected_time":2202000000000,"state":"active","ping":75},{"user_id":452,"name":"Cheshireycat","steam_id":76561198067204908,"connected_time":1223000000000,"state":"active","ping":60},{"user_id":423,"name":"BlueBlueFox","steam_id":76561198053817230,"connected_time":3890000000000,"state":"active","ping":89},{"user_id":440,"name":"Efeca","steam_id":76561198018923829,"connected_time":2472000000000,"state":"active","ping":74},{"user_id":433,"name":"Vitun vittu","steam_id":76561198110679463,"connected_time":2968000000000,"state":"active","ping":64},{"user_id":434,"name":"Mark 'The Beast' Labbett","steam_id":76561198118892116,"connected_time":2891000000000,"state":"active","ping":48},{"user_id":416,"name":"Space Rimmer","steam_id":76561198069243201,"connected_time":4235000000000,"state":"active","ping":47},{"user_id":458,"name":"frosty","steam_id":76561198094560834,"connected_time":341000000000,"state":"active","ping":45},{"user_id":352,"name":"R","steam_id":76561199379233899,"connected_time":7473000000000,"state":"active","ping":97},{"user_id":443,"name":"Purps","steam_id":76561198053886680,"connected_time":1676000000000,"state":"active","ping":36},{"user_id":453,"name":"Meddler","steam_id":76561198033001402,"connected_time":1215000000000,"state":"active","ping":43},{"user_id":459,"name":"cinny","steam_id":76561198832112629,"connected_time":127000000000,"state":"active","ping":87},{"user_id":387,"name":"torn","steam_id":76561198223003236,"connected_time":6148000000000,"state":"active","ping":40},{"user_id":431,"name":"Cpt. Flashbang","steam_id":76561198034617743,"connected_time":3156000000000,"state":"active","ping":64},{"user_id":449,"name":"KittyKate ❤","steam_id":76561198116340817,"connected_time":1528000000000,"state":"active","ping":69},{"user_id":450,"name":"BuzzBees ❤","steam_id":76561198101502273,"connected_time":1490000000000,"state":"active","ping":45},{"user_id":429,"name":"Lilliputt","steam_id":76561198090146457,"connected_time":3580000000000,"state":"active","ping":45},{"user_id":456,"name":"Professor Page","steam_id":76561198011949134,"connected_time":528000000000,"state":"active","ping":45},{"user_id":385,"name":"waffle toaster","steam_id":76561198799089628,"connected_time":6185000000000,"state":"active","ping":43}]},{"server_id":321,"name":"Uncletopia | London | 4 | All Maps","name_short":"lon-4","host":"lon-1.uk.uncletopia.com","port":27045,"enabled":true,"region":"eu","cc":"gb","latitude":51.509865,"longitude":-0.118092,"reserved":0,"last_update":"0001-01-01T00:00:00Z","name_a2s":"Uncletopia | London | 4 | All Maps","protocol":17,"map":"cp_dustbowl","folder":"tf","game":"Team Fortress","app_id":440,"player_count":0,"max_players":24,"Bots":0,"server_type":"Dedicated","server_os":"Linux","password":true,"vac":true,"version":"7757534","steam_id":85568392924510193,"keywords":["cp","nocrits","nodmgspread","uncletopia"],"game_id":440,"stv_port":27046,"stv_name":"Uncletopia | London | 4 | All Maps | STV","players":null},{"server_id":21,"name":"Uncletopia | London | 5 | All Maps","name_short":"lon-5","host":"lon-1.uk.uncletopia.com","port":27055,"enabled":true,"region":"eu","cc":"gb","latitude":51.509865,"longitude":-0.118092,"reserved":0,"last_update":"0001-01-01T00:00:00Z","name_a2s":"Uncletopia | London | 5 | All Maps","protocol":17,"map":"pl_thundermountain","folder":"tf","game":"Team Fortress","app_id":440,"player_count":24,"max_players":24,"Bots":0,"server_type":"Dedicated","server_os":"Linux","password":true,"vac":true,"version":"7757534","steam_id":85568392924742829,"keywords":["nocrits","nodmgspread","payload","uncletopia"],"game_id":440,"stv_port":27056,"stv_name":"Uncletopia | London | 5 | All Maps | STV","players":[{"user_id":798,"name":"SnufKris","steam_id":76561198080599774,"connected_time":1853000000000,"state":"active","ping":55},{"user_id":799,"name":"Duchamp's Big XL Shitter","steam_id":76561198043988179,"connected_time":1842000000000,"state":"active","ping":66},{"user_id":814,"name":"mercedes ben","steam_id":76561198000147423,"connected_time":1080000000000,"state":"active","ping":39},{"user_id":804,"name":"❤ Sparx ❤","steam_id":76561198095009261,"connected_time":1786000000000,"state":"active","ping":79},{"user_id":816,"name":"Tom","steam_id":76561198008519979,"connected_time":819000000000,"state":"active","ping":62},{"user_id":800,"name":"JJS","steam_id":76561198098511185,"connected_time":1832000000000,"state":"active","ping":40},{"user_id":822,"name":"PoZiLoi_AnUmEsHnIk228","steam_id":76561198143653310,"connected_time":551000000000,"state":"active","ping":125},{"user_id":819,"name":"Zarden","steam_id":76561198080638451,"connected_time":785000000000,"state":"active","ping":45},{"user_id":827,"name":"Darby","steam_id":76561198032781819,"connected_time":110000000000,"state":"active","ping":44},{"user_id":818,"name":"NitPig","steam_id":76561198212991935,"connected_time":785000000000,"state":"active","ping":125},{"user_id":756,"name":"A Pigeon","steam_id":76561198114090555,"connected_time":5676000000000,"state":"active","ping":73},{"user_id":807,"name":"Bodhi","steam_id":76561198000606642,"connected_time":1692000000000,"state":"active","ping":58},{"user_id":828,"name":"If I TopScoreMyTeamSucks","steam_id":76561198147668373,"connected_time":12000000000,"state":"spawning","ping":60},{"user_id":825,"name":"Misctek","steam_id":76561199037541925,"connected_time":355000000000,"state":"active","ping":69},{"user_id":809,"name":"Carol Olston","steam_id":76561198080257273,"connected_time":1659000000000,"state":"active","ping":44},{"user_id":821,"name":"Сэмпай Галила","steam_id":76561198155412801,"connected_time":588000000000,"state":"active","ping":81},{"user_id":775,"name":"John Salad","steam_id":76561198240372376,"connected_time":4922000000000,"state":"active","ping":86},{"user_id":776,"name":"Puck :))","steam_id":76561198378295653,"connected_time":4806000000000,"state":"active","ping":72},{"user_id":810,"name":"darktheif54","steam_id":76561198043650119,"connected_time":1596000000000,"state":"active","ping":53},{"user_id":824,"name":"Zombi3","steam_id":76561198326290621,"connected_time":438000000000,"state":"active","ping":64},{"user_id":751,"name":"Caesium_R4","steam_id":76561198432410602,"connected_time":6070000000000,"state":"active","ping":44},{"user_id":787,"name":"Piros","steam_id":76561198193785653,"connected_time":3553000000000,"state":"active","ping":84},{"user_id":788,"name":"N3lly","steam_id":76561198815271970,"connected_time":3549000000000,"state":"active","ping":68},{"user_id":679,"name":"Davey","steam_id":76561198256879107,"connected_time":10079000000000,"state":"active","ping":75}]},{"server_id":22,"name":"Uncletopia | London | 6 | All Maps","name_short":"lon-6","host":"lon-1.uk.uncletopia.com","port":27065,"enabled":true,"region":"eu","cc":"gb","latitude":51.509865,"longitude":-0.118092,"reserved":0,"last_update":"0001-01-01T00:00:00Z","name_a2s":"Uncletopia | London | 6 | All Maps","protocol":17,"map":"pl_snowycoast","folder":"tf","game":"Team Fortress","app_id":440,"player_count":0,"max_players":24,"Bots":0,"server_type":"Dedicated","server_os":"Linux","password":true,"vac":true,"version":"7757534","steam_id":85568392924742830,"keywords":["nocrits","nodmgspread","payload","uncletopia"],"game_id":440,"stv_port":27066,"stv_name":"Uncletopia | London | 6 | All Maps | STV","players":null},{"server_id":40,"name":"Uncletopia | London | 7 | No Payload","name_short":"lon-7","host":"lon-1.uk.uncletopia.com","port":27075,"enabled":true,"region":"eu","cc":"gb","latitude":51.509865,"longitude":-0.118092,"reserved":0,"last_update":"0001-01-01T00:00:00Z","name_a2s":"Uncletopia | London | 7 | No Payload","protocol":17,"map":"koth_highpass","folder":"tf","game":"Team Fortress","app_id":440,"player_count":0,"max_players":24,"Bots":0,"server_type":"Dedicated","server_os":"Linux","password":true,"vac":true,"version":"7757534","steam_id":85568392924964314,"keywords":["cp","nocrits","nodmgspread","uncletopia"],"game_id":440,"stv_port":27076,"stv_name":"Uncletopia | London | 7 | No Payload | STV","players":null},{"server_id":41,"name":"Uncletopia | London | 8 | Community","name_short":"lon-8","host":"lon-1.uk.uncletopia.com","port":27085,"enabled":true,"region":"eu","cc":"gb","latitude":51.509865,"longitude":-0.118092,"reserved":0,"last_update":"0001-01-01T00:00:00Z","name_a2s":"Uncletopia | London | 8 | Community","protocol":17,"map":"workshop/koth_product_final.ugc454272353","folder":"tf","game":"Team Fortress","app_id":440,"player_count":0,"max_players":24,"Bots":0,"server_type":"Dedicated","server_os":"Linux","password":true,"vac":true,"version":"7757534","steam_id":85568392924964315,"keywords":["cp","nocrits","nodmgspread","uncletopia"],"game_id":440,"stv_port":27086,"stv_name":"Uncletopia | London | 8 | Community | STV","players":null},{"server_id":300,"name":"Uncletopia | Montréal | 1 | All Maps","name_short":"mtl-1","host":"mtl-1.ca.uncletopia.com","port":27015,"enabled":true,"region":"us-east","cc":"ca","latitude":45.50889,"longitude":-73.56167,"reserved":0,"last_update":"0001-01-01T00:00:00Z","name_a2s":"Uncletopia | Montréal | 1 | All Maps","protocol":17,"map":"cp_mountainlab","folder":"tf","game":"Team Fortress","app_id":440,"player_count":0,"max_players":24,"Bots":0,"server_type":"Dedicated","server_os":"Linux","password":true,"vac":true,"version":"7757534","steam_id":85568392924500087,"keywords":["cp","nocrits","nodmgspread","uncletopia"],"game_id":440,"stv_port":27016,"stv_name":"Uncletopia | Montréal | 1 | All Maps | STV","players":null},{"server_id":301,"name":"Uncletopia | Montréal | 2 | All Maps","name_short":"mtl-2","host":"mtl-1.ca.uncletopia.com","port":27025,"enabled":true,"region":"us-east","cc":"ca","latitude":45.50889,"longitude":-73.56167,"reserved":0,"last_update":"0001-01-01T00:00:00Z","name_a2s":"Uncletopia | Montréal | 2 | All Maps","protocol":17,"map":"pl_barnblitz","folder":"tf","game":"Team Fortress","app_id":440,"player_count":16,"max_players":24,"Bots":0,"server_type":"Dedicated","server_os":"Linux","password":true,"vac":true,"version":"7757534","steam_id":85568392924500088,"keywords":["nocrits","nodmgspread","payload","uncletopia"],"game_id":440,"stv_port":27026,"stv_name":"Uncletopia | Montréal | 2 | All Maps | STV","players":[{"user_id":16,"name":"Grenade Chucker","steam_id":76561198040532757,"connected_time":2023000000000,"state":"active","ping":91},{"user_id":17,"name":"ShaggyRed","steam_id":76561198046996355,"connected_time":1997000000000,"state":"active","ping":48},{"user_id":23,"name":"Matt","steam_id":76561198008108521,"connected_time":437000000000,"state":"active","ping":60},{"user_id":24,"name":"Basement Grandpa","steam_id":76561198014574925,"connected_time":426000000000,"state":"active","ping":74},{"user_id":7,"name":"OtherJake","steam_id":76561199097944589,"connected_time":3828000000000,"state":"active","ping":95},{"user_id":29,"name":"The destroyer of foreskin","steam_id":76561198135275966,"connected_time":124000000000,"state":"active","ping":90},{"user_id":13,"name":"BIGGEST MAC","steam_id":76561198847517098,"connected_time":2957000000000,"state":"active","ping":75},{"user_id":26,"name":"WoodsRunner","steam_id":76561198121812870,"connected_time":299000000000,"state":"active","ping":50},{"user_id":27,"name":"dicksnip","steam_id":76561198356515396,"connected_time":216000000000,"state":"active","ping":89},{"user_id":22,"name":"tjgameplay2","steam_id":76561199093794558,"connected_time":595000000000,"state":"active","ping":115},{"user_id":28,"name":"a mass hallucination","steam_id":76561198259092181,"connected_time":171000000000,"state":"active","ping":81},{"user_id":30,"name":"a king who's on a budget","steam_id":76561199134895220,"connected_time":105000000000,"state":"active","ping":69},{"user_id":31,"name":"neptune","steam_id":76561198383404869,"connected_time":62000000000,"state":"active","ping":144},{"user_id":32,"name":"Heartgold","steam_id":76561199062592062,"connected_time":59000000000,"state":"active","ping":77},{"user_id":33,"name":"squaggles!","steam_id":76561197994995011,"connected_time":38000000000,"state":"active","ping":60},{"user_id":34,"name":"Xmas","steam_id":76561198106187383,"connected_time":13000000000,"state":"spawning","ping":149}]},{"server_id":302,"name":"Uncletopia | Montréal | 3 | All Maps","name_short":"mtl-3","host":"mtl-1.ca.uncletopia.com","port":27035,"enabled":true,"region":"us-east","cc":"ca","latitude":45.50889,"longitude":-73.56167,"reserved":0,"last_update":"0001-01-01T00:00:00Z","name_a2s":"Uncletopia | Montréal | 3 | All Maps","protocol":17,"map":"pl_frontier_final","folder":"tf","game":"Team Fortress","app_id":440,"player_count":0,"max_players":24,"Bots":0,"server_type":"Dedicated","server_os":"Linux","password":true,"vac":true,"version":"7757534","steam_id":85568392924500089,"keywords":["nocrits","nodmgspread","payload","uncletopia"],"game_id":440,"stv_port":27036,"stv_name":"Uncletopia | Montréal | 3 | All Maps | STV","players":null},{"server_id":303,"name":"Uncletopia | Montréal | 4 | No Payload","name_short":"mtl-4","host":"mtl-1.ca.uncletopia.com","port":27045,"enabled":true,"region":"us-east","cc":"ca","latitude":45.50889,"longitude":-73.56167,"reserved":0,"last_update":"0001-01-01T00:00:00Z","name_a2s":"Uncletopia | Montréal | 4 | No Payload","protocol":17,"map":"cp_coldfront","folder":"tf","game":"Team Fortress","app_id":440,"player_count":0,"max_players":24,"Bots":0,"server_type":"Dedicated","server_os":"Linux","password":true,"vac":true,"version":"7757534","steam_id":85568392924500090,"keywords":["cp","nocrits","nodmgspread","uncletopia"],"game_id":440,"stv_port":27046,"stv_name":"Uncletopia | Montréal | 4 | No Payload | STV","players":null},{"server_id":13,"name":"Uncletopia | New York City | 1 | All Maps","name_short":"nyc-1","host":"nyc-1.us.uncletopia.com","port":27015,"enabled":true,"region":"us-east","cc":"us","latitude":40.73061,"longitude":-73.93524,"reserved":0,"last_update":"0001-01-01T00:00:00Z","name_a2s":"Uncletopia | New York City | 1 | All Maps","protocol":17,"map":"cp_dustbowl","folder":"tf","game":"Team Fortress","app_id":440,"player_count":23,"max_players":24,"Bots":0,"server_type":"Dedicated","server_os":"Linux","password":true,"vac":true,"version":"7757534","steam_id":85568392924469993,"keywords":["cp","nocrits","nodmgspread","uncletopia"],"game_id":440,"stv_port":27016,"stv_name":"Uncletopia | New York City | 1 | All Maps | STV","players":[{"user_id":415,"name":"クレオラ","steam_id":76561198000830794,"connected_time":860000000000,"state":"active","ping":101},{"user_id":412,"name":"Xavibite","steam_id":76561198209380493,"connected_time":943000000000,"state":"active","ping":43},{"user_id":404,"name":"who is gavin?","steam_id":76561198069415057,"connected_time":1497000000000,"state":"active","ping":45},{"user_id":413,"name":"TheDismantler | HM","steam_id":76561198259311540,"connected_time":919000000000,"state":"active","ping":75},{"user_id":416,"name":"CamelyKonas","steam_id":76561198097672992,"connected_time":814000000000,"state":"active","ping":72},{"user_id":417,"name":"ExtremeDucks","steam_id":76561198351756464,"connected_time":697000000000,"state":"active","ping":94},{"user_id":328,"name":"Gandalf Gaming","steam_id":76561198368151490,"connected_time":7599000000000,"state":"active","ping":45},{"user_id":394,"name":"urban legend","steam_id":76561198069188276,"connected_time":2294000000000,"state":"active","ping":102},{"user_id":377,"name":"Lily Thorn","steam_id":76561198305488625,"connected_time":3314000000000,"state":"active","ping":131},{"user_id":395,"name":"Slondermin","steam_id":76561198320301349,"connected_time":2201000000000,"state":"active","ping":71},{"user_id":408,"name":"TuckMan321","steam_id":76561198171690594,"connected_time":1319000000000,"state":"active","ping":58},{"user_id":365,"name":"PapaCheungus","steam_id":76561198052262520,"connected_time":4893000000000,"state":"active","ping":66},{"user_id":378,"name":"DDD14","steam_id":76561198061485026,"connected_time":3304000000000,"state":"active","ping":45},{"user_id":379,"name":"jeff","steam_id":76561198059450566,"connected_time":3253000000000,"state":"active","ping":52},{"user_id":423,"name":"potty trained","steam_id":76561198141557766,"connected_time":450000000000,"state":"active","ping":87},{"user_id":420,"name":"Spookskeppnook","steam_id":76561199216336545,"connected_time":671000000000,"state":"active","ping":79},{"user_id":401,"name":"Ampereii","steam_id":76561199047421020,"connected_time":1916000000000,"state":"active","ping":89},{"user_id":381,"name":"Pan Wizard","steam_id":76561198031939694,"connected_time":3239000000000,"state":"active","ping":70},{"user_id":424,"name":"The Drunk Clown","steam_id":76561197986850426,"connected_time":219000000000,"state":"active","ping":76},{"user_id":322,"name":"Fudgely","steam_id":76561198039425862,"connected_time":8139000000000,"state":"active","ping":59},{"user_id":422,"name":"Kaluka","steam_id":76561198036861445,"connected_time":641000000000,"state":"active","ping":60},{"user_id":406,"name":"UEK","steam_id":76561198132903869,"connected_time":1450000000000,"state":"active","ping":70},{"user_id":409,"name":"The King","steam_id":76561198117344758,"connected_time":1296000000000,"state":"active","ping":71}]},{"server_id":14,"name":"Uncletopia | New York City | 2 | All Maps","name_short":"nyc-2","host":"nyc-1.us.uncletopia.com","port":27025,"enabled":true,"region":"us-east","cc":"us","latitude":40.73061,"longitude":-73.93524,"reserved":0,"last_update":"0001-01-01T00:00:00Z","name_a2s":"Uncletopia | New York City | 2 | All Maps","protocol":17,"map":"koth_viaduct","folder":"tf","game":"Team Fortress","app_id":440,"player_count":24,"max_players":24,"Bots":0,"server_type":"Dedicated","server_os":"Linux","password":true,"vac":true,"version":"7757534","steam_id":85568392924469994,"keywords":["cp","nocrits","nodmgspread","uncletopia"],"game_id":440,"stv_port":27026,"stv_name":"Uncletopia | New York City | 2 | All Maps | STV","players":[{"user_id":107,"name":"Yoshaaa!","steam_id":76561199172288111,"connected_time":886000000000,"state":"active","ping":65},{"user_id":96,"name":"stevefelber","steam_id":76561199467139120,"connected_time":1169000000000,"state":"active","ping":62},{"user_id":119,"name":"Petal","steam_id":76561199103766971,"connected_time":316000000000,"state":"active","ping":81},{"user_id":120,"name":"Dot.","steam_id":76561198149463984,"connected_time":46000000000,"state":"active","ping":39},{"user_id":97,"name":"MEDIC!","steam_id":76561198149344029,"connected_time":1064000000000,"state":"active","ping":62},{"user_id":113,"name":"sagekiss","steam_id":76561198038831240,"connected_time":576000000000,"state":"active","ping":131},{"user_id":30,"name":"Spoilt Pudding","steam_id":76561198001195423,"connected_time":4624000000000,"state":"active","ping":102},{"user_id":114,"name":"polarize","steam_id":76561198039686606,"connected_time":569000000000,"state":"active","ping":67},{"user_id":32,"name":"AuzzieJZ","steam_id":76561198134430439,"connected_time":4602000000000,"state":"active","ping":75},{"user_id":100,"name":"dog","steam_id":76561198263873491,"connected_time":1032000000000,"state":"active","ping":66},{"user_id":34,"name":"puppy dog","steam_id":76561198253574099,"connected_time":4515000000000,"state":"active","ping":71},{"user_id":116,"name":"Tax","steam_id":76561198335683534,"connected_time":504000000000,"state":"active","ping":73},{"user_id":36,"name":"Mxple.","steam_id":76561199165140868,"connected_time":4426000000000,"state":"active","ping":164},{"user_id":109,"name":"Voon","steam_id":76561198166843533,"connected_time":790000000000,"state":"active","ping":59},{"user_id":110,"name":"deech","steam_id":76561198066429444,"connected_time":772000000000,"state":"active","ping":55},{"user_id":39,"name":"Portal2Player","steam_id":76561198062870114,"connected_time":4246000000000,"state":"active","ping":62},{"user_id":88,"name":"basilberry","steam_id":76561198145275937,"connected_time":1469000000000,"state":"active","ping":95},{"user_id":84,"name":"Mr. Mane T.S.H.A.","steam_id":76561198056728986,"connected_time":2124000000000,"state":"active","ping":83},{"user_id":117,"name":"Cats in 3D","steam_id":76561198048051416,"connected_time":500000000000,"state":"active","ping":61},{"user_id":108,"name":"coolfalcon168","steam_id":76561198948665710,"connected_time":858000000000,"state":"active","ping":62},{"user_id":94,"name":"Uhonlapjontetzika","steam_id":76561199431280503,"connected_time":1271000000000,"state":"active","ping":62},{"user_id":104,"name":"what","steam_id":76561198082336619,"connected_time":986000000000,"state":"active","ping":58},{"user_id":105,"name":"A Nyquil Chicken","steam_id":76561198344471115,"connected_time":972000000000,"state":"active","ping":121},{"user_id":118,"name":"HeyGamingLIVE","steam_id":76561199224811007,"connected_time":467000000000,"state":"active","ping":80}]},{"server_id":15,"name":"Uncletopia | New York City | 3 | Stopwatch Beta","name_short":"nyc-3","host":"nyc-1.us.uncletopia.com","port":27035,"enabled":true,"region":"us-east","cc":"us","latitude":40.73061,"longitude":-73.93524,"reserved":0,"last_update":"0001-01-01T00:00:00Z","name_a2s":"Uncletopia | New York City | 3 | Stopwatch Beta","protocol":17,"map":"koth_lakeside_final","folder":"tf","game":"Team Fortress","app_id":440,"player_count":0,"max_players":24,"Bots":0,"server_type":"Dedicated","server_os":"Linux","password":true,"vac":true,"version":"7757534","steam_id":85568392924742820,"keywords":["cp","nocrits","nodmgspread","uncletopia"],"game_id":440,"stv_port":27036,"stv_name":"Uncletopia | New York City | 3 | Stopwatch Beta | STV","players":null},{"server_id":16,"name":"Uncletopia | New York City | 4 | Community","name_short":"nyc-4","host":"nyc-1.us.uncletopia.com","port":27045,"enabled":true,"region":"us-east","cc":"us","latitude":40.73061,"longitude":-73.93524,"reserved":0,"last_update":"0001-01-01T00:00:00Z","name_a2s":"Uncletopia | New York City | 4 | Community","protocol":17,"map":"workshop/cp_mannbase_rc2a.ugc1900737467","folder":"tf","game":"Team Fortress","app_id":440,"player_count":0,"max_players":24,"Bots":0,"server_type":"Dedicated","server_os":"Linux","password":true,"vac":true,"version":"7757534","steam_id":85568392924742821,"keywords":["cp","nocrits","nodmgspread","uncletopia"],"game_id":440,"stv_port":27046,"stv_name":"Uncletopia | New York City | 4 | Community | STV","players":null},{"server_id":142,"name":"Uncletopia | São Paulo | 1 | All Maps","name_short":"sao-1","host":"sao-1.br.uncletopia.com","port":27015,"enabled":true,"region":"sa","cc":"br","latitude":-23.533773,"longitude":-46.62529,"reserved":0,"last_update":"0001-01-01T00:00:00Z","name_a2s":"Uncletopia | São Paulo | 1 | All Maps","protocol":17,"map":"pl_borneo","folder":"tf","game":"Team Fortress","app_id":440,"player_count":6,"max_players":24,"Bots":0,"server_type":"Dedicated","server_os":"Linux","password":true,"vac":true,"version":"7757534","steam_id":85568392924469996,"keywords":["nocrits","nodmgspread","payload","uncletopia"],"game_id":440,"stv_port":27016,"stv_name":"Uncletopia | São Paulo | 1 | All Maps | STV","players":[{"user_id":26,"name":"Vi-create","steam_id":76561198277032656,"connected_time":68000000000,"state":"active","ping":48},{"user_id":27,"name":"mimimito","steam_id":76561198002565927,"connected_time":32000000000,"state":"active","ping":31},{"user_id":28,"name":"ＥｎｄｅｒＮｅｃｒｏ","steam_id":76561198044304293,"connected_time":2000000000,"state":"spawning","ping":37},{"user_id":22,"name":"Matriz","steam_id":76561198965538287,"connected_time":1349000000000,"state":"active","ping":44},{"user_id":29,"name":"o importante...","steam_id":76561198171349369,"connected_time":0,"state":"spawning","ping":7},{"user_id":25,"name":"xableu","steam_id":76561199229314481,"connected_time":645000000000,"state":"active","ping":50}]},{"server_id":143,"name":"Uncletopia | São Paulo | 2 | All Maps","name_short":"sao-2","host":"sao-2.br.uncletopia.com","port":27015,"enabled":true,"region":"sa","cc":"br","latitude":-23.533773,"longitude":-46.62529,"reserved":0,"last_update":"0001-01-01T00:00:00Z","name_a2s":"Uncletopia | São Paulo | 2 | All Maps","protocol":17,"map":"koth_cascade","folder":"tf","game":"Team Fortress","app_id":440,"player_count":0,"max_players":24,"Bots":0,"server_type":"Dedicated","server_os":"Linux","password":true,"vac":true,"version":"7757534","steam_id":85568392924485349,"keywords":["cp","nocrits","nodmgspread","uncletopia"],"game_id":440,"stv_port":27016,"stv_name":"Uncletopia | São Paulo | 2 | All Maps | STV","players":null},{"server_id":7,"name":"Uncletopia | Seattle | 1 | All Maps","name_short":"sea-1","host":"sea-1.us.uncletopia.com","port":27015,"enabled":true,"region":"us-west","cc":"us","latitude":47.608013,"longitude":-122.33517,"reserved":0,"last_update":"0001-01-01T00:00:00Z","name_a2s":"Uncletopia | Seattle | 1 | All Maps","protocol":17,"map":"pl_borneo","folder":"tf","game":"Team Fortress","app_id":440,"player_count":24,"max_players":24,"Bots":0,"server_type":"Dedicated","server_os":"Linux","password":true,"vac":true,"version":"7757534","steam_id":85568392924469997,"keywords":["nocrits","nodmgspread","payload","uncletopia"],"game_id":440,"stv_port":27016,"stv_name":"Uncletopia | Seattle | 1 | All Maps | STV","players":[{"user_id":491,"name":"Unbind E","steam_id":76561199163159040,"connected_time":1409000000000,"state":"active","ping":116},{"user_id":476,"name":"soda","steam_id":76561198105924953,"connected_time":3455000000000,"state":"active","ping":78},{"user_id":418,"name":"BreadQuest","steam_id":76561198082425960,"connected_time":7880000000000,"state":"active","ping":42},{"user_id":492,"name":"TheAmericanTea","steam_id":76561198446506496,"connected_time":1406000000000,"state":"active","ping":156},{"user_id":486,"name":"soultheori","steam_id":76561198065538342,"connected_time":2287000000000,"state":"active","ping":116},{"user_id":502,"name":"K.A.R.M.A.","steam_id":76561198240750142,"connected_time":938000000000,"state":"active","ping":74},{"user_id":493,"name":"Br0gon","steam_id":76561199434773987,"connected_time":1403000000000,"state":"active","ping":83},{"user_id":506,"name":"yup","steam_id":76561199190800520,"connected_time":514000000000,"state":"active","ping":42},{"user_id":483,"name":"fancyfreak","steam_id":76561198326466375,"connected_time":2865000000000,"state":"active","ping":82},{"user_id":482,"name":"Kontray","steam_id":76561198294948653,"connected_time":3053000000000,"state":"active","ping":78},{"user_id":498,"name":"pipis","steam_id":76561198140971525,"connected_time":1196000000000,"state":"active","ping":117},{"user_id":497,"name":"I-No","steam_id":76561198556615605,"connected_time":1280000000000,"state":"active","ping":102},{"user_id":507,"name":"Defeat","steam_id":76561198065203818,"connected_time":503000000000,"state":"active","ping":45},{"user_id":503,"name":"yogi","steam_id":76561198067986753,"connected_time":929000000000,"state":"active","ping":68},{"user_id":477,"name":"Lochness_monster","steam_id":76561198417831973,"connected_time":3446000000000,"state":"active","ping":59},{"user_id":510,"name":"Oktayey","steam_id":76561198143213426,"connected_time":264000000000,"state":"active","ping":64},{"user_id":495,"name":"Firedust19","steam_id":76561198153238631,"connected_time":1384000000000,"state":"active","ping":103},{"user_id":504,"name":"Gut125Cin","steam_id":76561198101787225,"connected_time":765000000000,"state":"active","ping":59},{"user_id":488,"name":"Moe's Universe","steam_id":76561199301618664,"connected_time":1642000000000,"state":"active","ping":89},{"user_id":468,"name":"Choc","steam_id":76561198113878570,"connected_time":4020000000000,"state":"active","ping":48},{"user_id":501,"name":"MinillaMan","steam_id":76561199304028178,"connected_time":1081000000000,"state":"active","ping":119},{"user_id":469,"name":"Nat the kat","steam_id":76561198144338191,"connected_time":4013000000000,"state":"active","ping":82},{"user_id":499,"name":"Brigadier Brownie","steam_id":76561198040852898,"connected_time":1183000000000,"state":"active","ping":83},{"user_id":500,"name":"Dragonsofdra","steam_id":76561198253369292,"connected_time":1175000000000,"state":"active","ping":75}]},{"server_id":119,"name":"Uncletopia | Seattle | 2 | All Maps","name_short":"sea-2","host":"sea-1.us.uncletopia.com","port":27025,"enabled":true,"region":"us-west","cc":"us","latitude":47.608013,"longitude":-122.33517,"reserved":0,"last_update":"0001-01-01T00:00:00Z","name_a2s":"Uncletopia | Seattle | 2 | All Maps","protocol":17,"map":"pl_badwater","folder":"tf","game":"Team Fortress","app_id":440,"player_count":24,"max_players":24,"Bots":0,"server_type":"Dedicated","server_os":"Linux","password":true,"vac":true,"version":"7757534","steam_id":85568392924469998,"keywords":["nocrits","nodmgspread","payload","uncletopia"],"game_id":440,"stv_port":27026,"stv_name":"Uncletopia | Seattle | 2 | All Maps | STV","players":[{"user_id":142,"name":"purpleflame1243","steam_id":76561199183848117,"connected_time":4932000000000,"state":"active","ping":51},{"user_id":112,"name":"Angela :3","steam_id":76561198991101353,"connected_time":7546000000000,"state":"active","ping":46},{"user_id":150,"name":"Wacks","steam_id":76561198079476100,"connected_time":4324000000000,"state":"active","ping":74},{"user_id":148,"name":"shy guy","steam_id":76561198151246059,"connected_time":4399000000000,"state":"active","ping":66},{"user_id":161,"name":"twitch.tv/ladyloki_ch","steam_id":76561198280150602,"connected_time":2744000000000,"state":"active","ping":59},{"user_id":180,"name":"Stev the Prurient Oxymoron","steam_id":76561197999442625,"connected_time":1944000000000,"state":"active","ping":62},{"user_id":172,"name":"ST7\\R","steam_id":76561198153848479,"connected_time":2098000000000,"state":"active","ping":73},{"user_id":113,"name":"dust | she/it","steam_id":76561198045218909,"connected_time":7545000000000,"state":"active","ping":45},{"user_id":149,"name":"lol","steam_id":76561198026491738,"connected_time":4386000000000,"state":"active","ping":86},{"user_id":186,"name":"jacix3 [gay wolfgirl]{she/it}","steam_id":76561198205004165,"connected_time":1622000000000,"state":"active","ping":65},{"user_id":109,"name":"Uso","steam_id":76561198012093238,"connected_time":7676000000000,"state":"active","ping":102},{"user_id":155,"name":"Admiral Crumbs","steam_id":76561198108791583,"connected_time":3524000000000,"state":"active","ping":47},{"user_id":188,"name":"dave strider","steam_id":76561198065112186,"connected_time":1463000000000,"state":"active","ping":65},{"user_id":164,"name":"Catbus1000","steam_id":76561199406328081,"connected_time":2617000000000,"state":"active","ping":62},{"user_id":181,"name":"soclosetocreeps","steam_id":76561198442865621,"connected_time":1889000000000,"state":"active","ping":76},{"user_id":166,"name":"UndeadZomboy","steam_id":76561198048425072,"connected_time":2582000000000,"state":"active","ping":78},{"user_id":175,"name":"Fabio Enchilada","steam_id":76561198071013149,"connected_time":2071000000000,"state":"active","ping":124},{"user_id":182,"name":"Pilot","steam_id":76561198253929922,"connected_time":1778000000000,"state":"active","ping":69},{"user_id":168,"name":"PageBoiSkull","steam_id":76561198237353578,"connected_time":2499000000000,"state":"active","ping":75},{"user_id":183,"name":"Mr.Pan","steam_id":76561198069030613,"connected_time":1759000000000,"state":"active","ping":77},{"user_id":177,"name":"Nibotshooter","steam_id":76561199284825579,"connected_time":2069000000000,"state":"active","ping":96},{"user_id":189,"name":"sex haver (officail)","steam_id":76561198207800784,"connected_time":433000000000,"state":"active","ping":54},{"user_id":185,"name":"Zeke McGeeks","steam_id":76561198067050258,"connected_time":1753000000000,"state":"active","ping":44},{"user_id":179,"name":"hoovy","steam_id":76561199228653314,"connected_time":2019000000000,"state":"active","ping":96}]},{"server_id":406,"name":"Uncletopia | Seattle | 3 | Stopwatch Beta","name_short":"sea-3","host":"sea-1.us.uncletopia.com","port":27035,"enabled":true,"region":"us-west","cc":"us","latitude":47.608013,"longitude":-122.33517,"reserved":0,"last_update":"0001-01-01T00:00:00Z","name_a2s":"Uncletopia | Seattle | 3 | Stopwatch Beta","protocol":17,"map":"workshop/pl_summercoast_rc8e.ugc1761528829","folder":"tf","game":"Team Fortress","app_id":440,"player_count":0,"max_players":24,"Bots":0,"server_type":"Dedicated","server_os":"Linux","password":true,"vac":true,"version":"7757534","steam_id":85568392924515217,"keywords":["nocrits","nodmgspread","payload","uncletopia"],"game_id":440,"stv_port":27036,"stv_name":"Uncletopia | Seattle | 3 | Stopwatch Beta | STV","players":null},{"server_id":17,"name":"Uncletopia | San Francisco | 1 | All Maps","name_short":"sfo-1","host":"sfo-1.us.uncletopia.com","port":27015,"enabled":true,"region":"us-west","cc":"us","latitude":37.77397,"longitude":-122.4313,"reserved":0,"last_update":"0001-01-01T00:00:00Z","name_a2s":"Uncletopia | San Francisco | 1 | All Maps","protocol":17,"map":"cp_dustbowl","folder":"tf","game":"Team Fortress","app_id":440,"player_count":0,"max_players":24,"Bots":0,"server_type":"Dedicated","server_os":"Linux","password":true,"vac":true,"version":"7757534","steam_id":85568392924469999,"keywords":["cp","nocrits","nodmgspread","uncletopia"],"game_id":440,"stv_port":27016,"stv_name":"Uncletopia | San Francisco | 1 | All Maps | STV","players":null},{"server_id":18,"name":"Uncletopia | San Francisco | 2 | All Maps","name_short":"sfo-2","host":"sfo-1.us.uncletopia.com","port":27025,"enabled":true,"region":"us-west","cc":"us","latitude":37.77397,"longitude":-122.4313,"reserved":0,"last_update":"0001-01-01T00:00:00Z","name_a2s":"Uncletopia | San Francisco | 2 | All Maps","protocol":17,"map":"ctf_2fort","folder":"tf","game":"Team Fortress","app_id":440,"player_count":24,"max_players":24,"Bots":0,"server_type":"Dedicated","server_os":"Linux","password":true,"vac":true,"version":"7757534","steam_id":85568392924470000,"keywords":["ctf","nocrits","nodmgspread","uncletopia"],"game_id":440,"stv_port":27026,"stv_name":"Uncletopia | San Francisco | 2 | All Maps | STV","players":[{"user_id":134,"name":"Neymar Jr","steam_id":76561199474746475,"connected_time":375000000000,"state":"active","ping":99},{"user_id":137,"name":"Vespen","steam_id":76561198259984019,"connected_time":364000000000,"state":"active","ping":54},{"user_id":83,"name":"obese farts","steam_id":76561198206922028,"connected_time":3662000000000,"state":"active","ping":58},{"user_id":91,"name":"Chrisjongun","steam_id":76561198331685904,"connected_time":3237000000000,"state":"active","ping":81},{"user_id":124,"name":"tr","steam_id":76561198046944222,"connected_time":689000000000,"state":"active","ping":63},{"user_id":121,"name":"doobie the hutt","steam_id":76561198088873640,"connected_time":776000000000,"state":"active","ping":77},{"user_id":136,"name":"walterhwhite","steam_id":76561199433675789,"connected_time":367000000000,"state":"active","ping":67},{"user_id":104,"name":"dubba (•̀_•́ )","steam_id":76561199428471192,"connected_time":2230000000000,"state":"active","ping":77},{"user_id":133,"name":"DJ Pierce","steam_id":76561198394241466,"connected_time":405000000000,"state":"active","ping":115},{"user_id":123,"name":"zrsp1","steam_id":76561199030845505,"connected_time":731000000000,"state":"active","ping":117},{"user_id":93,"name":"StatesideSnake","steam_id":76561198272957048,"connected_time":3199000000000,"state":"active","ping":105},{"user_id":78,"name":"navy_jaguar","steam_id":76561198366199909,"connected_time":4029000000000,"state":"active","ping":59},{"user_id":145,"name":"oil","steam_id":76561198099980149,"connected_time":160000000000,"state":"active","ping":58},{"user_id":94,"name":"Dreiiora","steam_id":76561199250644832,"connected_time":3183000000000,"state":"active","ping":114},{"user_id":147,"name":"glow","steam_id":76561199073972948,"connected_time":53000000000,"state":"spawning","ping":240},{"user_id":81,"name":"yaldabaoth","steam_id":76561198084606869,"connected_time":3882000000000,"state":"active","ping":116},{"user_id":138,"name":"Little Linguine","steam_id":76561198816986370,"connected_time":351000000000,"state":"active","ping":83},{"user_id":128,"name":"Pyrotek⁴","steam_id":76561198072747672,"connected_time":524000000000,"state":"active","ping":46},{"user_id":105,"name":"Walmus","steam_id":76561198111416393,"connected_time":2218000000000,"state":"active","ping":68},{"user_id":131,"name":"ScoutBox","steam_id":76561198111539895,"connected_time":490000000000,"state":"active","ping":52},{"user_id":132,"name":"The Gremlin","steam_id":76561198419066993,"connected_time":446000000000,"state":"active","ping":73},{"user_id":139,"name":"BatJet","steam_id":76561198147738441,"connected_time":337000000000,"state":"active","ping":86},{"user_id":140,"name":"hakken","steam_id":76561199102391736,"connected_time":331000000000,"state":"active","ping":55},{"user_id":144,"name":"Drive-By-Fish-Guy","steam_id":76561198105513652,"connected_time":257000000000,"state":"active","ping":68}]},{"server_id":19,"name":"Uncletopia | San Francisco | 3 | Stopwatch Beta","name_short":"sfo-3","host":"sfo-1.us.uncletopia.com","port":27035,"enabled":true,"region":"us-west","cc":"us","latitude":37.77397,"longitude":-122.4313,"reserved":0,"last_update":"0001-01-01T00:00:00Z","name_a2s":"Uncletopia | San Francisco | 3 | Stopwatch Beta","protocol":17,"map":"cp_snakewater_final1","folder":"tf","game":"Team Fortress","app_id":440,"player_count":0,"max_players":24,"Bots":0,"server_type":"Dedicated","server_os":"Linux","password":true,"vac":true,"version":"7757534","steam_id":85568392924742824,"keywords":["cp","nocrits","nodmgspread","uncletopia"],"game_id":440,"stv_port":27036,"stv_name":"Uncletopia | San Francisco | 3 | Stopwatch Beta | STV","players":null},{"server_id":20,"name":"Uncletopia | San Francisco | 4 | Community","name_short":"sfo-4","host":"sfo-1.us.uncletopia.com","port":27045,"enabled":true,"region":"us-west","cc":"us","latitude":37.77397,"longitude":-122.4313,"reserved":0,"last_update":"0001-01-01T00:00:00Z","name_a2s":"Uncletopia | San Francisco | 4 | Community","protocol":17,"map":"pl_frontier_final","folder":"tf","game":"Team Fortress","app_id":440,"player_count":0,"max_players":24,"Bots":0,"server_type":"Dedicated","server_os":"Linux","password":true,"vac":true,"version":"7757534","steam_id":85568392924742826,"keywords":["nocrits","nodmgspread","payload","uncletopia"],"game_id":440,"stv_port":27046,"stv_name":"Uncletopia | San Francisco | 4 | Community | STV","players":null},{"server_id":141,"name":"Uncletopia | Sydney | 1 | All Maps","name_short":"syd-1","host":"syd-1.au.uncletopia.com","port":27015,"enabled":true,"region":"au","cc":"au","latitude":-33.865143,"longitude":151.2099,"reserved":0,"last_update":"0001-01-01T00:00:00Z","name_a2s":"Uncletopia | Sydney | 1 | All Maps","protocol":17,"map":"pl_swiftwater_final1","folder":"tf","game":"Team Fortress","app_id":440,"player_count":0,"max_players":24,"Bots":0,"server_type":"Dedicated","server_os":"Linux","password":true,"vac":true,"version":"7757534","steam_id":85568392924470001,"keywords":["nocrits","nodmgspread","payload","uncletopia"],"game_id":440,"stv_port":27016,"stv_name":"Uncletopia | Sydney | 1 | All Maps | STV","players":null},{"server_id":123,"name":"Uncletopia | Sydney | 2 | All Maps","name_short":"syd-2","host":"syd-1.au.uncletopia.com","port":27025,"enabled":true,"region":"au","cc":"au","latitude":-33.865143,"longitude":151.2099,"reserved":0,"last_update":"0001-01-01T00:00:00Z","name_a2s":"Uncletopia | Sydney | 2 | All Maps","protocol":17,"map":"koth_cascade","folder":"tf","game":"Team Fortress","app_id":440,"player_count":0,"max_players":24,"Bots":0,"server_type":"Dedicated","server_os":"Linux","password":true,"vac":true,"version":"7757534","steam_id":85568392924470002,"keywords":["cp","nocrits","nodmgspread","uncletopia"],"game_id":440,"stv_port":27026,"stv_name":"Uncletopia | Sydney | 2 | All Maps | STV","players":null},{"server_id":395,"name":"Uncletopia | Sydney | 3 | All Maps","name_short":"syd-3","host":"syd-1.au.uncletopia.com","port":27035,"enabled":true,"region":"au","cc":"au","latitude":-33.865143,"longitude":151.2099,"reserved":0,"last_update":"0001-01-01T00:00:00Z","name_a2s":"Uncletopia | Sydney | 3 | All Maps","protocol":17,"map":"pl_borneo","folder":"tf","game":"Team Fortress","app_id":440,"player_count":0,"max_players":24,"Bots":0,"server_type":"Dedicated","server_os":"Linux","password":true,"vac":true,"version":"7757534","steam_id":85568392925194467,"keywords":["nocrits","nodmgspread","payload","uncletopia"],"game_id":440,"stv_port":27036,"stv_name":"Uncletopia | Sydney | 3 | All Maps | STV","players":null},{"server_id":396,"name":"Uncletopia | Sydney | 4 | All Maps","name_short":"syd-4","host":"syd-1.au.uncletopia.com","port":27045,"enabled":true,"region":"au","cc":"au","latitude":-33.865143,"longitude":151.2099,"reserved":0,"last_update":"0001-01-01T00:00:00Z","name_a2s":"Uncletopia | Sydney | 4 | All Maps","protocol":17,"map":"cp_dustbowl","folder":"tf","game":"Team Fortress","app_id":440,"player_count":0,"max_players":24,"Bots":0,"server_type":"Dedicated","server_os":"Linux","password":true,"vac":true,"version":"7757534","steam_id":85568392925397958,"keywords":["cp","nocrits","nodmgspread","uncletopia"],"game_id":440,"stv_port":27046,"stv_name":"Uncletopia | Sydney | 4 | All Maps | STV","players":null},{"server_id":58,"name":"Uncletopia | Sydney | 5 | Stopwatch Beta","name_short":"syd-5","host":"syd-1.au.uncletopia.com","port":27055,"enabled":true,"region":"au","cc":"au","latitude":-33.865143,"longitude":151.2099,"reserved":0,"last_update":"0001-01-01T00:00:00Z","name_a2s":"Uncletopia | Sydney | 5 | Stopwatch Beta","protocol":17,"map":"workshop/koth_clearcut_b15.ugc2107050255","folder":"tf","game":"Team Fortress","app_id":440,"player_count":0,"max_players":24,"Bots":0,"server_type":"Dedicated","server_os":"Linux","password":true,"vac":true,"version":"7757534","steam_id":85568392925397959,"keywords":["cp","nocrits","nodmgspread","uncletopia"],"game_id":440,"stv_port":27056,"stv_name":"Uncletopia | Sydney | 5 | Stopwatch Beta | STV","players":null},{"server_id":59,"name":"Uncletopia | Sydney | 6 | Community","name_short":"syd-6","host":"syd-1.au.uncletopia.com","port":27065,"enabled":true,"region":"au","cc":"au","latitude":-33.865143,"longitude":151.2099,"reserved":0,"last_update":"0001-01-01T00:00:00Z","name_a2s":"Uncletopia | Sydney | 6 | Community","protocol":17,"map":"pl_badwater","folder":"tf","game":"Team Fortress","app_id":440,"player_count":0,"max_players":24,"Bots":0,"server_type":"Dedicated","server_os":"Linux","password":true,"vac":true,"version":"7757534","steam_id":85568392925397960,"keywords":["nocrits","nodmgspread","payload","uncletopia"],"game_id":440,"stv_port":27066,"stv_name":"Uncletopia | Sydney | 6 | Community | STV","players":null},{"server_id":49,"name":"Uncletopia | Warsaw | 1 | All Maps","name_short":"waw-1","host":"waw-1.pl.uncletopia.com","port":27015,"enabled":true,"region":"eu","cc":"pl","latitude":52.2297,"longitude":21.017532,"reserved":0,"last_update":"0001-01-01T00:00:00Z","name_a2s":"","protocol":0,"map":"","folder":"","game":"","app_id":0,"player_count":0,"max_players":0,"Bots":0,"server_type":"","server_os":"","password":false,"vac":false,"version":"","steam_id":0,"keywords":null,"game_id":0,"stv_port":0,"stv_name":"","players":null},{"server_id":50,"name":"Uncletopia | Warsaw | 2 | All Maps","name_short":"waw-2","host":"waw-1.pl.uncletopia.com","port":27025,"enabled":true,"region":"eu","cc":"pl","latitude":52.2297,"longitude":21.017532,"reserved":0,"last_update":"0001-01-01T00:00:00Z","name_a2s":"Uncletopia | Warsaw | 2 | All Maps","protocol":17,"map":"koth_lakeside_final","folder":"tf","game":"Team Fortress","app_id":440,"player_count":0,"max_players":24,"Bots":0,"server_type":"Dedicated","server_os":"Linux","password":true,"vac":true,"version":"7757534","steam_id":85568392925397851,"keywords":["cp","nocrits","nodmgspread","uncletopia"],"game_id":440,"stv_port":27026,"stv_name":"Uncletopia | Warsaw | 2 | All Maps | STV","players":null},{"server_id":51,"name":"Uncletopia | Warsaw | 3 | All Maps","name_short":"waw-3","host":"waw-1.pl.uncletopia.com","port":27035,"enabled":true,"region":"eu","cc":"pl","latitude":52.2297,"longitude":21.017532,"reserved":0,"last_update":"0001-01-01T00:00:00Z","name_a2s":"Uncletopia | Warsaw | 3 | All Maps","protocol":17,"map":"cp_altitude","folder":"tf","game":"Team Fortress","app_id":440,"player_count":0,"max_players":24,"Bots":0,"server_type":"Dedicated","server_os":"Linux","password":true,"vac":true,"version":"7757534","steam_id":85568392925397852,"keywords":["cp","nocrits","nodmgspread","uncletopia"],"game_id":440,"stv_port":27036,"stv_name":"Uncletopia | Warsaw | 3 | All Maps | STV","players":null},{"server_id":52,"name":"Uncletopia | Warsaw | 4 | All Maps","name_short":"waw-4","host":"waw-1.pl.uncletopia.com","port":27045,"enabled":true,"region":"eu","cc":"pl","latitude":52.2297,"longitude":21.017532,"reserved":0,"last_update":"0001-01-01T00:00:00Z","name_a2s":"Uncletopia | Warsaw | 4 | All Maps","protocol":17,"map":"pl_upward","folder":"tf","game":"Team Fortress","app_id":440,"player_count":2,"max_players":24,"Bots":0,"server_type":"Dedicated","server_os":"Linux","password":true,"vac":true,"version":"7757534","steam_id":85568392925397853,"keywords":["nocrits","nodmgspread","payload","uncletopia"],"game_id":440,"stv_port":27046,"stv_name":"Uncletopia | Warsaw | 4 | All Maps | STV","players":[{"user_id":7,"name":"Frog","steam_id":76561198034348966,"connected_time":2129000000000,"state":"active","ping":89},{"user_id":8,"name":"MonsieurLeFrog","steam_id":76561198272210661,"connected_time":2118000000000,"state":"active","ping":60}]},{"server_id":53,"name":"Uncletopia | Warsaw | 5 | Stopwatch Beta","name_short":"waw-5","host":"waw-1.pl.uncletopia.com","port":27055,"enabled":true,"region":"eu","cc":"pl","latitude":52.2297,"longitude":21.017532,"reserved":0,"last_update":"0001-01-01T00:00:00Z","name_a2s":"Uncletopia | Warsaw | 5 | Stopwatch Beta","protocol":17,"map":"pl_pier","folder":"tf","game":"Team Fortress","app_id":440,"player_count":0,"max_players":24,"Bots":0,"server_type":"Dedicated","server_os":"Linux","password":true,"vac":true,"version":"7757534","steam_id":85568392925397854,"keywords":["nocrits","nodmgspread","payload","uncletopia"],"game_id":440,"stv_port":27056,"stv_name":"Uncletopia | Warsaw | 5 | Stopwatch Beta | STV","players":null},{"server_id":54,"name":"Uncletopia | Warsaw | 6 | Community","name_short":"waw-6","host":"waw-1.pl.uncletopia.com","port":27065,"enabled":true,"region":"eu","cc":"pl","latitude":52.2297,"longitude":21.017532,"reserved":0,"last_update":"0001-01-01T00:00:00Z","name_a2s":"Uncletopia | Warsaw | 6 | Community","protocol":17,"map":"koth_highpass","folder":"tf","game":"Team Fortress","app_id":440,"player_count":0,"max_players":24,"Bots":0,"server_type":"Dedicated","server_os":"Linux","password":true,"vac":true,"version":"7757534","steam_id":85568392925397856,"keywords":["cp","nocrits","nodmgspread","uncletopia"],"game_id":440,"stv_port":27066,"stv_name":"Uncletopia | Warsaw | 6 | Community | STV","players":null}]}