{"status":true,"message":"","result":[{"server_id":9,"name":"Uncletopia | Atlanta | 1 | All Maps","name_short":"atl-1","host":"atl-1.us.uncletopia.com","port":27015,"enabled":true,"region":"us-east","cc":"us","latitude":33.753746,"longitude":-84.38633,"reserved":0,"last_update":"0001-01-01T00:00:00Z","name_a2s":"Uncletopia | Atlanta | 1 | All Maps","protocol":17,"map":"pl_badwater","folder":"tf","game":"Team Fortress","app_id":440,"player_count":24,"max_players":24,"Bots":0,"server_type":"Dedicated","server_os":"Linux","password":true,"vac":true,"version":"7932396","steam_id":85568392924469982,"keywords":["nocrits","nodmgspread","payload","uncletopia"],"game_id":440,"stv_port":27016,"stv_name":"Uncletopia | Atlanta | 1 | All Maps | STV","players":[{"user_id":172,"name":"M_jave","steam_id":76561198877312648,"connected_time":85000000000,"state":"active","ping":70},{"user_id":173,"name":"Orko (Third Degree Enjoyer)","steam_id":76561198162232131,"connected_time":61000000000,"state":"active","ping":143},{"user_id":174,"name":"giveit5","steam_id":76561198030815437,"connected_time":57000000000,"state":"active","ping":152},{"user_id":166,"name":"it's peanut time","steam_id":76561198236028020,"connected_time":221000000000,"state":"active","ping":112},{"user_id":139,"name":"jerma enthusiast","steam_id":76561198359466264,"connected_time":869000000000,"state":"active","ping":118},{"user_id":133,"name":"Albino Jellyfish","steam_id":76561198208561097,"connected_time":1057000000000,"state":"active","ping":86},{"user_id":138,"name":"Former US President Barack Obam","steam_id":76561198014215937,"connected_time":878000000000,"state":"active","ping":93},{"user_id":122,"name":"ViperisDumb","steam_id":76561198353554474,"connected_time":1286000000000,"state":"active","ping":121},{"user_id":123,"name":"doggo man","steam_id":76561199388026093,"connected_time":1279000000000,"state":"active","ping":159},{"user_id":175,"name":"TwoBit","steam_id":76561198062437559,"connected_time":48000000000,"state":"active","ping":127},{"user_id":176,"name":"Soju","steam_id":76561198044130442,"connected_time":32000000000,"state":"active","ping":127},{"user_id":165,"name":"tadisab","steam_id":76561199484049632,"connected_time":341000000000,"state":"active","ping":129},{"user_id":117,"name":"Stapler","steam_id":76561198099295077,"connected_time":1384000000000,"state":"active","ping":144},{"user_id":150,"name":"Rockhead","steam_id":76561197995196535,"connected_time":633000000000,"state":"active","ping":96},{"user_id":118,"name":"FieryTheKeeper","steam_id":76561198328844770,"connected_time":1379000000000,"state":"active","ping":143},{"user_id":177,"name":"Marvelous","steam_id":76561199083888017,"connected_time":1000000000,"state":"spawning","ping":148},{"user_id":130,"name":"Gavin8130","steam_id":76561198188935558,"connected_time":1113000000000,"state":"active","ping":104},{"user_id":125,"name":"Epifiny","steam_id":76561198027958086,"connected_time":1176000000000,"state":"active","ping":127},{"user_id":101,"name":"Horse","steam_id":76561198004583631,"connected_time":1593000000000,"state":"active","ping":136},{"user_id":145,"name":"T00FLESS??","steam_id":76561198152324495,"connected_time":723000000000,"state":"active","ping":146},{"user_id":162,"name":"Mattron1","steam_id":76561198012270524,"connected_time":363000000000,"state":"active","ping":118},{"user_id":155,"name":"M1K3 :)","steam_id":76561198072217407,"connected_time":552000000000,"state":"active","ping":91},{"user_id":163,"name":"hobbiebobbie","steam_id":76561199168320895,"connected_time":359000000000,"state":"active","ping":100},{"user_id":164,"name":"Drygongames","steam_id":76561198250418424,"connected_time":355000000000,"state":"active","ping":136}]},{"server_id":104,"name":"Uncletopia | Atlanta | 2 | All Maps","name_short":"atl-2","host":"atl-1.us.uncletopia.com","port":27025,"enabled":true,"region":"us-east","cc":"us","latitude":33.753746,"longitude":-84.38633,"reserved":0,"last_update":"0001-01-01T00:00:00Z","name_a2s":"Uncletopia | Atlanta | 2 | All Maps","protocol":17,"map":"koth_highpass","folder":"tf","game":"Team Fortress","app_id":440,"player_count":0,"max_players":24,"Bots":0,"server_type":"Dedicated","server_os":"Linux","password":true,"vac":true,"version":"7932396","steam_id":85568392924469983,"keywords":["cp","nocrits","nodmgspread","uncletopia"],"game_id":440,"stv_port":27026,"stv_name":"Uncletopia | Atlanta | 2 | All Maps | STV","players":null},{"server_id":400,"name":"Uncletopia | Atlanta | 3 | Community","name_short":"atl-3","host":"atl-1.us.uncletopia.com","port":27035,"enabled":true,"region":"us-east","cc":"us","latitude":33.753746,"longitude":-84.38633,"reserved":0,"last_update":"0001-01-01T00:00:00Z","name_a2s":"Uncletopia | Atlanta | 3 | Community","protocol":17,"map":"pl_borneo","folder":"tf","game":"Team Fortress","app_id":440,"player_count":0,"max_players":24,"Bots":0,"server_type":"Dedicated","server_os":"Linux","password":true,"vac":true,"version":"7932396","steam_id":85568392924515187,"keywords":["nocrits","nodmgspread","payload","uncletopia"],"game_id":440,"stv_port":27036,"stv_name":"Uncletopia | Atlanta | 3 | Community | STV","players":null},{"server_id":401,"name":"Uncletopia | Atlanta | 4 | No Payload","name_short":"atl-4","host":"atl-1.us.uncletopia.com","port":27045,"enabled":true,"region":"us-east","cc":"us","latitude":33.753746,"longitude":-84.38633,"reserved":0,"last_update":"0001-01-01T00:00:00Z","name_a2s":"","protocol":0,"map":"","folder":"","game":"","app_id":0,"player_count":0,"max_players":0,"Bots":0,"server_type":"","server_os":"","password":false,"vac":false,"version":"","steam_id":0,"keywords":null,"game_id":0,"stv_port":0,"stv_name":"","players":null},{"server_id":2,"name":"Uncletopia | Chicago | 1 | All Maps","name_short":"chi-1","host":"chi-1.us.uncletopia.com","port":27015,"enabled":true,"region":"us-central","cc":"us","latitude":41.881832,"longitude":-87.62318,"reserved":0,"last_update":"0001-01-01T00:00:00Z","name_a2s":"Uncletopia | Chicago | 1 | All Maps","protocol":17,"map":"cp_process_final","folder":"tf","game":"Team Fortress","app_id":440,"player_count":24,"max_players":24,"Bots":0,"server_type":"Dedicated","server_os":"Linux","password":true,"vac":true,"version":"7932396","steam_id":85568392924469984,"keywords":["cp","nocrits","nodmgspread","uncletopia"],"game_id":440,"stv_port":27016,"stv_name":"Uncletopia | Chicago | 1 | All Maps | STV","players":[{"user_id":538,"name":"TallBit","steam_id":76561199059748976,"connected_time":1938000000000,"state":"active","ping":54},{"user_id":540,"name":"Owl Pacino","steam_id":76561197979970666,"connected_time":1524000000000,"state":"active","ping":53},{"user_id":546,"name":"Morgster","steam_id":76561198131697761,"connected_time":212000000000,"state":"active","ping":72},{"user_id":547,"name":"ÜberBurst inVinci","steam_id":76561198044470684,"connected_time":4000000000,"state":"spawning","ping":145},{"user_id":536,"name":"Ras","steam_id":76561198123546775,"connected_time":1967000000000,"state":"active","ping":72},{"user_id":511,"name":"Astoriae!","steam_id":76561199090168858,"connected_time":3483000000000,"state":"active","ping":65},{"user_id":535,"name":"|WS| Don't_Taze_Me_Bro","steam_id":76561198043289495,"connected_time":2119000000000,"state":"active","ping":64},{"user_id":529,"name":"Soupman_Official","steam_id":76561198314308732,"connected_time":2717000000000,"state":"active","ping":43},{"user_id":541,"name":"胸针","steam_id":76561198797398533,"connected_time":1342000000000,"state":"active","ping":54},{"user_id":520,"name":"yomo","steam_id":76561198063175935,"connected_time":2973000000000,"state":"active","ping":71},{"user_id":537,"name":"Zoot","steam_id":76561198121944243,"connected_time":1955000000000,"state":"active","ping":74},{"user_id":457,"name":"Glue Gulper","steam_id":76561198158014525,"connected_time":5325000000000,"state":"active","ping":58},{"user_id":531,"name":"rat eater","steam_id":76561199216874750,"connected_time":2519000000000,"state":"active","ping":60},{"user_id":418,"name":"get scrongled, idiot","steam_id":76561198115874625,"connected_time":7223000000000,"state":"active","ping":66},{"user_id":522,"name":"6t26j","steam_id":76561198278282836,"connected_time":2904000000000,"state":"active","ping":54},{"user_id":470,"name":"Fish using Machine Learning","steam_id":76561198029932451,"connected_time":4633000000000,"state":"active","ping":76},{"user_id":432,"name":"ADRIEN BRODY","steam_id":76561198009299473,"connected_time":6919000000000,"state":"active","ping":69},{"user_id":534,"name":"Comradical","steam_id":76561197990808285,"connected_time":2267000000000,"state":"active","ping":85},{"user_id":543,"name":"Kaiju","steam_id":76561198035703156,"connected_time":908000000000,"state":"active","ping":58},{"user_id":530,"name":"Doctor Emerald(real)","steam_id":76561199123003872,"connected_time":2557000000000,"state":"active","ping":91},{"user_id":525,"name":"mythics","steam_id":76561199179957944,"connected_time":2868000000000,"state":"active","ping":106},{"user_id":539,"name":"Ibrahim","steam_id":76561198028320625,"connected_time":1862000000000,"state":"active","ping":69},{"user_id":545,"name":"Frisbee","steam_id":76561197962808987,"connected_time":414000000000,"state":"active","ping":63},{"user_id":479,"name":"Filthy Acts at Reasonable Price","steam_id":76561198354615890,"connected_time":3950000000000,"state":"active","ping":63}]},{"server_id":106,"name":"Uncletopia | Chicago | 2 | All Maps","name_short":"chi-2","host":"chi-1.us.uncletopia.com","port":27025,"enabled":true,"region":"us-central","cc":"us","latitude":41.881832,"longitude":-87.62318,"reserved":0,"last_update":"0001-01-01T00:00:00Z","name_a2s":"Uncletopia | Chicago | 2 | All Maps","protocol":17,"map":"pl_swiftwater_final1","folder":"tf","game":"Team Fortress","app_id":440,"player_count":24,"max_players":24,"Bots":0,"server_type":"Dedicated","server_os":"Linux","password":true,"vac":true,"version":"7932396","steam_id":85568392924469985,"keywords":["nocrits","nodmgspread","payload","uncletopia"],"game_id":440,"stv_port":27026,"stv_name":"Uncletopia | Chicago | 2 | All Maps | STV","players":[{"user_id":310,"name":"Lucerne★Flower","steam_id":76561198264105406,"connected_time":2540000000000,"state":"active","ping":164},{"user_id":254,"name":"Cap'n Short Legs","steam_id":76561198164139410,"connected_time":5280000000000,"state":"active","ping":73},{"user_id":334,"name":"Dinöbro","steam_id":76561198065597770,"connected_time":224000000000,"state":"active","ping":62},{"user_id":297,"name":"BlueBrim","steam_id":76561199019948607,"connected_time":2779000000000,"state":"active","ping":95},{"user_id":314,"name":"GamingGeneral","steam_id":76561198872339275,"connected_time":1688000000000,"state":"active","ping":65},{"user_id":330,"name":"Maybe","steam_id":76561198268304564,"connected_time":629000000000,"state":"active","ping":72},{"user_id":301,"name":"Garlic Double Steakburger Meal","steam_id":76561198101167686,"connected_time":2665000000000,"state":"active","ping":52},{"user_id":333,"name":"squirtle","steam_id":76561198211451045,"connected_time":400000000000,"state":"active","ping":77},{"user_id":329,"name":"ChaingunnerFails","steam_id":76561198963075967,"connected_time":711000000000,"state":"active","ping":99},{"user_id":302,"name":"krueger","steam_id":76561198268654031,"connected_time":2650000000000,"state":"active","ping":45},{"user_id":285,"name":"Fishy","steam_id":76561198819316173,"connected_time":3259000000000,"state":"active","ping":101},{"user_id":335,"name":"Guess I'm just popo","steam_id":76561197966419253,"connected_time":205000000000,"state":"active","ping":58},{"user_id":304,"name":"BNTF","steam_id":76561198062740087,"connected_time":2646000000000,"state":"active","ping":77},{"user_id":337,"name":"kiv","steam_id":76561198838223023,"connected_time":85000000000,"state":"active","ping":50},{"user_id":306,"name":"cavelife","steam_id":76561198091369097,"connected_time":2646000000000,"state":"active","ping":77},{"user_id":307,"name":"Poo","steam_id":76561198265144507,"connected_time":2619000000000,"state":"active","ping":97},{"user_id":326,"name":"Jabs","steam_id":76561198004411240,"connected_time":818000000000,"state":"active","ping":73},{"user_id":267,"name":"Bodhi","steam_id":76561198103230995,"connected_time":4891000000000,"state":"active","ping":90},{"user_id":327,"name":"Weeb","steam_id":76561198333568146,"connected_time":785000000000,"state":"active","ping":72},{"user_id":293,"name":"rosable ☆","steam_id":76561199164371592,"connected_time":3002000000000,"state":"active","ping":62},{"user_id":332,"name":"ATL1 | TheRealMud","steam_id":76561198138312993,"connected_time":540000000000,"state":"active","ping":75},{"user_id":266,"name":"Chiki","steam_id":76561198063590320,"connected_time":4957000000000,"state":"active","ping":64},{"user_id":322,"name":"its all so clear to me now","steam_id":76561198072179483,"connected_time":1202000000000,"state":"active","ping":89},{"user_id":313,"name":"Kirby.exe","steam_id":76561198242714582,"connected_time":2125000000000,"state":"active","ping":69}]},{"server_id":402,"name":"Uncletopia | Chicago | 3 | All Maps","name_short":"chi-3","host":"chi-1.us.uncletopia.com","port":27035,"enabled":true,"region":"us-central","cc":"us","latitude":41.881832,"longitude":-87.62318,"reserved":0,"last_update":"0001-01-01T00:00:00Z","name_a2s":"Uncletopia | Chicago | 3 | All Maps","protocol":17,"map":"pl_pier","folder":"tf","game":"Team Fortress","app_id":440,"player_count":24,"max_players":24,"Bots":0,"server_type":"Dedicated","server_os":"Linux","password":true,"vac":true,"version":"7932396","steam_id":85568392924515191,"keywords":["nocrits","nodmgspread","payload","uncletopia"],"game_id":440,"stv_port":27036,"stv_name":"Uncletopia | Chicago | 3 | All Maps | STV","players":[{"user_id":308,"name":"Intro Bonito","steam_id":76561198119478838,"connected_time":1697000000000,"state":"active","ping":69},{"user_id":298,"name":"Bread Baker","steam_id":76561198185335103,"connected_time":2556000000000,"state":"active","ping":46},{"user_id":245,"name":"you keep smelling the syrup","steam_id":76561198142756572,"connected_time":5393000000000,"state":"active","ping":60},{"user_id":334,"name":"Trusty","steam_id":76561198035444237,"connected_time":244000000000,"state":"active","ping":67},{"user_id":280,"name":"Enzo","steam_id":76561197975076681,"connected_time":3570000000000,"state":"active","ping":48},{"user_id":299,"name":"PTR","steam_id":76561198237253772,"connected_time":2508000000000,"state":"active","ping":72},{"user_id":323,"name":"Carmaggedon","steam_id":76561198098744340,"connected_time":740000000000,"state":"active","ping":80},{"user_id":335,"name":"Poobis enraged","steam_id":76561199189075618,"connected_time":224000000000,"state":"active","ping":77},{"user_id":312,"name":"Towns","steam_id":76561198984662863,"connected_time":1444000000000,"state":"active","ping":73},{"user_id":250,"name":"anonion","steam_id":76561198056477584,"connected_time":5127000000000,"state":"active","ping":83},{"user_id":313,"name":"elyk37","steam_id":76561198124135253,"connected_time":1352000000000,"state":"active","ping":78},{"user_id":314,"name":"Mediocre Gaming","steam_id":76561199230467980,"connected_time":1340000000000,"state":"active","ping":87},{"user_id":328,"name":"Feesh","steam_id":76561198817024734,"connected_time":467000000000,"state":"active","ping":53},{"user_id":187,"name":"Stranger in a Strange Land","steam_id":76561198049843671,"connected_time":9545000000000,"state":"active","ping":65},{"user_id":295,"name":"MaDeuce","steam_id":76561198110732835,"connected_time":2794000000000,"state":"active","ping":134},{"user_id":326,"name":"Penrose42","steam_id":76561198288577396,"connected_time":593000000000,"state":"active","ping":85},{"user_id":258,"name":"Pizza","steam_id":76561198118748364,"connected_time":4751000000000,"state":"active","ping":78},{"user_id":296,"name":"FancyBones","steam_id":76561198180198885,"connected_time":2780000000000,"state":"active","ping":98},{"user_id":287,"name":"Mephistopheles","steam_id":76561198253731826,"connected_time":3015000000000,"state":"active","ping":53},{"user_id":321,"name":"Adum","steam_id":76561198181162382,"connected_time":1068000000000,"state":"active","ping":78},{"user_id":319,"name":"threethree","steam_id":76561198177354155,"connected_time":1286000000000,"state":"active","ping":45},{"user_id":329,"name":"Heathcliff","steam_id":76561198044288534,"connected_time":458000000000,"state":"active","ping":93},{"user_id":330,"name":"who is gavin?","steam_id":76561198069415057,"connected_time":457000000000,"state":"active","ping":62},{"user_id":333,"name":"crayonnipple","steam_id":76561198070253331,"connected_time":333000000000,"state":"active","ping":70}]},{"server_id":403,"name":"Uncletopia | Chicago | 4 | All Maps","name_short":"chi-4","host":"chi-1.us.uncletopia.com","port":27045,"enabled":true,"region":"us-central","cc":"us","latitude":41.881832,"longitude":-87.62318,"reserved":0,"last_update":"0001-01-01T00:00:00Z","name_a2s":"Uncletopia | Chicago | 4 | All Maps","protocol":17,"map":"pl_swiftwater_final1","folder":"tf","game":"Team Fortress","app_id":440,"player_count":2,"max_players":24,"Bots":0,"server_type":"Dedicated","server_os":"Linux","password":true,"vac":true,"version":"7932396","steam_id":85568392924515193,"keywords":["nocrits","nodmgspread","payload","uncletopia"],"game_id":440,"stv_port":27046,"stv_name":"Uncletopia | Chicago | 4 | All Maps | STV","players":[{"user_id":28,"name":"Gibby","steam_id":76561199336569123,"connected_time":64000000000,"state":"active","ping":118},{"user_id":29,"name":"here2he1p","steam_id":76561199216977630,"connected_time":64000000000,"state":"active","ping":110}]},{"server_id":36,"name":"Uncletopia | Chicago | 5 | All Maps","name_short":"chi-5","host":"chi-2.us.uncletopia.com","port":27015,"enabled":true,"region":"us-central","cc":"us","latitude":41.881832,"longitude":-87.62318,"reserved":0,"last_update":"0001-01-01T00:00:00Z","name_a2s":"Uncletopia | Chicago | 5 | All Maps","protocol":17,"map":"pl_swiftwater_final1","folder":"tf","game":"Team Fortress","app_id":440,"player_count":25,"max_players":24,"Bots":0,"server_type":"Dedicated","server_os":"Linux","password":true,"vac":true,"version":"7932396","steam_id":85568392924866362,"keywords":["nocrits","nodmgspread","payload","uncletopia"],"game_id":440,"stv_port":27016,"stv_name":"Uncletopia | Chicago | 5 | All Maps | STV","players":[{"user_id":215,"name":"KingSteve42","steam_id":76561198409455888,"connected_time":1011000000000,"state":"active","ping":107},{"user_id":213,"name":"Scoter1009","steam_id":76561198315464837,"connected_time":1035000000000,"state":"active","ping":74},{"user_id":235,"name":"ceres","steam_id":76561198291976960,"connected_time":97000000000,"state":"connecting","ping":0},{"user_id":230,"name":"Sugahu17S","steam_id":76561198799403828,"connected_time":541000000000,"state":"active","ping":56},{"user_id":222,"name":"Adreeh","steam_id":76561198158492390,"connected_time":961000000000,"state":"active","ping":76},{"user_id":231,"name":"pinkissocool {f2p}","steam_id":76561198989599828,"connected_time":518000000000,"state":"active","ping":59},{"user_id":160,"name":"Shush","steam_id":76561198123902813,"connected_time":5696000000000,"state":"active","ping":90},{"user_id":229,"name":"je bande","steam_id":76561198037149385,"connected_time":585000000000,"state":"active","ping":79},{"user_id":209,"name":"SaltyManok","steam_id":76561198160082948,"connected_time":1100000000000,"state":"active","ping":53},{"user_id":218,"name":"jeradi1982","steam_id":76561199106779294,"connected_time":1004000000000,"state":"active","ping":103},{"user_id":196,"name":"inax","steam_id":76561198398677744,"connected_time":3047000000000,"state":"active","ping":112},{"user_id":206,"name":"God","steam_id":76561198131089513,"connected_time":1269000000000,"state":"active","ping":45},{"user_id":232,"name":"Urbanzpinapple","steam_id":76561198115426938,"connected_time":412000000000,"state":"active","ping":65},{"user_id":123,"name":"corntent","steam_id":76561198824847948,"connected_time":7897000000000,"state":"active","ping":61},{"user_id":234,"name":"TheKyleB","steam_id":76561198202515104,"connected_time":137000000000,"state":"active","ping":40},{"user_id":173,"name":"Luca!","steam_id":76561198137880777,"connected_time":4617000000000,"state":"active","ping":85},{"user_id":221,"name":"Fuzzy","steam_id":76561199100612353,"connected_time":984000000000,"state":"active","ping":54},{"user_id":200,"name":"LerN","steam_id":76561198083463877,"connected_time":2196000000000,"state":"active","ping":55},{"user_id":210,"name":"tsbro40","steam_id":76561199455605580,"connected_time":1086000000000,"state":"active","ping":117},{"user_id":236,"name":"Get Beaned","steam_id":76561198391590820,"connected_time":95000000000,"state":"active","ping":120},{"user_id":175,"name":"gay+ (premium)","steam_id":76561198250068972,"connected_time":4603000000000,"state":"active","ping":94},{"user_id":233,"name":"jim belushi's secret weapon","steam_id":76561198396326793,"connected_time":341000000000,"state":"active","ping":92},{"user_id":225,"name":"Bl0ckhead123","steam_id":76561198283536929,"connected_time":915000000000,"state":"active","ping":109},{"user_id":203,"name":"he munch","steam_id":76561198339644583,"connected_time":2153000000000,"state":"active","ping":57},{"user_id":237,"name":"smash2tec","steam_id":76561199171564052,"connected_time":90000000000,"state":"active","ping":86}]},{"server_id":37,"name":"Uncletopia | Chicago | 6 | All Maps","name_short":"chi-6","host":"chi-2.us.uncletopia.com","port":27025,"enabled":true,"region":"us-central","cc":"us","latitude":41.881832,"longitude":-87.62318,"reserved":0,"last_update":"0001-01-01T00:00:00Z","name_a2s":"Uncletopia | Chicago | 6 | All Maps","protocol":17,"map":"cp_coldfront","folder":"tf","game":"Team Fortress","app_id":440,"player_count":24,"max_players":24,"Bots":0,"server_type":"Dedicated","server_os":"Linux","password":true,"vac":true,"version":"7932396","steam_id":85568392924866363,"keywords":["cp","nocrits","nodmgspread","uncletopia"],"game_id":440,"stv_port":27026,"stv_name":"Uncletopia | Chicago | 6 | All Maps | STV","players":[{"user_id":147,"name":"schnedwob","steam_id":76561197999146588,"connected_time":1842000000000,"state":"active","ping":73},{"user_id":99,"name":"Jayne Cobb","steam_id":76561198080585050,"connected_time":4930000000000,"state":"active","ping":91},{"user_id":132,"name":"ShawnLmao","steam_id":76561198350691501,"connected_time":2605000000000,"state":"active","ping":80},{"user_id":148,"name":"Waddlehi","steam_id":76561198072553840,"connected_time":1641000000000,"state":"active","ping":62},{"user_id":90,"name":"Soul Garg Plushy","steam_id":76561198044480181,"connected_time":5205000000000,"state":"active","ping":51},{"user_id":108,"name":"Tri-Dot","steam_id":76561199075186597,"connected_time":4015000000000,"state":"active","ping":88},{"user_id":116,"name":"CyberZayne","steam_id":76561198002351356,"connected_time":3566000000000,"state":"active","ping":83},{"user_id":104,"name":"Jabawakai","steam_id":76561198088881254,"connected_time":4450000000000,"state":"active","ping":58},{"user_id":140,"name":"Muad'Dib","steam_id":76561198031071019,"connected_time":2078000000000,"state":"active","ping":53},{"user_id":141,"name":"mikey","steam_id":76561198095803763,"connected_time":2060000000000,"state":"active","ping":70},{"user_id":159,"name":"dicksnip","steam_id":76561198356515396,"connected_time":798000000000,"state":"active","ping":75},{"user_id":153,"name":"ya ya breathe","steam_id":76561198075858067,"connected_time":1521000000000,"state":"active","ping":52},{"user_id":22,"name":"The World's Softest Sandwich","steam_id":76561198015577707,"connected_time":9852000000000,"state":"active","ping":78},{"user_id":162,"name":"Bone Daddy","steam_id":76561198037836736,"connected_time":646000000000,"state":"active","ping":85},{"user_id":93,"name":"paetho YT (new vid!)","steam_id":76561198152690003,"connected_time":5174000000000,"state":"active","ping":58},{"user_id":155,"name":"!","steam_id":76561199185516030,"connected_time":1309000000000,"state":"active","ping":89},{"user_id":126,"name":"stick","steam_id":76561198049489094,"connected_time":3323000000000,"state":"active","ping":59},{"user_id":163,"name":"pest","steam_id":76561198052571208,"connected_time":144000000000,"state":"active","ping":67},{"user_id":28,"name":"Fresh Lychee","steam_id":76561198045399559,"connected_time":9791000000000,"state":"active","ping":56},{"user_id":161,"name":"Sneakyflamingo","steam_id":76561199093026056,"connected_time":689000000000,"state":"active","ping":74},{"user_id":151,"name":"eat Pant","steam_id":76561197974965536,"connected_time":1590000000000,"state":"active","ping":62},{"user_id":128,"name":"gaming gerald","steam_id":76561198011707083,"connected_time":3223000000000,"state":"active","ping":59},{"user_id":152,"name":"All 24 Pokémon movies at once","steam_id":76561198164738311,"connected_time":1580000000000,"state":"active","ping":67},{"user_id":144,"name":"tesagi","steam_id":76561198026664629,"connected_time":2038000000000,"state":"active","ping":59}]},{"server_id":38,"name":"Uncletopia | Chicago | 7 | Stopwatch Beta","name_short":"chi-7","host":"chi-2.us.uncletopia.com","port":27035,"enabled":true,"region":"us-central","cc":"us","latitude":41.881832,"longitude":-87.62318,"reserved":0,"last_update":"0001-01-01T00:00:00Z","name_a2s":"Uncletopia | Chicago | 7 | Stopwatch Beta","protocol":17,"map":"pl_borneo","folder":"tf","game":"Team Fortress","app_id":440,"player_count":0,"max_players":24,"Bots":0,"server_type":"Dedicated","server_os":"Linux","password":true,"vac":true,"version":"7932396","steam_id":85568392924866364,"keywords":["nocrits","nodmgspread","payload","uncletopia"],"game_id":440,"stv_port":27036,"stv_name":"Uncletopia | Chicago | 7 | Stopwatch Beta | STV","players":null},{"server_id":39,"name":"Uncletopia | Chicago | 8 | Community","name_short":"chi-8","host":"chi-2.us.uncletopia.com","port":27045,"enabled":true,"region":"us-central","cc":"us","latitude":41.881832,"longitude":-87.62318,"reserved":0,"last_update":"0001-01-01T00:00:00Z","name_a2s":"Uncletopia | Chicago | 8 | Community","protocol":17,"map":"workshop/pl_cashworks_final1.ugc2904065412","folder":"tf","game":"Team Fortress","app_id":440,"player_count":18,"max_players":24,"Bots":0,"server_type":"Dedicated","server_os":"Linux","password":true,"vac":true,"version":"7932396","steam_id":85568392924866365,"keywords":["nocrits","nodmgspread","payload","uncletopia"],"game_id":440,"stv_port":27046,"stv_name":"Uncletopia | Chicago | 8 | Community | STV","players":[{"user_id":38,"name":"CJspellsfish","steam_id":76561198277342368,"connected_time":1254000000000,"state":"active","ping":70},{"user_id":39,"name":"Shalom","steam_id":76561198410005222,"connected_time":1199000000000,"state":"active","ping":63},{"user_id":33,"name":"Walkiing","steam_id":76561198074473413,"connected_time":2189000000000,"state":"active","ping":34},{"user_id":29,"name":"Yayifications","steam_id":76561198066227208,"connected_time":3161000000000,"state":"active","ping":60},{"user_id":49,"name":"chronic water drinker","steam_id":76561198291275012,"connected_time":109000000000,"state":"active","ping":99},{"user_id":43,"name":"Sharpshooter","steam_id":76561198062273281,"connected_time":574000000000,"state":"active","ping":84},{"user_id":41,"name":"Sunshine","steam_id":76561198085837469,"connected_time":1137000000000,"state":"active","ping":91},{"user_id":42,"name":"Poberl","steam_id":76561198823051158,"connected_time":932000000000,"state":"active","ping":59},{"user_id":44,"name":"Robin","steam_id":76561198121165149,"connected_time":572000000000,"state":"active","ping":44},{"user_id":45,"name":"Face Requiem","steam_id":76561198322873500,"connected_time":481000000000,"state":"active","ping":59},{"user_id":46,"name":"Peepster","steam_id":76561198297854733,"connected_time":405000000000,"state":"active","ping":64},{"user_id":50,"name":"big fish","steam_id":76561198186479818,"connected_time":99000000000,"state":"active","ping":116},{"user_id":48,"name":"sammy","steam_id":76561199001307670,"connected_time":281000000000,"state":"active","ping":95},{"user_id":51,"name":"justNO11","steam_id":76561198915411375,"connected_time":68000000000,"state":"spawning","ping":162},{"user_id":52,"name":"He Angy","steam_id":76561198347050941,"connected_time":54000000000,"state":"active","ping":60},{"user_id":53,"name":"Deeply","steam_id":76561199000786530,"connected_time":52000000000,"state":"active","ping":75},{"user_id":54,"name":"Electric Wind","steam_id":76561199166543299,"connected_time":19000000000,"state":"connecting","ping":0},{"user_id":55,"name":"Ciaphas Cain","steam_id":76561198185598330,"connected_time":12000000000,"state":"spawning","ping":92}]},{"server_id":8,"name":"Uncletopia | Dallas | 1 | All Maps","name_short":"dal-1","host":"dal-1.us.uncletopia.com","port":27015,"enabled":true,"region":"us-central","cc":"us","latitude":32.779167,"longitude":-96.80889,"reserved":0,"last_update":"0001-01-01T00:00:00Z","name_a2s":"Uncletopia | Dallas | 1 | All Maps","protocol":17,"map":"pl_borneo","folder":"tf","game":"Team Fortress","app_id":440,"player_count":24,"max_players":24,"Bots":0,"server_type":"Dedicated","server_os":"Linux","password":true,"vac":true,"version":"7932396","steam_id":85568392924469986,"keywords":["nocrits","nodmgspread","payload","uncletopia"],"game_id":440,"stv_port":27016,"stv_name":"Uncletopia | Dallas | 1 | All Maps | STV","players":[{"user_id":469,"name":"Quansen","steam_id":76561198151594550,"connected_time":398000000000,"state":"active","ping":76},{"user_id":434,"name":"pogo","steam_id":76561198148913461,"connected_time":3214000000000,"state":"active","ping":82},{"user_id":455,"name":"Solstrom","steam_id":76561198313364985,"connected_time":1823000000000,"state":"active","ping":82},{"user_id":462,"name":"The Chef","steam_id":76561199127423378,"connected_time":949000000000,"state":"active","ping":103},{"user_id":476,"name":"Hell's Reindeer","steam_id":76561198065310364,"connected_time":219000000000,"state":"active","ping":79},{"user_id":426,"name":"LiftN","steam_id":76561198167974713,"connected_time":3670000000000,"state":"active","ping":76},{"user_id":474,"name":"Renota","steam_id":76561198058224488,"connected_time":227000000000,"state":"active","ping":101},{"user_id":291,"name":"Earl S","steam_id":76561198064273772,"connected_time":8605000000000,"state":"active","ping":81},{"user_id":475,"name":"Michaelpc1","steam_id":76561198088365519,"connected_time":221000000000,"state":"active","ping":80},{"user_id":481,"name":"Furrio","steam_id":76561198174104607,"connected_time":205000000000,"state":"active","ping":70},{"user_id":461,"name":"Xeno808","steam_id":76561198103758081,"connected_time":1036000000000,"state":"active","ping":39},{"user_id":447,"name":"TheGFG","steam_id":76561198166150556,"connected_time":2521000000000,"state":"active","ping":70},{"user_id":468,"name":"Red™","steam_id":76561198028926092,"connected_time":455000000000,"state":"active","ping":45},{"user_id":444,"name":"FanaticSalt","steam_id":76561199380123059,"connected_time":2720000000000,"state":"active","ping":48},{"user_id":466,"name":"Radish Master","steam_id":76561198072523811,"connected_time":604000000000,"state":"active","ping":66},{"user_id":477,"name":"Pika","steam_id":76561198068063436,"connected_time":216000000000,"state":"active","ping":60},{"user_id":459,"name":"B.","steam_id":76561198040445907,"connected_time":1269000000000,"state":"active","ping":74},{"user_id":446,"name":"Lost","steam_id":76561198025933206,"connected_time":2683000000000,"state":"active","ping":59},{"user_id":478,"name":"♡ thedittofemboy ♡","steam_id":76561199013129784,"connected_time":214000000000,"state":"active","ping":54},{"user_id":479,"name":"Snugboo","steam_id":76561198147970327,"connected_time":211000000000,"state":"active","ping":76},{"user_id":423,"name":"--_Cook_--","steam_id":76561198080855748,"connected_time":3794000000000,"state":"active","ping":51},{"user_id":473,"name":"scapegoat","steam_id":76561198188722751,"connected_time":251000000000,"state":"active","ping":94},{"user_id":465,"name":"BOB","steam_id":76561198000787196,"connected_time":620000000000,"state":"active","ping":124},{"user_id":480,"name":"ryghehn","steam_id":76561198195359229,"connected_time":211000000000,"state":"active","ping":105}]},{"server_id":108,"name":"Uncletopia | Dallas | 2 | All Maps","name_short":"dal-2","host":"dal-1.us.uncletopia.com","port":27025,"enabled":true,"region":"us-central","cc":"us","latitude":32.779167,"longitude":-96.80889,"reserved":0,"last_update":"0001-01-01T00:00:00Z","name_a2s":"Uncletopia | Dallas | 2 | All Maps","protocol":17,"map":"cp_steel","folder":"tf","game":"Team Fortress","app_id":440,"player_count":24,"max_players":24,"Bots":0,"server_type":"Dedicated","server_os":"Linux","password":true,"vac":true,"version":"7932396","steam_id":85568392924469988,"keywords":["cp","nocrits","nodmgspread","uncletopia"],"game_id":440,"stv_port":27026,"stv_name":"Uncletopia | Dallas | 2 | All Maps | STV","players":[{"user_id":230,"name":"Scrux","steam_id":76561198129763115,"connected_time":433000000000,"state":"active","ping":90},{"user_id":219,"name":"b4rry","steam_id":76561198365887154,"connected_time":975000000000,"state":"active","ping":89},{"user_id":160,"name":"mabaitako631","steam_id":76561198153152067,"connected_time":4223000000000,"state":"active","ping":77},{"user_id":234,"name":"Mikael_01","steam_id":76561199080253129,"connected_time":374000000000,"state":"active","ping":177},{"user_id":140,"name":"SleeplessCollin","steam_id":76561198968140914,"connected_time":5957000000000,"state":"active","ping":90},{"user_id":229,"name":"Nyany","steam_id":76561198314591517,"connected_time":447000000000,"state":"active","ping":65},{"user_id":225,"name":"younggflylyfe","steam_id":76561199477357832,"connected_time":659000000000,"state":"active","ping":36},{"user_id":238,"name":"Quick-Fix","steam_id":76561198295501978,"connected_time":11000000000,"state":"active","ping":120},{"user_id":235,"name":"npc energy","steam_id":76561198035342207,"connected_time":353000000000,"state":"active","ping":60},{"user_id":212,"name":"webaline","steam_id":76561199052450127,"connected_time":1469000000000,"state":"active","ping":72},{"user_id":204,"name":"Kyle H. McCloud","steam_id":76561198025050432,"connected_time":2135000000000,"state":"active","ping":85},{"user_id":214,"name":"Spinkterr4","steam_id":76561199465859174,"connected_time":1211000000000,"state":"active","ping":106},{"user_id":191,"name":"ebbaxter13","steam_id":76561198839647688,"connected_time":2395000000000,"state":"active","ping":105},{"user_id":236,"name":"brenden","steam_id":76561198120346280,"connected_time":322000000000,"state":"active","ping":63},{"user_id":227,"name":"andyiscolorless","steam_id":76561199239870921,"connected_time":510000000000,"state":"active","ping":152},{"user_id":231,"name":"ReDiculous22","steam_id":76561198038391383,"connected_time":426000000000,"state":"active","ping":44},{"user_id":168,"name":"Printypro","steam_id":76561199063254804,"connected_time":3597000000000,"state":"active","ping":74},{"user_id":203,"name":"Yapple Dapple","steam_id":76561198082422815,"connected_time":2164000000000,"state":"active","ping":69},{"user_id":232,"name":"Java_Siege_","steam_id":76561199090000728,"connected_time":423000000000,"state":"active","ping":81},{"user_id":169,"name":"aintnowaiyboi","steam_id":76561198301372369,"connected_time":3573000000000,"state":"active","ping":41},{"user_id":226,"name":"artichoke","steam_id":76561198980994364,"connected_time":612000000000,"state":"active","ping":101},{"user_id":221,"name":"Alkimia","steam_id":76561198385763137,"connected_time":887000000000,"state":"active","ping":330},{"user_id":208,"name":"swan","steam_id":76561198012569200,"connected_time":1790000000000,"state":"active","ping":101},{"user_id":233,"name":"TheSaltRobot","steam_id":76561198839739497,"connected_time":415000000000,"state":"active","ping":75}]},{"server_id":5,"name":"Uncletopia | Frankfurt | 1 | All Maps","name_short":"frk-1","host":"frk-1.de.uncletopia.com","port":27015,"enabled":true,"region":"eu","cc":"de","latitude":50.110924,"longitude":8.682127,"reserved":0,"last_update":"0001-01-01T00:00:00Z","name_a2s":"Uncletopia | Frankfurt | 1 | All Maps","protocol":17,"map":"pl_swiftwater_final1","folder":"tf","game":"Team Fortress","app_id":440,"player_count":24,"max_players":24,"Bots":0,"server_type":"Dedicated","server_os":"Linux","password":true,"vac":true,"version":"7932396","steam_id":85568392924469989,"keywords":["nocrits","nodmgspread","payload","uncletopia"],"game_id":440,"stv_port":27016,"stv_name":"Uncletopia | Frankfurt | 1 | All Maps | STV","players":[{"user_id":132,"name":"Лысый из кухни","steam_id":76561199072741842,"connected_time":2597000000000,"state":"active","ping":81},{"user_id":182,"name":"RedDear","steam_id":76561198047721178,"connected_time":73000000000,"state":"active","ping":71},{"user_id":179,"name":"freight_conductor_754","steam_id":76561198165604007,"connected_time":383000000000,"state":"active","ping":59},{"user_id":167,"name":"FUNNY BONE TICKLER :)))))","steam_id":76561198161101311,"connected_time":1215000000000,"state":"active","ping":76},{"user_id":169,"name":"DiaperChangingStation","steam_id":76561198189553021,"connected_time":1050000000000,"state":"active","ping":72},{"user_id":163,"name":"Drovecz_Hun","steam_id":76561198054703214,"connected_time":1511000000000,"state":"active","ping":81},{"user_id":181,"name":"cuddles \u003c3","steam_id":76561198805181599,"connected_time":245000000000,"state":"active","ping":65},{"user_id":128,"name":"mèx","steam_id":76561197975951572,"connected_time":3233000000000,"state":"active","ping":68},{"user_id":143,"name":"skill based","steam_id":76561198341178432,"connected_time":2194000000000,"state":"active","ping":59},{"user_id":170,"name":"chess grandmaster","steam_id":76561198197807767,"connected_time":1036000000000,"state":"active","ping":83},{"user_id":148,"name":"Jeff","steam_id":76561198426044127,"connected_time":2034000000000,"state":"active","ping":47},{"user_id":171,"name":"Dagda","steam_id":76561198871136698,"connected_time":1017000000000,"state":"active","ping":59},{"user_id":83,"name":"Ank0","steam_id":76561198214180388,"connected_time":4669000000000,"state":"active","ping":74},{"user_id":164,"name":"Toofy","steam_id":76561197989727907,"connected_time":1510000000000,"state":"active","ping":52},{"user_id":172,"name":"yush","steam_id":76561198121688934,"connected_time":966000000000,"state":"active","ping":78},{"user_id":173,"name":"StingyLettuce","steam_id":76561199010337406,"connected_time":944000000000,"state":"active","ping":109},{"user_id":161,"name":"RDZ","steam_id":76561198203921628,"connected_time":1647000000000,"state":"active","ping":62},{"user_id":159,"name":"Volterion #SaveTf2","steam_id":76561198293088484,"connected_time":1881000000000,"state":"active","ping":60},{"user_id":174,"name":"Mittenz","steam_id":76561198017368659,"connected_time":936000000000,"state":"active","ping":60},{"user_id":168,"name":"antonio.jurjevic@brazzers.hr","steam_id":76561198179392402,"connected_time":1206000000000,"state":"active","ping":50},{"user_id":162,"name":"Hootis","steam_id":76561198047506882,"connected_time":1580000000000,"state":"active","ping":59},{"user_id":175,"name":"pedoffka","steam_id":76561198115238808,"connected_time":933000000000,"state":"active","ping":75},{"user_id":125,"name":"Da Juice","steam_id":76561198077501660,"connected_time":3488000000000,"state":"active","ping":91},{"user_id":178,"name":"Van Helsing","steam_id":76561198110470565,"connected_time":481000000000,"state":"active","ping":102}]},{"server_id":110,"name":"Uncletopia | Frankfurt | 2 | All Maps","name_short":"frk-2","host":"frk-1.de.uncletopia.com","port":27025,"enabled":true,"region":"eu","cc":"de","latitude":50.110924,"longitude":8.682127,"reserved":0,"last_update":"0001-01-01T00:00:00Z","name_a2s":"Uncletopia | Frankfurt | 2 | All Maps","protocol":17,"map":"koth_viaduct","folder":"tf","game":"Team Fortress","app_id":440,"player_count":0,"max_players":24,"Bots":0,"server_type":"Dedicated","server_os":"Linux","password":true,"vac":true,"version":"7932396","steam_id":85568392924469990,"keywords":["cp","nocrits","nodmgspread","uncletopia"],"game_id":440,"stv_port":27026,"stv_name":"Uncletopia | Frankfurt | 2 | All Maps | STV","players":null},{"server_id":308,"name":"Uncletopia | Frankfurt | 3 | All Maps","name_short":"frk-3","host":"frk-1.de.uncletopia.com","port":27035,"enabled":true,"region":"eu","cc":"de","latitude":50.110924,"longitude":8.682127,"reserved":0,"last_update":"0001-01-01T00:00:00Z","name_a2s":"Uncletopia | Frankfurt | 3 | All Maps","protocol":17,"map":"pl_badwater","folder":"tf","game":"Team Fortress","app_id":440,"player_count":24,"max_players":24,"Bots":0,"server_type":"Dedicated","server_os":"Linux","password":true,"vac":true,"version":"7932396","steam_id":85568392924504274,"keywords":["nocrits","nodmgspread","payload","uncletopia"],"game_id":440,"stv_port":27036,"stv_name":"Uncletopia | Frankfurt | 3 | All Maps | STV","players":[{"user_id":727,"name":"filo","steam_id":76561198103633797,"connected_time":1045000000000,"state":"active","ping":81},{"user_id":707,"name":"glorbus","steam_id":76561198969544894,"connected_time":1938000000000,"state":"active","ping":58},{"user_id":731,"name":"ScaryTree","steam_id":76561199384362833,"connected_time":336000000000,"state":"active","ping":67},{"user_id":724,"name":"Hattmannen","steam_id":76561198340884902,"connected_time":1425000000000,"state":"active","ping":69},{"user_id":732,"name":"Nitzan","steam_id":76561198329532050,"connected_time":312000000000,"state":"active","ping":125},{"user_id":721,"name":"Jucatron","steam_id":76561198044259577,"connected_time":1542000000000,"state":"active","ping":86},{"user_id":660,"name":"niandits","steam_id":76561198419798900,"connected_time":4823000000000,"state":"active","ping":139},{"user_id":725,"name":"alan","steam_id":76561198306947435,"connected_time":1361000000000,"state":"active","ping":70},{"user_id":738,"name":"Hercules","steam_id":76561198041164170,"connected_time":48000000000,"state":"active","ping":51},{"user_id":684,"name":"georg1e","steam_id":76561199032591040,"connected_time":3547000000000,"state":"active","ping":63},{"user_id":723,"name":"Doggo225","steam_id":76561198166707002,"connected_time":1474000000000,"state":"active","ping":54},{"user_id":717,"name":"xo","steam_id":76561198170334258,"connected_time":1758000000000,"state":"active","ping":75},{"user_id":718,"name":"Sentry Main","steam_id":76561198400674468,"connected_time":1754000000000,"state":"active","ping":113},{"user_id":733,"name":"Warpzel65","steam_id":76561198799303596,"connected_time":311000000000,"state":"active","ping":132},{"user_id":612,"name":"Finnish Farmer","steam_id":76561198205366043,"connected_time":7127000000000,"state":"active","ping":82},{"user_id":722,"name":"howabe","steam_id":76561197996486818,"connected_time":1531000000000,"state":"active","ping":54},{"user_id":734,"name":"gaming but I have no skill","steam_id":76561198259439568,"connected_time":303000000000,"state":"active","ping":103},{"user_id":657,"name":"Bat Georgi","steam_id":76561198361144342,"connected_time":4877000000000,"state":"active","ping":85},{"user_id":735,"name":"Syd","steam_id":76561198020515027,"connected_time":291000000000,"state":"active","ping":84},{"user_id":694,"name":"majo84321","steam_id":76561198071336437,"connected_time":2978000000000,"state":"active","ping":73},{"user_id":715,"name":"Sculkit","steam_id":76561199162882411,"connected_time":1773000000000,"state":"active","ping":79},{"user_id":720,"name":"mohemmedmokhter2005","steam_id":76561199197650506,"connected_time":1695000000000,"state":"active","ping":112},{"user_id":691,"name":"Not A Fake Uncletopia Server","steam_id":76561198152871288,"connected_time":3221000000000,"state":"active","ping":62},{"user_id":737,"name":"Winters Fall","steam_id":76561198303707290,"connected_time":272000000000,"state":"active","ping":69}]},{"server_id":309,"name":"Uncletopia | Frankfurt | 4 | All Maps","name_short":"frk-4","host":"frk-1.de.uncletopia.com","port":27045,"enabled":true,"region":"eu","cc":"de","latitude":50.110924,"longitude":8.682127,"reserved":0,"last_update":"0001-01-01T00:00:00Z","name_a2s":"Uncletopia | Frankfurt | 4 | All Maps","protocol":17,"map":"pl_frontier_final","folder":"tf","game":"Team Fortress","app_id":440,"player_count":21,"max_players":24,"Bots":0,"server_type":"Dedicated","server_os":"Linux","password":true,"vac":true,"version":"7932396","steam_id":85568392924504275,"keywords":["nocrits","nodmgspread","payload","uncletopia"],"game_id":440,"stv_port":27046,"stv_name":"Uncletopia | Frankfurt | 4 | All Maps | STV","players":[{"user_id":288,"name":"Jaxxl0","steam_id":76561199088395800,"connected_time":0,"state":"connecting","ping":0},{"user_id":277,"name":"Olaf Gasbrigi","steam_id":76561198000618491,"connected_time":904000000000,"state":"active","ping":62},{"user_id":263,"name":"Lernix","steam_id":76561198382328645,"connected_time":1622000000000,"state":"active","ping":58},{"user_id":281,"name":"Deacon Dracul","steam_id":76561198046880663,"connected_time":189000000000,"state":"active","ping":86},{"user_id":282,"name":"please do not the cat","steam_id":76561198089003514,"connected_time":179000000000,"state":"active","ping":42},{"user_id":215,"name":"Bajas","steam_id":76561198179339326,"connected_time":2964000000000,"state":"active","ping":76},{"user_id":273,"name":"maxharmony","steam_id":76561198233819688,"connected_time":1189000000000,"state":"active","ping":89},{"user_id":275,"name":"Vershal Smershal","steam_id":76561198116223995,"connected_time":1048000000000,"state":"active","ping":60},{"user_id":283,"name":"MeBandae","steam_id":76561198910770432,"connected_time":148000000000,"state":"active","ping":82},{"user_id":166,"name":"Pilaarius","steam_id":76561198120273212,"connected_time":5007000000000,"state":"active","ping":88},{"user_id":256,"name":"♂ Animan ♂ Studios ♂","steam_id":76561198308302932,"connected_time":2205000000000,"state":"active","ping":98},{"user_id":186,"name":"Ratatatatatatouille","steam_id":76561198182267098,"connected_time":3732000000000,"state":"active","ping":86},{"user_id":284,"name":"zilaz","steam_id":76561198416395887,"connected_time":93000000000,"state":"active","ping":56},{"user_id":285,"name":"kuzya","steam_id":76561198348240722,"connected_time":86000000000,"state":"active","ping":45},{"user_id":174,"name":"Mi Manchi","steam_id":76561198171573129,"connected_time":4416000000000,"state":"active","ping":54},{"user_id":278,"name":"Ennard777","steam_id":76561198965409493,"connected_time":766000000000,"state":"active","ping":99},{"user_id":271,"name":"shablool","steam_id":76561199192795613,"connected_time":1223000000000,"state":"active","ping":81},{"user_id":286,"name":"UP! syndrome","steam_id":76561198951163629,"connected_time":77000000000,"state":"active","ping":65},{"user_id":175,"name":"Dr. sex","steam_id":76561199174677820,"connected_time":4414000000000,"state":"active","ping":138},{"user_id":287,"name":"anti","steam_id":76561198313440475,"connected_time":77000000000,"state":"active","ping":80},{"user_id":244,"name":"DeterminedXD[HUN]","steam_id":76561199469006453,"connected_time":2615000000000,"state":"active","ping":93}]},{"server_id":310,"name":"Uncletopia | Frankfurt | 5 | All Maps","name_short":"frk-5","host":"frk-1.de.uncletopia.com","port":27055,"enabled":true,"region":"eu","cc":"de","latitude":50.110924,"longitude":8.682127,"reserved":0,"last_update":"0001-01-01T00:00:00Z","name_a2s":"Uncletopia | Frankfurt | 5 | All Maps","protocol":17,"map":"pl_badwater","folder":"tf","game":"Team Fortress","app_id":440,"player_count":18,"max_players":24,"Bots":0,"server_type":"Dedicated","server_os":"Linux","password":true,"vac":true,"version":"7932396","steam_id":85568392924504277,"keywords":["nocrits","nodmgspread","payload","uncletopia"],"game_id":440,"stv_port":27056,"stv_name":"Uncletopia | Frankfurt | 5 | All Maps | STV","players":[{"user_id":614,"name":"Xpload","steam_id":76561198188505089,"connected_time":1881000000000,"state":"active","ping":53},{"user_id":634,"name":"Derpyyy","steam_id":76561198108754919,"connected_time":712000000000,"state":"active","ping":48},{"user_id":628,"name":"60Hz notebook gamer","steam_id":76561198215359609,"connected_time":1479000000000,"state":"active","ping":45},{"user_id":616,"name":"F","steam_id":76561199149462792,"connected_time":1761000000000,"state":"active","ping":66},{"user_id":641,"name":"DOOT Slayer","steam_id":76561198981093219,"connected_time":50000000000,"state":"active","ping":75},{"user_id":617,"name":"Bobirulez","steam_id":76561198009125458,"connected_time":1749000000000,"state":"active","ping":68},{"user_id":611,"name":"Comely Crocosmia ლ( ◡ (ლ","steam_id":76561197973515380,"connected_time":1926000000000,"state":"active","ping":51},{"user_id":596,"name":"mt","steam_id":76561197961319303,"connected_time":2458000000000,"state":"active","ping":45},{"user_id":619,"name":"jerry (:","steam_id":76561198205668108,"connected_time":1666000000000,"state":"active","ping":51},{"user_id":606,"name":"Möppy #savetf2","steam_id":76561198020555530,"connected_time":2036000000000,"state":"active","ping":49},{"user_id":608,"name":"Stern","steam_id":76561198065421312,"connected_time":2029000000000,"state":"active","ping":46},{"user_id":613,"name":"Urfangonultasadana","steam_id":76561199389286151,"connected_time":1895000000000,"state":"active","ping":114},{"user_id":637,"name":"Udinese Dion","steam_id":76561198067931573,"connected_time":278000000000,"state":"active","ping":50},{"user_id":636,"name":"snoop","steam_id":76561198015669667,"connected_time":444000000000,"state":"active","ping":80},{"user_id":623,"name":"demolition2n3","steam_id":76561198356060442,"connected_time":1581000000000,"state":"active","ping":55},{"user_id":624,"name":"Bounty","steam_id":76561198032698137,"connected_time":1578000000000,"state":"active","ping":58},{"user_id":627,"name":"dotdotdot","steam_id":76561198057628751,"connected_time":1512000000000,"state":"active","ping":60},{"user_id":640,"name":"cat","steam_id":76561198832231975,"connected_time":150000000000,"state":"active","ping":90}]},{"server_id":311,"name":"Uncletopia | Frankfurt | 6 | All Maps","name_short":"frk-6","host":"frk-1.de.uncletopia.com","port":27065,"enabled":true,"region":"eu","cc":"de","latitude":50.110924,"longitude":8.682127,"reserved":0,"last_update":"0001-01-01T00:00:00Z","name_a2s":"Uncletopia | Frankfurt | 6 | All Maps","protocol":17,"map":"koth_suijin","folder":"tf","game":"Team Fortress","app_id":440,"player_count":24,"max_players":24,"Bots":0,"server_type":"Dedicated","server_os":"Linux","password":true,"vac":true,"version":"7932396","steam_id":85568392924504278,"keywords":["cp","nocrits","nodmgspread","uncletopia"],"game_id":440,"stv_port":27066,"stv_name":"Uncletopia | Frankfurt | 6 | All Maps | STV","players":[{"user_id":290,"name":"CHEERS MATE!","steam_id":76561198969244773,"connected_time":525000000000,"state":"active","ping":122},{"user_id":283,"name":"Abhorrent","steam_id":76561198056338288,"connected_time":624000000000,"state":"active","ping":62},{"user_id":277,"name":"DeCypher \u003c3","steam_id":76561198171992619,"connected_time":836000000000,"state":"active","ping":67},{"user_id":280,"name":"Waffle","steam_id":76561198397024973,"connected_time":760000000000,"state":"active","ping":54},{"user_id":281,"name":"NightOmega","steam_id":76561198323608522,"connected_time":729000000000,"state":"active","ping":73},{"user_id":284,"name":"The Big J","steam_id":76561198158202901,"connected_time":602000000000,"state":"active","ping":46},{"user_id":285,"name":"mex :3","steam_id":76561198091083324,"connected_time":599000000000,"state":"active","ping":70},{"user_id":286,"name":"The Chef","steam_id":76561198407754363,"connected_time":585000000000,"state":"active","ping":99},{"user_id":306,"name":"stuffs","steam_id":76561198212903513,"connected_time":218000000000,"state":"active","ping":114},{"user_id":289,"name":"Jonak","steam_id":76561198080832458,"connected_time":556000000000,"state":"active","ping":64},{"user_id":297,"name":"K.O.wal","steam_id":76561198317737261,"connected_time":505000000000,"state":"active","ping":61},{"user_id":292,"name":"broctherock09","steam_id":76561199402909292,"connected_time":523000000000,"state":"active","ping":175},{"user_id":293,"name":"Latvian Edgelord","steam_id":76561198830058797,"connected_time":523000000000,"state":"active","ping":77},{"user_id":294,"name":"kamu","steam_id":76561198367337443,"connected_time":520000000000,"state":"active","ping":105},{"user_id":257,"name":"Underground - Hard Rock R1700G","steam_id":76561198215986979,"connected_time":2446000000000,"state":"active","ping":58},{"user_id":305,"name":"Smeef","steam_id":76561199078245092,"connected_time":332000000000,"state":"active","ping":54},{"user_id":296,"name":"mp1mp2mp3","steam_id":76561198088967665,"connected_time":510000000000,"state":"active","ping":103},{"user_id":304,"name":"the scringly dingly","steam_id":76561198192179174,"connected_time":390000000000,"state":"active","ping":118},{"user_id":268,"name":"EZPK","steam_id":76561197987474355,"connected_time":1967000000000,"state":"active","ping":62},{"user_id":302,"name":"rummy","steam_id":76561197997573379,"connected_time":448000000000,"state":"active","ping":64},{"user_id":300,"name":"SunZi","steam_id":76561198139243535,"connected_time":474000000000,"state":"active","ping":86},{"user_id":307,"name":"die white girls","steam_id":76561198815271970,"connected_time":33000000000,"state":"active","ping":66},{"user_id":267,"name":"Teathling","steam_id":76561198061580505,"connected_time":1976000000000,"state":"active","ping":60},{"user_id":303,"name":"Mau","steam_id":76561198410945277,"connected_time":439000000000,"state":"active","ping":114}]},{"server_id":23,"name":"Uncletopia | Frankfurt | 7 | Stopwatch Beta","name_short":"frk-7","host":"frk-1.de.uncletopia.com","port":27075,"enabled":true,"region":"eu","cc":"de","latitude":50.110924,"longitude":8.682127,"reserved":0,"last_update":"0001-01-01T00:00:00Z","name_a2s":"Uncletopia | Frankfurt | 7 | Stopwatch Beta","protocol":17,"map":"pl_snowycoast","folder":"tf","game":"Team Fortress","app_id":440,"player_count":0,"max_players":24,"Bots":0,"server_type":"Dedicated","server_os":"Linux","password":true,"vac":true,"version":"7932396","steam_id":85568392924742827,"keywords":["nocrits","nodmgspread","payload","uncletopia"],"game_id":440,"stv_port":27076,"stv_name":"Uncletopia | Frankfurt | 7 | Stopwatch Beta | STV","players":null},{"server_id":24,"name":"Uncletopia | Frankfurt | 8 | Community","name_short":"frk-8","host":"frk-1.de.uncletopia.com","port":27085,"enabled":true,"region":"eu","cc":"de","latitude":50.110924,"longitude":8.682127,"reserved":0,"last_update":"0001-01-01T00:00:00Z","name_a2s":"Uncletopia | Frankfurt | 8 | Community","protocol":17,"map":"workshop/cp_mannbase_rc2a.ugc1900737467","folder":"tf","game":"Team Fortress","app_id":440,"player_count":0,"max_players":24,"Bots":0,"server_type":"Dedicated","server_os":"Linux","password":true,"vac":true,"version":"7932396","steam_id":85568392924742828,"keywords":["cp","nocrits","nodmgspread","uncletopia"],"game_id":440,"stv_port":27086,"stv_name":"Uncletopia | Frankfurt | 8 | Community | STV","players":null},{"server_id":202,"name":"Uncletopia | Hong Kong | 1 | All Maps","name_short":"hgk-1","host":"hgk-1.hk.uncletopia.com","port":27015,"enabled":true,"region":"asia","cc":"hk","latitude":22.302711,"longitude":114.177216,"reserved":0,"last_update":"0001-01-01T00:00:00Z","name_a2s":"Uncletopia | Hong Kong | 1 | All Maps","protocol":17,"map":"pl_borneo","folder":"tf","game":"Team Fortress","app_id":440,"player_count":23,"max_players":24,"Bots":0,"server_type":"Dedicated","server_os":"Linux","password":true,"vac":true,"version":"7932396","steam_id":85568392924494504,"keywords":["nocrits","nodmgspread","payload","uncletopia"],"game_id":440,"stv_port":27016,"stv_name":"Uncletopia | Hong Kong | 1 | All Maps | STV","players":[{"user_id":456,"name":"L4MA","steam_id":76561198249200320,"connected_time":5779000000000,"state":"active","ping":34},{"user_id":457,"name":"Poison","steam_id":76561197989070305,"connected_time":5779000000000,"state":"active","ping":33},{"user_id":480,"name":"ᗜ‿ᗜ","steam_id":76561198155109175,"connected_time":4037000000000,"state":"active","ping":45},{"user_id":459,"name":"Chu","steam_id":76561198119604147,"connected_time":5730000000000,"state":"active","ping":47},{"user_id":460,"name":"Why are you running","steam_id":76561198129897122,"connected_time":5728000000000,"state":"active","ping":44},{"user_id":461,"name":"Gordon","steam_id":76561198098984422,"connected_time":5724000000000,"state":"active","ping":68},{"user_id":499,"name":"mili.","steam_id":76561198073806635,"connected_time":1992000000000,"state":"active","ping":46},{"user_id":508,"name":"lsf","steam_id":76561198095278714,"connected_time":22000000000,"state":"active","ping":32},{"user_id":505,"name":"A.kwan","steam_id":76561197987837236,"connected_time":1163000000000,"state":"active","ping":49},{"user_id":500,"name":"no vc no c","steam_id":76561197989503095,"connected_time":1434000000000,"state":"active","ping":88},{"user_id":466,"name":"安野老司機","steam_id":76561198070358528,"connected_time":5014000000000,"state":"active","ping":43},{"user_id":485,"name":"LT25","steam_id":76561198150014013,"connected_time":3391000000000,"state":"active","ping":45},{"user_id":477,"name":"Lightningspear","steam_id":76561198147543126,"connected_time":4149000000000,"state":"active","ping":47},{"user_id":472,"name":"Water Weed Dune Hair","steam_id":76561198090087072,"connected_time":4695000000000,"state":"active","ping":133},{"user_id":474,"name":"QwE","steam_id":76561198078538803,"connected_time":4342000000000,"state":"active","ping":49},{"user_id":475,"name":"kenn","steam_id":76561198161348169,"connected_time":4236000000000,"state":"active","ping":50},{"user_id":479,"name":"tecfade","steam_id":76561198052875946,"connected_time":4072000000000,"state":"active","ping":54},{"user_id":494,"name":"Lg","steam_id":76561198068758105,"connected_time":2837000000000,"state":"active","ping":57},{"user_id":503,"name":"Roychi","steam_id":76561198425020293,"connected_time":1268000000000,"state":"active","ping":86},{"user_id":501,"name":"John Lemmon","steam_id":76561198250588806,"connected_time":1362000000000,"state":"active","ping":43},{"user_id":506,"name":"sunny","steam_id":76561198147169301,"connected_time":517000000000,"state":"active","ping":32},{"user_id":496,"name":"Darknight","steam_id":76561199090139287,"connected_time":2309000000000,"state":"active","ping":82}]},{"server_id":1,"name":"Uncletopia | Los Angeles | 1 | All Maps","name_short":"lax-1","host":"lax-1.us.uncletopia.com","port":27015,"enabled":true,"region":"us-west","cc":"us","latitude":33.94279,"longitude":-118.41004,"reserved":0,"last_update":"0001-01-01T00:00:00Z","name_a2s":"Uncletopia | Los Angeles | 1 | All Maps","protocol":17,"map":"koth_lakeside_final","folder":"tf","game":"Team Fortress","app_id":440,"player_count":24,"max_players":24,"Bots":0,"server_type":"Dedicated","server_os":"Linux","password":true,"vac":true,"version":"7932396","steam_id":85568392924469991,"keywords":["cp","nocrits","nodmgspread","uncletopia"],"game_id":440,"stv_port":27016,"stv_name":"Uncletopia | Los Angeles | 1 | All Maps | STV","players":[{"user_id":374,"name":"Vault","steam_id":76561199451006289,"connected_time":577000000000,"state":"active","ping":90},{"user_id":375,"name":"PileofPolygons","steam_id":76561199321343460,"connected_time":576000000000,"state":"active","ping":106},{"user_id":382,"name":"megaroboleg","steam_id":76561198844644993,"connected_time":231000000000,"state":"active","ping":57},{"user_id":236,"name":"Hindmost","steam_id":76561199081837220,"connected_time":7828000000000,"state":"active","ping":101},{"user_id":353,"name":"Spud","steam_id":76561198878000618,"connected_time":2144000000000,"state":"active","ping":43},{"user_id":386,"name":"CAR BATTERY","steam_id":76561199122915452,"connected_time":45000000000,"state":"active","ping":77},{"user_id":356,"name":"Donut_Dom","steam_id":76561198058434230,"connected_time":1958000000000,"state":"active","ping":91},{"user_id":372,"name":"BrockSpread","steam_id":76561198145924402,"connected_time":617000000000,"state":"active","ping":93},{"user_id":384,"name":"♿","steam_id":76561198077863208,"connected_time":59000000000,"state":"active","ping":140},{"user_id":328,"name":"papi Chulo","steam_id":76561198126274984,"connected_time":3479000000000,"state":"active","ping":79},{"user_id":368,"name":"john01k","steam_id":76561198059731548,"connected_time":1074000000000,"state":"active","ping":115},{"user_id":371,"name":"LogicalFurret","steam_id":76561198350604657,"connected_time":694000000000,"state":"active","ping":63},{"user_id":377,"name":"Shpee","steam_id":76561198255776144,"connected_time":527000000000,"state":"active","ping":71},{"user_id":360,"name":"Vriska","steam_id":76561198942104681,"connected_time":1464000000000,"state":"active","ping":63},{"user_id":363,"name":"ilikecheese","steam_id":76561199488966166,"connected_time":1312000000000,"state":"active","ping":58},{"user_id":331,"name":"boppetson","steam_id":76561198073529045,"connected_time":3442000000000,"state":"active","ping":101},{"user_id":361,"name":"coolbust carti","steam_id":76561198065384345,"connected_time":1344000000000,"state":"active","ping":53},{"user_id":347,"name":"donkeyballs2007","steam_id":76561199466298683,"connected_time":2469000000000,"state":"active","ping":43},{"user_id":366,"name":"minimalpair","steam_id":76561198071788709,"connected_time":1219000000000,"state":"active","ping":91},{"user_id":387,"name":"Rony_oreo","steam_id":76561199488868534,"connected_time":32000000000,"state":"active","ping":282},{"user_id":381,"name":"Boss","steam_id":76561198148606597,"connected_time":291000000000,"state":"active","ping":115},{"user_id":350,"name":"WaveSmash","steam_id":76561198208785485,"connected_time":2378000000000,"state":"active","ping":81},{"user_id":379,"name":"el wokismo","steam_id":76561198058617608,"connected_time":466000000000,"state":"active","ping":47},{"user_id":365,"name":"I_amgeneric","steam_id":76561198058605649,"connected_time":1248000000000,"state":"active","ping":75}]},{"server_id":112,"name":"Uncletopia | Los Angeles | 2 | All Maps","name_short":"lax-2","host":"lax-1.us.uncletopia.com","port":27025,"enabled":true,"region":"us-west","cc":"us","latitude":33.94279,"longitude":-118.41004,"reserved":0,"last_update":"0001-01-01T00:00:00Z","name_a2s":"Uncletopia | Los Angeles | 2 | All Maps","protocol":17,"map":"koth_cascade","folder":"tf","game":"Team Fortress","app_id":440,"player_count":0,"max_players":24,"Bots":0,"server_type":"Dedicated","server_os":"Linux","password":true,"vac":true,"version":"7932396","steam_id":85568392924469992,"keywords":["cp","nocrits","nodmgspread","uncletopia"],"game_id":440,"stv_port":27026,"stv_name":"Uncletopia | Los Angeles | 2 | All Maps | STV","players":null},{"server_id":324,"name":"Uncletopia | Los Angeles | 3 | All Maps","name_short":"lax-3","host":"lax-1.us.uncletopia.com","port":27035,"enabled":true,"region":"us-west","cc":"us","latitude":33.94279,"longitude":-118.41004,"reserved":0,"last_update":"0001-01-01T00:00:00Z","name_a2s":"Uncletopia | Los Angeles | 3 | All Maps","protocol":17,"map":"pl_upward","folder":"tf","game":"Team Fortress","app_id":440,"player_count":0,"max_players":24,"Bots":0,"server_type":"Dedicated","server_os":"Linux","password":true,"vac":true,"version":"7932396","steam_id":85568392924510198,"keywords":["nocrits","nodmgspread","payload","uncletopia"],"game_id":440,"stv_port":27036,"stv_name":"Uncletopia | Los Angeles | 3 | All Maps | STV","players":null},{"server_id":25,"name":"Uncletopia | Los Angeles | 4 | Stopwatch Beta","name_short":"lax-4","host":"lax-1.us.uncletopia.com","port":27045,"enabled":true,"region":"us-west","cc":"us","latitude":33.94279,"longitude":-118.41004,"reserved":0,"last_update":"0001-01-01T00:00:00Z","name_a2s":"Uncletopia | Los Angeles | 4 | Stopwatch Beta","protocol":17,"map":"cp_altitude","folder":"tf","game":"Team Fortress","app_id":440,"player_count":0,"max_players":24,"Bots":0,"server_type":"Dedicated","server_os":"Linux","password":true,"vac":true,"version":"7932396","steam_id":85568392924510199,"keywords":["cp","nocrits","nodmgspread","uncletopia"],"game_id":440,"stv_port":27046,"stv_name":"Uncletopia | Los Angeles | 4 | Stopwatch Beta | STV","players":null},{"server_id":11,"name":"Uncletopia | London | 1 | All Maps","name_short":"lon-1","host":"lon-1.uk.uncletopia.com","port":27015,"enabled":true,"region":"eu","cc":"gb","latitude":51.509865,"longitude":-0.118092,"reserved":0,"last_update":"0001-01-01T00:00:00Z","name_a2s":"Uncletopia | London | 1 | All Maps","protocol":17,"map":"koth_viaduct","folder":"tf","game":"Team Fortress","app_id":440,"player_count":23,"max_players":24,"Bots":0,"server_type":"Dedicated","server_os":"Linux","password":true,"vac":true,"version":"7932396","steam_id":85568392924367362,"keywords":["cp","nocrits","nodmgspread","uncletopia"],"game_id":440,"stv_port":27016,"stv_name":"Uncletopia | London | 1 | All Maps | STV","players":[{"user_id":544,"name":"S0LDaTo","steam_id":76561198269413360,"connected_time":175000000000,"state":"active","ping":68},{"user_id":543,"name":"James","steam_id":76561198138558005,"connected_time":394000000000,"state":"active","ping":54},{"user_id":511,"name":"Mayor Wank from Wanker Town","steam_id":76561197998253588,"connected_time":3752000000000,"state":"active","ping":55},{"user_id":533,"name":"Worcestershire","steam_id":76561197982352114,"connected_time":1657000000000,"state":"active","ping":43},{"user_id":545,"name":"SOPHIIEE","steam_id":76561198443798981,"connected_time":93000000000,"state":"active","ping":55},{"user_id":537,"name":"whimsy.","steam_id":76561198878171763,"connected_time":484000000000,"state":"active","ping":56},{"user_id":527,"name":"froglids","steam_id":76561198045466919,"connected_time":2409000000000,"state":"active","ping":69},{"user_id":517,"name":"Woman (Real)","steam_id":76561199151823932,"connected_time":2892000000000,"state":"active","ping":89},{"user_id":534,"name":"Aaron","steam_id":76561197990046953,"connected_time":1540000000000,"state":"active","ping":57},{"user_id":532,"name":"Plep","steam_id":76561198840259819,"connected_time":1887000000000,"state":"active","ping":60},{"user_id":541,"name":"One Hop Dis Time *BWRAB*","steam_id":76561198146081601,"connected_time":449000000000,"state":"active","ping":51},{"user_id":519,"name":"gartenofbanban61925","steam_id":76561198249832770,"connected_time":2630000000000,"state":"active","ping":49},{"user_id":547,"name":"Munibe","steam_id":76561198107967904,"connected_time":33000000000,"state":"active","ping":61},{"user_id":525,"name":"Grimlock","steam_id":76561198087751260,"connected_time":2483000000000,"state":"active","ping":75},{"user_id":496,"name":"flappi","steam_id":76561198072892783,"connected_time":5623000000000,"state":"active","ping":71},{"user_id":535,"name":"Isuurn","steam_id":76561198150201094,"connected_time":495000000000,"state":"active","ping":86},{"user_id":526,"name":"♥aura♥","steam_id":76561198066258544,"connected_time":2483000000000,"state":"active","ping":61},{"user_id":503,"name":"KnugenIV","steam_id":76561198127091993,"connected_time":4881000000000,"state":"active","ping":75},{"user_id":540,"name":"Son Goku","steam_id":76561199383437138,"connected_time":467000000000,"state":"active","ping":172},{"user_id":542,"name":"Opti","steam_id":76561197968902518,"connected_time":448000000000,"state":"active","ping":54},{"user_id":469,"name":"Gnaisse","steam_id":76561198010560642,"connected_time":7249000000000,"state":"active","ping":81},{"user_id":520,"name":"Rook","steam_id":76561197995204779,"connected_time":2567000000000,"state":"active","ping":45},{"user_id":536,"name":"Katie","steam_id":76561198056193753,"connected_time":495000000000,"state":"active","ping":49}]},{"server_id":114,"name":"Uncletopia | London | 2 | All Maps","name_short":"lon-2","host":"lon-1.uk.uncletopia.com","port":27025,"enabled":true,"region":"eu","cc":"gb","latitude":51.509865,"longitude":-0.118092,"reserved":0,"last_update":"0001-01-01T00:00:00Z","name_a2s":"Uncletopia | London | 2 | All Maps","protocol":17,"map":"pl_barnblitz","folder":"tf","game":"Team Fortress","app_id":440,"player_count":24,"max_players":24,"Bots":0,"server_type":"Dedicated","server_os":"Linux","password":true,"vac":true,"version":"7932396","steam_id":85568392924470941,"keywords":["nocrits","nodmgspread","payload","uncletopia"],"game_id":440,"stv_port":27026,"stv_name":"Uncletopia | London | 2 | All Maps | STV","players":[{"user_id":563,"name":"Craftedlavaistrue","steam_id":76561198139036454,"connected_time":1457000000000,"state":"active","ping":72},{"user_id":570,"name":"Creative","steam_id":76561198835034247,"connected_time":1142000000000,"state":"active","ping":91},{"user_id":539,"name":"Dictatorial Karelian","steam_id":76561198196736457,"connected_time":2764000000000,"state":"active","ping":85},{"user_id":574,"name":"EvilMelon.","steam_id":76561197975718875,"connected_time":1096000000000,"state":"active","ping":46},{"user_id":527,"name":"Bottle O' Scrumpy","steam_id":76561199244250562,"connected_time":3558000000000,"state":"active","ping":106},{"user_id":575,"name":"OutOfDucks","steam_id":76561198166376227,"connected_time":1080000000000,"state":"active","ping":56},{"user_id":572,"name":"TylowStar","steam_id":76561198357107806,"connected_time":1136000000000,"state":"active","ping":62},{"user_id":587,"name":"adam","steam_id":76561198879373065,"connected_time":92000000000,"state":"active","ping":52},{"user_id":569,"name":"Rizz","steam_id":76561198192135953,"connected_time":1164000000000,"state":"active","ping":82},{"user_id":546,"name":"Ross from F.R.I.E.N.D.S.","steam_id":76561198008511665,"connected_time":2276000000000,"state":"active","ping":59},{"user_id":521,"name":"Pinkchup","steam_id":76561198106802803,"connected_time":3747000000000,"state":"active","ping":75},{"user_id":472,"name":"Ardbeg","steam_id":76561197973483985,"connected_time":5412000000000,"state":"active","ping":50},{"user_id":522,"name":"Minimi","steam_id":76561198873850443,"connected_time":3744000000000,"state":"active","ping":41},{"user_id":565,"name":"Trollstoy","steam_id":76561198072017175,"connected_time":1419000000000,"state":"active","ping":66},{"user_id":582,"name":"perry the platypus","steam_id":76561199379159771,"connected_time":683000000000,"state":"active","ping":151},{"user_id":554,"name":"meriones","steam_id":76561198034234373,"connected_time":1835000000000,"state":"active","ping":40},{"user_id":528,"name":"Cosmic Gamer","steam_id":76561198027357981,"connected_time":3539000000000,"state":"active","ping":99},{"user_id":557,"name":"Baba Sraka","steam_id":76561198128292318,"connected_time":1765000000000,"state":"active","ping":142},{"user_id":584,"name":"Chief Executive Officer of Sex","steam_id":76561198385989487,"connected_time":597000000000,"state":"active","ping":100},{"user_id":580,"name":"zilean","steam_id":76561198214848887,"connected_time":902000000000,"state":"active","ping":72},{"user_id":585,"name":"Fallen_Scholar","steam_id":76561198055468709,"connected_time":570000000000,"state":"active","ping":64},{"user_id":540,"name":"Max Power","steam_id":76561198019269089,"connected_time":2711000000000,"state":"active","ping":60},{"user_id":531,"name":"Krefa12","steam_id":76561198268375393,"connected_time":3510000000000,"state":"active","ping":99},{"user_id":561,"name":"kez","steam_id":76561198073623271,"connected_time":1641000000000,"state":"active","ping":106}]},{"server_id":320,"name":"Uncletopia | London | 3 | All Maps","name_short":"lon-3","host":"lon-1.uk.uncletopia.com","port":27035,"enabled":true,"region":"eu","cc":"gb","latitude":51.509865,"longitude":-0.118092,"reserved":0,"last_update":"0001-01-01T00:00:00Z","name_a2s":"Uncletopia | London | 3 | All Maps","protocol":17,"map":"pl_borneo","folder":"tf","game":"Team Fortress","app_id":440,"player_count":24,"max_players":24,"Bots":0,"server_type":"Dedicated","server_os":"Linux","password":true,"vac":true,"version":"7932396","steam_id":85568392924510192,"keywords":["nocrits","nodmgspread","payload","uncletopia"],"game_id":440,"stv_port":27036,"stv_name":"Uncletopia | London | 3 | All Maps | STV","players":[{"user_id":408,"name":"Parema","steam_id":76561198146477608,"connected_time":4768000000000,"state":"active","ping":75},{"user_id":459,"name":"[zzubo] joonstoons","steam_id":76561198328082426,"connected_time":1265000000000,"state":"active","ping":45},{"user_id":477,"name":"PlebCord","steam_id":76561198120685803,"connected_time":462000000000,"state":"active","ping":77},{"user_id":409,"name":"Meterora","steam_id":76561198092422131,"connected_time":4764000000000,"state":"active","ping":56},{"user_id":451,"name":"jaime8D","steam_id":76561197980590671,"connected_time":1701000000000,"state":"active","ping":77},{"user_id":439,"name":"delvormot","steam_id":76561199163884827,"connected_time":3036000000000,"state":"active","ping":91},{"user_id":480,"name":"THY DARK L0RD","steam_id":76561198029005085,"connected_time":163000000000,"state":"active","ping":84},{"user_id":478,"name":"Fenty","steam_id":76561198044991858,"connected_time":256000000000,"state":"active","ping":72},{"user_id":470,"name":"madijo","steam_id":76561198012617400,"connected_time":671000000000,"state":"active","ping":67},{"user_id":413,"name":"[zzubo] Hugo Stiglitz","steam_id":76561198168485956,"connected_time":4726000000000,"state":"active","ping":58},{"user_id":465,"name":"After8","steam_id":76561198090750865,"connected_time":838000000000,"state":"active","ping":75},{"user_id":444,"name":"aww yeah","steam_id":76561197992978878,"connected_time":2149000000000,"state":"active","ping":70},{"user_id":411,"name":"ROX","steam_id":76561198272289320,"connected_time":4759000000000,"state":"active","ping":58},{"user_id":420,"name":"I jazzed myself","steam_id":76561198203016603,"connected_time":4181000000000,"state":"active","ping":74},{"user_id":482,"name":"Dozer","steam_id":76561197998742338,"connected_time":47000000000,"state":"active","ping":52},{"user_id":460,"name":"wawawawawawawawa","steam_id":76561198104896547,"connected_time":1231000000000,"state":"active","ping":79},{"user_id":462,"name":"DeBlauwe","steam_id":76561198003140896,"connected_time":1135000000000,"state":"active","ping":59},{"user_id":463,"name":"GoblinGaming","steam_id":76561198360395476,"connected_time":1127000000000,"state":"active","ping":42},{"user_id":471,"name":"sushii","steam_id":76561198297987372,"connected_time":670000000000,"state":"active","ping":58},{"user_id":475,"name":"obscure","steam_id":76561198119532381,"connected_time":493000000000,"state":"active","ping":55},{"user_id":472,"name":"Popop","steam_id":76561198004793795,"connected_time":634000000000,"state":"active","ping":47},{"user_id":479,"name":"about","steam_id":76561199160427187,"connected_time":243000000000,"state":"active","ping":41},{"user_id":481,"name":"Enigmatic Gale","steam_id":76561198039416982,"connected_time":103000000000,"state":"active","ping":55},{"user_id":428,"name":"Erodel B. MuD","steam_id":76561198397446423,"connected_time":3233000000000,"state":"active","ping":82}]},{"server_id":321,"name":"Uncletopia | London | 4 | All Maps","name_short":"lon-4","host":"lon-1.uk.uncletopia.com","port":27045,"enabled":true,"region":"eu","cc":"gb","latitude":51.509865,"longitude":-0.118092,"reserved":0,"last_update":"0001-01-01T00:00:00Z","name_a2s":"Uncletopia | London | 4 | All Maps","protocol":17,"map":"pl_upward","folder":"tf","game":"Team Fortress","app_id":440,"player_count":24,"max_players":24,"Bots":0,"server_type":"Dedicated","server_os":"Linux","password":true,"vac":true,"version":"7932396","steam_id":85568392924510193,"keywords":["nocrits","nodmgspread","payload","uncletopia"],"game_id":440,"stv_port":27046,"stv_name":"Uncletopia | London | 4 | All Maps | STV","players":[{"user_id":432,"name":"yeah","steam_id":76561198188642265,"connected_time":2356000000000,"state":"active","ping":54},{"user_id":457,"name":"Hexagon","steam_id":76561198151205758,"connected_time":1027000000000,"state":"active","ping":60},{"user_id":404,"name":"quickfast","steam_id":76561199438900919,"connected_time":5437000000000,"state":"active","ping":46},{"user_id":456,"name":"Mr. Mundy","steam_id":76561198132008918,"connected_time":1071000000000,"state":"active","ping":85},{"user_id":459,"name":"Yelowchy","steam_id":76561198199416121,"connected_time":883000000000,"state":"active","ping":76},{"user_id":483,"name":"MarciDiMarcMarc","steam_id":76561199001920688,"connected_time":227000000000,"state":"active","ping":79},{"user_id":486,"name":"Uncle Terry","steam_id":76561198396415736,"connected_time":83000000000,"state":"active","ping":53},{"user_id":481,"name":"Quiet Kid","steam_id":76561199134800446,"connected_time":332000000000,"state":"active","ping":113},{"user_id":460,"name":"Farao Ramses II","steam_id":76561198078722712,"connected_time":832000000000,"state":"active","ping":52},{"user_id":461,"name":"I LOVE STOCK!!!","steam_id":76561198248239796,"connected_time":810000000000,"state":"active","ping":57},{"user_id":479,"name":"Umbraprism","steam_id":76561197984504910,"connected_time":339000000000,"state":"active","ping":56},{"user_id":478,"name":"Milca, One eye'd Drunkard","steam_id":76561198848650365,"connected_time":340000000000,"state":"active","ping":75},{"user_id":463,"name":"Jon","steam_id":76561199380849468,"connected_time":753000000000,"state":"active","ping":60},{"user_id":464,"name":"-rikeOo-","steam_id":76561198303995379,"connected_time":753000000000,"state":"active","ping":90},{"user_id":480,"name":"Gibzzler","steam_id":76561198882704996,"connected_time":337000000000,"state":"active","ping":62},{"user_id":465,"name":"Welder","steam_id":76561198355300561,"connected_time":739000000000,"state":"active","ping":75},{"user_id":455,"name":"Tort","steam_id":76561198329646769,"connected_time":1131000000000,"state":"active","ping":58},{"user_id":482,"name":"r06u3","steam_id":76561198254099253,"connected_time":316000000000,"state":"active","ping":181},{"user_id":466,"name":"Lets go","steam_id":76561198072513910,"connected_time":732000000000,"state":"active","ping":56},{"user_id":474,"name":"Clitorina","steam_id":76561198077570815,"connected_time":651000000000,"state":"active","ping":44},{"user_id":487,"name":"Štěpán","steam_id":76561198275742101,"connected_time":82000000000,"state":"active","ping":75},{"user_id":470,"name":"Sylvanas","steam_id":76561198154904165,"connected_time":699000000000,"state":"active","ping":109},{"user_id":485,"name":"LOBZIK","steam_id":76561198114830120,"connected_time":212000000000,"state":"active","ping":79},{"user_id":472,"name":"[FP] Shiken","steam_id":76561198257905663,"connected_time":683000000000,"state":"active","ping":66}]},{"server_id":21,"name":"Uncletopia | London | 5 | All Maps","name_short":"lon-5","host":"lon-1.uk.uncletopia.com","port":27055,"enabled":true,"region":"eu","cc":"gb","latitude":51.509865,"longitude":-0.118092,"reserved":0,"last_update":"0001-01-01T00:00:00Z","name_a2s":"Uncletopia | London | 5 | All Maps","protocol":17,"map":"pl_snowycoast","folder":"tf","game":"Team Fortress","app_id":440,"player_count":24,"max_players":24,"Bots":0,"server_type":"Dedicated","server_os":"Linux","password":true,"vac":true,"version":"7932396","steam_id":85568392924742829,"keywords":["nocrits","nodmgspread","payload","uncletopia"],"game_id":440,"stv_port":27056,"stv_name":"Uncletopia | London | 5 | All Maps | STV","players":[{"user_id":763,"name":"8 Ball","steam_id":76561197960988736,"connected_time":375000000000,"state":"active","ping":46},{"user_id":745,"name":"cream gravy","steam_id":76561198973069177,"connected_time":1653000000000,"state":"active","ping":54},{"user_id":734,"name":"The Mask...","steam_id":76561198052402891,"connected_time":2320000000000,"state":"active","ping":54},{"user_id":708,"name":"Niko","steam_id":76561199006295285,"connected_time":4071000000000,"state":"active","ping":82},{"user_id":672,"name":"Germanium_Ge","steam_id":76561198130561775,"connected_time":6193000000000,"state":"active","ping":56},{"user_id":746,"name":"Gustavo_Fring_6969","steam_id":76561199373610279,"connected_time":1624000000000,"state":"active","ping":102},{"user_id":722,"name":"gneeda","steam_id":76561198147249160,"connected_time":3290000000000,"state":"active","ping":115},{"user_id":650,"name":"Schmidt","steam_id":76561198001058733,"connected_time":7442000000000,"state":"active","ping":107},{"user_id":767,"name":"Nekard","steam_id":76561199055501351,"connected_time":18000000000,"state":"spawning","ping":46},{"user_id":766,"name":"PluNgBe","steam_id":76561198131100420,"connected_time":66000000000,"state":"active","ping":71},{"user_id":736,"name":"Moe Torola","steam_id":76561198025167560,"connected_time":2132000000000,"state":"active","ping":55},{"user_id":761,"name":"Xiqui","steam_id":76561198818386611,"connected_time":537000000000,"state":"active","ping":64},{"user_id":758,"name":"jhonny el sins","steam_id":76561198982787752,"connected_time":1124000000000,"state":"active","ping":69},{"user_id":756,"name":"Phreaker","steam_id":76561198065649351,"connected_time":1225000000000,"state":"active","ping":40},{"user_id":742,"name":"zaleek69","steam_id":76561198058877595,"connected_time":1738000000000,"state":"active","ping":76},{"user_id":702,"name":"ldshwt","steam_id":76561198090364357,"connected_time":4519000000000,"state":"active","ping":60},{"user_id":751,"name":"Sir Sammie","steam_id":76561198329808137,"connected_time":1426000000000,"state":"active","ping":48},{"user_id":757,"name":"Watermelon","steam_id":76561198078349914,"connected_time":1164000000000,"state":"active","ping":52},{"user_id":744,"name":"R3inis","steam_id":76561199030393569,"connected_time":1693000000000,"state":"active","ping":81},{"user_id":762,"name":"Lix","steam_id":76561198130779816,"connected_time":534000000000,"state":"active","ping":60},{"user_id":740,"name":"padillacampos","steam_id":76561198161923970,"connected_time":2022000000000,"state":"active","ping":85},{"user_id":728,"name":"POOTISMAN","steam_id":76561197986793136,"connected_time":2864000000000,"state":"active","ping":58},{"user_id":765,"name":"Glitch","steam_id":76561198801335846,"connected_time":303000000000,"state":"active","ping":41}]},{"server_id":22,"name":"Uncletopia | London | 6 | All Maps","name_short":"lon-6","host":"lon-1.uk.uncletopia.com","port":27065,"enabled":true,"region":"eu","cc":"gb","latitude":51.509865,"longitude":-0.118092,"reserved":0,"last_update":"0001-01-01T00:00:00Z","name_a2s":"Uncletopia | London | 6 | All Maps","protocol":17,"map":"pl_borneo","folder":"tf","game":"Team Fortress","app_id":440,"player_count":24,"max_players":24,"Bots":0,"server_type":"Dedicated","server_os":"Linux","password":true,"vac":true,"version":"7932396","steam_id":85568392924742830,"keywords":["nocrits","nodmgspread","payload","uncletopia"],"game_id":440,"stv_port":27066,"stv_name":"Uncletopia | London | 6 | All Maps | STV","players":[{"user_id":400,"name":"Mr. Sandman","steam_id":76561198281209867,"connected_time":247000000000,"state":"active","ping":60},{"user_id":348,"name":"yuno appreciator","steam_id":76561198083286511,"connected_time":3462000000000,"state":"active","ping":110},{"user_id":401,"name":"snowii","steam_id":76561198836246326,"connected_time":217000000000,"state":"active","ping":63},{"user_id":379,"name":"dispenser","steam_id":76561198358870490,"connected_time":1632000000000,"state":"active","ping":89},{"user_id":343,"name":"ScarredPixel123","steam_id":76561199165112703,"connected_time":3873000000000,"state":"active","ping":89},{"user_id":353,"name":"gothmoth","steam_id":76561198386910896,"connected_time":2850000000000,"state":"active","ping":66},{"user_id":394,"name":"HUGO","steam_id":76561198317134996,"connected_time":961000000000,"state":"active","ping":88},{"user_id":384,"name":"BatemanPatrick","steam_id":76561198393691611,"connected_time":1231000000000,"state":"active","ping":61},{"user_id":357,"name":"Naeso","steam_id":76561198068602498,"connected_time":2809000000000,"state":"active","ping":45},{"user_id":382,"name":"ein","steam_id":76561198412700635,"connected_time":1277000000000,"state":"active","ping":69},{"user_id":402,"name":"Fofenho","steam_id":76561198436817109,"connected_time":139000000000,"state":"active","ping":46},{"user_id":397,"name":"powsjin","steam_id":76561198043545640,"connected_time":541000000000,"state":"active","ping":125},{"user_id":356,"name":"the tube","steam_id":76561198307739245,"connected_time":2840000000000,"state":"active","ping":90},{"user_id":386,"name":"Gubbly Bubbins","steam_id":76561198101451654,"connected_time":1158000000000,"state":"active","ping":45},{"user_id":387,"name":"josh_leblanc","steam_id":76561199023742190,"connected_time":1158000000000,"state":"active","ping":145},{"user_id":388,"name":"JimGrimm","steam_id":76561198044573050,"connected_time":1123000000000,"state":"active","ping":124},{"user_id":392,"name":"Ozald","steam_id":76561199092019322,"connected_time":1076000000000,"state":"active","ping":139},{"user_id":396,"name":"Kvikk","steam_id":76561198063104117,"connected_time":735000000000,"state":"active","ping":80},{"user_id":390,"name":"dick kickem (real)","steam_id":76561198084335030,"connected_time":1106000000000,"state":"active","ping":145},{"user_id":378,"name":"Cathedra","steam_id":76561198430227030,"connected_time":1669000000000,"state":"active","ping":64},{"user_id":366,"name":"Spinya","steam_id":76561198086653667,"connected_time":2512000000000,"state":"active","ping":59},{"user_id":362,"name":"randagio98","steam_id":76561198098042553,"connected_time":2621000000000,"state":"active","ping":60},{"user_id":403,"name":"Varsk","steam_id":76561198061398890,"connected_time":101000000000,"state":"active","ping":40},{"user_id":399,"name":"cazador","steam_id":76561198123096922,"connected_time":490000000000,"state":"active","ping":103}]},{"server_id":40,"name":"Uncletopia | London | 7 | No Payload","name_short":"lon-7","host":"lon-1.uk.uncletopia.com","port":27075,"enabled":true,"region":"eu","cc":"gb","latitude":51.509865,"longitude":-0.118092,"reserved":0,"last_update":"0001-01-01T00:00:00Z","name_a2s":"Uncletopia | London | 7 | No Payload","protocol":17,"map":"cp_coldfront","folder":"tf","game":"Team Fortress","app_id":440,"player_count":0,"max_players":24,"Bots":0,"server_type":"Dedicated","server_os":"Linux","password":true,"vac":true,"version":"7932396","steam_id":85568392924964314,"keywords":["cp","nocrits","nodmgspread","uncletopia"],"game_id":440,"stv_port":27076,"stv_name":"Uncletopia | London | 7 | No Payload | STV","players":null},{"server_id":41,"name":"Uncletopia | London | 8 | Community","name_short":"lon-8","host":"lon-1.uk.uncletopia.com","port":27085,"enabled":true,"region":"eu","cc":"gb","latitude":51.509865,"longitude":-0.118092,"reserved":0,"last_update":"0001-01-01T00:00:00Z","name_a2s":"Uncletopia | London | 8 | Community","protocol":17,"map":"workshop/cp_propaganda_b18.ugc1603743849","folder":"tf","game":"Team Fortress","app_id":440,"player_count":0,"max_players":24,"Bots":0,"server_type":"Dedicated","server_os":"Linux","password":true,"vac":true,"version":"7932396","steam_id":85568392924964315,"keywords":["cp","nocrits","nodmgspread","uncletopia"],"game_id":440,"stv_port":27086,"stv_name":"Uncletopia | London | 8 | Community | STV","players":null},{"server_id":300,"name":"Uncletopia | Montréal | 1 | All Maps","name_short":"mtl-1","host":"mtl-1.ca.uncletopia.com","port":27015,"enabled":true,"region":"us-east","cc":"ca","latitude":45.50889,"longitude":-73.56167,"reserved":0,"last_update":"0001-01-01T00:00:00Z","name_a2s":"Uncletopia | Montréal | 1 | All Maps","protocol":17,"map":"cp_altitude","folder":"tf","game":"Team Fortress","app_id":440,"player_count":0,"max_players":24,"Bots":0,"server_type":"Dedicated","server_os":"Linux","password":true,"vac":true,"version":"7932396","steam_id":85568392924500087,"keywords":["cp","nocrits","nodmgspread","uncletopia"],"game_id":440,"stv_port":27016,"stv_name":"Uncletopia | Montréal | 1 | All Maps | STV","players":null},{"server_id":301,"name":"Uncletopia | Montréal | 2 | All Maps","name_short":"mtl-2","host":"mtl-1.ca.uncletopia.com","port":27025,"enabled":true,"region":"us-east","cc":"ca","latitude":45.50889,"longitude":-73.56167,"reserved":0,"last_update":"0001-01-01T00:00:00Z","name_a2s":"Uncletopia | Montréal | 2 | All Maps","protocol":17,"map":"cp_mountainlab","folder":"tf","game":"Team Fortress","app_id":440,"player_count":0,"max_players":24,"Bots":0,"server_type":"Dedicated","server_os":"Linux","password":true,"vac":true,"version":"7932396","steam_id":85568392924500088,"keywords":["cp","nocrits","nodmgspread","uncletopia"],"game_id":440,"stv_port":27026,"stv_name":"Uncletopia | Montréal | 2 | All Maps | STV","players":null},{"server_id":302,"name":"Uncletopia | Montréal | 3 | All Maps","name_short":"mtl-3","host":"mtl-1.ca.uncletopia.com","port":27035,"enabled":true,"region":"us-east","cc":"ca","latitude":45.50889,"longitude":-73.56167,"reserved":0,"last_update":"0001-01-01T00:00:00Z","name_a2s":"Uncletopia | Montréal | 3 | All Maps","protocol":17,"map":"cp_process_final","folder":"tf","game":"Team Fortress","app_id":440,"player_count":0,"max_players":24,"Bots":0,"server_type":"Dedicated","server_os":"Linux","password":true,"vac":true,"version":"7932396","steam_id":85568392924500089,"keywords":["cp","nocrits","nodmgspread","uncletopia"],"game_id":440,"stv_port":27036,"stv_name":"Uncletopia | Montréal | 3 | All Maps | STV","players":null},{"server_id":303,"name":"Uncletopia | Montréal | 4 | No Payload","name_short":"mtl-4","host":"mtl-1.ca.uncletopia.com","port":27045,"enabled":true,"region":"us-east","cc":"ca","latitude":45.50889,"longitude":-73.56167,"reserved":0,"last_update":"0001-01-01T00:00:00Z","name_a2s":"Uncletopia | Montréal | 4 | No Payload","protocol":17,"map":"cp_snakewater_final1","folder":"tf","game":"Team Fortress","app_id":440,"player_count":0,"max_players":24,"Bots":0,"server_type":"Dedicated","server_os":"Linux","password":true,"vac":true,"version":"7932396","steam_id":85568392924500090,"keywords":["cp","nocrits","nodmgspread","uncletopia"],"game_id":440,"stv_port":27046,"stv_name":"Uncletopia | Montréal | 4 | No Payload | STV","players":null},{"server_id":13,"name":"Uncletopia | New York City | 1 | All Maps","name_short":"nyc-1","host":"nyc-1.us.uncletopia.com","port":27015,"enabled":true,"region":"us-east","cc":"us","latitude":40.73061,"longitude":-73.93524,"reserved":0,"last_update":"0001-01-01T00:00:00Z","name_a2s":"Uncletopia | New York City | 1 | All Maps","protocol":17,"map":"cp_dustbowl","folder":"tf","game":"Team Fortress","app_id":440,"player_count":24,"max_players":24,"Bots":0,"server_type":"Dedicated","server_os":"Linux","password":true,"vac":true,"version":"7932396","steam_id":85568392924469993,"keywords":["cp","nocrits","nodmgspread","uncletopia"],"game_id":440,"stv_port":27016,"stv_name":"Uncletopia | New York City | 1 | All Maps | STV","players":[{"user_id":325,"name":"Crimson","steam_id":76561198129326627,"connected_time":817000000000,"state":"active","ping":103},{"user_id":310,"name":"Wique","steam_id":76561198071217597,"connected_time":2284000000000,"state":"active","ping":73},{"user_id":278,"name":"(2)kitkatkarl","steam_id":76561198360134800,"connected_time":4244000000000,"state":"active","ping":65},{"user_id":307,"name":"Baron von Whoopsie","steam_id":76561197996691013,"connected_time":2464000000000,"state":"active","ping":64},{"user_id":302,"name":"The Funnytaker","steam_id":76561198049457308,"connected_time":3384000000000,"state":"active","ping":139},{"user_id":330,"name":"space man","steam_id":76561198066333670,"connected_time":512000000000,"state":"active","ping":68},{"user_id":300,"name":"saturn","steam_id":76561198348918232,"connected_time":3459000000000,"state":"active","ping":75},{"user_id":314,"name":"turd ferguson","steam_id":76561198071620782,"connected_time":1608000000000,"state":"active","ping":70},{"user_id":319,"name":"Cereal With Water","steam_id":76561198337783795,"connected_time":1341000000000,"state":"active","ping":48},{"user_id":234,"name":"Type Three Dabeetus","steam_id":76561198062710038,"connected_time":6579000000000,"state":"active","ping":112},{"user_id":304,"name":"Xavibite","steam_id":76561198209380493,"connected_time":2672000000000,"state":"active","ping":43},{"user_id":315,"name":"Jus71n","steam_id":76561198133487430,"connected_time":1534000000000,"state":"active","ping":60},{"user_id":320,"name":"GallowPole","steam_id":76561198045903539,"connected_time":1337000000000,"state":"active","ping":70},{"user_id":324,"name":"Timon's high on crack cocaine!","steam_id":76561198180396430,"connected_time":1061000000000,"state":"active","ping":56},{"user_id":322,"name":"basil","steam_id":76561198075758026,"connected_time":1108000000000,"state":"active","ping":80},{"user_id":327,"name":"EverythingIsRed","steam_id":76561198000147208,"connected_time":726000000000,"state":"active","ping":66},{"user_id":291,"name":"Porcupine's Revenge!","steam_id":76561199121615234,"connected_time":3839000000000,"state":"active","ping":47},{"user_id":309,"name":"mytoyo2k2","steam_id":76561199486326945,"connected_time":2306000000000,"state":"active","ping":85},{"user_id":298,"name":"MLWeegee","steam_id":76561198096399823,"connected_time":3648000000000,"state":"active","ping":51},{"user_id":308,"name":"Mochi","steam_id":76561199151314140,"connected_time":2316000000000,"state":"active","ping":39},{"user_id":297,"name":"FANN","steam_id":76561199479499033,"connected_time":3683000000000,"state":"active","ping":142},{"user_id":282,"name":"BigDumbAnimal","steam_id":76561197998645697,"connected_time":4208000000000,"state":"active","ping":74},{"user_id":329,"name":"extra purple","steam_id":76561198044344111,"connected_time":705000000000,"state":"active","ping":50},{"user_id":331,"name":"freedom staff","steam_id":76561199123218315,"connected_time":188000000000,"state":"active","ping":104}]},{"server_id":14,"name":"Uncletopia | New York City | 2 | All Maps","name_short":"nyc-2","host":"nyc-1.us.uncletopia.com","port":27025,"enabled":true,"region":"us-east","cc":"us","latitude":40.73061,"longitude":-73.93524,"reserved":0,"last_update":"0001-01-01T00:00:00Z","name_a2s":"Uncletopia | New York City | 2 | All Maps","protocol":17,"map":"cp_steel","folder":"tf","game":"Team Fortress","app_id":440,"player_count":24,"max_players":24,"Bots":0,"server_type":"Dedicated","server_os":"Linux","password":true,"vac":true,"version":"7932396","steam_id":85568392924469994,"keywords":["cp","nocrits","nodmgspread","uncletopia"],"game_id":440,"stv_port":27026,"stv_name":"Uncletopia | New York City | 2 | All Maps | STV","players":[{"user_id":149,"name":"Dr.Waffle","steam_id":76561198288428719,"connected_time":1413000000000,"state":"active","ping":108},{"user_id":148,"name":"A_Malebolgia","steam_id":76561198097722818,"connected_time":1829000000000,"state":"active","ping":87},{"user_id":122,"name":"The Incredible Fem Boy","steam_id":76561198355754259,"connected_time":2882000000000,"state":"active","ping":60},{"user_id":160,"name":"Ranswon Swanson","steam_id":76561199489382664,"connected_time":1008000000000,"state":"active","ping":159},{"user_id":146,"name":"msay","steam_id":76561198170888029,"connected_time":1916000000000,"state":"active","ping":75},{"user_id":156,"name":"Shattered Glass","steam_id":76561198116835391,"connected_time":1130000000000,"state":"active","ping":88},{"user_id":108,"name":"Void","steam_id":76561199186496740,"connected_time":4222000000000,"state":"active","ping":83},{"user_id":165,"name":"Tay","steam_id":76561198059605568,"connected_time":59000000000,"state":"spawning","ping":91},{"user_id":163,"name":"Sir Quacksalot","steam_id":76561198048942777,"connected_time":363000000000,"state":"active","ping":95},{"user_id":141,"name":"gps","steam_id":76561198067492304,"connected_time":2129000000000,"state":"active","ping":94},{"user_id":147,"name":"Mister Rattlebones","steam_id":76561198065560157,"connected_time":1892000000000,"state":"active","ping":38},{"user_id":152,"name":"rainingmudkips","steam_id":76561198018010854,"connected_time":1368000000000,"state":"active","ping":61},{"user_id":97,"name":"The Hose on Upward","steam_id":76561197965092192,"connected_time":4931000000000,"state":"active","ping":69},{"user_id":161,"name":"yeyoi","steam_id":76561198069821885,"connected_time":927000000000,"state":"active","ping":54},{"user_id":162,"name":"Braamklauw","steam_id":76561198283287697,"connected_time":796000000000,"state":"active","ping":137},{"user_id":164,"name":"A Puppy","steam_id":76561198828184456,"connected_time":359000000000,"state":"active","ping":45},{"user_id":111,"name":"Goose of Wisdom","steam_id":76561198233465044,"connected_time":4171000000000,"state":"active","ping":86},{"user_id":125,"name":"Polly Geist","steam_id":76561198271964253,"connected_time":2832000000000,"state":"active","ping":100},{"user_id":140,"name":"LegendaryMister151","steam_id":76561198064890524,"connected_time":2137000000000,"state":"active","ping":87},{"user_id":154,"name":"Wallem","steam_id":76561198052361822,"connected_time":1322000000000,"state":"active","ping":58},{"user_id":157,"name":"4jess20","steam_id":76561199488852383,"connected_time":1130000000000,"state":"active","ping":66},{"user_id":114,"name":"Bostonstapler","steam_id":76561197996334971,"connected_time":4088000000000,"state":"active","ping":83},{"user_id":159,"name":"Mr. Durian","steam_id":76561198093813212,"connected_time":1108000000000,"state":"active","ping":61},{"user_id":145,"name":"wiiblob","steam_id":76561198109106242,"connected_time":2058000000000,"state":"active","ping":133}]},{"server_id":15,"name":"Uncletopia | New York City | 3 | Stopwatch Beta","name_short":"nyc-3","host":"nyc-1.us.uncletopia.com","port":27035,"enabled":true,"region":"us-east","cc":"us","latitude":40.73061,"longitude":-73.93524,"reserved":0,"last_update":"0001-01-01T00:00:00Z","name_a2s":"Uncletopia | New York City | 3 | Stopwatch Beta","protocol":17,"map":"workshop/pl_barnblitz_pro7.ugc582280235","folder":"tf","game":"Team Fortress","app_id":440,"player_count":0,"max_players":24,"Bots":0,"server_type":"Dedicated","server_os":"Linux","password":true,"vac":true,"version":"7932396","steam_id":85568392924742820,"keywords":["nocrits","nodmgspread","payload","uncletopia"],"game_id":440,"stv_port":27036,"stv_name":"Uncletopia | New York City | 3 | Stopwatch Beta | STV","players":null},{"server_id":16,"name":"Uncletopia | New York City | 4 | Community","name_short":"nyc-4","host":"nyc-1.us.uncletopia.com","port":27045,"enabled":true,"region":"us-east","cc":"us","latitude":40.73061,"longitude":-73.93524,"reserved":0,"last_update":"0001-01-01T00:00:00Z","name_a2s":"Uncletopia | New York City | 4 | Community","protocol":17,"map":"workshop/koth_bagel_rc6.ugc2514036946","folder":"tf","game":"Team Fortress","app_id":440,"player_count":0,"max_players":24,"Bots":0,"server_type":"Dedicated","server_os":"Linux","password":true,"vac":true,"version":"7932396","steam_id":85568392924742821,"keywords":["cp","nocrits","nodmgspread","uncletopia"],"game_id":440,"stv_port":27046,"stv_name":"Uncletopia | New York City | 4 | Community | STV","players":null},{"server_id":142,"name":"Uncletopia | São Paulo | 1 | All Maps","name_short":"sao-1","host":"sao-1.br.uncletopia.com","port":27015,"enabled":true,"region":"sa","cc":"br","latitude":-23.533773,"longitude":-46.62529,"reserved":0,"last_update":"0001-01-01T00:00:00Z","name_a2s":"Uncletopia | São Paulo | 1 | All Maps","protocol":17,"map":"koth_highpass","folder":"tf","game":"Team Fortress","app_id":440,"player_count":0,"max_players":24,"Bots":0,"server_type":"Dedicated","server_os":"Linux","password":true,"vac":true,"version":"7932396","steam_id":85568392924469996,"keywords":["cp","nocrits","nodmgspread","uncletopia"],"game_id":440,"stv_port":27016,"stv_name":"Uncletopia | São Paulo | 1 | All Maps | STV","players":null},{"server_id":143,"name":"Uncletopia | São Paulo | 2 | All Maps","name_short":"sao-2","host":"sao-2.br.uncletopia.com","port":27015,"enabled":true,"region":"sa","cc":"br","latitude":-23.533773,"longitude":-46.62529,"reserved":0,"last_update":"0001-01-01T00:00:00Z","name_a2s":"Uncletopia | São Paulo | 2 | All Maps","protocol":17,"map":"koth_highpass","folder":"tf","game":"Team Fortress","app_id":440,"player_count":10,"max_players":24,"Bots":0,"server_type":"Dedicated","server_os":"Linux","password":true,"vac":true,"version":"7932396","steam_id":85568392924485349,"keywords":["cp","nocrits","nodmgspread","uncletopia"],"game_id":440,"stv_port":27016,"stv_name":"Uncletopia | São Paulo | 2 | All Maps | STV","players":[{"user_id":95,"name":"anaheisenberg","steam_id":76561198304847307,"connected_time":133000000000,"state":"active","ping":51},{"user_id":21,"name":"vacaloca25","steam_id":76561198082683352,"connected_time":5162000000000,"state":"active","ping":60},{"user_id":94,"name":"Relaxed","steam_id":76561199208293985,"connected_time":270000000000,"state":"active","ping":165},{"user_id":67,"name":"O incrivel Mauro","steam_id":76561198970997510,"connected_time":2464000000000,"state":"active","ping":40},{"user_id":92,"name":"Chad Mandelli","steam_id":76561198197973387,"connected_time":330000000000,"state":"active","ping":45},{"user_id":66,"name":"Tyetil","steam_id":76561198262487777,"connected_time":2479000000000,"state":"active","ping":73},{"user_id":96,"name":"iko","steam_id":76561198965538287,"connected_time":111000000000,"state":"active","ping":40},{"user_id":80,"name":"Reina007","steam_id":76561199217428795,"connected_time":1227000000000,"state":"active","ping":51},{"user_id":79,"name":"Twin","steam_id":76561199480718983,"connected_time":1347000000000,"state":"active","ping":187},{"user_id":86,"name":"hadinode","steam_id":76561198191475573,"connected_time":997000000000,"state":"active","ping":46}]},{"server_id":7,"name":"Uncletopia | Seattle | 1 | All Maps","name_short":"sea-1","host":"sea-1.us.uncletopia.com","port":27015,"enabled":true,"region":"us-west","cc":"us","latitude":47.608013,"longitude":-122.33517,"reserved":0,"last_update":"0001-01-01T00:00:00Z","name_a2s":"Uncletopia | Seattle | 1 | All Maps","protocol":17,"map":"koth_highpass","folder":"tf","game":"Team Fortress","app_id":440,"player_count":24,"max_players":24,"Bots":0,"server_type":"Dedicated","server_os":"Linux","password":true,"vac":true,"version":"7932396","steam_id":85568392924469997,"keywords":["cp","nocrits","nodmgspread","uncletopia"],"game_id":440,"stv_port":27016,"stv_name":"Uncletopia | Seattle | 1 | All Maps | STV","players":[{"user_id":568,"name":"||BassMan||","steam_id":76561198279865229,"connected_time":1612000000000,"state":"active","ping":91},{"user_id":620,"name":"pickup truck with huge honks","steam_id":76561198111447214,"connected_time":517000000000,"state":"active","ping":129},{"user_id":518,"name":"SYMBOL_YT","steam_id":76561198848655517,"connected_time":2571000000000,"state":"active","ping":62},{"user_id":611,"name":"BallinNcantgetup","steam_id":76561198076055164,"connected_time":955000000000,"state":"active","ping":99},{"user_id":578,"name":"kaputis","steam_id":76561198127468114,"connected_time":1480000000000,"state":"active","ping":121},{"user_id":439,"name":"uwu","steam_id":76561198097745857,"connected_time":4371000000000,"state":"active","ping":63},{"user_id":37,"name":"Raizen","steam_id":76561199092445367,"connected_time":14489000000000,"state":"active","ping":94},{"user_id":589,"name":"JeckAtteck","steam_id":76561198066992238,"connected_time":1319000000000,"state":"active","ping":58},{"user_id":617,"name":"hemo goblin›","steam_id":76561198048007844,"connected_time":690000000000,"state":"active","ping":75},{"user_id":533,"name":"Meeks","steam_id":76561198025292353,"connected_time":2245000000000,"state":"active","ping":62},{"user_id":156,"name":"FiddyFoMike","steam_id":76561198057072581,"connected_time":10543000000000,"state":"active","ping":69},{"user_id":483,"name":"oo","steam_id":76561198119626492,"connected_time":3297000000000,"state":"active","ping":83},{"user_id":432,"name":"bemo","steam_id":76561198344331503,"connected_time":4937000000000,"state":"active","ping":45},{"user_id":484,"name":"Moth Beam","steam_id":76561198005069202,"connected_time":3245000000000,"state":"active","ping":119},{"user_id":614,"name":"choi","steam_id":76561198053669887,"connected_time":883000000000,"state":"active","ping":88},{"user_id":615,"name":"bobtheninjaman","steam_id":76561198066424544,"connected_time":857000000000,"state":"active","ping":85},{"user_id":619,"name":"Ground Beef Popsicle","steam_id":76561198045499333,"connected_time":564000000000,"state":"active","ping":102},{"user_id":433,"name":"allahsdroptop","steam_id":76561198133195238,"connected_time":4875000000000,"state":"active","ping":79},{"user_id":609,"name":"captain red","steam_id":76561198191587983,"connected_time":1005000000000,"state":"active","ping":76},{"user_id":519,"name":"PachucoWaffle TTV","steam_id":76561198051491032,"connected_time":2506000000000,"state":"active","ping":58},{"user_id":606,"name":"Eros","steam_id":76561198071413833,"connected_time":1033000000000,"state":"active","ping":67},{"user_id":549,"name":"Right Twix","steam_id":76561198995129622,"connected_time":1871000000000,"state":"active","ping":46},{"user_id":593,"name":"Nikki","steam_id":76561199485086969,"connected_time":1235000000000,"state":"active","ping":67},{"user_id":583,"name":"Jerry Bee","steam_id":76561198170444711,"connected_time":1455000000000,"state":"active","ping":42}]},{"server_id":119,"name":"Uncletopia | Seattle | 2 | All Maps","name_short":"sea-2","host":"sea-1.us.uncletopia.com","port":27025,"enabled":true,"region":"us-west","cc":"us","latitude":47.608013,"longitude":-122.33517,"reserved":0,"last_update":"0001-01-01T00:00:00Z","name_a2s":"Uncletopia | Seattle | 2 | All Maps","protocol":17,"map":"cp_mountainlab","folder":"tf","game":"Team Fortress","app_id":440,"player_count":24,"max_players":24,"Bots":0,"server_type":"Dedicated","server_os":"Linux","password":true,"vac":true,"version":"7932396","steam_id":85568392924469998,"keywords":["cp","nocrits","nodmgspread","uncletopia"],"game_id":440,"stv_port":27026,"stv_name":"Uncletopia | Seattle | 2 | All Maps | STV","players":[{"user_id":14,"name":"WaffleWithNoToppings","steam_id":76561199088280111,"connected_time":5805000000000,"state":"active","ping":47},{"user_id":92,"name":"Nyx","steam_id":76561198100929724,"connected_time":337000000000,"state":"active","ping":46},{"user_id":75,"name":"mr.meaner","steam_id":76561199468236392,"connected_time":1707000000000,"state":"active","ping":83},{"user_id":93,"name":"TOCOOL","steam_id":76561199215602012,"connected_time":335000000000,"state":"active","ping":95},{"user_id":19,"name":"a cat plushie","steam_id":76561198080046542,"connected_time":5461000000000,"state":"active","ping":48},{"user_id":89,"name":"freyja","steam_id":76561198249206656,"connected_time":697000000000,"state":"active","ping":118},{"user_id":94,"name":"Ghworg","steam_id":76561198324891401,"connected_time":312000000000,"state":"active","ping":101},{"user_id":37,"name":"methed up criminal vs baby","steam_id":76561198213385439,"connected_time":3801000000000,"state":"active","ping":73},{"user_id":25,"name":"ilun","steam_id":76561198042913843,"connected_time":4990000000000,"state":"active","ping":59},{"user_id":95,"name":"taksss","steam_id":76561198995422051,"connected_time":60000000000,"state":"active","ping":76},{"user_id":32,"name":"cubibluer","steam_id":76561198197405295,"connected_time":3989000000000,"state":"active","ping":70},{"user_id":90,"name":"plushie","steam_id":76561198088103572,"connected_time":606000000000,"state":"active","ping":87},{"user_id":76,"name":"Gyro Pyro Gaming","steam_id":76561198027321950,"connected_time":1701000000000,"state":"active","ping":87},{"user_id":85,"name":"teaf","steam_id":76561198406252824,"connected_time":1136000000000,"state":"active","ping":59},{"user_id":83,"name":"Shrubbleson","steam_id":76561198274966390,"connected_time":1329000000000,"state":"active","ping":47},{"user_id":65,"name":"Bheem","steam_id":76561198170453459,"connected_time":2886000000000,"state":"active","ping":43},{"user_id":86,"name":"colon three and lowercase c","steam_id":76561198392539722,"connected_time":1011000000000,"state":"active","ping":136},{"user_id":54,"name":"Jail Cell Romance","steam_id":76561198971285292,"connected_time":3135000000000,"state":"active","ping":119},{"user_id":55,"name":"Calypso","steam_id":76561199015827567,"connected_time":3130000000000,"state":"active","ping":135},{"user_id":77,"name":"computer","steam_id":76561198066624239,"connected_time":1684000000000,"state":"active","ping":55},{"user_id":58,"name":"Renon","steam_id":76561198023239819,"connected_time":3083000000000,"state":"active","ping":76},{"user_id":80,"name":"trackpad gaming | f2p","steam_id":76561198840414371,"connected_time":1469000000000,"state":"active","ping":46},{"user_id":82,"name":"\\m/ Cyfun (she/it)","steam_id":76561197960882221,"connected_time":1384000000000,"state":"active","ping":90},{"user_id":73,"name":"Gwithery","steam_id":76561198308988637,"connected_time":1729000000000,"state":"active","ping":71}]},{"server_id":406,"name":"Uncletopia | Seattle | 3 | Stopwatch Beta","name_short":"sea-3","host":"sea-1.us.uncletopia.com","port":27035,"enabled":true,"region":"us-west","cc":"us","latitude":47.608013,"longitude":-122.33517,"reserved":0,"last_update":"0001-01-01T00:00:00Z","name_a2s":"Uncletopia | Seattle | 3 | Stopwatch Beta","protocol":17,"map":"cp_mountainlab","folder":"tf","game":"Team Fortress","app_id":440,"player_count":0,"max_players":24,"Bots":0,"server_type":"Dedicated","server_os":"Linux","password":true,"vac":true,"version":"7932396","steam_id":85568392924515217,"keywords":["cp","nocrits","nodmgspread","uncletopia"],"game_id":440,"stv_port":27036,"stv_name":"Uncletopia | Seattle | 3 | Stopwatch Beta | STV","players":null},{"server_id":17,"name":"Uncletopia | San Francisco | 1 | All Maps","name_short":"sfo-1","host":"sfo-1.us.uncletopia.com","port":27015,"enabled":true,"region":"us-west","cc":"us","latitude":37.77397,"longitude":-122.4313,"reserved":0,"last_update":"0001-01-01T00:00:00Z","name_a2s":"Uncletopia | San Francisco | 1 | All Maps","protocol":17,"map":"pl_upward","folder":"tf","game":"Team Fortress","app_id":440,"player_count":24,"max_players":24,"Bots":0,"server_type":"Dedicated","server_os":"Linux","password":true,"vac":true,"version":"7932396","steam_id":85568392924469999,"keywords":["nocrits","nodmgspread","payload","uncletopia"],"game_id":440,"stv_port":27016,"stv_name":"Uncletopia | San Francisco | 1 | All Maps | STV","players":[{"user_id":94,"name":"SolarusD","steam_id":76561198029279861,"connected_time":2205000000000,"state":"active","ping":45},{"user_id":112,"name":"dudescore","steam_id":76561199091453555,"connected_time":1709000000000,"state":"active","ping":56},{"user_id":121,"name":"Meet The Kazoo","steam_id":76561199229748300,"connected_time":628000000000,"state":"active","ping":69},{"user_id":122,"name":"oske","steam_id":76561198131526809,"connected_time":610000000000,"state":"active","ping":91},{"user_id":131,"name":"omnislime","steam_id":76561199382475668,"connected_time":313000000000,"state":"active","ping":100},{"user_id":128,"name":"WM1 PYRO","steam_id":76561198045893896,"connected_time":485000000000,"state":"active","ping":68},{"user_id":37,"name":"pafijohn","steam_id":76561198002535190,"connected_time":5772000000000,"state":"active","ping":49},{"user_id":123,"name":"Salmon Destroyer 9000","steam_id":76561198065826749,"connected_time":580000000000,"state":"active","ping":85},{"user_id":134,"name":"im high asf","steam_id":76561198198781598,"connected_time":152000000000,"state":"active","ping":38},{"user_id":120,"name":"o̴c̴e̴a̴n̴s̴","steam_id":76561199194587482,"connected_time":700000000000,"state":"active","ping":77},{"user_id":98,"name":"pwadvisor1","steam_id":76561199230039839,"connected_time":1994000000000,"state":"active","ping":65},{"user_id":119,"name":"Slippy","steam_id":76561198334059206,"connected_time":873000000000,"state":"active","ping":58},{"user_id":116,"name":"Danny Fentanyl","steam_id":76561197970791798,"connected_time":1419000000000,"state":"active","ping":52},{"user_id":124,"name":"JohhnyFromCali :7","steam_id":76561198044015725,"connected_time":571000000000,"state":"active","ping":73},{"user_id":63,"name":"chesterwnimitz","steam_id":76561198062664377,"connected_time":4632000000000,"state":"active","ping":84},{"user_id":132,"name":"supcupman","steam_id":76561198051513866,"connected_time":213000000000,"state":"active","ping":75},{"user_id":117,"name":"yolginmo","steam_id":76561198157985901,"connected_time":1273000000000,"state":"active","ping":70},{"user_id":99,"name":"Sparky","steam_id":76561198341769081,"connected_time":1963000000000,"state":"active","ping":90},{"user_id":65,"name":"!mute","steam_id":76561198219209367,"connected_time":4399000000000,"state":"active","ping":65},{"user_id":126,"name":"LewdSumihara","steam_id":76561198402336691,"connected_time":540000000000,"state":"active","ping":107},{"user_id":76,"name":"◥(◥▶_◀◤)◤","steam_id":76561198007464245,"connected_time":3983000000000,"state":"active","ping":108},{"user_id":84,"name":"Livin' Like Larry","steam_id":76561198313360974,"connected_time":3638000000000,"state":"active","ping":40},{"user_id":130,"name":"THIRDPIERCE","steam_id":76561198405366314,"connected_time":434000000000,"state":"active","ping":100},{"user_id":118,"name":"mynameisbeans","steam_id":76561198814945783,"connected_time":1100000000000,"state":"active","ping":71}]},{"server_id":18,"name":"Uncletopia | San Francisco | 2 | All Maps","name_short":"sfo-2","host":"sfo-1.us.uncletopia.com","port":27025,"enabled":true,"region":"us-west","cc":"us","latitude":37.77397,"longitude":-122.4313,"reserved":0,"last_update":"0001-01-01T00:00:00Z","name_a2s":"Uncletopia | San Francisco | 2 | All Maps","protocol":17,"map":"pl_snowycoast","folder":"tf","game":"Team Fortress","app_id":440,"player_count":5,"max_players":24,"Bots":0,"server_type":"Dedicated","server_os":"Linux","password":true,"vac":true,"version":"7932396","steam_id":85568392924470000,"keywords":["nocrits","nodmgspread","payload","uncletopia"],"game_id":440,"stv_port":27026,"stv_name":"Uncletopia | San Francisco | 2 | All Maps | STV","players":[{"user_id":4,"name":"JC The Dumb","steam_id":76561199186185567,"connected_time":181000000000,"state":"active","ping":56},{"user_id":5,"name":"HawkBlaze","steam_id":76561199000152914,"connected_time":179000000000,"state":"active","ping":55},{"user_id":10,"name":"oasis is neat","steam_id":76561199013890184,"connected_time":3000000000,"state":"spawning","ping":41},{"user_id":8,"name":"Dimmerswitch","steam_id":76561198034782177,"connected_time":52000000000,"state":"active","ping":30},{"user_id":9,"name":"Funbork","steam_id":76561198313651003,"connected_time":5000000000,"state":"spawning","ping":52}]},{"server_id":19,"name":"Uncletopia | San Francisco | 3 | Stopwatch Beta","name_short":"sfo-3","host":"sfo-1.us.uncletopia.com","port":27035,"enabled":true,"region":"us-west","cc":"us","latitude":37.77397,"longitude":-122.4313,"reserved":0,"last_update":"0001-01-01T00:00:00Z","name_a2s":"Uncletopia | San Francisco | 3 | Stopwatch Beta","protocol":17,"map":"workshop/koth_bagel_rc6.ugc2514036946","folder":"tf","game":"Team Fortress","app_id":440,"player_count":4,"max_players":24,"Bots":0,"server_type":"Dedicated","server_os":"Linux","password":true,"vac":true,"version":"7932396","steam_id":85568392924742824,"keywords":["cp","nocrits","nodmgspread","uncletopia"],"game_id":440,"stv_port":27036,"stv_name":"Uncletopia | San Francisco | 3 | Stopwatch Beta | STV","players":[{"user_id":10,"name":"The_Dart_One","steam_id":76561198968354443,"connected_time":294000000000,"state":"active","ping":71},{"user_id":9,"name":"SUPREME LEADER OF NORTH KOREA","steam_id":76561199467334502,"connected_time":483000000000,"state":"active","ping":44},{"user_id":7,"name":"SlitherDoodle","steam_id":76561198000275473,"connected_time":1665000000000,"state":"active","ping":81},{"user_id":11,"name":"Kylek1133","steam_id":76561198277595899,"connected_time":202000000000,"state":"active","ping":66}]},{"server_id":20,"name":"Uncletopia | San Francisco | 4 | Community","name_short":"sfo-4","host":"sfo-1.us.uncletopia.com","port":27045,"enabled":true,"region":"us-west","cc":"us","latitude":37.77397,"longitude":-122.4313,"reserved":0,"last_update":"0001-01-01T00:00:00Z","name_a2s":"Uncletopia | San Francisco | 4 | Community","protocol":17,"map":"pl_borneo","folder":"tf","game":"Team Fortress","app_id":440,"player_count":0,"max_players":24,"Bots":0,"server_type":"Dedicated","server_os":"Linux","password":true,"vac":true,"version":"7932396","steam_id":85568392924742826,"keywords":["nocrits","nodmgspread","payload","uncletopia"],"game_id":440,"stv_port":27046,"stv_name":"Uncletopia | San Francisco | 4 | Community | STV","players":null},{"server_id":141,"name":"Uncletopia | Sydney | 1 | All Maps","name_short":"syd-1","host":"syd-1.au.uncletopia.com","port":27015,"enabled":true,"region":"au","cc":"au","latitude":-33.865143,"longitude":151.2099,"reserved":0,"last_update":"0001-01-01T00:00:00Z","name_a2s":"Uncletopia | Sydney | 1 | All Maps","protocol":17,"map":"pl_pier","folder":"tf","game":"Team Fortress","app_id":440,"player_count":0,"max_players":24,"Bots":0,"server_type":"Dedicated","server_os":"Linux","password":true,"vac":true,"version":"7932396","steam_id":85568392924470001,"keywords":["nocrits","nodmgspread","payload","uncletopia"],"game_id":440,"stv_port":27016,"stv_name":"Uncletopia | Sydney | 1 | All Maps | STV","players":null},{"server_id":123,"name":"Uncletopia | Sydney | 2 | All Maps","name_short":"syd-2","host":"syd-1.au.uncletopia.com","port":27025,"enabled":true,"region":"au","cc":"au","latitude":-33.865143,"longitude":151.2099,"reserved":0,"last_update":"0001-01-01T00:00:00Z","name_a2s":"Uncletopia | Sydney | 2 | All Maps","protocol":17,"map":"koth_lakeside_final","folder":"tf","game":"Team Fortress","app_id":440,"player_count":0,"max_players":24,"Bots":0,"server_type":"Dedicated","server_os":"Linux","password":true,"vac":true,"version":"7932396","steam_id":85568392924470002,"keywords":["cp","nocrits","nodmgspread","uncletopia"],"game_id":440,"stv_port":27026,"stv_name":"Uncletopia | Sydney | 2 | All Maps | STV","players":null},{"server_id":395,"name":"Uncletopia | Sydney | 3 | All Maps","name_short":"syd-3","host":"syd-1.au.uncletopia.com","port":27035,"enabled":true,"region":"au","cc":"au","latitude":-33.865143,"longitude":151.2099,"reserved":0,"last_update":"0001-01-01T00:00:00Z","name_a2s":"Uncletopia | Sydney | 3 | All Maps","protocol":17,"map":"pl_barnblitz","folder":"tf","game":"Team Fortress","app_id":440,"player_count":0,"max_players":24,"Bots":0,"server_type":"Dedicated","server_os":"Linux","password":true,"vac":true,"version":"7932396","steam_id":85568392925194467,"keywords":["nocrits","nodmgspread","payload","uncletopia"],"game_id":440,"stv_port":27036,"stv_name":"Uncletopia | Sydney | 3 | All Maps | STV","players":null},{"server_id":396,"name":"Uncletopia | Sydney | 4 | All Maps","name_short":"syd-4","host":"syd-1.au.uncletopia.com","port":27045,"enabled":true,"region":"au","cc":"au","latitude":-33.865143,"longitude":151.2099,"reserved":0,"last_update":"0001-01-01T00:00:00Z","name_a2s":"Uncletopia | Sydney | 4 | All Maps","protocol":17,"map":"pl_pier","folder":"tf","game":"Team Fortress","app_id":440,"player_count":0,"max_players":24,"Bots":0,"server_type":"Dedicated","server_os":"Linux","password":true,"vac":true,"version":"7932396","steam_id":85568392925397958,"keywords":["nocrits","nodmgspread","payload","uncletopia"],"game_id":440,"stv_port":27046,"stv_name":"Uncletopia | Sydney | 4 | All Maps | STV","players":null},{"server_id":58,"name":"Uncletopia | Sydney | 5 | Stopwatch Beta","name_short":"syd-5","host":"syd-1.au.uncletopia.com","port":27055,"enabled":true,"region":"au","cc":"au","latitude":-33.865143,"longitude":151.2099,"reserved":0,"last_update":"0001-01-01T00:00:00Z","name_a2s":"Uncletopia | Sydney | 5 | Stopwatch Beta","protocol":17,"map":"pl_borneo","folder":"tf","game":"Team Fortress","app_id":440,"player_count":0,"max_players":24,"Bots":0,"server_type":"Dedicated","server_os":"Linux","password":true,"vac":true,"version":"7932396","steam_id":85568392925397959,"keywords":["nocrits","nodmgspread","payload","uncletopia"],"game_id":440,"stv_port":27056,"stv_name":"Uncletopia | Sydney | 5 | Stopwatch Beta | STV","players":null},{"server_id":59,"name":"Uncletopia | Sydney | 6 | Community","name_short":"syd-6","host":"syd-1.au.uncletopia.com","port":27065,"enabled":true,"region":"au","cc":"au","latitude":-33.865143,"longitude":151.2099,"reserved":0,"last_update":"0001-01-01T00:00:00Z","name_a2s":"Uncletopia | Sydney | 6 | Community","protocol":17,"map":"pl_badwater","folder":"tf","game":"Team Fortress","app_id":440,"player_count":0,"max_players":24,"Bots":0,"server_type":"Dedicated","server_os":"Linux","password":true,"vac":true,"version":"7932396","steam_id":85568392925397960,"keywords":["nocrits","nodmgspread","payload","uncletopia"],"game_id":440,"stv_port":27066,"stv_name":"Uncletopia | Sydney | 6 | Community | STV","players":null},{"server_id":49,"name":"Uncletopia | Warsaw | 1 | All Maps","name_short":"waw-1","host":"waw-1.pl.uncletopia.com","port":27015,"enabled":true,"region":"eu","cc":"pl","latitude":52.2297,"longitude":21.017532,"reserved":0,"last_update":"0001-01-01T00:00:00Z","name_a2s":"","protocol":0,"map":"","folder":"","game":"","app_id":0,"player_count":0,"max_players":0,"Bots":0,"server_type":"","server_os":"","password":false,"vac":false,"version":"","steam_id":0,"keywords":null,"game_id":0,"stv_port":0,"stv_name":"","players":null},{"server_id":50,"name":"Uncletopia | Warsaw | 2 | All Maps","name_short":"waw-2","host":"waw-1.pl.uncletopia.com","port":27025,"enabled":true,"region":"eu","cc":"pl","latitude":52.2297,"longitude":21.017532,"reserved":0,"last_update":"0001-01-01T00:00:00Z","name_a2s":"Uncletopia | Warsaw | 2 | All Maps","protocol":17,"map":"koth_lakeside_final","folder":"tf","game":"Team Fortress","app_id":440,"player_count":0,"max_players":24,"Bots":0,"server_type":"Dedicated","server_os":"Linux","password":true,"vac":true,"version":"7932396","steam_id":85568392925397851,"keywords":["cp","nocrits","nodmgspread","uncletopia"],"game_id":440,"stv_port":27026,"stv_name":"Uncletopia | Warsaw | 2 | All Maps | STV","players":null},{"server_id":51,"name":"Uncletopia | Warsaw | 3 | All Maps","name_short":"waw-3","host":"waw-1.pl.uncletopia.com","port":27035,"enabled":true,"region":"eu","cc":"pl","latitude":52.2297,"longitude":21.017532,"reserved":0,"last_update":"0001-01-01T00:00:00Z","name_a2s":"Uncletopia | Warsaw | 3 | All Maps","protocol":17,"map":"koth_viaduct","folder":"tf","game":"Team Fortress","app_id":440,"player_count":0,"max_players":24,"Bots":0,"server_type":"Dedicated","server_os":"Linux","password":true,"vac":true,"version":"7932396","steam_id":85568392925397852,"keywords":["cp","nocrits","nodmgspread","uncletopia"],"game_id":440,"stv_port":27036,"stv_name":"Uncletopia | Warsaw | 3 | All Maps | STV","players":null},{"server_id":52,"name":"Uncletopia | Warsaw | 4 | All Maps","name_short":"waw-4","host":"waw-1.pl.uncletopia.com","port":27045,"enabled":true,"region":"eu","cc":"pl","latitude":52.2297,"longitude":21.017532,"reserved":0,"last_update":"0001-01-01T00:00:00Z","name_a2s":"Uncletopia | Warsaw | 4 | All Maps","protocol":17,"map":"cp_sunshine","folder":"tf","game":"Team Fortress","app_id":440,"player_count":0,"max_players":24,"Bots":0,"server_type":"Dedicated","server_os":"Linux","password":true,"vac":true,"version":"7932396","steam_id":85568392925397853,"keywords":["cp","nocrits","nodmgspread","uncletopia"],"game_id":440,"stv_port":27046,"stv_name":"Uncletopia | Warsaw | 4 | All Maps | STV","players":null},{"server_id":53,"name":"Uncletopia | Warsaw | 5 | Stopwatch Beta","name_short":"waw-5","host":"waw-1.pl.uncletopia.com","port":27055,"enabled":true,"region":"eu","cc":"pl","latitude":52.2297,"longitude":21.017532,"reserved":0,"last_update":"0001-01-01T00:00:00Z","name_a2s":"Uncletopia | Warsaw | 5 | Stopwatch Beta","protocol":17,"map":"koth_highpass","folder":"tf","game":"Team Fortress","app_id":440,"player_count":0,"max_players":24,"Bots":0,"server_type":"Dedicated","server_os":"Linux","password":true,"vac":true,"version":"7932396","steam_id":85568392925397854,"keywords":["cp","nocrits","nodmgspread","uncletopia"],"game_id":440,"stv_port":27056,"stv_name":"Uncletopia | Warsaw | 5 | Stopwatch Beta | STV","players":null},{"server_id":54,"name":"Uncletopia | Warsaw | 6 | Community","name_short":"waw-6","host":"waw-1.pl.uncletopia.com","port":27065,"enabled":true,"region":"eu","cc":"pl","latitude":52.2297,"longitude":21.017532,"reserved":0,"last_update":"0001-01-01T00:00:00Z","name_a2s":"Uncletopia | Warsaw | 6 | Community","protocol":17,"map":"workshop/pl_shoreleave_rc2.ugc1238849347","folder":"tf","game":"Team Fortress","app_id":440,"player_count":0,"max_players":24,"Bots":0,"server_type":"Dedicated","server_os":"Linux","password":true,"vac":true,"version":"7932396","steam_id":85568392925397856,"keywords":["nocrits","nodmgspread","payload","uncletopia"],"game_id":440,"stv_port":27066,"stv_name":"Uncletopia | Warsaw | 6 | Community | STV","players":null}]}