{"status":true,"message":"","result":[{"server_id":9,"name":"Uncletopia | Atlanta | 1 | All Maps","name_short":"atl-1","host":"atl-1.us.uncletopia.com","port":27015,"enabled":true,"region":"us-east","cc":"us","latitude":33.753746,"longitude":-84.38633,"reserved":0,"last_update":"0001-01-01T00:00:00Z","name_a2s":"Uncletopia | Atlanta | 1 | All Maps","protocol":17,"map":"pl_pier","folder":"tf","game":"Team Fortress","app_id":440,"player_count":24,"max_players":24,"Bots":0,"server_type":"Dedicated","server_os":"Linux","password":true,"vac":true,"version":"7757534","steam_id":85568392924469982,"keywords":["nocrits","nodmgspread","payload","uncletopia"],"game_id":440,"stv_port":27016,"stv_name":"Uncletopia | Atlanta | 1 | All Maps | STV","players":[{"user_id":66,"name":"melancholy","steam_id":76561198024301465,"connected_time":1001000000000,"state":"active","ping":44},{"user_id":63,"name":"awesome bill from cybill","steam_id":76561198043882897,"connected_time":1083000000000,"state":"active","ping":52},{"user_id":60,"name":"-W3E- grim10465","steam_id":76561198045698581,"connected_time":2206000000000,"state":"active","ping":60},{"user_id":65,"name":"Kidzbopsicle","steam_id":76561198047660691,"connected_time":1038000000000,"state":"active","ping":58},{"user_id":73,"name":"Jin Gulilo","steam_id":76561198065151242,"connected_time":192000000000,"state":"active","ping":83},{"user_id":49,"name":"Brain Rot Zee","steam_id":76561198094070642,"connected_time":2617000000000,"state":"active","ping":104},{"user_id":67,"name":"Towns","steam_id":76561198984662863,"connected_time":925000000000,"state":"active","ping":64},{"user_id":43,"name":"GeneralTaco","steam_id":76561198026783097,"connected_time":2989000000000,"state":"active","ping":137},{"user_id":61,"name":"Magician Wen-li","steam_id":76561198189688217,"connected_time":2143000000000,"state":"active","ping":64},{"user_id":14,"name":"chexo4","steam_id":76561198150532531,"connected_time":5917000000000,"state":"active","ping":48},{"user_id":47,"name":"Bottom Trans Cowgirl","steam_id":76561198304239680,"connected_time":2629000000000,"state":"active","ping":87},{"user_id":16,"name":"FemboyNate","steam_id":76561198146636410,"connected_time":5914000000000,"state":"active","ping":60},{"user_id":53,"name":"Maverick","steam_id":76561198035615249,"connected_time":2553000000000,"state":"active","ping":60},{"user_id":54,"name":"lil hog","steam_id":76561199230929836,"connected_time":2518000000000,"state":"active","ping":75},{"user_id":19,"name":"lucil3 on Bandcamp","steam_id":76561198149063013,"connected_time":5902000000000,"state":"active","ping":75},{"user_id":48,"name":"BIG HOG","steam_id":76561198079923652,"connected_time":2624000000000,"state":"active","ping":75},{"user_id":68,"name":"cringy","steam_id":76561198323000455,"connected_time":895000000000,"state":"active","ping":138},{"user_id":55,"name":"Deep Peepus","steam_id":76561198205395757,"connected_time":2506000000000,"state":"active","ping":96},{"user_id":69,"name":"Crotonga","steam_id":76561198077178900,"connected_time":871000000000,"state":"active","ping":77},{"user_id":70,"name":"Duncle Frazzle","steam_id":76561198145596626,"connected_time":839000000000,"state":"active","ping":120},{"user_id":71,"name":"Unboundblade","steam_id":76561198805550728,"connected_time":817000000000,"state":"active","ping":59},{"user_id":56,"name":"poopiegamer32 (racist)","steam_id":76561198154746018,"connected_time":2500000000000,"state":"active","ping":65},{"user_id":57,"name":"shadow elite","steam_id":76561198165212575,"connected_time":2495000000000,"state":"active","ping":77},{"user_id":30,"name":"reis","steam_id":76561199232952016,"connected_time":5782000000000,"state":"active","ping":179}]},{"server_id":104,"name":"Uncletopia | Atlanta | 2 | All Maps","name_short":"atl-2","host":"atl-1.us.uncletopia.com","port":27025,"enabled":true,"region":"us-east","cc":"us","latitude":33.753746,"longitude":-84.38633,"reserved":0,"last_update":"0001-01-01T00:00:00Z","name_a2s":"Uncletopia | Atlanta | 2 | All Maps","protocol":17,"map":"pl_borneo","folder":"tf","game":"Team Fortress","app_id":440,"player_count":24,"max_players":24,"Bots":0,"server_type":"Dedicated","server_os":"Linux","password":true,"vac":true,"version":"7757534","steam_id":85568392924469983,"keywords":["nocrits","nodmgspread","payload","uncletopia"],"game_id":440,"stv_port":27026,"stv_name":"Uncletopia | Atlanta | 2 | All Maps | STV","players":[{"user_id":98,"name":"StatesideSnake","steam_id":76561198272957048,"connected_time":354000000000,"state":"active","ping":88},{"user_id":100,"name":"skwah","steam_id":76561198160856084,"connected_time":325000000000,"state":"active","ping":65},{"user_id":71,"name":"≃","steam_id":76561198157393205,"connected_time":1844000000000,"state":"active","ping":152},{"user_id":82,"name":"!!","steam_id":76561197993091855,"connected_time":1380000000000,"state":"active","ping":91},{"user_id":72,"name":"yesu","steam_id":76561199411502345,"connected_time":1836000000000,"state":"active","ping":107},{"user_id":101,"name":"Friggy","steam_id":76561198131467867,"connected_time":318000000000,"state":"active","ping":96},{"user_id":10,"name":"Val-Simp","steam_id":76561198354437045,"connected_time":5898000000000,"state":"active","ping":123},{"user_id":90,"name":"Bunger From The Bronx","steam_id":76561198975555562,"connected_time":945000000000,"state":"active","ping":105},{"user_id":110,"name":"Bag","steam_id":76561198012395490,"connected_time":109000000000,"state":"active","ping":59},{"user_id":92,"name":"Thev23","steam_id":76561198050398028,"connected_time":852000000000,"state":"active","ping":84},{"user_id":91,"name":"Odd Life","steam_id":76561198244979998,"connected_time":933000000000,"state":"active","ping":112},{"user_id":102,"name":"lag","steam_id":76561197963872739,"connected_time":276000000000,"state":"active","ping":95},{"user_id":95,"name":"Admiral Casual","steam_id":76561198150840826,"connected_time":448000000000,"state":"active","ping":53},{"user_id":103,"name":"floofy","steam_id":76561198389769098,"connected_time":258000000000,"state":"active","ping":82},{"user_id":34,"name":"(´-ι_-｀)","steam_id":76561198007464245,"connected_time":4270000000000,"state":"active","ping":60},{"user_id":104,"name":"LilDreamer","steam_id":76561198804054102,"connected_time":253000000000,"state":"active","ping":88},{"user_id":105,"name":"Mentlegen","steam_id":76561198295280927,"connected_time":234000000000,"state":"active","ping":86},{"user_id":106,"name":"wizzyfan109","steam_id":76561198086193212,"connected_time":226000000000,"state":"active","ping":61},{"user_id":93,"name":"Jin Mu-Won","steam_id":76561198414122318,"connected_time":818000000000,"state":"active","ping":96},{"user_id":94,"name":"for the king","steam_id":76561197973488858,"connected_time":778000000000,"state":"active","ping":56},{"user_id":107,"name":"Klip","steam_id":76561198316254429,"connected_time":214000000000,"state":"active","ping":79},{"user_id":45,"name":"my tomach hurt 100","steam_id":76561198046111695,"connected_time":3597000000000,"state":"active","ping":68},{"user_id":108,"name":"Buckytr","steam_id":76561198096335025,"connected_time":210000000000,"state":"active","ping":127},{"user_id":62,"name":"Jeeper","steam_id":76561198155583692,"connected_time":3007000000000,"state":"active","ping":70}]},{"server_id":400,"name":"Uncletopia | Atlanta | 3 | Community","name_short":"atl-3","host":"atl-1.us.uncletopia.com","port":27035,"enabled":true,"region":"us-east","cc":"us","latitude":33.753746,"longitude":-84.38633,"reserved":0,"last_update":"0001-01-01T00:00:00Z","name_a2s":"Uncletopia | Atlanta | 3 | Community","protocol":17,"map":"cp_snakewater_final1","folder":"tf","game":"Team Fortress","app_id":440,"player_count":2,"max_players":24,"Bots":0,"server_type":"Dedicated","server_os":"Linux","password":true,"vac":true,"version":"7757534","steam_id":85568392924515187,"keywords":["cp","nocrits","nodmgspread","uncletopia"],"game_id":440,"stv_port":27036,"stv_name":"Uncletopia | Atlanta | 3 | Community | STV","players":[{"user_id":5,"name":"Kicker Skeleton","steam_id":76561198260328564,"connected_time":1188000000000,"state":"active","ping":83},{"user_id":6,"name":"greenbean:)","steam_id":76561198277371708,"connected_time":1183000000000,"state":"active","ping":84}]},{"server_id":401,"name":"Uncletopia | Atlanta | 4 | No Payload","name_short":"atl-4","host":"atl-1.us.uncletopia.com","port":27045,"enabled":true,"region":"us-east","cc":"us","latitude":33.753746,"longitude":-84.38633,"reserved":0,"last_update":"0001-01-01T00:00:00Z","name_a2s":"","protocol":0,"map":"","folder":"","game":"","app_id":0,"player_count":0,"max_players":0,"Bots":0,"server_type":"","server_os":"","password":false,"vac":false,"version":"","steam_id":0,"keywords":null,"game_id":0,"stv_port":0,"stv_name":"","players":null},{"server_id":2,"name":"Uncletopia | Chicago | 1 | All Maps","name_short":"chi-1","host":"chi-1.us.uncletopia.com","port":27015,"enabled":true,"region":"us-central","cc":"us","latitude":41.881832,"longitude":-87.62318,"reserved":0,"last_update":"0001-01-01T00:00:00Z","name_a2s":"Uncletopia | Chicago | 1 | All Maps","protocol":17,"map":"pl_upward","folder":"tf","game":"Team Fortress","app_id":440,"player_count":23,"max_players":24,"Bots":0,"server_type":"Dedicated","server_os":"Linux","password":true,"vac":true,"version":"7757534","steam_id":85568392924469984,"keywords":["nocrits","nodmgspread","payload","uncletopia"],"game_id":440,"stv_port":27016,"stv_name":"Uncletopia | Chicago | 1 | All Maps | STV","players":[{"user_id":75,"name":"Salt Syndrome","steam_id":76561198046584592,"connected_time":1717000000000,"state":"active","ping":76},{"user_id":42,"name":"PineappleSalesman","steam_id":76561198881039861,"connected_time":4148000000000,"state":"active","ping":46},{"user_id":78,"name":"TimTam Tom","steam_id":76561198045988062,"connected_time":1413000000000,"state":"active","ping":74},{"user_id":93,"name":"The Overmind","steam_id":76561199170229428,"connected_time":68000000000,"state":"active","ping":72},{"user_id":73,"name":"Vulpes","steam_id":76561198038929334,"connected_time":1822000000000,"state":"active","ping":41},{"user_id":89,"name":"Klitz Penischmidt (Stalli0nMang","steam_id":76561198050582941,"connected_time":528000000000,"state":"active","ping":56},{"user_id":76,"name":"Dirtbomb","steam_id":76561198002403301,"connected_time":1571000000000,"state":"active","ping":88},{"user_id":84,"name":"IntravenusDeMilo","steam_id":76561197970629020,"connected_time":718000000000,"state":"active","ping":90},{"user_id":70,"name":"Frimpimy","steam_id":76561198142605675,"connected_time":2052000000000,"state":"active","ping":59},{"user_id":68,"name":"alexfuzzy","steam_id":76561199291945851,"connected_time":2137000000000,"state":"active","ping":111},{"user_id":92,"name":"Jacket","steam_id":76561198131518482,"connected_time":110000000000,"state":"active","ping":72},{"user_id":43,"name":"Tobo","steam_id":76561198085846393,"connected_time":4148000000000,"state":"active","ping":87},{"user_id":44,"name":"ROGUE-PLANET","steam_id":76561198116023052,"connected_time":4143000000000,"state":"active","ping":68},{"user_id":53,"name":"Person","steam_id":76561198093244204,"connected_time":2707000000000,"state":"active","ping":71},{"user_id":80,"name":"Spy Zoroark","steam_id":76561198054890339,"connected_time":1254000000000,"state":"active","ping":58},{"user_id":54,"name":"Father Jon","steam_id":76561198324730919,"connected_time":2635000000000,"state":"active","ping":87},{"user_id":69,"name":"Yeshie the Dragon Layer","steam_id":76561198080214214,"connected_time":2125000000000,"state":"active","ping":43},{"user_id":58,"name":"ProbiusSC","steam_id":76561198379167322,"connected_time":2381000000000,"state":"active","ping":87},{"user_id":55,"name":"alan","steam_id":76561198281442409,"connected_time":2625000000000,"state":"active","ping":53},{"user_id":52,"name":"twitch.tv/Yoshi21 | TF2Pugs.com","steam_id":76561198002516729,"connected_time":2793000000000,"state":"active","ping":66},{"user_id":82,"name":"p]","steam_id":76561198145784505,"connected_time":885000000000,"state":"active","ping":93},{"user_id":87,"name":"Lore","steam_id":76561198098407538,"connected_time":681000000000,"state":"active","ping":45},{"user_id":88,"name":"Octovaitor","steam_id":76561198004658451,"connected_time":651000000000,"state":"active","ping":46}]},{"server_id":106,"name":"Uncletopia | Chicago | 2 | All Maps","name_short":"chi-2","host":"chi-1.us.uncletopia.com","port":27025,"enabled":true,"region":"us-central","cc":"us","latitude":41.881832,"longitude":-87.62318,"reserved":0,"last_update":"0001-01-01T00:00:00Z","name_a2s":"Uncletopia | Chicago | 2 | All Maps","protocol":17,"map":"pl_pier","folder":"tf","game":"Team Fortress","app_id":440,"player_count":23,"max_players":24,"Bots":0,"server_type":"Dedicated","server_os":"Linux","password":true,"vac":true,"version":"7757534","steam_id":85568392924469985,"keywords":["nocrits","nodmgspread","payload","uncletopia"],"game_id":440,"stv_port":27026,"stv_name":"Uncletopia | Chicago | 2 | All Maps | STV","players":[{"user_id":82,"name":"RedneckPhoenix","steam_id":76561198172922366,"connected_time":1908000000000,"state":"active","ping":40},{"user_id":42,"name":"MEATBALL","steam_id":76561198028499312,"connected_time":4415000000000,"state":"active","ping":59},{"user_id":81,"name":"SEXHATER329","steam_id":76561198101093446,"connected_time":2010000000000,"state":"active","ping":59},{"user_id":105,"name":"Devious Scottsman","steam_id":76561198286042654,"connected_time":595000000000,"state":"active","ping":131},{"user_id":85,"name":"Oh No! It's Twister!","steam_id":76561198016791916,"connected_time":1820000000000,"state":"active","ping":88},{"user_id":97,"name":"leopardo123atl","steam_id":76561198872648238,"connected_time":825000000000,"state":"active","ping":95},{"user_id":90,"name":"Gay Cowboy","steam_id":76561198151549658,"connected_time":1060000000000,"state":"active","ping":98},{"user_id":16,"name":"rudy","steam_id":76561198088712799,"connected_time":5408000000000,"state":"active","ping":81},{"user_id":91,"name":"Tree","steam_id":76561198195445331,"connected_time":1055000000000,"state":"active","ping":116},{"user_id":92,"name":"Gilgamesh","steam_id":76561198317113179,"connected_time":1041000000000,"state":"active","ping":61},{"user_id":108,"name":"Lunatic","steam_id":76561198361787107,"connected_time":117000000000,"state":"active","ping":84},{"user_id":95,"name":"Luyten aka Lu","steam_id":76561198125308413,"connected_time":946000000000,"state":"active","ping":72},{"user_id":22,"name":"phone","steam_id":76561198029268743,"connected_time":5180000000000,"state":"active","ping":60},{"user_id":98,"name":"mac_cheese","steam_id":76561198071334162,"connected_time":821000000000,"state":"active","ping":90},{"user_id":71,"name":"meggie","steam_id":76561198038291026,"connected_time":2690000000000,"state":"active","ping":59},{"user_id":99,"name":"LunarMallow","steam_id":76561198211930151,"connected_time":808000000000,"state":"active","ping":107},{"user_id":100,"name":"Just Chuck","steam_id":76561198121697504,"connected_time":790000000000,"state":"active","ping":69},{"user_id":59,"name":"Huey","steam_id":76561198972816386,"connected_time":3239000000000,"state":"active","ping":81},{"user_id":73,"name":"Mush","steam_id":76561198393461065,"connected_time":2656000000000,"state":"active","ping":77},{"user_id":74,"name":"Anderred","steam_id":76561198149983847,"connected_time":2656000000000,"state":"active","ping":84},{"user_id":104,"name":"MysticalRizzard","steam_id":76561198198187265,"connected_time":656000000000,"state":"active","ping":84},{"user_id":76,"name":"Soil","steam_id":76561198943879122,"connected_time":2597000000000,"state":"active","ping":73},{"user_id":102,"name":"Explonaut","steam_id":76561198099846612,"connected_time":740000000000,"state":"active","ping":85}]},{"server_id":402,"name":"Uncletopia | Chicago | 3 | All Maps","name_short":"chi-3","host":"chi-1.us.uncletopia.com","port":27035,"enabled":true,"region":"us-central","cc":"us","latitude":41.881832,"longitude":-87.62318,"reserved":0,"last_update":"0001-01-01T00:00:00Z","name_a2s":"Uncletopia | Chicago | 3 | All Maps","protocol":17,"map":"pl_badwater","folder":"tf","game":"Team Fortress","app_id":440,"player_count":23,"max_players":24,"Bots":0,"server_type":"Dedicated","server_os":"Linux","password":true,"vac":true,"version":"7757534","steam_id":85568392924515191,"keywords":["nocrits","nodmgspread","payload","uncletopia"],"game_id":440,"stv_port":27036,"stv_name":"Uncletopia | Chicago | 3 | All Maps | STV","players":[{"user_id":42,"name":"pathulhu","steam_id":76561198323941614,"connected_time":4331000000000,"state":"active","ping":71},{"user_id":46,"name":"bash -lc ./asshat.sh","steam_id":76561198004584315,"connected_time":4040000000000,"state":"active","ping":67},{"user_id":6,"name":"SomeScuffedKid","steam_id":76561198086113234,"connected_time":5933000000000,"state":"active","ping":59},{"user_id":73,"name":"ChocoCrispChunks","steam_id":76561198881926539,"connected_time":1812000000000,"state":"active","ping":110},{"user_id":78,"name":"aplsed","steam_id":76561198170103087,"connected_time":1523000000000,"state":"active","ping":76},{"user_id":76,"name":"El veneno está en la dosis","steam_id":76561198210928285,"connected_time":1639000000000,"state":"active","ping":153},{"user_id":60,"name":"[DATS➡] Sugar Meowth","steam_id":76561197995251793,"connected_time":3085000000000,"state":"active","ping":90},{"user_id":77,"name":"SpicedRum","steam_id":76561198075990335,"connected_time":1544000000000,"state":"active","ping":151},{"user_id":80,"name":"prdxninja","steam_id":76561198170081774,"connected_time":1473000000000,"state":"active","ping":59},{"user_id":92,"name":"Epsilon","steam_id":76561198108170565,"connected_time":112000000000,"state":"active","ping":65},{"user_id":63,"name":"be","steam_id":76561198000824533,"connected_time":2801000000000,"state":"active","ping":82},{"user_id":68,"name":"Geight","steam_id":76561197991645292,"connected_time":1846000000000,"state":"active","ping":103},{"user_id":82,"name":"Randy \"the Man\" Johnson","steam_id":76561198039124445,"connected_time":1397000000000,"state":"active","ping":122},{"user_id":83,"name":"funnyduck1","steam_id":76561198072146886,"connected_time":1370000000000,"state":"active","ping":76},{"user_id":21,"name":"BigOrca54","steam_id":76561198181360271,"connected_time":5818000000000,"state":"active","ping":63},{"user_id":86,"name":"Shennynerd","steam_id":76561198026143747,"connected_time":1243000000000,"state":"active","ping":93},{"user_id":87,"name":"Ket","steam_id":76561198241951244,"connected_time":1239000000000,"state":"active","ping":66},{"user_id":91,"name":"e_the_cat","steam_id":76561198214264483,"connected_time":755000000000,"state":"active","ping":80},{"user_id":90,"name":"snoogy woogy buggy","steam_id":76561198894676484,"connected_time":1074000000000,"state":"active","ping":104},{"user_id":54,"name":"N0Ne","steam_id":76561198376822522,"connected_time":3703000000000,"state":"active","ping":80},{"user_id":65,"name":"AkimboAoki","steam_id":76561198158323058,"connected_time":2710000000000,"state":"active","ping":91},{"user_id":67,"name":"Actually a Shoggoth","steam_id":76561198065857964,"connected_time":2217000000000,"state":"active","ping":73},{"user_id":89,"name":"Lil' Foosball Table","steam_id":76561198246990080,"connected_time":1211000000000,"state":"active","ping":64}]},{"server_id":403,"name":"Uncletopia | Chicago | 4 | All Maps","name_short":"chi-4","host":"chi-1.us.uncletopia.com","port":27045,"enabled":true,"region":"us-central","cc":"us","latitude":41.881832,"longitude":-87.62318,"reserved":0,"last_update":"0001-01-01T00:00:00Z","name_a2s":"Uncletopia | Chicago | 4 | All Maps","protocol":17,"map":"pl_borneo","folder":"tf","game":"Team Fortress","app_id":440,"player_count":24,"max_players":24,"Bots":0,"server_type":"Dedicated","server_os":"Linux","password":true,"vac":true,"version":"7757534","steam_id":85568392924515193,"keywords":["nocrits","nodmgspread","payload","uncletopia"],"game_id":440,"stv_port":27046,"stv_name":"Uncletopia | Chicago | 4 | All Maps | STV","players":[{"user_id":42,"name":"ShadBad","steam_id":76561198248287390,"connected_time":3262000000000,"state":"active","ping":108},{"user_id":57,"name":"LasagnaLary","steam_id":76561198051016438,"connected_time":1680000000000,"state":"active","ping":74},{"user_id":76,"name":"WannaSeeA","steam_id":76561198097701042,"connected_time":148000000000,"state":"active","ping":69},{"user_id":56,"name":"B)","steam_id":76561198093921290,"connected_time":1707000000000,"state":"active","ping":47},{"user_id":75,"name":"OutOfSortsOne","steam_id":76561198836006858,"connected_time":170000000000,"state":"active","ping":125},{"user_id":69,"name":"DatFluffyPancake","steam_id":76561198271958697,"connected_time":950000000000,"state":"active","ping":74},{"user_id":77,"name":"Big Puff","steam_id":76561198209820681,"connected_time":140000000000,"state":"active","ping":66},{"user_id":73,"name":"Lilac","steam_id":76561198977523626,"connected_time":312000000000,"state":"active","ping":72},{"user_id":52,"name":"Underachiever Mako","steam_id":76561198207943169,"connected_time":2065000000000,"state":"active","ping":68},{"user_id":78,"name":"Barbarian","steam_id":76561198008063409,"connected_time":122000000000,"state":"active","ping":84},{"user_id":72,"name":"your colonoscopy results","steam_id":76561198017705248,"connected_time":640000000000,"state":"active","ping":45},{"user_id":68,"name":"Mr. Dry Lips","steam_id":76561198028157625,"connected_time":1165000000000,"state":"active","ping":195},{"user_id":71,"name":"IceBeatle","steam_id":76561198833132781,"connected_time":723000000000,"state":"active","ping":76},{"user_id":62,"name":"living in mushroom park","steam_id":76561198097588802,"connected_time":1478000000000,"state":"active","ping":46},{"user_id":50,"name":"Nerdin4Life","steam_id":76561198138417387,"connected_time":2622000000000,"state":"active","ping":114},{"user_id":63,"name":"MontellWilliams","steam_id":76561198172143015,"connected_time":1454000000000,"state":"active","ping":68},{"user_id":29,"name":"Deathninja952","steam_id":76561199066489355,"connected_time":5125000000000,"state":"active","ping":97},{"user_id":49,"name":"Professor Peppermint","steam_id":76561198184017082,"connected_time":2856000000000,"state":"active","ping":54},{"user_id":45,"name":"British Zoner","steam_id":76561198977330214,"connected_time":3213000000000,"state":"active","ping":101},{"user_id":23,"name":"leeeeeeeeeeeeeeeeeeeeeeeeeee","steam_id":76561199083322731,"connected_time":5472000000000,"state":"active","ping":93},{"user_id":64,"name":"Jezzus","steam_id":76561199289676387,"connected_time":1446000000000,"state":"active","ping":80},{"user_id":66,"name":"pee fartress poo","steam_id":76561198063152319,"connected_time":1408000000000,"state":"active","ping":68},{"user_id":79,"name":"International Mann of Mystery","steam_id":76561198149369302,"connected_time":120000000000,"state":"active","ping":143},{"user_id":74,"name":"puddles of the people","steam_id":76561198110832624,"connected_time":195000000000,"state":"active","ping":50}]},{"server_id":36,"name":"Uncletopia | Chicago | 5 | All Maps","name_short":"chi-5","host":"chi-2.us.uncletopia.com","port":27015,"enabled":true,"region":"us-central","cc":"us","latitude":41.881832,"longitude":-87.62318,"reserved":0,"last_update":"0001-01-01T00:00:00Z","name_a2s":"Uncletopia | Chicago | 5 | All Maps","protocol":17,"map":"koth_cascade","folder":"tf","game":"Team Fortress","app_id":440,"player_count":0,"max_players":24,"Bots":0,"server_type":"Dedicated","server_os":"Linux","password":true,"vac":true,"version":"7757534","steam_id":85568392924866362,"keywords":["cp","nocrits","nodmgspread","uncletopia"],"game_id":440,"stv_port":27016,"stv_name":"Uncletopia | Chicago | 5 | All Maps | STV","players":null},{"server_id":37,"name":"Uncletopia | Chicago | 6 | All Maps","name_short":"chi-6","host":"chi-2.us.uncletopia.com","port":27025,"enabled":true,"region":"us-central","cc":"us","latitude":41.881832,"longitude":-87.62318,"reserved":0,"last_update":"0001-01-01T00:00:00Z","name_a2s":"Uncletopia | Chicago | 6 | All Maps","protocol":17,"map":"koth_lakeside_final","folder":"tf","game":"Team Fortress","app_id":440,"player_count":0,"max_players":24,"Bots":0,"server_type":"Dedicated","server_os":"Linux","password":true,"vac":true,"version":"7757534","steam_id":85568392924866363,"keywords":["cp","nocrits","nodmgspread","uncletopia"],"game_id":440,"stv_port":27026,"stv_name":"Uncletopia | Chicago | 6 | All Maps | STV","players":null},{"server_id":38,"name":"Uncletopia | Chicago | 7 | Stopwatch Beta","name_short":"chi-7","host":"chi-2.us.uncletopia.com","port":27035,"enabled":true,"region":"us-central","cc":"us","latitude":41.881832,"longitude":-87.62318,"reserved":0,"last_update":"0001-01-01T00:00:00Z","name_a2s":"Uncletopia | Chicago | 7 | Stopwatch Beta","protocol":17,"map":"pl_barnblitz","folder":"tf","game":"Team Fortress","app_id":440,"player_count":0,"max_players":24,"Bots":0,"server_type":"Dedicated","server_os":"Linux","password":true,"vac":true,"version":"7757534","steam_id":85568392924866364,"keywords":["nocrits","nodmgspread","payload","uncletopia"],"game_id":440,"stv_port":27036,"stv_name":"Uncletopia | Chicago | 7 | Stopwatch Beta | STV","players":null},{"server_id":39,"name":"Uncletopia | Chicago | 8 | Community","name_short":"chi-8","host":"chi-2.us.uncletopia.com","port":27045,"enabled":true,"region":"us-central","cc":"us","latitude":41.881832,"longitude":-87.62318,"reserved":0,"last_update":"0001-01-01T00:00:00Z","name_a2s":"Uncletopia | Chicago | 8 | Community","protocol":17,"map":"koth_cascade","folder":"tf","game":"Team Fortress","app_id":440,"player_count":0,"max_players":24,"Bots":0,"server_type":"Dedicated","server_os":"Linux","password":true,"vac":true,"version":"7757534","steam_id":85568392924866365,"keywords":["cp","nocrits","nodmgspread","uncletopia"],"game_id":440,"stv_port":27046,"stv_name":"Uncletopia | Chicago | 8 | Community | STV","players":null},{"server_id":8,"name":"Uncletopia | Dallas | 1 | All Maps","name_short":"dal-1","host":"dal-1.us.uncletopia.com","port":27015,"enabled":true,"region":"us-central","cc":"us","latitude":32.779167,"longitude":-96.80889,"reserved":0,"last_update":"0001-01-01T00:00:00Z","name_a2s":"Uncletopia | Dallas | 1 | All Maps","protocol":17,"map":"cp_altitude","folder":"tf","game":"Team Fortress","app_id":440,"player_count":24,"max_players":24,"Bots":0,"server_type":"Dedicated","server_os":"Linux","password":true,"vac":true,"version":"7757534","steam_id":85568392924469986,"keywords":["cp","nocrits","nodmgspread","uncletopia"],"game_id":440,"stv_port":27016,"stv_name":"Uncletopia | Dallas | 1 | All Maps | STV","players":[{"user_id":81,"name":"Gilbert","steam_id":76561198124545020,"connected_time":54000000000,"state":"spawning","ping":89},{"user_id":4,"name":"peppy","steam_id":76561198361818082,"connected_time":5926000000000,"state":"active","ping":69},{"user_id":51,"name":"amphy","steam_id":76561198003344621,"connected_time":3024000000000,"state":"active","ping":97},{"user_id":42,"name":"LuciD","steam_id":76561198242842394,"connected_time":3953000000000,"state":"active","ping":66},{"user_id":65,"name":"Panckakebro","steam_id":76561198106419992,"connected_time":1784000000000,"state":"active","ping":60},{"user_id":8,"name":"Mak","steam_id":76561198089197922,"connected_time":5897000000000,"state":"active","ping":105},{"user_id":55,"name":"Dylan","steam_id":76561198265522923,"connected_time":2959000000000,"state":"active","ping":45},{"user_id":47,"name":"lyraaaaaaaaaaa","steam_id":76561198259331758,"connected_time":3822000000000,"state":"active","ping":124},{"user_id":13,"name":"kabooomerang","steam_id":76561198808706122,"connected_time":5869000000000,"state":"active","ping":89},{"user_id":75,"name":"Sergeant fat ass","steam_id":76561198065744407,"connected_time":405000000000,"state":"active","ping":78},{"user_id":78,"name":"Luna","steam_id":76561198131342156,"connected_time":284000000000,"state":"active","ping":77},{"user_id":76,"name":"I Lead MLB In \"Bats Eaten\"","steam_id":76561198034079853,"connected_time":353000000000,"state":"active","ping":43},{"user_id":80,"name":"ƐՌѴƳ","steam_id":76561198099470277,"connected_time":169000000000,"state":"active","ping":81},{"user_id":61,"name":"Little Shuriken","steam_id":76561199020477560,"connected_time":2432000000000,"state":"active","ping":65},{"user_id":71,"name":"BigGoose","steam_id":76561198833281392,"connected_time":823000000000,"state":"active","ping":106},{"user_id":74,"name":"Chrisjongun","steam_id":76561198331685904,"connected_time":435000000000,"state":"active","ping":89},{"user_id":52,"name":"General Teddie","steam_id":76561198004310204,"connected_time":3021000000000,"state":"active","ping":70},{"user_id":39,"name":"ChottoAMinute","steam_id":76561198873157775,"connected_time":4180000000000,"state":"active","ping":44},{"user_id":70,"name":"trash beast","steam_id":76561198015792736,"connected_time":1654000000000,"state":"active","ping":81},{"user_id":60,"name":"Shamrock Shake Oct.10.2020 @8pm","steam_id":76561198833313201,"connected_time":2632000000000,"state":"active","ping":88},{"user_id":62,"name":"Vicstand0891","steam_id":76561198292877147,"connected_time":2415000000000,"state":"active","ping":90},{"user_id":57,"name":"I Like crit-a-Cola","steam_id":76561198250540576,"connected_time":2864000000000,"state":"active","ping":81},{"user_id":79,"name":"Emperor Dankatine","steam_id":76561198044741086,"connected_time":253000000000,"state":"active","ping":91},{"user_id":50,"name":"DargaribdusPersonOfLordlyCalibe","steam_id":76561198020876416,"connected_time":3377000000000,"state":"active","ping":62}]},{"server_id":108,"name":"Uncletopia | Dallas | 2 | All Maps","name_short":"dal-2","host":"dal-1.us.uncletopia.com","port":27025,"enabled":true,"region":"us-central","cc":"us","latitude":32.779167,"longitude":-96.80889,"reserved":0,"last_update":"0001-01-01T00:00:00Z","name_a2s":"Uncletopia | Dallas | 2 | All Maps","protocol":17,"map":"pl_barnblitz","folder":"tf","game":"Team Fortress","app_id":440,"player_count":24,"max_players":24,"Bots":0,"server_type":"Dedicated","server_os":"Linux","password":true,"vac":true,"version":"7757534","steam_id":85568392924469988,"keywords":["nocrits","nodmgspread","payload","uncletopia"],"game_id":440,"stv_port":27026,"stv_name":"Uncletopia | Dallas | 2 | All Maps | STV","players":[{"user_id":107,"name":"bolainassr0","steam_id":76561199079078845,"connected_time":1021000000000,"state":"active","ping":116},{"user_id":85,"name":"Speedy","steam_id":76561198080761661,"connected_time":2019000000000,"state":"active","ping":99},{"user_id":93,"name":"Galactamarx","steam_id":76561198028065755,"connected_time":1894000000000,"state":"active","ping":82},{"user_id":98,"name":"QUEASYWHALE","steam_id":76561199107482851,"connected_time":1719000000000,"state":"active","ping":107},{"user_id":54,"name":"Regice","steam_id":76561198049860998,"connected_time":3776000000000,"state":"active","ping":49},{"user_id":120,"name":"DeMarco","steam_id":76561198150812676,"connected_time":507000000000,"state":"active","ping":87},{"user_id":118,"name":"Wolbobus","steam_id":76561198110673313,"connected_time":544000000000,"state":"active","ping":91},{"user_id":63,"name":"terrorism? boy howdy","steam_id":76561198844003641,"connected_time":3282000000000,"state":"active","ping":86},{"user_id":103,"name":"beebo","steam_id":76561198101971132,"connected_time":1365000000000,"state":"active","ping":60},{"user_id":125,"name":"yogi","steam_id":76561198067986753,"connected_time":302000000000,"state":"active","ping":77},{"user_id":119,"name":"jumbert","steam_id":76561198355231658,"connected_time":538000000000,"state":"active","ping":69},{"user_id":122,"name":"Hehawshididdy","steam_id":76561198046842190,"connected_time":498000000000,"state":"active","ping":101},{"user_id":58,"name":"Registeel","steam_id":76561198068516556,"connected_time":3637000000000,"state":"active","ping":77},{"user_id":110,"name":"Grimm","steam_id":76561199242664677,"connected_time":738000000000,"state":"active","ping":61},{"user_id":111,"name":"plink","steam_id":76561198057829889,"connected_time":715000000000,"state":"active","ping":106},{"user_id":112,"name":"tekan","steam_id":76561199077174231,"connected_time":705000000000,"state":"active","ping":100},{"user_id":123,"name":"Kohbold","steam_id":76561198996480140,"connected_time":491000000000,"state":"active","ping":113},{"user_id":92,"name":"Batso","steam_id":76561198106589452,"connected_time":1919000000000,"state":"active","ping":100},{"user_id":113,"name":"Quiver Cakes ._.","steam_id":76561198243155576,"connected_time":675000000000,"state":"active","ping":82},{"user_id":71,"name":"Roxo","steam_id":76561198069591430,"connected_time":2568000000000,"state":"active","ping":177},{"user_id":88,"name":"Etomb","steam_id":76561198210017208,"connected_time":2002000000000,"state":"active","ping":119},{"user_id":114,"name":"Ramix","steam_id":76561198120419206,"connected_time":655000000000,"state":"active","ping":67},{"user_id":126,"name":"mrhazman","steam_id":76561198040467069,"connected_time":31000000000,"state":"active","ping":111},{"user_id":124,"name":"heimdall","steam_id":76561198069380992,"connected_time":463000000000,"state":"active","ping":68}]},{"server_id":5,"name":"Uncletopia | Frankfurt | 1 | All Maps","name_short":"frk-1","host":"frk-1.de.uncletopia.com","port":27015,"enabled":true,"region":"eu","cc":"de","latitude":50.110924,"longitude":8.682127,"reserved":0,"last_update":"0001-01-01T00:00:00Z","name_a2s":"Uncletopia | Frankfurt | 1 | All Maps","protocol":17,"map":"pl_snowycoast","folder":"tf","game":"Team Fortress","app_id":440,"player_count":0,"max_players":24,"Bots":0,"server_type":"Dedicated","server_os":"Linux","password":true,"vac":true,"version":"7757534","steam_id":85568392924469989,"keywords":["nocrits","nodmgspread","payload","uncletopia"],"game_id":440,"stv_port":27016,"stv_name":"Uncletopia | Frankfurt | 1 | All Maps | STV","players":null},{"server_id":110,"name":"Uncletopia | Frankfurt | 2 | All Maps","name_short":"frk-2","host":"frk-1.de.uncletopia.com","port":27025,"enabled":true,"region":"eu","cc":"de","latitude":50.110924,"longitude":8.682127,"reserved":0,"last_update":"0001-01-01T00:00:00Z","name_a2s":"Uncletopia | Frankfurt | 2 | All Maps","protocol":17,"map":"cp_snakewater_final1","folder":"tf","game":"Team Fortress","app_id":440,"player_count":0,"max_players":24,"Bots":0,"server_type":"Dedicated","server_os":"Linux","password":true,"vac":true,"version":"7757534","steam_id":85568392924469990,"keywords":["cp","nocrits","nodmgspread","uncletopia"],"game_id":440,"stv_port":27026,"stv_name":"Uncletopia | Frankfurt | 2 | All Maps | STV","players":null},{"server_id":308,"name":"Uncletopia | Frankfurt | 3 | All Maps","name_short":"frk-3","host":"frk-1.de.uncletopia.com","port":27035,"enabled":true,"region":"eu","cc":"de","latitude":50.110924,"longitude":8.682127,"reserved":0,"last_update":"0001-01-01T00:00:00Z","name_a2s":"Uncletopia | Frankfurt | 3 | All Maps","protocol":17,"map":"pl_swiftwater_final1","folder":"tf","game":"Team Fortress","app_id":440,"player_count":0,"max_players":24,"Bots":0,"server_type":"Dedicated","server_os":"Linux","password":true,"vac":true,"version":"7757534","steam_id":85568392924504274,"keywords":["nocrits","nodmgspread","payload","uncletopia"],"game_id":440,"stv_port":27036,"stv_name":"Uncletopia | Frankfurt | 3 | All Maps | STV","players":null},{"server_id":309,"name":"Uncletopia | Frankfurt | 4 | All Maps","name_short":"frk-4","host":"frk-1.de.uncletopia.com","port":27045,"enabled":true,"region":"eu","cc":"de","latitude":50.110924,"longitude":8.682127,"reserved":0,"last_update":"0001-01-01T00:00:00Z","name_a2s":"Uncletopia | Frankfurt | 4 | All Maps","protocol":17,"map":"koth_viaduct","folder":"tf","game":"Team Fortress","app_id":440,"player_count":0,"max_players":24,"Bots":0,"server_type":"Dedicated","server_os":"Linux","password":true,"vac":true,"version":"7757534","steam_id":85568392924504275,"keywords":["cp","nocrits","nodmgspread","uncletopia"],"game_id":440,"stv_port":27046,"stv_name":"Uncletopia | Frankfurt | 4 | All Maps | STV","players":null},{"server_id":310,"name":"Uncletopia | Frankfurt | 5 | All Maps","name_short":"frk-5","host":"frk-1.de.uncletopia.com","port":27055,"enabled":true,"region":"eu","cc":"de","latitude":50.110924,"longitude":8.682127,"reserved":0,"last_update":"0001-01-01T00:00:00Z","name_a2s":"Uncletopia | Frankfurt | 5 | All Maps","protocol":17,"map":"koth_lakeside_final","folder":"tf","game":"Team Fortress","app_id":440,"player_count":0,"max_players":24,"Bots":0,"server_type":"Dedicated","server_os":"Linux","password":true,"vac":true,"version":"7757534","steam_id":85568392924504277,"keywords":["cp","nocrits","nodmgspread","uncletopia"],"game_id":440,"stv_port":27056,"stv_name":"Uncletopia | Frankfurt | 5 | All Maps | STV","players":null},{"server_id":311,"name":"Uncletopia | Frankfurt | 6 | All Maps","name_short":"frk-6","host":"frk-1.de.uncletopia.com","port":27065,"enabled":true,"region":"eu","cc":"de","latitude":50.110924,"longitude":8.682127,"reserved":0,"last_update":"0001-01-01T00:00:00Z","name_a2s":"Uncletopia | Frankfurt | 6 | All Maps","protocol":17,"map":"pl_frontier_final","folder":"tf","game":"Team Fortress","app_id":440,"player_count":0,"max_players":24,"Bots":0,"server_type":"Dedicated","server_os":"Linux","password":true,"vac":true,"version":"7757534","steam_id":85568392924504278,"keywords":["nocrits","nodmgspread","payload","uncletopia"],"game_id":440,"stv_port":27066,"stv_name":"Uncletopia | Frankfurt | 6 | All Maps | STV","players":null},{"server_id":23,"name":"Uncletopia | Frankfurt | 7 | Stopwatch Beta","name_short":"frk-7","host":"frk-1.de.uncletopia.com","port":27075,"enabled":true,"region":"eu","cc":"de","latitude":50.110924,"longitude":8.682127,"reserved":0,"last_update":"0001-01-01T00:00:00Z","name_a2s":"Uncletopia | Frankfurt | 7 | Stopwatch Beta","protocol":17,"map":"cp_sunshine","folder":"tf","game":"Team Fortress","app_id":440,"player_count":0,"max_players":24,"Bots":0,"server_type":"Dedicated","server_os":"Linux","password":true,"vac":true,"version":"7757534","steam_id":85568392924742827,"keywords":["cp","nocrits","nodmgspread","uncletopia"],"game_id":440,"stv_port":27076,"stv_name":"Uncletopia | Frankfurt | 7 | Stopwatch Beta | STV","players":null},{"server_id":24,"name":"Uncletopia | Frankfurt | 8 | Community","name_short":"frk-8","host":"frk-1.de.uncletopia.com","port":27085,"enabled":true,"region":"eu","cc":"de","latitude":50.110924,"longitude":8.682127,"reserved":0,"last_update":"0001-01-01T00:00:00Z","name_a2s":"Uncletopia | Frankfurt | 8 | Community","protocol":17,"map":"koth_lakeside_final","folder":"tf","game":"Team Fortress","app_id":440,"player_count":0,"max_players":24,"Bots":0,"server_type":"Dedicated","server_os":"Linux","password":true,"vac":true,"version":"7757534","steam_id":85568392924742828,"keywords":["cp","nocrits","nodmgspread","uncletopia"],"game_id":440,"stv_port":27086,"stv_name":"Uncletopia | Frankfurt | 8 | Community | STV","players":null},{"server_id":202,"name":"Uncletopia | Hong Kong | 1 | All Maps","name_short":"hgk-1","host":"hgk-1.hk.uncletopia.com","port":27015,"enabled":true,"region":"asia","cc":"hk","latitude":22.302711,"longitude":114.177216,"reserved":0,"last_update":"0001-01-01T00:00:00Z","name_a2s":"Uncletopia | Hong Kong | 1 | All Maps","protocol":17,"map":"koth_viaduct","folder":"tf","game":"Team Fortress","app_id":440,"player_count":0,"max_players":24,"Bots":0,"server_type":"Dedicated","server_os":"Linux","password":true,"vac":true,"version":"7757534","steam_id":85568392924494504,"keywords":["cp","nocrits","nodmgspread","uncletopia"],"game_id":440,"stv_port":27016,"stv_name":"Uncletopia | Hong Kong | 1 | All Maps | STV","players":null},{"server_id":1,"name":"Uncletopia | Los Angeles | 1 | All Maps","name_short":"lax-1","host":"lax-1.us.uncletopia.com","port":27015,"enabled":true,"region":"us-west","cc":"us","latitude":33.94279,"longitude":-118.41004,"reserved":0,"last_update":"0001-01-01T00:00:00Z","name_a2s":"Uncletopia | Los Angeles | 1 | All Maps","protocol":17,"map":"pl_borneo","folder":"tf","game":"Team Fortress","app_id":440,"player_count":21,"max_players":24,"Bots":0,"server_type":"Dedicated","server_os":"Linux","password":true,"vac":true,"version":"7757534","steam_id":85568392924469991,"keywords":["nocrits","nodmgspread","payload","uncletopia"],"game_id":440,"stv_port":27016,"stv_name":"Uncletopia | Los Angeles | 1 | All Maps | STV","players":[{"user_id":6,"name":"LX-24","steam_id":76561198016168993,"connected_time":5906000000000,"state":"active","ping":83},{"user_id":116,"name":"StumpyWeed","steam_id":76561198051772381,"connected_time":170000000000,"state":"active","ping":73},{"user_id":109,"name":"Walla","steam_id":76561198103379757,"connected_time":1057000000000,"state":"active","ping":91},{"user_id":96,"name":"Varia","steam_id":76561198047588672,"connected_time":2521000000000,"state":"active","ping":74},{"user_id":117,"name":"Birb","steam_id":76561198220234419,"connected_time":165000000000,"state":"active","ping":67},{"user_id":97,"name":"VerenitEEE","steam_id":76561198064503363,"connected_time":2502000000000,"state":"active","ping":93},{"user_id":108,"name":"Kujo","steam_id":76561198342579745,"connected_time":1096000000000,"state":"active","ping":65},{"user_id":118,"name":"kenZino","steam_id":76561197967971192,"connected_time":105000000000,"state":"active","ping":75},{"user_id":119,"name":"huh","steam_id":76561198272057200,"connected_time":74000000000,"state":"active","ping":60},{"user_id":104,"name":"P.I.Staker","steam_id":76561198087096559,"connected_time":1907000000000,"state":"active","ping":85},{"user_id":18,"name":"wAck","steam_id":76561198072385729,"connected_time":5820000000000,"state":"active","ping":50},{"user_id":106,"name":"hakken","steam_id":76561199102391736,"connected_time":1728000000000,"state":"active","ping":50},{"user_id":20,"name":"Salamimander","steam_id":76561198036083292,"connected_time":5802000000000,"state":"active","ping":65},{"user_id":21,"name":"bebo","steam_id":76561198385085005,"connected_time":5775000000000,"state":"active","ping":69},{"user_id":36,"name":"Jolly","steam_id":76561198116357972,"connected_time":5474000000000,"state":"active","ping":47},{"user_id":111,"name":"TRAINGEEK_","steam_id":76561198061159388,"connected_time":994000000000,"state":"active","ping":51},{"user_id":112,"name":"pt","steam_id":76561198143023330,"connected_time":976000000000,"state":"active","ping":45},{"user_id":113,"name":"Jack from Jack in The Box","steam_id":76561199083594971,"connected_time":971000000000,"state":"active","ping":49},{"user_id":31,"name":"Ceatharlach","steam_id":76561198318126190,"connected_time":5574000000000,"state":"active","ping":150},{"user_id":101,"name":"Axelfreeze14","steam_id":76561198436383913,"connected_time":2418000000000,"state":"active","ping":40},{"user_id":60,"name":"The Assistant Regional Manager","steam_id":76561199221484936,"connected_time":4257000000000,"state":"active","ping":60}]},{"server_id":112,"name":"Uncletopia | Los Angeles | 2 | All Maps","name_short":"lax-2","host":"lax-1.us.uncletopia.com","port":27025,"enabled":true,"region":"us-west","cc":"us","latitude":33.94279,"longitude":-118.41004,"reserved":0,"last_update":"0001-01-01T00:00:00Z","name_a2s":"Uncletopia | Los Angeles | 2 | All Maps","protocol":17,"map":"koth_cascade","folder":"tf","game":"Team Fortress","app_id":440,"player_count":0,"max_players":24,"Bots":0,"server_type":"Dedicated","server_os":"Linux","password":true,"vac":true,"version":"7757534","steam_id":85568392924469992,"keywords":["cp","nocrits","nodmgspread","uncletopia"],"game_id":440,"stv_port":27026,"stv_name":"Uncletopia | Los Angeles | 2 | All Maps | STV","players":null},{"server_id":324,"name":"Uncletopia | Los Angeles | 3 | All Maps","name_short":"lax-3","host":"lax-1.us.uncletopia.com","port":27035,"enabled":true,"region":"us-west","cc":"us","latitude":33.94279,"longitude":-118.41004,"reserved":0,"last_update":"0001-01-01T00:00:00Z","name_a2s":"Uncletopia | Los Angeles | 3 | All Maps","protocol":17,"map":"pl_swiftwater_final1","folder":"tf","game":"Team Fortress","app_id":440,"player_count":0,"max_players":24,"Bots":0,"server_type":"Dedicated","server_os":"Linux","password":true,"vac":true,"version":"7757534","steam_id":85568392924510198,"keywords":["nocrits","nodmgspread","payload","uncletopia"],"game_id":440,"stv_port":27036,"stv_name":"Uncletopia | Los Angeles | 3 | All Maps | STV","players":null},{"server_id":25,"name":"Uncletopia | Los Angeles | 4 | Stopwatch Beta","name_short":"lax-4","host":"lax-1.us.uncletopia.com","port":27045,"enabled":true,"region":"us-west","cc":"us","latitude":33.94279,"longitude":-118.41004,"reserved":0,"last_update":"0001-01-01T00:00:00Z","name_a2s":"Uncletopia | Los Angeles | 4 | Stopwatch Beta","protocol":17,"map":"pl_swiftwater_final1","folder":"tf","game":"Team Fortress","app_id":440,"player_count":0,"max_players":24,"Bots":0,"server_type":"Dedicated","server_os":"Linux","password":true,"vac":true,"version":"7757534","steam_id":85568392924510199,"keywords":["nocrits","nodmgspread","payload","uncletopia"],"game_id":440,"stv_port":27046,"stv_name":"Uncletopia | Los Angeles | 4 | Stopwatch Beta | STV","players":null},{"server_id":11,"name":"Uncletopia | London | 1 | All Maps","name_short":"lon-1","host":"lon-1.uk.uncletopia.com","port":27015,"enabled":true,"region":"eu","cc":"gb","latitude":51.509865,"longitude":-0.118092,"reserved":0,"last_update":"0001-01-01T00:00:00Z","name_a2s":"Uncletopia | London | 1 | All Maps","protocol":17,"map":"koth_highpass","folder":"tf","game":"Team Fortress","app_id":440,"player_count":0,"max_players":24,"Bots":0,"server_type":"Dedicated","server_os":"Linux","password":true,"vac":true,"version":"7757534","steam_id":85568392924367362,"keywords":["cp","nocrits","nodmgspread","uncletopia"],"game_id":440,"stv_port":27016,"stv_name":"Uncletopia | London | 1 | All Maps | STV","players":null},{"server_id":114,"name":"Uncletopia | London | 2 | All Maps","name_short":"lon-2","host":"lon-1.uk.uncletopia.com","port":27025,"enabled":true,"region":"eu","cc":"gb","latitude":51.509865,"longitude":-0.118092,"reserved":0,"last_update":"0001-01-01T00:00:00Z","name_a2s":"Uncletopia | London | 2 | All Maps","protocol":17,"map":"koth_viaduct","folder":"tf","game":"Team Fortress","app_id":440,"player_count":0,"max_players":24,"Bots":0,"server_type":"Dedicated","server_os":"Linux","password":true,"vac":true,"version":"7757534","steam_id":85568392924470941,"keywords":["cp","nocrits","nodmgspread","uncletopia"],"game_id":440,"stv_port":27026,"stv_name":"Uncletopia | London | 2 | All Maps | STV","players":null},{"server_id":320,"name":"Uncletopia | London | 3 | All Maps","name_short":"lon-3","host":"lon-1.uk.uncletopia.com","port":27035,"enabled":true,"region":"eu","cc":"gb","latitude":51.509865,"longitude":-0.118092,"reserved":0,"last_update":"0001-01-01T00:00:00Z","name_a2s":"Uncletopia | London | 3 | All Maps","protocol":17,"map":"cp_dustbowl","folder":"tf","game":"Team Fortress","app_id":440,"player_count":0,"max_players":24,"Bots":0,"server_type":"Dedicated","server_os":"Linux","password":true,"vac":true,"version":"7757534","steam_id":85568392924510192,"keywords":["cp","nocrits","nodmgspread","uncletopia"],"game_id":440,"stv_port":27036,"stv_name":"Uncletopia | London | 3 | All Maps | STV","players":null},{"server_id":321,"name":"Uncletopia | London | 4 | All Maps","name_short":"lon-4","host":"lon-1.uk.uncletopia.com","port":27045,"enabled":true,"region":"eu","cc":"gb","latitude":51.509865,"longitude":-0.118092,"reserved":0,"last_update":"0001-01-01T00:00:00Z","name_a2s":"Uncletopia | London | 4 | All Maps","protocol":17,"map":"cp_dustbowl","folder":"tf","game":"Team Fortress","app_id":440,"player_count":0,"max_players":24,"Bots":0,"server_type":"Dedicated","server_os":"Linux","password":true,"vac":true,"version":"7757534","steam_id":85568392924510193,"keywords":["cp","nocrits","nodmgspread","uncletopia"],"game_id":440,"stv_port":27046,"stv_name":"Uncletopia | London | 4 | All Maps | STV","players":null},{"server_id":21,"name":"Uncletopia | London | 5 | All Maps","name_short":"lon-5","host":"lon-1.uk.uncletopia.com","port":27055,"enabled":true,"region":"eu","cc":"gb","latitude":51.509865,"longitude":-0.118092,"reserved":0,"last_update":"0001-01-01T00:00:00Z","name_a2s":"Uncletopia | London | 5 | All Maps","protocol":17,"map":"cp_altitude","folder":"tf","game":"Team Fortress","app_id":440,"player_count":0,"max_players":24,"Bots":0,"server_type":"Dedicated","server_os":"Linux","password":true,"vac":true,"version":"7757534","steam_id":85568392924742829,"keywords":["cp","nocrits","nodmgspread","uncletopia"],"game_id":440,"stv_port":27056,"stv_name":"Uncletopia | London | 5 | All Maps | STV","players":null},{"server_id":22,"name":"Uncletopia | London | 6 | All Maps","name_short":"lon-6","host":"lon-1.uk.uncletopia.com","port":27065,"enabled":true,"region":"eu","cc":"gb","latitude":51.509865,"longitude":-0.118092,"reserved":0,"last_update":"0001-01-01T00:00:00Z","name_a2s":"Uncletopia | London | 6 | All Maps","protocol":17,"map":"cp_mountainlab","folder":"tf","game":"Team Fortress","app_id":440,"player_count":0,"max_players":24,"Bots":0,"server_type":"Dedicated","server_os":"Linux","password":true,"vac":true,"version":"7757534","steam_id":85568392924742830,"keywords":["cp","nocrits","nodmgspread","uncletopia"],"game_id":440,"stv_port":27066,"stv_name":"Uncletopia | London | 6 | All Maps | STV","players":null},{"server_id":40,"name":"Uncletopia | London | 7 | No Payload","name_short":"lon-7","host":"lon-1.uk.uncletopia.com","port":27075,"enabled":true,"region":"eu","cc":"gb","latitude":51.509865,"longitude":-0.118092,"reserved":0,"last_update":"0001-01-01T00:00:00Z","name_a2s":"Uncletopia | London | 7 | No Payload","protocol":17,"map":"pl_badwater","folder":"tf","game":"Team Fortress","app_id":440,"player_count":0,"max_players":24,"Bots":0,"server_type":"Dedicated","server_os":"Linux","password":true,"vac":true,"version":"7757534","steam_id":85568392924964314,"keywords":["nocrits","nodmgspread","payload","uncletopia"],"game_id":440,"stv_port":27076,"stv_name":"Uncletopia | London | 7 | No Payload | STV","players":null},{"server_id":41,"name":"Uncletopia | London | 8 | Community","name_short":"lon-8","host":"lon-1.uk.uncletopia.com","port":27085,"enabled":true,"region":"eu","cc":"gb","latitude":51.509865,"longitude":-0.118092,"reserved":0,"last_update":"0001-01-01T00:00:00Z","name_a2s":"Uncletopia | London | 8 | Community","protocol":17,"map":"pl_barnblitz","folder":"tf","game":"Team Fortress","app_id":440,"player_count":0,"max_players":24,"Bots":0,"server_type":"Dedicated","server_os":"Linux","password":true,"vac":true,"version":"7757534","steam_id":85568392924964315,"keywords":["nocrits","nodmgspread","payload","uncletopia"],"game_id":440,"stv_port":27086,"stv_name":"Uncletopia | London | 8 | Community | STV","players":null},{"server_id":300,"name":"Uncletopia | Montréal | 1 | All Maps","name_short":"mtl-1","host":"mtl-1.ca.uncletopia.com","port":27015,"enabled":true,"region":"us-east","cc":"ca","latitude":45.50889,"longitude":-73.56167,"reserved":0,"last_update":"0001-01-01T00:00:00Z","name_a2s":"Uncletopia | Montréal | 1 | All Maps","protocol":17,"map":"pl_upward","folder":"tf","game":"Team Fortress","app_id":440,"player_count":0,"max_players":24,"Bots":0,"server_type":"Dedicated","server_os":"Linux","password":true,"vac":true,"version":"7757534","steam_id":85568392924500087,"keywords":["nocrits","nodmgspread","payload","uncletopia"],"game_id":440,"stv_port":27016,"stv_name":"Uncletopia | Montréal | 1 | All Maps | STV","players":null},{"server_id":301,"name":"Uncletopia | Montréal | 2 | All Maps","name_short":"mtl-2","host":"mtl-1.ca.uncletopia.com","port":27025,"enabled":true,"region":"us-east","cc":"ca","latitude":45.50889,"longitude":-73.56167,"reserved":0,"last_update":"0001-01-01T00:00:00Z","name_a2s":"Uncletopia | Montréal | 2 | All Maps","protocol":17,"map":"pl_snowycoast","folder":"tf","game":"Team Fortress","app_id":440,"player_count":0,"max_players":24,"Bots":0,"server_type":"Dedicated","server_os":"Linux","password":true,"vac":true,"version":"7757534","steam_id":85568392924500088,"keywords":["nocrits","nodmgspread","payload","uncletopia"],"game_id":440,"stv_port":27026,"stv_name":"Uncletopia | Montréal | 2 | All Maps | STV","players":null},{"server_id":302,"name":"Uncletopia | Montréal | 3 | All Maps","name_short":"mtl-3","host":"mtl-1.ca.uncletopia.com","port":27035,"enabled":true,"region":"us-east","cc":"ca","latitude":45.50889,"longitude":-73.56167,"reserved":0,"last_update":"0001-01-01T00:00:00Z","name_a2s":"Uncletopia | Montréal | 3 | All Maps","protocol":17,"map":"pl_swiftwater_final1","folder":"tf","game":"Team Fortress","app_id":440,"player_count":0,"max_players":24,"Bots":0,"server_type":"Dedicated","server_os":"Linux","password":true,"vac":true,"version":"7757534","steam_id":85568392924500089,"keywords":["nocrits","nodmgspread","payload","uncletopia"],"game_id":440,"stv_port":27036,"stv_name":"Uncletopia | Montréal | 3 | All Maps | STV","players":null},{"server_id":303,"name":"Uncletopia | Montréal | 4 | No Payload","name_short":"mtl-4","host":"mtl-1.ca.uncletopia.com","port":27045,"enabled":true,"region":"us-east","cc":"ca","latitude":45.50889,"longitude":-73.56167,"reserved":0,"last_update":"0001-01-01T00:00:00Z","name_a2s":"Uncletopia | Montréal | 4 | No Payload","protocol":17,"map":"pl_pier","folder":"tf","game":"Team Fortress","app_id":440,"player_count":0,"max_players":24,"Bots":0,"server_type":"Dedicated","server_os":"Linux","password":true,"vac":true,"version":"7757534","steam_id":85568392924500090,"keywords":["nocrits","nodmgspread","payload","uncletopia"],"game_id":440,"stv_port":27046,"stv_name":"Uncletopia | Montréal | 4 | No Payload | STV","players":null},{"server_id":13,"name":"Uncletopia | New York City | 1 | All Maps","name_short":"nyc-1","host":"nyc-1.us.uncletopia.com","port":27015,"enabled":true,"region":"us-east","cc":"us","latitude":40.73061,"longitude":-73.93524,"reserved":0,"last_update":"0001-01-01T00:00:00Z","name_a2s":"Uncletopia | New York City | 1 | All Maps","protocol":17,"map":"cp_egypt_final","folder":"tf","game":"Team Fortress","app_id":440,"player_count":23,"max_players":24,"Bots":0,"server_type":"Dedicated","server_os":"Linux","password":true,"vac":true,"version":"7757534","steam_id":85568392924469993,"keywords":["cp","nocrits","nodmgspread","uncletopia"],"game_id":440,"stv_port":27016,"stv_name":"Uncletopia | New York City | 1 | All Maps | STV","players":[{"user_id":34,"name":"shanghai","steam_id":76561197997961542,"connected_time":5371000000000,"state":"active","ping":64},{"user_id":59,"name":"Vivid Hut 64","steam_id":76561198170050059,"connected_time":3157000000000,"state":"active","ping":54},{"user_id":89,"name":"Eden Hazard","steam_id":76561198089241053,"connected_time":1103000000000,"state":"active","ping":51},{"user_id":85,"name":"A Shiny Meat Bicycle","steam_id":76561198358757709,"connected_time":1759000000000,"state":"active","ping":90},{"user_id":73,"name":"JustAWisp","steam_id":76561198311924005,"connected_time":2645000000000,"state":"active","ping":69},{"user_id":46,"name":"washy","steam_id":76561198046622670,"connected_time":4076000000000,"state":"active","ping":82},{"user_id":74,"name":"Bizcocho","steam_id":76561198086236897,"connected_time":2564000000000,"state":"active","ping":39},{"user_id":12,"name":"Horrizan","steam_id":76561197965028480,"connected_time":5888000000000,"state":"active","ping":85},{"user_id":50,"name":"Wique","steam_id":76561198071217597,"connected_time":3847000000000,"state":"active","ping":69},{"user_id":63,"name":"Skrasher","steam_id":76561198281711422,"connected_time":3037000000000,"state":"active","ping":93},{"user_id":55,"name":"Subway Fan","steam_id":76561198336372790,"connected_time":3423000000000,"state":"active","ping":31},{"user_id":75,"name":"CrystalClear","steam_id":76561198344276579,"connected_time":2479000000000,"state":"active","ping":124},{"user_id":92,"name":"chaffy","steam_id":76561198021754567,"connected_time":299000000000,"state":"active","ping":65},{"user_id":87,"name":"wokky bin laddn","steam_id":76561198265200834,"connected_time":1549000000000,"state":"active","ping":73},{"user_id":90,"name":"big coat season","steam_id":76561198047689205,"connected_time":1102000000000,"state":"active","ping":61},{"user_id":91,"name":"Sakiayuo","steam_id":76561198055408083,"connected_time":584000000000,"state":"active","ping":92},{"user_id":52,"name":"chroma","steam_id":76561198050188632,"connected_time":3742000000000,"state":"active","ping":47},{"user_id":93,"name":"TheMaskedChris","steam_id":76561198271980205,"connected_time":245000000000,"state":"active","ping":90},{"user_id":79,"name":"HammerHead","steam_id":76561197975668646,"connected_time":2405000000000,"state":"active","ping":93},{"user_id":31,"name":"Fiendish Frog","steam_id":76561198029478821,"connected_time":5451000000000,"state":"active","ping":48},{"user_id":77,"name":"Scoober","steam_id":76561198079736959,"connected_time":2436000000000,"state":"active","ping":81},{"user_id":94,"name":"Amadeus","steam_id":76561198160047173,"connected_time":182000000000,"state":"active","ping":110},{"user_id":95,"name":"alcoholics anonymouse :3","steam_id":76561198361326855,"connected_time":65000000000,"state":"active","ping":64}]},{"server_id":14,"name":"Uncletopia | New York City | 2 | All Maps","name_short":"nyc-2","host":"nyc-1.us.uncletopia.com","port":27025,"enabled":true,"region":"us-east","cc":"us","latitude":40.73061,"longitude":-73.93524,"reserved":0,"last_update":"0001-01-01T00:00:00Z","name_a2s":"Uncletopia | New York City | 2 | All Maps","protocol":17,"map":"cp_sunshine","folder":"tf","game":"Team Fortress","app_id":440,"player_count":0,"max_players":24,"Bots":0,"server_type":"Dedicated","server_os":"Linux","password":true,"vac":true,"version":"7757534","steam_id":85568392924469994,"keywords":["cp","nocrits","nodmgspread","uncletopia"],"game_id":440,"stv_port":27026,"stv_name":"Uncletopia | New York City | 2 | All Maps | STV","players":null},{"server_id":15,"name":"Uncletopia | New York City | 3 | Stopwatch Beta","name_short":"nyc-3","host":"nyc-1.us.uncletopia.com","port":27035,"enabled":true,"region":"us-east","cc":"us","latitude":40.73061,"longitude":-73.93524,"reserved":0,"last_update":"0001-01-01T00:00:00Z","name_a2s":"Uncletopia | New York City | 3 | Stopwatch Beta","protocol":17,"map":"pl_upward","folder":"tf","game":"Team Fortress","app_id":440,"player_count":0,"max_players":24,"Bots":0,"server_type":"Dedicated","server_os":"Linux","password":true,"vac":true,"version":"7757534","steam_id":85568392924742820,"keywords":["nocrits","nodmgspread","payload","uncletopia"],"game_id":440,"stv_port":27036,"stv_name":"Uncletopia | New York City | 3 | Stopwatch Beta | STV","players":null},{"server_id":16,"name":"Uncletopia | New York City | 4 | Community","name_short":"nyc-4","host":"nyc-1.us.uncletopia.com","port":27045,"enabled":true,"region":"us-east","cc":"us","latitude":40.73061,"longitude":-73.93524,"reserved":0,"last_update":"0001-01-01T00:00:00Z","name_a2s":"Uncletopia | New York City | 4 | Community","protocol":17,"map":"pl_swiftwater_final1","folder":"tf","game":"Team Fortress","app_id":440,"player_count":2,"max_players":24,"Bots":0,"server_type":"Dedicated","server_os":"Linux","password":true,"vac":true,"version":"7757534","steam_id":85568392924742821,"keywords":["nocrits","nodmgspread","payload","uncletopia"],"game_id":440,"stv_port":27046,"stv_name":"Uncletopia | New York City | 4 | Community | STV","players":[{"user_id":3,"name":"the idiot","steam_id":76561198233176996,"connected_time":238000000000,"state":"active","ping":60},{"user_id":4,"name":"Sine Ⓐ","steam_id":76561198044437838,"connected_time":236000000000,"state":"active","ping":86}]},{"server_id":142,"name":"Uncletopia | São Paulo | 1 | All Maps","name_short":"sao-1","host":"sao-1.br.uncletopia.com","port":27015,"enabled":true,"region":"sa","cc":"br","latitude":-23.533773,"longitude":-46.62529,"reserved":0,"last_update":"0001-01-01T00:00:00Z","name_a2s":"Uncletopia | São Paulo | 1 | All Maps","protocol":17,"map":"koth_lakeside_final","folder":"tf","game":"Team Fortress","app_id":440,"player_count":0,"max_players":24,"Bots":0,"server_type":"Dedicated","server_os":"Linux","password":true,"vac":true,"version":"7757534","steam_id":85568392924469996,"keywords":["cp","nocrits","nodmgspread","uncletopia"],"game_id":440,"stv_port":27016,"stv_name":"Uncletopia | São Paulo | 1 | All Maps | STV","players":null},{"server_id":143,"name":"Uncletopia | São Paulo | 2 | All Maps","name_short":"sao-2","host":"sao-2.br.uncletopia.com","port":27015,"enabled":true,"region":"sa","cc":"br","latitude":-23.533773,"longitude":-46.62529,"reserved":0,"last_update":"0001-01-01T00:00:00Z","name_a2s":"Uncletopia | São Paulo | 2 | All Maps","protocol":17,"map":"pl_borneo","folder":"tf","game":"Team Fortress","app_id":440,"player_count":0,"max_players":24,"Bots":0,"server_type":"Dedicated","server_os":"Linux","password":true,"vac":true,"version":"7757534","steam_id":85568392924485349,"keywords":["nocrits","nodmgspread","payload","uncletopia"],"game_id":440,"stv_port":27016,"stv_name":"Uncletopia | São Paulo | 2 | All Maps | STV","players":null},{"server_id":7,"name":"Uncletopia | Seattle | 1 | All Maps","name_short":"sea-1","host":"sea-1.us.uncletopia.com","port":27015,"enabled":true,"region":"us-west","cc":"us","latitude":47.608013,"longitude":-122.33517,"reserved":0,"last_update":"0001-01-01T00:00:00Z","name_a2s":"Uncletopia | Seattle | 1 | All Maps","protocol":17,"map":"pl_badwater","folder":"tf","game":"Team Fortress","app_id":440,"player_count":24,"max_players":24,"Bots":0,"server_type":"Dedicated","server_os":"Linux","password":true,"vac":true,"version":"7757534","steam_id":85568392924469997,"keywords":["nocrits","nodmgspread","payload","uncletopia"],"game_id":440,"stv_port":27016,"stv_name":"Uncletopia | Seattle | 1 | All Maps | STV","players":[{"user_id":76,"name":"GhastlyGhostJr","steam_id":76561198037484203,"connected_time":928000000000,"state":"active","ping":89},{"user_id":4,"name":"WaffleWithNoToppings","steam_id":76561199088280111,"connected_time":5901000000000,"state":"active","ping":53},{"user_id":75,"name":"Angry_p3nguin","steam_id":76561198086275722,"connected_time":953000000000,"state":"active","ping":46},{"user_id":40,"name":"A Duck With Socks","steam_id":76561198018844227,"connected_time":4339000000000,"state":"active","ping":56},{"user_id":7,"name":"pyrotechnic","steam_id":76561198043558709,"connected_time":5896000000000,"state":"active","ping":49},{"user_id":47,"name":"fungi","steam_id":76561198169755734,"connected_time":3668000000000,"state":"active","ping":61},{"user_id":63,"name":"supcupman","steam_id":76561198051513866,"connected_time":1571000000000,"state":"active","ping":74},{"user_id":58,"name":"S Q U I S H E  T H A T  C A T","steam_id":76561198293865429,"connected_time":2412000000000,"state":"active","ping":36},{"user_id":57,"name":"RiverMoot","steam_id":76561198081530179,"connected_time":2443000000000,"state":"active","ping":136},{"user_id":60,"name":"Minerkid2004","steam_id":76561198044262827,"connected_time":2222000000000,"state":"active","ping":67},{"user_id":45,"name":"resh","steam_id":76561198239598834,"connected_time":3995000000000,"state":"active","ping":139},{"user_id":56,"name":"cracky","steam_id":76561197971365444,"connected_time":2670000000000,"state":"active","ping":53},{"user_id":68,"name":"worker","steam_id":76561198039608940,"connected_time":1484000000000,"state":"active","ping":62},{"user_id":20,"name":"Ayayahuasca","steam_id":76561199002906056,"connected_time":5870000000000,"state":"active","ping":50},{"user_id":21,"name":"The King of Piss World","steam_id":76561198082806956,"connected_time":5869000000000,"state":"active","ping":120},{"user_id":61,"name":"THAT CAT","steam_id":76561198010828625,"connected_time":1898000000000,"state":"active","ping":41},{"user_id":36,"name":"i cant aim","steam_id":76561198065873462,"connected_time":4642000000000,"state":"active","ping":76},{"user_id":53,"name":"mewtek","steam_id":76561198138599995,"connected_time":3091000000000,"state":"active","ping":90},{"user_id":65,"name":"WazL","steam_id":76561198065113895,"connected_time":1539000000000,"state":"active","ping":45},{"user_id":73,"name":"Psychromaniac","steam_id":76561198012215214,"connected_time":1424000000000,"state":"active","ping":57},{"user_id":74,"name":"420blzItM8","steam_id":76561198137983285,"connected_time":1417000000000,"state":"active","ping":73},{"user_id":77,"name":"Magnus1738","steam_id":76561198330283667,"connected_time":922000000000,"state":"active","ping":85},{"user_id":33,"name":"p9 jorts weed syrup","steam_id":76561199041179985,"connected_time":5779000000000,"state":"active","ping":73}]},{"server_id":119,"name":"Uncletopia | Seattle | 2 | All Maps","name_short":"sea-2","host":"sea-1.us.uncletopia.com","port":27025,"enabled":true,"region":"us-west","cc":"us","latitude":47.608013,"longitude":-122.33517,"reserved":0,"last_update":"0001-01-01T00:00:00Z","name_a2s":"Uncletopia | Seattle | 2 | All Maps","protocol":17,"map":"pl_frontier_final","folder":"tf","game":"Team Fortress","app_id":440,"player_count":24,"max_players":24,"Bots":0,"server_type":"Dedicated","server_os":"Linux","password":true,"vac":true,"version":"7757534","steam_id":85568392924469998,"keywords":["nocrits","nodmgspread","payload","uncletopia"],"game_id":440,"stv_port":27026,"stv_name":"Uncletopia | Seattle | 2 | All Maps | STV","players":[{"user_id":88,"name":"Super Rad!","steam_id":76561197961107982,"connected_time":1350000000000,"state":"active","ping":89},{"user_id":63,"name":"Superbacon24","steam_id":76561198121223443,"connected_time":3053000000000,"state":"active","ping":68},{"user_id":60,"name":"Seriously Bruh","steam_id":76561198070408485,"connected_time":3073000000000,"state":"active","ping":51},{"user_id":48,"name":"Amogous Supreme","steam_id":76561198025476774,"connected_time":3994000000000,"state":"active","ping":77},{"user_id":54,"name":"JON","steam_id":76561198057971005,"connected_time":3312000000000,"state":"active","ping":39},{"user_id":9,"name":"Keamy","steam_id":76561199471434875,"connected_time":5882000000000,"state":"active","ping":42},{"user_id":83,"name":"Fargo","steam_id":76561198044703931,"connected_time":1571000000000,"state":"active","ping":71},{"user_id":84,"name":"robertJMP","steam_id":76561199066260919,"connected_time":1534000000000,"state":"active","ping":68},{"user_id":14,"name":"Grammaring","steam_id":76561198867366139,"connected_time":5866000000000,"state":"active","ping":72},{"user_id":72,"name":"chanoc","steam_id":76561198026734746,"connected_time":2705000000000,"state":"active","ping":68},{"user_id":85,"name":"Makfar","steam_id":76561198081948464,"connected_time":1501000000000,"state":"active","ping":52},{"user_id":17,"name":"Gary, 40, soul sucking 9-5","steam_id":76561198073812888,"connected_time":5844000000000,"state":"active","ping":46},{"user_id":53,"name":"Evanb","steam_id":76561198042057792,"connected_time":3805000000000,"state":"active","ping":48},{"user_id":76,"name":"H4V0C | Atomic Heart","steam_id":76561199129350925,"connected_time":2366000000000,"state":"active","ping":56},{"user_id":49,"name":"garry","steam_id":76561199091007559,"connected_time":3977000000000,"state":"active","ping":88},{"user_id":62,"name":"Korbi.","steam_id":76561198355711373,"connected_time":3066000000000,"state":"active","ping":74},{"user_id":87,"name":"glue","steam_id":76561198382076026,"connected_time":1395000000000,"state":"active","ping":72},{"user_id":89,"name":"☸","steam_id":76561199092000534,"connected_time":1220000000000,"state":"active","ping":41},{"user_id":79,"name":"doomshroom","steam_id":76561198092827250,"connected_time":2017000000000,"state":"active","ping":61},{"user_id":47,"name":"SvicidalBug","steam_id":76561198221390504,"connected_time":4017000000000,"state":"active","ping":66},{"user_id":67,"name":"oil","steam_id":76561198099980149,"connected_time":3001000000000,"state":"active","ping":75},{"user_id":75,"name":"Mom","steam_id":76561198207936000,"connected_time":2571000000000,"state":"active","ping":65},{"user_id":55,"name":"LordKirby","steam_id":76561198006938286,"connected_time":3309000000000,"state":"active","ping":100},{"user_id":82,"name":"laggy mcstab","steam_id":76561198106379962,"connected_time":1896000000000,"state":"active","ping":60}]},{"server_id":406,"name":"Uncletopia | Seattle | 3 | Stopwatch Beta","name_short":"sea-3","host":"sea-1.us.uncletopia.com","port":27035,"enabled":true,"region":"us-west","cc":"us","latitude":47.608013,"longitude":-122.33517,"reserved":0,"last_update":"0001-01-01T00:00:00Z","name_a2s":"Uncletopia | Seattle | 3 | Stopwatch Beta","protocol":17,"map":"workshop/pl_summercoast_rc8e.ugc1761528829","folder":"tf","game":"Team Fortress","app_id":440,"player_count":0,"max_players":24,"Bots":0,"server_type":"Dedicated","server_os":"Linux","password":true,"vac":true,"version":"7757534","steam_id":85568392924515217,"keywords":["nocrits","nodmgspread","payload","uncletopia"],"game_id":440,"stv_port":27036,"stv_name":"Uncletopia | Seattle | 3 | Stopwatch Beta | STV","players":null},{"server_id":17,"name":"Uncletopia | San Francisco | 1 | All Maps","name_short":"sfo-1","host":"sfo-1.us.uncletopia.com","port":27015,"enabled":true,"region":"us-west","cc":"us","latitude":37.77397,"longitude":-122.4313,"reserved":0,"last_update":"0001-01-01T00:00:00Z","name_a2s":"Uncletopia | San Francisco | 1 | All Maps","protocol":17,"map":"pl_borneo","folder":"tf","game":"Team Fortress","app_id":440,"player_count":22,"max_players":24,"Bots":0,"server_type":"Dedicated","server_os":"Linux","password":true,"vac":true,"version":"7757534","steam_id":85568392924469999,"keywords":["nocrits","nodmgspread","payload","uncletopia"],"game_id":440,"stv_port":27016,"stv_name":"Uncletopia | San Francisco | 1 | All Maps | STV","players":[{"user_id":57,"name":"wait no stop dont do that","steam_id":76561199117157198,"connected_time":1697000000000,"state":"active","ping":83},{"user_id":63,"name":"Pudsla","steam_id":76561198258974036,"connected_time":1380000000000,"state":"active","ping":49},{"user_id":48,"name":"noblehallett","steam_id":76561197990994280,"connected_time":2672000000000,"state":"active","ping":83},{"user_id":59,"name":"HOG RIDER","steam_id":76561198298589502,"connected_time":1611000000000,"state":"active","ping":46},{"user_id":65,"name":"Celia [ +/- ] ✔","steam_id":76561198067164431,"connected_time":1290000000000,"state":"active","ping":45},{"user_id":55,"name":"iivy","steam_id":76561198068464819,"connected_time":1735000000000,"state":"active","ping":64},{"user_id":62,"name":"Der Zweifelsbrecher","steam_id":76561198872146305,"connected_time":1410000000000,"state":"active","ping":49},{"user_id":64,"name":"I regret nothing","steam_id":76561198399261089,"connected_time":1332000000000,"state":"active","ping":42},{"user_id":54,"name":"Optimore","steam_id":76561198047662990,"connected_time":2059000000000,"state":"active","ping":46},{"user_id":75,"name":"Large Weapons Guy","steam_id":76561198150703152,"connected_time":1123000000000,"state":"active","ping":55},{"user_id":69,"name":"bad spy player","steam_id":76561198873699671,"connected_time":1194000000000,"state":"active","ping":69},{"user_id":68,"name":"schmukkk","steam_id":76561198047421778,"connected_time":1215000000000,"state":"active","ping":101},{"user_id":76,"name":"Earth","steam_id":76561198108908550,"connected_time":1080000000000,"state":"active","ping":42},{"user_id":77,"name":"DREAMVXIIILE","steam_id":76561199268197009,"connected_time":975000000000,"state":"active","ping":61},{"user_id":79,"name":"primordialheath","steam_id":76561199386942638,"connected_time":898000000000,"state":"active","ping":106},{"user_id":50,"name":"BrightOrangeMango","steam_id":76561198023144607,"connected_time":2663000000000,"state":"active","ping":68},{"user_id":81,"name":"iMxmories","steam_id":76561198163295584,"connected_time":13000000000,"state":"active","ping":80},{"user_id":78,"name":"Talutia","steam_id":76561198096306715,"connected_time":967000000000,"state":"active","ping":61},{"user_id":47,"name":"FriskyDemon","steam_id":76561198043684646,"connected_time":2968000000000,"state":"active","ping":80},{"user_id":72,"name":"Scoron","steam_id":76561198062099305,"connected_time":1185000000000,"state":"active","ping":51},{"user_id":73,"name":"winter","steam_id":76561198045720964,"connected_time":1174000000000,"state":"active","ping":123},{"user_id":74,"name":"TheSnoringMan0923","steam_id":76561198070136627,"connected_time":1156000000000,"state":"active","ping":59}]},{"server_id":18,"name":"Uncletopia | San Francisco | 2 | All Maps","name_short":"sfo-2","host":"sfo-1.us.uncletopia.com","port":27025,"enabled":true,"region":"us-west","cc":"us","latitude":37.77397,"longitude":-122.4313,"reserved":0,"last_update":"0001-01-01T00:00:00Z","name_a2s":"Uncletopia | San Francisco | 2 | All Maps","protocol":17,"map":"pl_badwater","folder":"tf","game":"Team Fortress","app_id":440,"player_count":21,"max_players":24,"Bots":0,"server_type":"Dedicated","server_os":"Linux","password":true,"vac":true,"version":"7757534","steam_id":85568392924470000,"keywords":["nocrits","nodmgspread","payload","uncletopia"],"game_id":440,"stv_port":27026,"stv_name":"Uncletopia | San Francisco | 2 | All Maps | STV","players":[{"user_id":93,"name":"EatSports","steam_id":76561198009384115,"connected_time":974000000000,"state":"active","ping":103},{"user_id":89,"name":"lamadre07","steam_id":76561198067337453,"connected_time":1449000000000,"state":"active","ping":115},{"user_id":5,"name":"landogg","steam_id":76561198049000586,"connected_time":5894000000000,"state":"active","ping":61},{"user_id":82,"name":"bigman1","steam_id":76561198050225055,"connected_time":1681000000000,"state":"active","ping":59},{"user_id":91,"name":"bob morely","steam_id":76561198045926594,"connected_time":1130000000000,"state":"active","ping":55},{"user_id":50,"name":"Jojo","steam_id":76561198166713255,"connected_time":4611000000000,"state":"active","ping":119},{"user_id":45,"name":"Frontier Psychiatrist","steam_id":76561198378587138,"connected_time":4843000000000,"state":"active","ping":52},{"user_id":10,"name":"Penguin","steam_id":76561198987947291,"connected_time":5862000000000,"state":"active","ping":49},{"user_id":101,"name":"Tanner The Fish Man","steam_id":76561198372696640,"connected_time":361000000000,"state":"active","ping":67},{"user_id":95,"name":"PerKnuckleChuckle","steam_id":76561198023221596,"connected_time":691000000000,"state":"active","ping":58},{"user_id":14,"name":"Lv. 5 Grunt","steam_id":76561198800334545,"connected_time":5746000000000,"state":"active","ping":53},{"user_id":102,"name":"lol","steam_id":76561198062284950,"connected_time":63000000000,"state":"active","ping":61},{"user_id":66,"name":"Enderkill777","steam_id":76561198876915153,"connected_time":3724000000000,"state":"active","ping":55},{"user_id":84,"name":"WizBiz","steam_id":76561198169716861,"connected_time":1651000000000,"state":"active","ping":62},{"user_id":98,"name":"BIG GULP","steam_id":76561198106429468,"connected_time":587000000000,"state":"active","ping":64},{"user_id":77,"name":"golia","steam_id":76561198000264266,"connected_time":2828000000000,"state":"active","ping":55},{"user_id":97,"name":"cuppo","steam_id":76561198022008901,"connected_time":627000000000,"state":"active","ping":62},{"user_id":87,"name":"27 blends","steam_id":76561197997100185,"connected_time":1636000000000,"state":"active","ping":60},{"user_id":90,"name":"NotAWeeb","steam_id":76561198165530739,"connected_time":1136000000000,"state":"active","ping":41},{"user_id":92,"name":"shawarma.lord007","steam_id":76561198115458307,"connected_time":1079000000000,"state":"active","ping":54},{"user_id":100,"name":"mu","steam_id":76561197997530228,"connected_time":508000000000,"state":"active","ping":64}]},{"server_id":19,"name":"Uncletopia | San Francisco | 3 | Stopwatch Beta","name_short":"sfo-3","host":"sfo-1.us.uncletopia.com","port":27035,"enabled":true,"region":"us-west","cc":"us","latitude":37.77397,"longitude":-122.4313,"reserved":0,"last_update":"0001-01-01T00:00:00Z","name_a2s":"Uncletopia | San Francisco | 3 | Stopwatch Beta","protocol":17,"map":"koth_lakeside_final","folder":"tf","game":"Team Fortress","app_id":440,"player_count":0,"max_players":24,"Bots":0,"server_type":"Dedicated","server_os":"Linux","password":true,"vac":true,"version":"7757534","steam_id":85568392924742824,"keywords":["cp","nocrits","nodmgspread","uncletopia"],"game_id":440,"stv_port":27036,"stv_name":"Uncletopia | San Francisco | 3 | Stopwatch Beta | STV","players":null},{"server_id":20,"name":"Uncletopia | San Francisco | 4 | Community","name_short":"sfo-4","host":"sfo-1.us.uncletopia.com","port":27045,"enabled":true,"region":"us-west","cc":"us","latitude":37.77397,"longitude":-122.4313,"reserved":0,"last_update":"0001-01-01T00:00:00Z","name_a2s":"Uncletopia | San Francisco | 4 | Community","protocol":17,"map":"workshop/pl_barnblitz_pro7.ugc582280235","folder":"tf","game":"Team Fortress","app_id":440,"player_count":0,"max_players":24,"Bots":0,"server_type":"Dedicated","server_os":"Linux","password":true,"vac":true,"version":"7757534","steam_id":85568392924742826,"keywords":["nocrits","nodmgspread","payload","uncletopia"],"game_id":440,"stv_port":27046,"stv_name":"Uncletopia | San Francisco | 4 | Community | STV","players":null},{"server_id":141,"name":"Uncletopia | Sydney | 1 | All Maps","name_short":"syd-1","host":"syd-1.au.uncletopia.com","port":27015,"enabled":true,"region":"au","cc":"au","latitude":-33.865143,"longitude":151.2099,"reserved":0,"last_update":"0001-01-01T00:00:00Z","name_a2s":"Uncletopia | Sydney | 1 | All Maps","protocol":17,"map":"cp_process_final","folder":"tf","game":"Team Fortress","app_id":440,"player_count":24,"max_players":24,"Bots":0,"server_type":"Dedicated","server_os":"Linux","password":true,"vac":true,"version":"7757534","steam_id":85568392924470001,"keywords":["cp","nocrits","nodmgspread","uncletopia"],"game_id":440,"stv_port":27016,"stv_name":"Uncletopia | Sydney | 1 | All Maps | STV","players":[{"user_id":104,"name":"Spidery7","steam_id":76561198410517437,"connected_time":1498000000000,"state":"active","ping":64},{"user_id":107,"name":"DKC","steam_id":76561198313578155,"connected_time":1184000000000,"state":"active","ping":30},{"user_id":109,"name":"electro599","steam_id":76561198058148858,"connected_time":1095000000000,"state":"active","ping":56},{"user_id":105,"name":"Nyk","steam_id":76561198125000580,"connected_time":1429000000000,"state":"active","ping":41},{"user_id":94,"name":"4-Star Yelp Review","steam_id":76561197995258180,"connected_time":2326000000000,"state":"active","ping":48},{"user_id":121,"name":"steez master general","steam_id":76561198841162620,"connected_time":208000000000,"state":"active","ping":65},{"user_id":64,"name":"sketch","steam_id":76561198123512440,"connected_time":3972000000000,"state":"active","ping":58},{"user_id":118,"name":"Jamie2Cool","steam_id":76561198155695809,"connected_time":422000000000,"state":"active","ping":86},{"user_id":120,"name":"Finios","steam_id":76561198209013071,"connected_time":228000000000,"state":"active","ping":60},{"user_id":119,"name":"Doodles ♛","steam_id":76561198023807247,"connected_time":398000000000,"state":"active","ping":60},{"user_id":113,"name":"Crab","steam_id":76561198121717806,"connected_time":740000000000,"state":"active","ping":66},{"user_id":110,"name":"Jetfire","steam_id":76561198047370036,"connected_time":768000000000,"state":"active","ping":68},{"user_id":122,"name":"THE RIZZ LORD","steam_id":76561199043227163,"connected_time":70000000000,"state":"active","ping":67},{"user_id":87,"name":"Zzep_","steam_id":76561198059402662,"connected_time":2497000000000,"state":"active","ping":55},{"user_id":40,"name":"first time dementia haver","steam_id":76561198083700749,"connected_time":5349000000000,"state":"active","ping":42},{"user_id":124,"name":"Trins","steam_id":76561198040922808,"connected_time":19000000000,"state":"spawning","ping":45},{"user_id":114,"name":"wow","steam_id":76561198133277383,"connected_time":736000000000,"state":"active","ping":50},{"user_id":82,"name":"TheCardboardKing (real)","steam_id":76561199099769110,"connected_time":2861000000000,"state":"active","ping":51},{"user_id":25,"name":"Gwarp","steam_id":76561198061960926,"connected_time":5926000000000,"state":"active","ping":95},{"user_id":88,"name":"itsjustmarvin77","steam_id":76561199375656301,"connected_time":2494000000000,"state":"active","ping":75},{"user_id":123,"name":"electro600","steam_id":76561199262196710,"connected_time":37000000000,"state":"active","ping":36},{"user_id":116,"name":"Cup","steam_id":76561198038485845,"connected_time":589000000000,"state":"active","ping":30},{"user_id":112,"name":"Gasoline","steam_id":76561198879023728,"connected_time":753000000000,"state":"active","ping":75},{"user_id":59,"name":"Vasxus","steam_id":76561198067733319,"connected_time":4197000000000,"state":"active","ping":57}]},{"server_id":123,"name":"Uncletopia | Sydney | 2 | All Maps","name_short":"syd-2","host":"syd-1.au.uncletopia.com","port":27025,"enabled":true,"region":"au","cc":"au","latitude":-33.865143,"longitude":151.2099,"reserved":0,"last_update":"0001-01-01T00:00:00Z","name_a2s":"Uncletopia | Sydney | 2 | All Maps","protocol":17,"map":"cp_altitude","folder":"tf","game":"Team Fortress","app_id":440,"player_count":0,"max_players":24,"Bots":0,"server_type":"Dedicated","server_os":"Linux","password":true,"vac":true,"version":"7757534","steam_id":85568392924470002,"keywords":["cp","nocrits","nodmgspread","uncletopia"],"game_id":440,"stv_port":27026,"stv_name":"Uncletopia | Sydney | 2 | All Maps | STV","players":null},{"server_id":395,"name":"Uncletopia | Sydney | 3 | All Maps","name_short":"syd-3","host":"syd-1.au.uncletopia.com","port":27035,"enabled":true,"region":"au","cc":"au","latitude":-33.865143,"longitude":151.2099,"reserved":0,"last_update":"0001-01-01T00:00:00Z","name_a2s":"Uncletopia | Sydney | 3 | All Maps","protocol":17,"map":"pl_swiftwater_final1","folder":"tf","game":"Team Fortress","app_id":440,"player_count":0,"max_players":24,"Bots":0,"server_type":"Dedicated","server_os":"Linux","password":true,"vac":true,"version":"7757534","steam_id":85568392925194467,"keywords":["nocrits","nodmgspread","payload","uncletopia"],"game_id":440,"stv_port":27036,"stv_name":"Uncletopia | Sydney | 3 | All Maps | STV","players":null},{"server_id":396,"name":"Uncletopia | Sydney | 4 | All Maps","name_short":"syd-4","host":"syd-1.au.uncletopia.com","port":27045,"enabled":true,"region":"au","cc":"au","latitude":-33.865143,"longitude":151.2099,"reserved":0,"last_update":"0001-01-01T00:00:00Z","name_a2s":"Uncletopia | Sydney | 4 | All Maps","protocol":17,"map":"koth_highpass","folder":"tf","game":"Team Fortress","app_id":440,"player_count":0,"max_players":24,"Bots":0,"server_type":"Dedicated","server_os":"Linux","password":true,"vac":true,"version":"7757534","steam_id":85568392925397958,"keywords":["cp","nocrits","nodmgspread","uncletopia"],"game_id":440,"stv_port":27046,"stv_name":"Uncletopia | Sydney | 4 | All Maps | STV","players":null},{"server_id":58,"name":"Uncletopia | Sydney | 5 | Stopwatch Beta","name_short":"syd-5","host":"syd-1.au.uncletopia.com","port":27055,"enabled":true,"region":"au","cc":"au","latitude":-33.865143,"longitude":151.2099,"reserved":0,"last_update":"0001-01-01T00:00:00Z","name_a2s":"Uncletopia | Sydney | 5 | Stopwatch Beta","protocol":17,"map":"koth_cascade","folder":"tf","game":"Team Fortress","app_id":440,"player_count":0,"max_players":24,"Bots":0,"server_type":"Dedicated","server_os":"Linux","password":true,"vac":true,"version":"7757534","steam_id":85568392925397959,"keywords":["cp","nocrits","nodmgspread","uncletopia"],"game_id":440,"stv_port":27056,"stv_name":"Uncletopia | Sydney | 5 | Stopwatch Beta | STV","players":null},{"server_id":59,"name":"Uncletopia | Sydney | 6 | Community","name_short":"syd-6","host":"syd-1.au.uncletopia.com","port":27065,"enabled":true,"region":"au","cc":"au","latitude":-33.865143,"longitude":151.2099,"reserved":0,"last_update":"0001-01-01T00:00:00Z","name_a2s":"Uncletopia | Sydney | 6 | Community","protocol":17,"map":"cp_snakewater_final1","folder":"tf","game":"Team Fortress","app_id":440,"player_count":0,"max_players":24,"Bots":0,"server_type":"Dedicated","server_os":"Linux","password":true,"vac":true,"version":"7757534","steam_id":85568392925397960,"keywords":["cp","nocrits","nodmgspread","uncletopia"],"game_id":440,"stv_port":27066,"stv_name":"Uncletopia | Sydney | 6 | Community | STV","players":null},{"server_id":49,"name":"Uncletopia | Warsaw | 1 | All Maps","name_short":"waw-1","host":"waw-1.pl.uncletopia.com","port":27015,"enabled":true,"region":"eu","cc":"pl","latitude":52.2297,"longitude":21.017532,"reserved":0,"last_update":"0001-01-01T00:00:00Z","name_a2s":"","protocol":0,"map":"","folder":"","game":"","app_id":0,"player_count":0,"max_players":0,"Bots":0,"server_type":"","server_os":"","password":false,"vac":false,"version":"","steam_id":0,"keywords":null,"game_id":0,"stv_port":0,"stv_name":"","players":null},{"server_id":50,"name":"Uncletopia | Warsaw | 2 | All Maps","name_short":"waw-2","host":"waw-1.pl.uncletopia.com","port":27025,"enabled":true,"region":"eu","cc":"pl","latitude":52.2297,"longitude":21.017532,"reserved":0,"last_update":"0001-01-01T00:00:00Z","name_a2s":"Uncletopia | Warsaw | 2 | All Maps","protocol":17,"map":"koth_viaduct","folder":"tf","game":"Team Fortress","app_id":440,"player_count":0,"max_players":24,"Bots":0,"server_type":"Dedicated","server_os":"Linux","password":true,"vac":true,"version":"7757534","steam_id":85568392925397851,"keywords":["cp","nocrits","nodmgspread","uncletopia"],"game_id":440,"stv_port":27026,"stv_name":"Uncletopia | Warsaw | 2 | All Maps | STV","players":null},{"server_id":51,"name":"Uncletopia | Warsaw | 3 | All Maps","name_short":"waw-3","host":"waw-1.pl.uncletopia.com","port":27035,"enabled":true,"region":"eu","cc":"pl","latitude":52.2297,"longitude":21.017532,"reserved":0,"last_update":"0001-01-01T00:00:00Z","name_a2s":"Uncletopia | Warsaw | 3 | All Maps","protocol":17,"map":"pl_badwater","folder":"tf","game":"Team Fortress","app_id":440,"player_count":0,"max_players":24,"Bots":0,"server_type":"Dedicated","server_os":"Linux","password":true,"vac":true,"version":"7757534","steam_id":85568392925397852,"keywords":["nocrits","nodmgspread","payload","uncletopia"],"game_id":440,"stv_port":27036,"stv_name":"Uncletopia | Warsaw | 3 | All Maps | STV","players":null},{"server_id":52,"name":"Uncletopia | Warsaw | 4 | All Maps","name_short":"waw-4","host":"waw-1.pl.uncletopia.com","port":27045,"enabled":true,"region":"eu","cc":"pl","latitude":52.2297,"longitude":21.017532,"reserved":0,"last_update":"0001-01-01T00:00:00Z","name_a2s":"Uncletopia | Warsaw | 4 | All Maps","protocol":17,"map":"koth_lakeside_final","folder":"tf","game":"Team Fortress","app_id":440,"player_count":0,"max_players":24,"Bots":0,"server_type":"Dedicated","server_os":"Linux","password":true,"vac":true,"version":"7757534","steam_id":85568392925397853,"keywords":["cp","nocrits","nodmgspread","uncletopia"],"game_id":440,"stv_port":27046,"stv_name":"Uncletopia | Warsaw | 4 | All Maps | STV","players":null},{"server_id":53,"name":"Uncletopia | Warsaw | 5 | Stopwatch Beta","name_short":"waw-5","host":"waw-1.pl.uncletopia.com","port":27055,"enabled":true,"region":"eu","cc":"pl","latitude":52.2297,"longitude":21.017532,"reserved":0,"last_update":"0001-01-01T00:00:00Z","name_a2s":"Uncletopia | Warsaw | 5 | Stopwatch Beta","protocol":17,"map":"pl_borneo","folder":"tf","game":"Team Fortress","app_id":440,"player_count":0,"max_players":24,"Bots":0,"server_type":"Dedicated","server_os":"Linux","password":true,"vac":true,"version":"7757534","steam_id":85568392925397854,"keywords":["nocrits","nodmgspread","payload","uncletopia"],"game_id":440,"stv_port":27056,"stv_name":"Uncletopia | Warsaw | 5 | Stopwatch Beta | STV","players":null},{"server_id":54,"name":"Uncletopia | Warsaw | 6 | Community","name_short":"waw-6","host":"waw-1.pl.uncletopia.com","port":27065,"enabled":true,"region":"eu","cc":"pl","latitude":52.2297,"longitude":21.017532,"reserved":0,"last_update":"0001-01-01T00:00:00Z","name_a2s":"Uncletopia | Warsaw | 6 | Community","protocol":17,"map":"koth_lakeside_final","folder":"tf","game":"Team Fortress","app_id":440,"player_count":0,"max_players":24,"Bots":0,"server_type":"Dedicated","server_os":"Linux","password":true,"vac":true,"version":"7757534","steam_id":85568392925397856,"keywords":["cp","nocrits","nodmgspread","uncletopia"],"game_id":440,"stv_port":27066,"stv_name":"Uncletopia | Warsaw | 6 | Community | STV","players":null}]}