{"status":true,"message":"","result":[{"server_id":9,"name":"Uncletopia | Atlanta | 1 | All Maps","name_short":"atl-1","host":"atl-1.us.uncletopia.com","port":27015,"enabled":true,"region":"us-east","cc":"us","latitude":33.753746,"longitude":-84.38633,"reserved":0,"last_update":"0001-01-01T00:00:00Z","name_a2s":"Uncletopia | Atlanta | 1 | All Maps","protocol":17,"map":"pl_barnblitz","folder":"tf","game":"Team Fortress","app_id":440,"player_count":24,"max_players":24,"Bots":0,"server_type":"Dedicated","server_os":"Linux","password":true,"vac":true,"version":"7961495","steam_id":85568392924469982,"keywords":["nocrits","nodmgspread","payload","uncletopia"],"game_id":440,"stv_port":27016,"stv_name":"Uncletopia | Atlanta | 1 | All Maps | STV","players":[{"user_id":577,"name":"why","steam_id":76561199059732212,"connected_time":4823000000000,"state":"active","ping":54},{"user_id":570,"name":"ash","steam_id":76561198127890645,"connected_time":5818000000000,"state":"active","ping":60},{"user_id":516,"name":"Rat","steam_id":76561198137925582,"connected_time":13560000000000,"state":"active","ping":61},{"user_id":623,"name":"Sakio","steam_id":76561198327087049,"connected_time":650000000000,"state":"active","ping":129},{"user_id":595,"name":"noelle","steam_id":76561198098107584,"connected_time":2854000000000,"state":"active","ping":73},{"user_id":592,"name":"Toonice","steam_id":76561198402994885,"connected_time":3015000000000,"state":"active","ping":84},{"user_id":615,"name":"rose","steam_id":76561198048882285,"connected_time":1548000000000,"state":"active","ping":60},{"user_id":556,"name":"Le4n!!!","steam_id":76561198045522596,"connected_time":8373000000000,"state":"active","ping":73},{"user_id":583,"name":"joe","steam_id":76561198045781320,"connected_time":4045000000000,"state":"active","ping":59},{"user_id":618,"name":"snail from ear (cochlea)","steam_id":76561198184900753,"connected_time":946000000000,"state":"active","ping":68},{"user_id":594,"name":"Shmoopy","steam_id":76561198030459152,"connected_time":2912000000000,"state":"active","ping":68},{"user_id":621,"name":"Builder","steam_id":76561198042004822,"connected_time":825000000000,"state":"active","ping":104},{"user_id":624,"name":"NewYorkStryder","steam_id":76561198453581290,"connected_time":558000000000,"state":"active","ping":79},{"user_id":597,"name":"tgirls kissing","steam_id":76561198047500553,"connected_time":2457000000000,"state":"active","ping":87},{"user_id":616,"name":"ExplainSilver","steam_id":76561198967522164,"connected_time":1200000000000,"state":"active","ping":81},{"user_id":625,"name":"Bruh | KOTWO #neverforgetNorm","steam_id":76561198241227786,"connected_time":419000000000,"state":"active","ping":110},{"user_id":600,"name":"Cowboy","steam_id":76561198257699863,"connected_time":2402000000000,"state":"active","ping":160},{"user_id":626,"name":"All Tomorrow's Parties","steam_id":76561197995936212,"connected_time":351000000000,"state":"active","ping":63},{"user_id":627,"name":"OneGuy","steam_id":76561198120421485,"connected_time":252000000000,"state":"active","ping":84},{"user_id":630,"name":"Hakuyer","steam_id":76561198098618247,"connected_time":124000000000,"state":"active","ping":118},{"user_id":629,"name":"Papa Smoke","steam_id":76561198181348206,"connected_time":196000000000,"state":"active","ping":69},{"user_id":609,"name":"crankshaft","steam_id":76561197992798282,"connected_time":2231000000000,"state":"active","ping":116},{"user_id":587,"name":"Sophie","steam_id":76561198170408057,"connected_time":3421000000000,"state":"active","ping":58},{"user_id":610,"name":"gyat","steam_id":76561198043684960,"connected_time":2227000000000,"state":"active","ping":70}]},{"server_id":104,"name":"Uncletopia | Atlanta | 2 | All Maps","name_short":"atl-2","host":"atl-1.us.uncletopia.com","port":27025,"enabled":true,"region":"us-east","cc":"us","latitude":33.753746,"longitude":-84.38633,"reserved":0,"last_update":"0001-01-01T00:00:00Z","name_a2s":"Uncletopia | Atlanta | 2 | All Maps","protocol":17,"map":"pl_barnblitz","folder":"tf","game":"Team Fortress","app_id":440,"player_count":24,"max_players":24,"Bots":0,"server_type":"Dedicated","server_os":"Linux","password":true,"vac":true,"version":"7961495","steam_id":85568392924469983,"keywords":["nocrits","nodmgspread","payload","uncletopia"],"game_id":440,"stv_port":27026,"stv_name":"Uncletopia | Atlanta | 2 | All Maps | STV","players":[{"user_id":849,"name":"Real","steam_id":76561198119315680,"connected_time":1578000000000,"state":"active","ping":86},{"user_id":836,"name":"Snezzy","steam_id":76561199236465377,"connected_time":2320000000000,"state":"active","ping":66},{"user_id":868,"name":"babywhoa","steam_id":76561198070854627,"connected_time":893000000000,"state":"active","ping":127},{"user_id":866,"name":"J0hN","steam_id":76561198055972894,"connected_time":1033000000000,"state":"active","ping":113},{"user_id":873,"name":"29palms","steam_id":76561198095104925,"connected_time":634000000000,"state":"active","ping":84},{"user_id":872,"name":"edup3","steam_id":76561198151882001,"connected_time":682000000000,"state":"active","ping":104},{"user_id":842,"name":"baunter","steam_id":76561198024311871,"connected_time":2102000000000,"state":"active","ping":106},{"user_id":843,"name":"Thequirka","steam_id":76561198968058652,"connected_time":2069000000000,"state":"active","ping":110},{"user_id":878,"name":"Velocircopter","steam_id":76561198847582048,"connected_time":197000000000,"state":"active","ping":114},{"user_id":845,"name":"Bryan","steam_id":76561199372894183,"connected_time":1964000000000,"state":"active","ping":125},{"user_id":879,"name":"Squigly","steam_id":76561198084811625,"connected_time":151000000000,"state":"active","ping":92},{"user_id":881,"name":"lettuce, ground beef, tomatoes","steam_id":76561198046948758,"connected_time":102000000000,"state":"active","ping":55},{"user_id":864,"name":"A lost cow.","steam_id":76561198047673765,"connected_time":1308000000000,"state":"active","ping":60},{"user_id":883,"name":"TheGamingLime0","steam_id":76561198306090796,"connected_time":40000000000,"state":"spawning","ping":91},{"user_id":854,"name":"mort the chicken gaming","steam_id":76561198170591115,"connected_time":1449000000000,"state":"active","ping":70},{"user_id":855,"name":"merio","steam_id":76561198045513352,"connected_time":1448000000000,"state":"active","ping":75},{"user_id":856,"name":"Mr__Pickle","steam_id":76561198071869052,"connected_time":1444000000000,"state":"active","ping":61},{"user_id":857,"name":"urmom","steam_id":76561198044474683,"connected_time":1430000000000,"state":"active","ping":71},{"user_id":880,"name":"(TPT) Ghost","steam_id":76561198123262873,"connected_time":146000000000,"state":"active","ping":126},{"user_id":859,"name":"Perenn","steam_id":76561198034314407,"connected_time":1395000000000,"state":"active","ping":63},{"user_id":860,"name":"Burny Sanders","steam_id":76561197961879048,"connected_time":1362000000000,"state":"active","ping":61},{"user_id":861,"name":"Satori Komeiji","steam_id":76561198158211423,"connected_time":1352000000000,"state":"active","ping":103},{"user_id":884,"name":"bath","steam_id":76561197969993352,"connected_time":34000000000,"state":"active","ping":73},{"user_id":865,"name":"John","steam_id":76561198070700732,"connected_time":1308000000000,"state":"active","ping":83}]},{"server_id":400,"name":"Uncletopia | Atlanta | 3 | Stopwatch","name_short":"atl-3","host":"atl-1.us.uncletopia.com","port":27035,"enabled":true,"region":"us-east","cc":"us","latitude":33.753746,"longitude":-84.38633,"reserved":0,"last_update":"0001-01-01T00:00:00Z","name_a2s":"Uncletopia | Atlanta | 3 | Stopwatch","protocol":17,"map":"cp_process_final","folder":"tf","game":"Team Fortress","app_id":440,"player_count":0,"max_players":24,"Bots":0,"server_type":"Dedicated","server_os":"Linux","password":true,"vac":true,"version":"7961495","steam_id":85568392924515187,"keywords":["cp","nocrits","nodmgspread","uncletopia"],"game_id":440,"stv_port":27036,"stv_name":"Uncletopia | Atlanta | 3 | Stopwatch | STV","players":null},{"server_id":401,"name":"Uncletopia | Atlanta | 4 | Community","name_short":"atl-4","host":"atl-1.us.uncletopia.com","port":27045,"enabled":true,"region":"us-east","cc":"us","latitude":33.753746,"longitude":-84.38633,"reserved":0,"last_update":"0001-01-01T00:00:00Z","name_a2s":"Uncletopia | Atlanta | 4 | Community","protocol":17,"map":"workshop/pl_shoreleave_rc2.ugc1238849347","folder":"tf","game":"Team Fortress","app_id":440,"player_count":0,"max_players":24,"Bots":0,"server_type":"Dedicated","server_os":"Linux","password":true,"vac":true,"version":"7961495","steam_id":85568392924515188,"keywords":["nocrits","nodmgspread","payload","uncletopia"],"game_id":440,"stv_port":27046,"stv_name":"Uncletopia | Atlanta | 4 | Community | STV","players":null},{"server_id":2,"name":"Uncletopia | Chicago | 1 | All Maps","name_short":"chi-1","host":"chi-1.us.uncletopia.com","port":27015,"enabled":true,"region":"us-central","cc":"us","latitude":41.881832,"longitude":-87.62318,"reserved":0,"last_update":"0001-01-01T00:00:00Z","name_a2s":"Uncletopia | Chicago | 1 | All Maps","protocol":17,"map":"pl_upward","folder":"tf","game":"Team Fortress","app_id":440,"player_count":24,"max_players":24,"Bots":0,"server_type":"Dedicated","server_os":"Linux","password":true,"vac":true,"version":"7961495","steam_id":85568392924469984,"keywords":["nocrits","nodmgspread","payload","uncletopia"],"game_id":440,"stv_port":27016,"stv_name":"Uncletopia | Chicago | 1 | All Maps | STV","players":[{"user_id":749,"name":"anonpain","steam_id":76561198081317092,"connected_time":1884000000000,"state":"active","ping":51},{"user_id":752,"name":"dax","steam_id":76561198045335319,"connected_time":1208000000000,"state":"active","ping":85},{"user_id":760,"name":"The Muffin Man","steam_id":76561198083334020,"connected_time":520000000000,"state":"active","ping":59},{"user_id":734,"name":"gagobears","steam_id":76561198086008437,"connected_time":3850000000000,"state":"active","ping":76},{"user_id":704,"name":"wetto","steam_id":76561198224811504,"connected_time":7054000000000,"state":"active","ping":61},{"user_id":750,"name":" è·¥ú·¥ä…™","steam_id":76561198401572620,"connected_time":1735000000000,"state":"active","ping":63},{"user_id":762,"name":"ElectronX","steam_id":76561198116034988,"connected_time":433000000000,"state":"active","ping":100},{"user_id":754,"name":"Squidz","steam_id":76561198803144914,"connected_time":1169000000000,"state":"active","ping":75},{"user_id":766,"name":"Titut11","steam_id":76561198392505656,"connected_time":0,"state":"spawning","ping":35},{"user_id":735,"name":"aurro","steam_id":76561198315692300,"connected_time":3850000000000,"state":"active","ping":45},{"user_id":736,"name":"babylon","steam_id":76561198170642407,"connected_time":3554000000000,"state":"active","ping":75},{"user_id":737,"name":"Muselk, but mexican","steam_id":76561199289676387,"connected_time":3461000000000,"state":"active","ping":88},{"user_id":763,"name":"chill good dm","steam_id":76561199061380038,"connected_time":424000000000,"state":"active","ping":64},{"user_id":713,"name":"NyanPigz","steam_id":76561198124136007,"connected_time":5847000000000,"state":"active","ping":60},{"user_id":705,"name":"Kilphax","steam_id":76561197993814144,"connected_time":6743000000000,"state":"active","ping":59},{"user_id":756,"name":"Scoops M'Gooch","steam_id":76561198048423812,"connected_time":1124000000000,"state":"active","ping":120},{"user_id":696,"name":"‚∏∏ gaige ‚õß","steam_id":76561198090576796,"connected_time":7962000000000,"state":"active","ping":52},{"user_id":757,"name":"Punished Shitster","steam_id":76561198150452857,"connected_time":1117000000000,"state":"active","ping":71},{"user_id":710,"name":"black tar estrogen","steam_id":76561198043911582,"connected_time":6487000000000,"state":"active","ping":60},{"user_id":758,"name":"Jousty","steam_id":76561199162677853,"connected_time":1108000000000,"state":"active","ping":98},{"user_id":732,"name":"Tibalt Nyahuma","steam_id":76561198034779431,"connected_time":3858000000000,"state":"active","ping":72},{"user_id":764,"name":"ack.awesome676","steam_id":76561199109415958,"connected_time":423000000000,"state":"active","ping":102},{"user_id":759,"name":"oyasumi","steam_id":76561198128614882,"connected_time":1082000000000,"state":"active","ping":67},{"user_id":733,"name":"loser","steam_id":76561198259380127,"connected_time":3858000000000,"state":"active","ping":60}]},{"server_id":106,"name":"Uncletopia | Chicago | 2 | All Maps","name_short":"chi-2","host":"chi-1.us.uncletopia.com","port":27025,"enabled":true,"region":"us-central","cc":"us","latitude":41.881832,"longitude":-87.62318,"reserved":0,"last_update":"0001-01-01T00:00:00Z","name_a2s":"Uncletopia | Chicago | 2 | All Maps","protocol":17,"map":"pl_upward","folder":"tf","game":"Team Fortress","app_id":440,"player_count":24,"max_players":24,"Bots":0,"server_type":"Dedicated","server_os":"Linux","password":true,"vac":true,"version":"7961495","steam_id":85568392924469985,"keywords":["nocrits","nodmgspread","payload","uncletopia"],"game_id":440,"stv_port":27026,"stv_name":"Uncletopia | Chicago | 2 | All Maps | STV","players":[{"user_id":348,"name":"ohohaye","steam_id":76561198043911164,"connected_time":3497000000000,"state":"active","ping":103},{"user_id":347,"name":"The Pootis'd Berd","steam_id":76561198141903490,"connected_time":3508000000000,"state":"active","ping":110},{"user_id":349,"name":"Escapism","steam_id":76561198045302512,"connected_time":3470000000000,"state":"active","ping":103},{"user_id":380,"name":"toasty weber","steam_id":76561198037746805,"connected_time":620000000000,"state":"active","ping":65},{"user_id":351,"name":"Luna","steam_id":76561198020696265,"connected_time":3390000000000,"state":"active","ping":62},{"user_id":313,"name":"Lost","steam_id":76561198025933206,"connected_time":5992000000000,"state":"active","ping":58},{"user_id":327,"name":"dilfbot","steam_id":76561198099988165,"connected_time":5319000000000,"state":"active","ping":72},{"user_id":381,"name":"Flashlight!","steam_id":76561197979683009,"connected_time":544000000000,"state":"active","ping":107},{"user_id":378,"name":"Jordan Poole ‰Ω†ÊòØ‰∏äÊµ∑È≤®È±º","steam_id":76561198144909435,"connected_time":638000000000,"state":"active","ping":107},{"user_id":379,"name":"wile","steam_id":76561198125261443,"connected_time":622000000000,"state":"active","ping":110},{"user_id":332,"name":"kaputon","steam_id":76561198146299782,"connected_time":4352000000000,"state":"active","ping":59},{"user_id":376,"name":"Tobo","steam_id":76561198085846393,"connected_time":1056000000000,"state":"active","ping":86},{"user_id":361,"name":"human barbarian","steam_id":76561198051310816,"connected_time":2598000000000,"state":"active","ping":70},{"user_id":382,"name":"Jay","steam_id":76561198084129048,"connected_time":392000000000,"state":"active","ping":73},{"user_id":338,"name":"Lord Pretty Flocko Jordye","steam_id":76561198962880749,"connected_time":4025000000000,"state":"active","ping":103},{"user_id":360,"name":"Ecliptica","steam_id":76561198171951333,"connected_time":2691000000000,"state":"active","ping":128},{"user_id":371,"name":"Witch Doctor Waka","steam_id":76561198028507980,"connected_time":1980000000000,"state":"active","ping":59},{"user_id":374,"name":"Gene Takovic","steam_id":76561198881039861,"connected_time":1449000000000,"state":"active","ping":48},{"user_id":377,"name":"Space Killer Ultimate Jesus","steam_id":76561198015737831,"connected_time":894000000000,"state":"active","ping":63},{"user_id":357,"name":"tf2 noob vs pro","steam_id":76561198120973162,"connected_time":2989000000000,"state":"active","ping":76},{"user_id":383,"name":"thundah","steam_id":76561199159928133,"connected_time":240000000000,"state":"active","ping":74},{"user_id":339,"name":"graham crackr","steam_id":76561199072720886,"connected_time":3952000000000,"state":"active","ping":63},{"user_id":366,"name":"Amari","steam_id":76561198272446730,"connected_time":2073000000000,"state":"active","ping":59},{"user_id":340,"name":"Lucy Lou!","steam_id":76561198078209088,"connected_time":3886000000000,"state":"active","ping":45}]},{"server_id":402,"name":"Uncletopia | Chicago | 3 | All Maps","name_short":"chi-3","host":"chi-1.us.uncletopia.com","port":27035,"enabled":true,"region":"us-central","cc":"us","latitude":41.881832,"longitude":-87.62318,"reserved":0,"last_update":"0001-01-01T00:00:00Z","name_a2s":"Uncletopia | Chicago | 3 | All Maps","protocol":17,"map":"pl_pier","folder":"tf","game":"Team Fortress","app_id":440,"player_count":0,"max_players":24,"Bots":0,"server_type":"Dedicated","server_os":"Linux","password":true,"vac":true,"version":"7961495","steam_id":85568392924515191,"keywords":["nocrits","nodmgspread","payload","uncletopia"],"game_id":440,"stv_port":27036,"stv_name":"Uncletopia | Chicago | 3 | All Maps | STV","players":null},{"server_id":403,"name":"Uncletopia | Chicago | 4 | All Maps","name_short":"chi-4","host":"chi-1.us.uncletopia.com","port":27045,"enabled":true,"region":"us-central","cc":"us","latitude":41.881832,"longitude":-87.62318,"reserved":0,"last_update":"0001-01-01T00:00:00Z","name_a2s":"Uncletopia | Chicago | 4 | All Maps","protocol":17,"map":"pl_barnblitz","folder":"tf","game":"Team Fortress","app_id":440,"player_count":24,"max_players":24,"Bots":0,"server_type":"Dedicated","server_os":"Linux","password":true,"vac":true,"version":"7961495","steam_id":85568392924515193,"keywords":["nocrits","nodmgspread","payload","uncletopia"],"game_id":440,"stv_port":27046,"stv_name":"Uncletopia | Chicago | 4 | All Maps | STV","players":[{"user_id":635,"name":"OverEngineered","steam_id":76561198060061863,"connected_time":52000000000,"state":"active","ping":59},{"user_id":619,"name":"Tarluk","steam_id":76561198079645112,"connected_time":2640000000000,"state":"active","ping":79},{"user_id":586,"name":"Phee","steam_id":76561198014317211,"connected_time":6750000000000,"state":"active","ping":161},{"user_id":608,"name":"blehz","steam_id":76561198048429098,"connected_time":2966000000000,"state":"active","ping":90},{"user_id":613,"name":"Dead","steam_id":76561198083561382,"connected_time":2802000000000,"state":"active","ping":94},{"user_id":634,"name":"Mamaiymasentinel","steam_id":76561198151360048,"connected_time":356000000000,"state":"active","ping":63},{"user_id":629,"name":"Smooth, Refreshing Bleach‚Ñ¢","steam_id":76561197981060504,"connected_time":870000000000,"state":"active","ping":49},{"user_id":596,"name":"sergeant major cone tits","steam_id":76561198333985626,"connected_time":5486000000000,"state":"active","ping":63},{"user_id":603,"name":"sir eepington","steam_id":76561198299094088,"connected_time":3967000000000,"state":"active","ping":75},{"user_id":612,"name":"KennytheHedgehog","steam_id":76561198094607721,"connected_time":2840000000000,"state":"active","ping":75},{"user_id":614,"name":"Chris","steam_id":76561198086608978,"connected_time":2788000000000,"state":"active","ping":101},{"user_id":630,"name":"VOLCON","steam_id":76561198116023052,"connected_time":862000000000,"state":"active","ping":71},{"user_id":598,"name":"Persona404","steam_id":76561198109635077,"connected_time":5446000000000,"state":"active","ping":82},{"user_id":631,"name":"Gardangle","steam_id":76561198394173831,"connected_time":808000000000,"state":"active","ping":101},{"user_id":599,"name":"frank","steam_id":76561198137777483,"connected_time":5367000000000,"state":"active","ping":68},{"user_id":571,"name":"Sauce","steam_id":76561198398722419,"connected_time":8060000000000,"state":"active","ping":95},{"user_id":567,"name":"El Dorito","steam_id":76561198044544789,"connected_time":8402000000000,"state":"active","ping":61},{"user_id":624,"name":"ringaroundme","steam_id":76561199010126042,"connected_time":1855000000000,"state":"active","ping":122},{"user_id":625,"name":"AkimboAoki","steam_id":76561198158323058,"connected_time":1849000000000,"state":"active","ping":99},{"user_id":636,"name":"gugcat","steam_id":76561198129822860,"connected_time":41000000000,"state":"active","ping":87},{"user_id":606,"name":"Nexusuxen","steam_id":76561198117547131,"connected_time":3396000000000,"state":"active","ping":71},{"user_id":620,"name":"zakbox30x","steam_id":76561198077580212,"connected_time":2633000000000,"state":"active","ping":68},{"user_id":560,"name":"Metal Witch","steam_id":76561198138560080,"connected_time":9041000000000,"state":"active","ping":91},{"user_id":633,"name":"Five","steam_id":76561198026640473,"connected_time":621000000000,"state":"active","ping":74}]},{"server_id":36,"name":"Uncletopia | Chicago | 5 | All Maps","name_short":"chi-5","host":"chi-2.us.uncletopia.com","port":27015,"enabled":true,"region":"us-central","cc":"us","latitude":41.881832,"longitude":-87.62318,"reserved":0,"last_update":"0001-01-01T00:00:00Z","name_a2s":"Uncletopia | Chicago | 5 | All Maps","protocol":17,"map":"pl_barnblitz","folder":"tf","game":"Team Fortress","app_id":440,"player_count":0,"max_players":24,"Bots":0,"server_type":"Dedicated","server_os":"Linux","password":true,"vac":true,"version":"7961495","steam_id":85568392924866362,"keywords":["nocrits","nodmgspread","payload","uncletopia"],"game_id":440,"stv_port":27016,"stv_name":"Uncletopia | Chicago | 5 | All Maps | STV","players":null},{"server_id":37,"name":"Uncletopia | Chicago | 6 | All Maps","name_short":"chi-6","host":"chi-2.us.uncletopia.com","port":27025,"enabled":true,"region":"us-central","cc":"us","latitude":41.881832,"longitude":-87.62318,"reserved":0,"last_update":"0001-01-01T00:00:00Z","name_a2s":"Uncletopia | Chicago | 6 | All Maps","protocol":17,"map":"koth_highpass","folder":"tf","game":"Team Fortress","app_id":440,"player_count":0,"max_players":24,"Bots":0,"server_type":"Dedicated","server_os":"Linux","password":true,"vac":true,"version":"7961495","steam_id":85568392924866363,"keywords":["cp","nocrits","nodmgspread","uncletopia"],"game_id":440,"stv_port":27026,"stv_name":"Uncletopia | Chicago | 6 | All Maps | STV","players":null},{"server_id":38,"name":"Uncletopia | Chicago | 7 | Stopwatch","name_short":"chi-7","host":"chi-2.us.uncletopia.com","port":27035,"enabled":true,"region":"us-central","cc":"us","latitude":41.881832,"longitude":-87.62318,"reserved":0,"last_update":"0001-01-01T00:00:00Z","name_a2s":"Uncletopia | Chicago | 7 | Stopwatch","protocol":17,"map":"pl_badwater","folder":"tf","game":"Team Fortress","app_id":440,"player_count":0,"max_players":24,"Bots":0,"server_type":"Dedicated","server_os":"Linux","password":true,"vac":true,"version":"7961495","steam_id":85568392924866364,"keywords":["nocrits","nodmgspread","payload","uncletopia"],"game_id":440,"stv_port":27036,"stv_name":"Uncletopia | Chicago | 7 | Stopwatch | STV","players":null},{"server_id":39,"name":"Uncletopia | Chicago | 8 | Community","name_short":"chi-8","host":"chi-2.us.uncletopia.com","port":27045,"enabled":true,"region":"us-central","cc":"us","latitude":41.881832,"longitude":-87.62318,"reserved":0,"last_update":"0001-01-01T00:00:00Z","name_a2s":"Uncletopia | Chicago | 8 | Community","protocol":17,"map":"workshop/cp_coilblaze_rc7.ugc1272700588","folder":"tf","game":"Team Fortress","app_id":440,"player_count":0,"max_players":24,"Bots":0,"server_type":"Dedicated","server_os":"Linux","password":true,"vac":true,"version":"7961495","steam_id":85568392924866365,"keywords":["cp","nocrits","nodmgspread","uncletopia"],"game_id":440,"stv_port":27046,"stv_name":"Uncletopia | Chicago | 8 | Community | STV","players":null},{"server_id":8,"name":"Uncletopia | Dallas | 1 | All Maps","name_short":"dal-1","host":"dal-1.us.uncletopia.com","port":27015,"enabled":true,"region":"us-central","cc":"us","latitude":32.779167,"longitude":-96.80889,"reserved":0,"last_update":"0001-01-01T00:00:00Z","name_a2s":"Uncletopia | Dallas | 1 | All Maps","protocol":17,"map":"pl_pier","folder":"tf","game":"Team Fortress","app_id":440,"player_count":22,"max_players":24,"Bots":0,"server_type":"Dedicated","server_os":"Linux","password":true,"vac":true,"version":"7961495","steam_id":85568392924469986,"keywords":["nocrits","nodmgspread","payload","uncletopia"],"game_id":440,"stv_port":27016,"stv_name":"Uncletopia | Dallas | 1 | All Maps | STV","players":[{"user_id":569,"name":"LEGO¬Æ Indiana Jones","steam_id":76561198091266742,"connected_time":1053000000000,"state":"active","ping":112},{"user_id":560,"name":"`o2","steam_id":76561197992030936,"connected_time":2658000000000,"state":"active","ping":76},{"user_id":588,"name":"fat ass hedonistic retard","steam_id":76561198050840755,"connected_time":17000000000,"state":"spawning","ping":73},{"user_id":587,"name":"for the king","steam_id":76561197973488858,"connected_time":34000000000,"state":"active","ping":64},{"user_id":580,"name":"w a o w","steam_id":76561198060769385,"connected_time":387000000000,"state":"active","ping":90},{"user_id":581,"name":"magus","steam_id":76561197961228140,"connected_time":385000000000,"state":"active","ping":72},{"user_id":543,"name":"‚ú©BONGO‚ú©","steam_id":76561198018040930,"connected_time":3632000000000,"state":"active","ping":38},{"user_id":572,"name":"Captain Space.","steam_id":76561198115254818,"connected_time":1029000000000,"state":"active","ping":71},{"user_id":556,"name":"sobaka","steam_id":76561198116008934,"connected_time":2693000000000,"state":"active","ping":95},{"user_id":555,"name":"üê∫-Iwky-ü¶ä","steam_id":76561198185616311,"connected_time":2716000000000,"state":"active","ping":79},{"user_id":564,"name":"meggie","steam_id":76561198038291026,"connected_time":2507000000000,"state":"active","ping":32},{"user_id":586,"name":"allahsdroptop (Bag/Chaser)","steam_id":76561198133195238,"connected_time":59000000000,"state":"active","ping":99},{"user_id":589,"name":"story","steam_id":76561199088496817,"connected_time":0,"state":"spawning","ping":14},{"user_id":561,"name":"there is cum in my ramen","steam_id":76561198059815894,"connected_time":2613000000000,"state":"active","ping":72},{"user_id":582,"name":"MINI CRIT!999","steam_id":76561198027649268,"connected_time":351000000000,"state":"active","ping":76},{"user_id":565,"name":"playguy carter","steam_id":76561198080679337,"connected_time":1864000000000,"state":"active","ping":78},{"user_id":568,"name":"Slippin' Jimmy","steam_id":76561198324749126,"connected_time":1097000000000,"state":"active","ping":94},{"user_id":566,"name":"alright","steam_id":76561199074875663,"connected_time":1646000000000,"state":"active","ping":89},{"user_id":573,"name":"Chimi","steam_id":76561198067800540,"connected_time":1017000000000,"state":"active","ping":60},{"user_id":583,"name":"TeriyakiDynamite","steam_id":76561198050049346,"connected_time":334000000000,"state":"active","ping":94},{"user_id":563,"name":"Monte","steam_id":76561198097499917,"connected_time":2593000000000,"state":"active","ping":61},{"user_id":454,"name":"cold glass of water at 3am","steam_id":76561198418172095,"connected_time":10267000000000,"state":"active","ping":86}]},{"server_id":108,"name":"Uncletopia | Dallas | 2 | All Maps","name_short":"dal-2","host":"dal-1.us.uncletopia.com","port":27025,"enabled":true,"region":"us-central","cc":"us","latitude":32.779167,"longitude":-96.80889,"reserved":0,"last_update":"0001-01-01T00:00:00Z","name_a2s":"Uncletopia | Dallas | 2 | All Maps","protocol":17,"map":"pl_pier","folder":"tf","game":"Team Fortress","app_id":440,"player_count":23,"max_players":24,"Bots":0,"server_type":"Dedicated","server_os":"Linux","password":true,"vac":true,"version":"7961495","steam_id":85568392924469988,"keywords":["nocrits","nodmgspread","payload","uncletopia"],"game_id":440,"stv_port":27026,"stv_name":"Uncletopia | Dallas | 2 | All Maps | STV","players":[{"user_id":764,"name":"STR Cyan","steam_id":76561198051888147,"connected_time":425000000000,"state":"active","ping":73},{"user_id":747,"name":"Frontier Psychiatrist","steam_id":76561198038689088,"connected_time":1296000000000,"state":"active","ping":85},{"user_id":745,"name":"soph","steam_id":76561198067497459,"connected_time":1618000000000,"state":"active","ping":82},{"user_id":746,"name":"Gonzo","steam_id":76561198014619465,"connected_time":1352000000000,"state":"active","ping":84},{"user_id":755,"name":"Cat doin laundry","steam_id":76561198063895852,"connected_time":1044000000000,"state":"active","ping":40},{"user_id":610,"name":"Leon","steam_id":76561198950938712,"connected_time":9289000000000,"state":"active","ping":117},{"user_id":730,"name":"Harpwing","steam_id":76561198076741105,"connected_time":3601000000000,"state":"active","ping":80},{"user_id":645,"name":"raccocooon","steam_id":76561199138602425,"connected_time":6280000000000,"state":"active","ping":83},{"user_id":757,"name":"Erodplayer","steam_id":76561198183840185,"connected_time":1040000000000,"state":"active","ping":50},{"user_id":759,"name":"ChoccyMiltank","steam_id":76561198981474284,"connected_time":1029000000000,"state":"active","ping":75},{"user_id":606,"name":"Drakon","steam_id":76561198078210822,"connected_time":9801000000000,"state":"active","ping":90},{"user_id":749,"name":"blue duck the 2nd","steam_id":76561198263142765,"connected_time":1270000000000,"state":"active","ping":151},{"user_id":750,"name":"None of that $9.99 bullshit","steam_id":76561198116169903,"connected_time":1246000000000,"state":"active","ping":68},{"user_id":767,"name":"kiwi  _gaming","steam_id":76561198358929717,"connected_time":199000000000,"state":"active","ping":45},{"user_id":751,"name":"NiŒªiwiŒªi, ‚ñºiscount of ‚ñºio","steam_id":76561198009193777,"connected_time":1230000000000,"state":"active","ping":92},{"user_id":768,"name":"37 septillion tapeworms","steam_id":76561198186128723,"connected_time":119000000000,"state":"active","ping":52},{"user_id":762,"name":"Balerion the Black Dread","steam_id":76561198003728369,"connected_time":688000000000,"state":"active","ping":60},{"user_id":735,"name":"God's Yoinkiest Sploinker","steam_id":76561198131631865,"connected_time":3069000000000,"state":"active","ping":72},{"user_id":753,"name":"beats you say it's a good thing","steam_id":76561199245717718,"connected_time":1212000000000,"state":"active","ping":68},{"user_id":754,"name":"Steezy","steam_id":76561199481442986,"connected_time":1205000000000,"state":"active","ping":97},{"user_id":697,"name":"+","steam_id":76561198262422184,"connected_time":5137000000000,"state":"active","ping":44},{"user_id":724,"name":"bruh","steam_id":76561198305505479,"connected_time":4199000000000,"state":"active","ping":38},{"user_id":725,"name":"Lil Pump on a Stump","steam_id":76561198199464838,"connected_time":4199000000000,"state":"active","ping":85}]},{"server_id":404,"name":"Uncletopia | Dallas | 3 | All Maps","name_short":"dal-3","host":"dal-1.us.uncletopia.com","port":27035,"enabled":true,"region":"us-central","cc":"us","latitude":32.779167,"longitude":-96.80889,"reserved":0,"last_update":"0001-01-01T00:00:00Z","name_a2s":"Uncletopia | Dallas | 3 | All Maps","protocol":17,"map":"pl_borneo","folder":"tf","game":"Team Fortress","app_id":440,"player_count":0,"max_players":24,"Bots":0,"server_type":"Dedicated","server_os":"Linux","password":true,"vac":true,"version":"7961495","steam_id":85568392924515219,"keywords":["nocrits","nodmgspread","payload","uncletopia"],"game_id":440,"stv_port":27036,"stv_name":"Uncletopia | Dallas | 3 | All Maps | STV","players":null},{"server_id":405,"name":"Uncletopia | Dallas | 4 | Community","name_short":"dal-4","host":"dal-1.us.uncletopia.com","port":27045,"enabled":true,"region":"us-central","cc":"us","latitude":32.779167,"longitude":-96.80889,"reserved":0,"last_update":"0001-01-01T00:00:00Z","name_a2s":"Uncletopia | Dallas | 4 | Community","protocol":17,"map":"workshop/pl_divulgence_b4b.ugc2884808746","folder":"tf","game":"Team Fortress","app_id":440,"player_count":0,"max_players":24,"Bots":0,"server_type":"Dedicated","server_os":"Linux","password":true,"vac":true,"version":"7961495","steam_id":85568392924515220,"keywords":["nocrits","nodmgspread","payload","uncletopia"],"game_id":440,"stv_port":27046,"stv_name":"Uncletopia | Dallas | 4 | Community | STV","players":null},{"server_id":5,"name":"Uncletopia | Frankfurt | 1 | All Maps","name_short":"frk-1","host":"frk-1.de.uncletopia.com","port":27015,"enabled":true,"region":"eu","cc":"de","latitude":50.110924,"longitude":8.682127,"reserved":0,"last_update":"0001-01-01T00:00:00Z","name_a2s":"Uncletopia | Frankfurt | 1 | All Maps","protocol":17,"map":"koth_highpass","folder":"tf","game":"Team Fortress","app_id":440,"player_count":0,"max_players":24,"Bots":0,"server_type":"Dedicated","server_os":"Linux","password":true,"vac":true,"version":"7961495","steam_id":85568392924469989,"keywords":["cp","nocrits","nodmgspread","uncletopia"],"game_id":440,"stv_port":27016,"stv_name":"Uncletopia | Frankfurt | 1 | All Maps | STV","players":null},{"server_id":110,"name":"Uncletopia | Frankfurt | 2 | All Maps","name_short":"frk-2","host":"frk-1.de.uncletopia.com","port":27025,"enabled":true,"region":"eu","cc":"de","latitude":50.110924,"longitude":8.682127,"reserved":0,"last_update":"0001-01-01T00:00:00Z","name_a2s":"Uncletopia | Frankfurt | 2 | All Maps","protocol":17,"map":"cp_dustbowl","folder":"tf","game":"Team Fortress","app_id":440,"player_count":0,"max_players":24,"Bots":0,"server_type":"Dedicated","server_os":"Linux","password":true,"vac":true,"version":"7961495","steam_id":85568392924469990,"keywords":["cp","nocrits","nodmgspread","uncletopia"],"game_id":440,"stv_port":27026,"stv_name":"Uncletopia | Frankfurt | 2 | All Maps | STV","players":null},{"server_id":308,"name":"Uncletopia | Frankfurt | 3 | All Maps","name_short":"frk-3","host":"frk-1.de.uncletopia.com","port":27035,"enabled":true,"region":"eu","cc":"de","latitude":50.110924,"longitude":8.682127,"reserved":0,"last_update":"0001-01-01T00:00:00Z","name_a2s":"Uncletopia | Frankfurt | 3 | All Maps","protocol":17,"map":"pl_barnblitz","folder":"tf","game":"Team Fortress","app_id":440,"player_count":0,"max_players":24,"Bots":0,"server_type":"Dedicated","server_os":"Linux","password":true,"vac":true,"version":"7961495","steam_id":85568392924504274,"keywords":["nocrits","nodmgspread","payload","uncletopia"],"game_id":440,"stv_port":27036,"stv_name":"Uncletopia | Frankfurt | 3 | All Maps | STV","players":null},{"server_id":309,"name":"Uncletopia | Frankfurt | 4 | All Maps","name_short":"frk-4","host":"frk-1.de.uncletopia.com","port":27045,"enabled":true,"region":"eu","cc":"de","latitude":50.110924,"longitude":8.682127,"reserved":0,"last_update":"0001-01-01T00:00:00Z","name_a2s":"Uncletopia | Frankfurt | 4 | All Maps","protocol":17,"map":"koth_highpass","folder":"tf","game":"Team Fortress","app_id":440,"player_count":0,"max_players":24,"Bots":0,"server_type":"Dedicated","server_os":"Linux","password":true,"vac":true,"version":"7961495","steam_id":85568392924504275,"keywords":["cp","nocrits","nodmgspread","uncletopia"],"game_id":440,"stv_port":27046,"stv_name":"Uncletopia | Frankfurt | 4 | All Maps | STV","players":null},{"server_id":310,"name":"Uncletopia | Frankfurt | 5 | All Maps","name_short":"frk-5","host":"frk-1.de.uncletopia.com","port":27055,"enabled":true,"region":"eu","cc":"de","latitude":50.110924,"longitude":8.682127,"reserved":0,"last_update":"0001-01-01T00:00:00Z","name_a2s":"Uncletopia | Frankfurt | 5 | All Maps","protocol":17,"map":"pl_badwater","folder":"tf","game":"Team Fortress","app_id":440,"player_count":0,"max_players":24,"Bots":0,"server_type":"Dedicated","server_os":"Linux","password":true,"vac":true,"version":"7961495","steam_id":85568392924504277,"keywords":["nocrits","nodmgspread","payload","uncletopia"],"game_id":440,"stv_port":27056,"stv_name":"Uncletopia | Frankfurt | 5 | All Maps | STV","players":null},{"server_id":311,"name":"Uncletopia | Frankfurt | 6 | All Maps","name_short":"frk-6","host":"frk-1.de.uncletopia.com","port":27065,"enabled":true,"region":"eu","cc":"de","latitude":50.110924,"longitude":8.682127,"reserved":0,"last_update":"0001-01-01T00:00:00Z","name_a2s":"Uncletopia | Frankfurt | 6 | All Maps","protocol":17,"map":"cp_altitude","folder":"tf","game":"Team Fortress","app_id":440,"player_count":0,"max_players":24,"Bots":0,"server_type":"Dedicated","server_os":"Linux","password":true,"vac":true,"version":"7961495","steam_id":85568392924504278,"keywords":["cp","nocrits","nodmgspread","uncletopia"],"game_id":440,"stv_port":27066,"stv_name":"Uncletopia | Frankfurt | 6 | All Maps | STV","players":null},{"server_id":23,"name":"Uncletopia | Frankfurt | 7 | Stopwatch","name_short":"frk-7","host":"frk-1.de.uncletopia.com","port":27075,"enabled":true,"region":"eu","cc":"de","latitude":50.110924,"longitude":8.682127,"reserved":0,"last_update":"0001-01-01T00:00:00Z","name_a2s":"Uncletopia | Frankfurt | 7 | Stopwatch","protocol":17,"map":"pl_frontier_final","folder":"tf","game":"Team Fortress","app_id":440,"player_count":0,"max_players":24,"Bots":0,"server_type":"Dedicated","server_os":"Linux","password":true,"vac":true,"version":"7961495","steam_id":85568392924742827,"keywords":["nocrits","nodmgspread","payload","uncletopia"],"game_id":440,"stv_port":27076,"stv_name":"Uncletopia | Frankfurt | 7 | Stopwatch | STV","players":null},{"server_id":24,"name":"Uncletopia | Frankfurt | 8 | Community","name_short":"frk-8","host":"frk-1.de.uncletopia.com","port":27085,"enabled":true,"region":"eu","cc":"de","latitude":50.110924,"longitude":8.682127,"reserved":0,"last_update":"0001-01-01T00:00:00Z","name_a2s":"Uncletopia | Frankfurt | 8 | Community","protocol":17,"map":"cp_mountainlab","folder":"tf","game":"Team Fortress","app_id":440,"player_count":0,"max_players":24,"Bots":0,"server_type":"Dedicated","server_os":"Linux","password":true,"vac":true,"version":"7961495","steam_id":85568392924742828,"keywords":["cp","nocrits","nodmgspread","uncletopia"],"game_id":440,"stv_port":27086,"stv_name":"Uncletopia | Frankfurt | 8 | Community | STV","players":null},{"server_id":202,"name":"Uncletopia | Hong Kong | 1 | All Maps","name_short":"hgk-1","host":"hgk-1.hk.uncletopia.com","port":27015,"enabled":true,"region":"asia","cc":"hk","latitude":22.302711,"longitude":114.177216,"reserved":0,"last_update":"0001-01-01T00:00:00Z","name_a2s":"Uncletopia | Hong Kong | 1 | All Maps","protocol":17,"map":"koth_viaduct","folder":"tf","game":"Team Fortress","app_id":440,"player_count":0,"max_players":24,"Bots":0,"server_type":"Dedicated","server_os":"Linux","password":true,"vac":true,"version":"7961495","steam_id":85568392924494504,"keywords":["cp","nocrits","nodmgspread","uncletopia"],"game_id":440,"stv_port":27016,"stv_name":"Uncletopia | Hong Kong | 1 | All Maps | STV","players":null},{"server_id":1,"name":"Uncletopia | Los Angeles | 1 | All Maps","name_short":"lax-1","host":"lax-1.us.uncletopia.com","port":27015,"enabled":true,"region":"us-west","cc":"us","latitude":33.94279,"longitude":-118.41004,"reserved":0,"last_update":"0001-01-01T00:00:00Z","name_a2s":"Uncletopia | Los Angeles | 1 | All Maps","protocol":17,"map":"cp_steel","folder":"tf","game":"Team Fortress","app_id":440,"player_count":24,"max_players":24,"Bots":0,"server_type":"Dedicated","server_os":"Linux","password":true,"vac":true,"version":"7961495","steam_id":85568392924469991,"keywords":["cp","nocrits","nodmgspread","uncletopia"],"game_id":440,"stv_port":27016,"stv_name":"Uncletopia | Los Angeles | 1 | All Maps | STV","players":[{"user_id":146,"name":"Soggy Zogg","steam_id":76561198836316052,"connected_time":473000000000,"state":"active","ping":57},{"user_id":41,"name":"Mr. Noodle","steam_id":76561198025280658,"connected_time":8989000000000,"state":"active","ping":54},{"user_id":39,"name":"Lysander Crow","steam_id":76561198214659356,"connected_time":9242000000000,"state":"active","ping":45},{"user_id":130,"name":"Obersteuermann","steam_id":76561198044468707,"connected_time":1074000000000,"state":"active","ping":75},{"user_id":137,"name":"roach :3","steam_id":76561198354811369,"connected_time":684000000000,"state":"active","ping":49},{"user_id":127,"name":"squart guy","steam_id":76561199411560141,"connected_time":1210000000000,"state":"active","ping":76},{"user_id":106,"name":"Witch Vomit","steam_id":76561199079587227,"connected_time":3289000000000,"state":"active","ping":63},{"user_id":125,"name":"Flinkerdoodle","steam_id":76561198052111706,"connected_time":1238000000000,"state":"active","ping":84},{"user_id":142,"name":"XaZ Martinet ‚ö£","steam_id":76561197999221455,"connected_time":601000000000,"state":"active","ping":121},{"user_id":149,"name":"Mighty Morphin Flower Arrangers","steam_id":76561198133158032,"connected_time":221000000000,"state":"active","ping":57},{"user_id":138,"name":"Neato!","steam_id":76561198043548668,"connected_time":684000000000,"state":"active","ping":87},{"user_id":139,"name":"Government Plates","steam_id":76561198140866252,"connected_time":683000000000,"state":"active","ping":105},{"user_id":126,"name":"Delsym Sipper","steam_id":76561198206177593,"connected_time":1233000000000,"state":"active","ping":44},{"user_id":140,"name":"Chris Daisy","steam_id":76561198332145126,"connected_time":676000000000,"state":"active","ping":122},{"user_id":141,"name":"TheTalentlessChicken","steam_id":76561198148390834,"connected_time":675000000000,"state":"active","ping":71},{"user_id":143,"name":"Spy Gaming","steam_id":76561198453295613,"connected_time":580000000000,"state":"active","ping":59},{"user_id":134,"name":"nella","steam_id":76561198079349621,"connected_time":908000000000,"state":"active","ping":49},{"user_id":120,"name":"johnny","steam_id":76561198050225055,"connected_time":1386000000000,"state":"active","ping":50},{"user_id":128,"name":"dAiLyGrInD","steam_id":76561198163531915,"connected_time":1202000000000,"state":"active","ping":99},{"user_id":144,"name":"rat","steam_id":76561198451812135,"connected_time":545000000000,"state":"active","ping":104},{"user_id":148,"name":"retaxed","steam_id":76561198380713242,"connected_time":378000000000,"state":"active","ping":45},{"user_id":145,"name":"_copkilla.B1G$L1M‚Ç¨.zaddY_","steam_id":76561198283687382,"connected_time":544000000000,"state":"active","ping":98},{"user_id":147,"name":"goth witch","steam_id":76561198069605283,"connected_time":469000000000,"state":"active","ping":46},{"user_id":133,"name":"fish","steam_id":76561198054070811,"connected_time":940000000000,"state":"active","ping":63}]},{"server_id":112,"name":"Uncletopia | Los Angeles | 2 | All Maps","name_short":"lax-2","host":"lax-1.us.uncletopia.com","port":27025,"enabled":true,"region":"us-west","cc":"us","latitude":33.94279,"longitude":-118.41004,"reserved":0,"last_update":"0001-01-01T00:00:00Z","name_a2s":"Uncletopia | Los Angeles | 2 | All Maps","protocol":17,"map":"koth_viaduct","folder":"tf","game":"Team Fortress","app_id":440,"player_count":0,"max_players":24,"Bots":0,"server_type":"Dedicated","server_os":"Linux","password":true,"vac":true,"version":"7961495","steam_id":85568392924469992,"keywords":["cp","nocrits","nodmgspread","uncletopia"],"game_id":440,"stv_port":27026,"stv_name":"Uncletopia | Los Angeles | 2 | All Maps | STV","players":null},{"server_id":324,"name":"Uncletopia | Los Angeles | 3 | All Maps","name_short":"lax-3","host":"lax-1.us.uncletopia.com","port":27035,"enabled":true,"region":"us-west","cc":"us","latitude":33.94279,"longitude":-118.41004,"reserved":0,"last_update":"0001-01-01T00:00:00Z","name_a2s":"Uncletopia | Los Angeles | 3 | All Maps","protocol":17,"map":"koth_viaduct","folder":"tf","game":"Team Fortress","app_id":440,"player_count":0,"max_players":24,"Bots":0,"server_type":"Dedicated","server_os":"Linux","password":true,"vac":true,"version":"7961495","steam_id":85568392924510198,"keywords":["cp","nocrits","nodmgspread","uncletopia"],"game_id":440,"stv_port":27036,"stv_name":"Uncletopia | Los Angeles | 3 | All Maps | STV","players":null},{"server_id":25,"name":"Uncletopia | Los Angeles | 4 | Stopwatch","name_short":"lax-4","host":"lax-1.us.uncletopia.com","port":27045,"enabled":true,"region":"us-west","cc":"us","latitude":33.94279,"longitude":-118.41004,"reserved":0,"last_update":"0001-01-01T00:00:00Z","name_a2s":"Uncletopia | Los Angeles | 4 | Stopwatch","protocol":17,"map":"cp_metalworks","folder":"tf","game":"Team Fortress","app_id":440,"player_count":0,"max_players":24,"Bots":0,"server_type":"Dedicated","server_os":"Linux","password":true,"vac":true,"version":"7961495","steam_id":85568392924510199,"keywords":["cp","nocrits","nodmgspread","uncletopia"],"game_id":440,"stv_port":27046,"stv_name":"Uncletopia | Los Angeles | 4 | Stopwatch | STV","players":null},{"server_id":11,"name":"Uncletopia | London | 1 | All Maps","name_short":"lon-1","host":"lon-1.uk.uncletopia.com","port":27015,"enabled":true,"region":"eu","cc":"gb","latitude":51.509865,"longitude":-0.118092,"reserved":0,"last_update":"0001-01-01T00:00:00Z","name_a2s":"Uncletopia | London | 1 | All Maps","protocol":17,"map":"koth_harvest_final","folder":"tf","game":"Team Fortress","app_id":440,"player_count":11,"max_players":24,"Bots":0,"server_type":"Dedicated","server_os":"Linux","password":true,"vac":true,"version":"7961495","steam_id":85568392924367362,"keywords":["cp","nocrits","nodmgspread","uncletopia"],"game_id":440,"stv_port":27016,"stv_name":"Uncletopia | London | 1 | All Maps | STV","players":[{"user_id":35,"name":"Scoundrel","steam_id":76561198056672372,"connected_time":513000000000,"state":"active","ping":132},{"user_id":37,"name":"raguspchennai","steam_id":76561199153121364,"connected_time":257000000000,"state":"active","ping":174},{"user_id":30,"name":"Kino","steam_id":76561198280291584,"connected_time":1242000000000,"state":"active","ping":82},{"user_id":8,"name":"Sonnakai","steam_id":76561198051688749,"connected_time":3372000000000,"state":"active","ping":37},{"user_id":29,"name":"Pingus","steam_id":76561198164880756,"connected_time":1324000000000,"state":"active","ping":70},{"user_id":31,"name":"joojeh_tiqi","steam_id":76561199350323521,"connected_time":1145000000000,"state":"active","ping":189},{"user_id":32,"name":"RAT BASTARD","steam_id":76561199195985387,"connected_time":1007000000000,"state":"active","ping":79},{"user_id":34,"name":"sword haxor","steam_id":76561198998629173,"connected_time":777000000000,"state":"active","ping":74},{"user_id":36,"name":"Playback_time","steam_id":76561198349426598,"connected_time":286000000000,"state":"active","ping":47},{"user_id":38,"name":"Fatmagic Mukbang ASMR","steam_id":76561198063492110,"connected_time":207000000000,"state":"active","ping":70},{"user_id":40,"name":"Emmaru","steam_id":76561198255979573,"connected_time":66000000000,"state":"active","ping":71}]},{"server_id":114,"name":"Uncletopia | London | 2 | All Maps","name_short":"lon-2","host":"lon-1.uk.uncletopia.com","port":27025,"enabled":true,"region":"eu","cc":"gb","latitude":51.509865,"longitude":-0.118092,"reserved":0,"last_update":"0001-01-01T00:00:00Z","name_a2s":"Uncletopia | London | 2 | All Maps","protocol":17,"map":"pl_borneo","folder":"tf","game":"Team Fortress","app_id":440,"player_count":0,"max_players":24,"Bots":0,"server_type":"Dedicated","server_os":"Linux","password":true,"vac":true,"version":"7961495","steam_id":85568392924470941,"keywords":["nocrits","nodmgspread","payload","uncletopia"],"game_id":440,"stv_port":27026,"stv_name":"Uncletopia | London | 2 | All Maps | STV","players":null},{"server_id":320,"name":"Uncletopia | London | 3 | All Maps","name_short":"lon-3","host":"lon-1.uk.uncletopia.com","port":27035,"enabled":true,"region":"eu","cc":"gb","latitude":51.509865,"longitude":-0.118092,"reserved":0,"last_update":"0001-01-01T00:00:00Z","name_a2s":"Uncletopia | London | 3 | All Maps","protocol":17,"map":"cp_process_final","folder":"tf","game":"Team Fortress","app_id":440,"player_count":0,"max_players":24,"Bots":0,"server_type":"Dedicated","server_os":"Linux","password":true,"vac":true,"version":"7961495","steam_id":85568392924510192,"keywords":["cp","nocrits","nodmgspread","uncletopia"],"game_id":440,"stv_port":27036,"stv_name":"Uncletopia | London | 3 | All Maps | STV","players":null},{"server_id":321,"name":"Uncletopia | London | 4 | All Maps","name_short":"lon-4","host":"lon-1.uk.uncletopia.com","port":27045,"enabled":true,"region":"eu","cc":"gb","latitude":51.509865,"longitude":-0.118092,"reserved":0,"last_update":"0001-01-01T00:00:00Z","name_a2s":"Uncletopia | London | 4 | All Maps","protocol":17,"map":"koth_cascade","folder":"tf","game":"Team Fortress","app_id":440,"player_count":0,"max_players":24,"Bots":0,"server_type":"Dedicated","server_os":"Linux","password":true,"vac":true,"version":"7961495","steam_id":85568392924510193,"keywords":["cp","nocrits","nodmgspread","uncletopia"],"game_id":440,"stv_port":27046,"stv_name":"Uncletopia | London | 4 | All Maps | STV","players":null},{"server_id":21,"name":"Uncletopia | London | 5 | All Maps","name_short":"lon-5","host":"lon-1.uk.uncletopia.com","port":27055,"enabled":true,"region":"eu","cc":"gb","latitude":51.509865,"longitude":-0.118092,"reserved":0,"last_update":"0001-01-01T00:00:00Z","name_a2s":"Uncletopia | London | 5 | All Maps","protocol":17,"map":"koth_lakeside_final","folder":"tf","game":"Team Fortress","app_id":440,"player_count":0,"max_players":24,"Bots":0,"server_type":"Dedicated","server_os":"Linux","password":true,"vac":true,"version":"7961495","steam_id":85568392924742829,"keywords":["cp","nocrits","nodmgspread","uncletopia"],"game_id":440,"stv_port":27056,"stv_name":"Uncletopia | London | 5 | All Maps | STV","players":null},{"server_id":22,"name":"Uncletopia | London | 6 | All Maps","name_short":"lon-6","host":"lon-1.uk.uncletopia.com","port":27065,"enabled":true,"region":"eu","cc":"gb","latitude":51.509865,"longitude":-0.118092,"reserved":0,"last_update":"0001-01-01T00:00:00Z","name_a2s":"Uncletopia | London | 6 | All Maps","protocol":17,"map":"cp_dustbowl","folder":"tf","game":"Team Fortress","app_id":440,"player_count":0,"max_players":24,"Bots":0,"server_type":"Dedicated","server_os":"Linux","password":true,"vac":true,"version":"7961495","steam_id":85568392924742830,"keywords":["cp","nocrits","nodmgspread","uncletopia"],"game_id":440,"stv_port":27066,"stv_name":"Uncletopia | London | 6 | All Maps | STV","players":null},{"server_id":40,"name":"Uncletopia | London | 7 | Stopwatch","name_short":"lon-7","host":"lon-1.uk.uncletopia.com","port":27075,"enabled":true,"region":"eu","cc":"gb","latitude":51.509865,"longitude":-0.118092,"reserved":0,"last_update":"0001-01-01T00:00:00Z","name_a2s":"Uncletopia | London | 7 | Stopwatch","protocol":17,"map":"koth_lakeside_final","folder":"tf","game":"Team Fortress","app_id":440,"player_count":0,"max_players":24,"Bots":0,"server_type":"Dedicated","server_os":"Linux","password":true,"vac":true,"version":"7961495","steam_id":85568392924964314,"keywords":["cp","nocrits","nodmgspread","uncletopia"],"game_id":440,"stv_port":27076,"stv_name":"Uncletopia | London | 7 | Stopwatch | STV","players":null},{"server_id":41,"name":"Uncletopia | London | 8 | Community","name_short":"lon-8","host":"lon-1.uk.uncletopia.com","port":27085,"enabled":true,"region":"eu","cc":"gb","latitude":51.509865,"longitude":-0.118092,"reserved":0,"last_update":"0001-01-01T00:00:00Z","name_a2s":"Uncletopia | London | 8 | Community","protocol":17,"map":"cp_snakewater_final1","folder":"tf","game":"Team Fortress","app_id":440,"player_count":0,"max_players":24,"Bots":0,"server_type":"Dedicated","server_os":"Linux","password":true,"vac":true,"version":"7961495","steam_id":85568392924964315,"keywords":["cp","nocrits","nodmgspread","uncletopia"],"game_id":440,"stv_port":27086,"stv_name":"Uncletopia | London | 8 | Community | STV","players":null},{"server_id":300,"name":"Uncletopia | Montr√©al | 1 | One Thousand Uncles","name_short":"mtl-1","host":"mtl-1.ca.uncletopia.com","port":27015,"enabled":true,"region":"us-east","cc":"ca","latitude":45.50889,"longitude":-73.56167,"reserved":0,"last_update":"0001-01-01T00:00:00Z","name_a2s":"","protocol":0,"map":"","folder":"","game":"","app_id":0,"player_count":0,"max_players":0,"Bots":0,"server_type":"","server_os":"","password":false,"vac":false,"version":"","steam_id":0,"keywords":null,"game_id":0,"stv_port":0,"stv_name":"","players":null},{"server_id":301,"name":"Uncletopia | Montr√©al | 2 | One Thousand Uncles","name_short":"mtl-2","host":"mtl-1.ca.uncletopia.com","port":27025,"enabled":true,"region":"us-east","cc":"ca","latitude":45.50889,"longitude":-73.56167,"reserved":0,"last_update":"0001-01-01T00:00:00Z","name_a2s":"","protocol":0,"map":"","folder":"","game":"","app_id":0,"player_count":0,"max_players":0,"Bots":0,"server_type":"","server_os":"","password":false,"vac":false,"version":"","steam_id":0,"keywords":null,"game_id":0,"stv_port":0,"stv_name":"","players":null},{"server_id":302,"name":"Uncletopia | Montr√©al | 3 | One Thousand Uncles","name_short":"mtl-3","host":"mtl-1.ca.uncletopia.com","port":27035,"enabled":true,"region":"us-east","cc":"ca","latitude":45.50889,"longitude":-73.56167,"reserved":0,"last_update":"0001-01-01T00:00:00Z","name_a2s":"","protocol":0,"map":"","folder":"","game":"","app_id":0,"player_count":0,"max_players":0,"Bots":0,"server_type":"","server_os":"","password":false,"vac":false,"version":"","steam_id":0,"keywords":null,"game_id":0,"stv_port":0,"stv_name":"","players":null},{"server_id":13,"name":"Uncletopia | New York City | 1 | All Maps","name_short":"nyc-1","host":"nyc-1.us.uncletopia.com","port":27015,"enabled":true,"region":"us-east","cc":"us","latitude":40.73061,"longitude":-73.93524,"reserved":0,"last_update":"0001-01-01T00:00:00Z","name_a2s":"Uncletopia | New York City | 1 | All Maps","protocol":17,"map":"cp_process_final","folder":"tf","game":"Team Fortress","app_id":440,"player_count":9,"max_players":24,"Bots":0,"server_type":"Dedicated","server_os":"Linux","password":true,"vac":true,"version":"7961495","steam_id":85568392924469993,"keywords":["cp","nocrits","nodmgspread","uncletopia"],"game_id":440,"stv_port":27016,"stv_name":"Uncletopia | New York City | 1 | All Maps | STV","players":[{"user_id":526,"name":"Padre Snowmizzle","steam_id":76561198140550076,"connected_time":4089000000000,"state":"active","ping":55},{"user_id":529,"name":"yeah sure","steam_id":76561198843633669,"connected_time":4056000000000,"state":"active","ping":52},{"user_id":560,"name":"Rockinbacon","steam_id":76561198047159811,"connected_time":252000000000,"state":"active","ping":77},{"user_id":556,"name":"Nevel Papperman","steam_id":76561198150567198,"connected_time":607000000000,"state":"active","ping":43},{"user_id":503,"name":"Yoshimelon","steam_id":76561198253054325,"connected_time":5382000000000,"state":"active","ping":74},{"user_id":557,"name":"Pepsi","steam_id":76561198401918732,"connected_time":563000000000,"state":"active","ping":68},{"user_id":524,"name":"Z2X","steam_id":76561198031916579,"connected_time":4205000000000,"state":"active","ping":34},{"user_id":532,"name":"|i.c.c.n|","steam_id":76561198064206359,"connected_time":4013000000000,"state":"active","ping":56},{"user_id":554,"name":"onion","steam_id":76561198242311084,"connected_time":903000000000,"state":"active","ping":75}]},{"server_id":14,"name":"Uncletopia | New York City | 2 | All Maps","name_short":"nyc-2","host":"nyc-1.us.uncletopia.com","port":27025,"enabled":true,"region":"us-east","cc":"us","latitude":40.73061,"longitude":-73.93524,"reserved":0,"last_update":"0001-01-01T00:00:00Z","name_a2s":"Uncletopia | New York City | 2 | All Maps","protocol":17,"map":"pl_swiftwater_final1","folder":"tf","game":"Team Fortress","app_id":440,"player_count":24,"max_players":24,"Bots":0,"server_type":"Dedicated","server_os":"Linux","password":true,"vac":true,"version":"7961495","steam_id":85568392924469994,"keywords":["nocrits","nodmgspread","payload","uncletopia"],"game_id":440,"stv_port":27026,"stv_name":"Uncletopia | New York City | 2 | All Maps | STV","players":[{"user_id":524,"name":"TheSolitaryGamer","steam_id":76561198045055602,"connected_time":1897000000000,"state":"active","ping":79},{"user_id":525,"name":"Memoirist","steam_id":76561198026002842,"connected_time":1835000000000,"state":"active","ping":70},{"user_id":476,"name":"The Fiend","steam_id":76561198290866348,"connected_time":5655000000000,"state":"active","ping":65},{"user_id":526,"name":"Always Here for You","steam_id":76561198219252313,"connected_time":1830000000000,"state":"active","ping":70},{"user_id":541,"name":"ttv.SweetReverb","steam_id":76561198039256402,"connected_time":507000000000,"state":"active","ping":46},{"user_id":537,"name":"Sex Negator","steam_id":76561198296104441,"connected_time":1544000000000,"state":"active","ping":97},{"user_id":546,"name":"JustShane","steam_id":76561199003156182,"connected_time":190000000000,"state":"active","ping":68},{"user_id":535,"name":"Poopisviel Von Einzbern","steam_id":76561198259260433,"connected_time":1642000000000,"state":"active","ping":81},{"user_id":523,"name":"PIPPIN","steam_id":76561199013202758,"connected_time":1975000000000,"state":"active","ping":127},{"user_id":528,"name":"Necron Cell","steam_id":76561198071744324,"connected_time":1788000000000,"state":"active","ping":90},{"user_id":543,"name":"Wang of Wall St","steam_id":76561198047460598,"connected_time":385000000000,"state":"active","ping":68},{"user_id":529,"name":"SUM_TING_WONG","steam_id":76561198351938341,"connected_time":1766000000000,"state":"active","ping":44},{"user_id":519,"name":"Jango","steam_id":76561198084589742,"connected_time":2492000000000,"state":"active","ping":76},{"user_id":520,"name":"kritik","steam_id":76561198075216115,"connected_time":2409000000000,"state":"active","ping":169},{"user_id":512,"name":"_Pai","steam_id":76561198108196753,"connected_time":2960000000000,"state":"active","ping":107},{"user_id":530,"name":"Tobias Rieper","steam_id":76561198026504998,"connected_time":1758000000000,"state":"active","ping":101},{"user_id":531,"name":"Bunni","steam_id":76561198065169997,"connected_time":1748000000000,"state":"active","ping":73},{"user_id":539,"name":"King of the Beasts","steam_id":76561198123927752,"connected_time":1366000000000,"state":"active","ping":57},{"user_id":544,"name":"That's So Raven! [Dexgod]","steam_id":76561198017130786,"connected_time":361000000000,"state":"active","ping":69},{"user_id":548,"name":"Brendan","steam_id":76561198041079914,"connected_time":144000000000,"state":"active","ping":48},{"user_id":547,"name":"Shang","steam_id":76561198298637817,"connected_time":178000000000,"state":"active","ping":51},{"user_id":534,"name":"Zack","steam_id":76561198308083836,"connected_time":1696000000000,"state":"active","ping":60},{"user_id":514,"name":"HunnyBon","steam_id":76561198135752184,"connected_time":2902000000000,"state":"active","ping":76},{"user_id":538,"name":"Dylanxp300","steam_id":76561198271974937,"connected_time":1543000000000,"state":"active","ping":63}]},{"server_id":15,"name":"Uncletopia | New York City | 3 | Stopwatch","name_short":"nyc-3","host":"nyc-1.us.uncletopia.com","port":27035,"enabled":true,"region":"us-east","cc":"us","latitude":40.73061,"longitude":-73.93524,"reserved":0,"last_update":"0001-01-01T00:00:00Z","name_a2s":"Uncletopia | New York City | 3 | Stopwatch","protocol":17,"map":"workshop/koth_ramjam_rc1.ugc459778887","folder":"tf","game":"Team Fortress","app_id":440,"player_count":0,"max_players":24,"Bots":0,"server_type":"Dedicated","server_os":"Linux","password":true,"vac":true,"version":"7961495","steam_id":85568392924742820,"keywords":["cp","nocrits","nodmgspread","uncletopia"],"game_id":440,"stv_port":27036,"stv_name":"Uncletopia | New York City | 3 | Stopwatch | STV","players":null},{"server_id":16,"name":"Uncletopia | New York City | 4 | Community","name_short":"nyc-4","host":"nyc-1.us.uncletopia.com","port":27045,"enabled":true,"region":"us-east","cc":"us","latitude":40.73061,"longitude":-73.93524,"reserved":0,"last_update":"0001-01-01T00:00:00Z","name_a2s":"Uncletopia | New York City | 4 | Community","protocol":17,"map":"workshop/koth_product_final.ugc454272353","folder":"tf","game":"Team Fortress","app_id":440,"player_count":0,"max_players":24,"Bots":0,"server_type":"Dedicated","server_os":"Linux","password":true,"vac":true,"version":"7961495","steam_id":85568392924742821,"keywords":["cp","nocrits","nodmgspread","uncletopia"],"game_id":440,"stv_port":27046,"stv_name":"Uncletopia | New York City | 4 | Community | STV","players":null},{"server_id":142,"name":"Uncletopia | S√£o Paulo | 1 | All Maps","name_short":"sao-1","host":"sao-1.br.uncletopia.com","port":27015,"enabled":true,"region":"sa","cc":"br","latitude":-23.533773,"longitude":-46.62529,"reserved":0,"last_update":"0001-01-01T00:00:00Z","name_a2s":"Uncletopia | S√£o Paulo | 1 | All Maps","protocol":17,"map":"pl_frontier_final","folder":"tf","game":"Team Fortress","app_id":440,"player_count":0,"max_players":24,"Bots":0,"server_type":"Dedicated","server_os":"Linux","password":true,"vac":true,"version":"7961495","steam_id":85568392924469996,"keywords":["nocrits","nodmgspread","payload","uncletopia"],"game_id":440,"stv_port":27016,"stv_name":"Uncletopia | S√£o Paulo | 1 | All Maps | STV","players":null},{"server_id":143,"name":"Uncletopia | S√£o Paulo | 2 | Community","name_short":"sao-2","host":"sao-2.br.uncletopia.com","port":27015,"enabled":true,"region":"sa","cc":"br","latitude":-23.533773,"longitude":-46.62529,"reserved":0,"last_update":"0001-01-01T00:00:00Z","name_a2s":"Uncletopia | S√£o Paulo | 2 | Community","protocol":17,"map":"workshop/koth_kemptown_rc1.ugc767410655","folder":"tf","game":"Team Fortress","app_id":440,"player_count":0,"max_players":24,"Bots":0,"server_type":"Dedicated","server_os":"Linux","password":true,"vac":true,"version":"7961495","steam_id":85568392924485349,"keywords":["cp","nocrits","nodmgspread","uncletopia"],"game_id":440,"stv_port":27016,"stv_name":"Uncletopia | S√£o Paulo | 2 | Community | STV","players":null},{"server_id":7,"name":"Uncletopia | Seattle | 1 | All Maps","name_short":"sea-1","host":"sea-1.us.uncletopia.com","port":27015,"enabled":true,"region":"us-west","cc":"us","latitude":47.608013,"longitude":-122.33517,"reserved":0,"last_update":"0001-01-01T00:00:00Z","name_a2s":"Uncletopia | Seattle | 1 | All Maps","protocol":17,"map":"pl_upward","folder":"tf","game":"Team Fortress","app_id":440,"player_count":24,"max_players":24,"Bots":0,"server_type":"Dedicated","server_os":"Linux","password":true,"vac":true,"version":"7961495","steam_id":85568392924469997,"keywords":["nocrits","nodmgspread","payload","uncletopia"],"game_id":440,"stv_port":27016,"stv_name":"Uncletopia | Seattle | 1 | All Maps | STV","players":[{"user_id":465,"name":"lukamine","steam_id":76561198166827208,"connected_time":3005000000000,"state":"active","ping":43},{"user_id":564,"name":"Daz","steam_id":76561198041431938,"connected_time":42000000000,"state":"active","ping":51},{"user_id":560,"name":"The King of Piss World","steam_id":76561198082806956,"connected_time":298000000000,"state":"active","ping":109},{"user_id":526,"name":"smeasly","steam_id":76561198028718812,"connected_time":2016000000000,"state":"active","ping":39},{"user_id":460,"name":"mega","steam_id":76561198089520959,"connected_time":3413000000000,"state":"active","ping":93},{"user_id":559,"name":"S Q U I S H E  T H A T  C A T","steam_id":76561198293865429,"connected_time":655000000000,"state":"active","ping":44},{"user_id":550,"name":"rat who can kickflip","steam_id":76561198073620027,"connected_time":1488000000000,"state":"active","ping":45},{"user_id":555,"name":"kill me","steam_id":76561198032625036,"connected_time":751000000000,"state":"active","ping":58},{"user_id":551,"name":"a","steam_id":76561198074209737,"connected_time":1464000000000,"state":"active","ping":90},{"user_id":487,"name":"Sniff","steam_id":76561198010270922,"connected_time":2804000000000,"state":"active","ping":68},{"user_id":554,"name":"Just a Good Friend","steam_id":76561198140052403,"connected_time":944000000000,"state":"active","ping":63},{"user_id":527,"name":"dudeguypersonmanhombre","steam_id":76561198052016845,"connected_time":1997000000000,"state":"active","ping":89},{"user_id":445,"name":"i pee nickels","steam_id":76561197987056490,"connected_time":4983000000000,"state":"active","ping":45},{"user_id":449,"name":"rat gets the cheese","steam_id":76561198031234032,"connected_time":4078000000000,"state":"active","ping":96},{"user_id":548,"name":"Maurdakar","steam_id":76561197983420976,"connected_time":1794000000000,"state":"active","ping":110},{"user_id":549,"name":"Melly","steam_id":76561198045867175,"connected_time":1734000000000,"state":"active","ping":61},{"user_id":500,"name":"pat","steam_id":76561198040595468,"connected_time":2510000000000,"state":"active","ping":82},{"user_id":552,"name":"Cigarette Fish","steam_id":76561199086973797,"connected_time":1325000000000,"state":"active","ping":108},{"user_id":557,"name":"lavender","steam_id":76561199069518286,"connected_time":707000000000,"state":"active","ping":73},{"user_id":563,"name":"Cam","steam_id":76561198285054047,"connected_time":236000000000,"state":"active","ping":64},{"user_id":463,"name":"The Cannoli King","steam_id":76561198853360267,"connected_time":3313000000000,"state":"active","ping":98},{"user_id":477,"name":"[TrC] Dackstrus","steam_id":76561197973518509,"connected_time":2928000000000,"state":"active","ping":56},{"user_id":452,"name":"Cheezbeargur","steam_id":76561198164702899,"connected_time":3920000000000,"state":"active","ping":73},{"user_id":531,"name":"Sweets","steam_id":76561198998446307,"connected_time":1985000000000,"state":"active","ping":73}]},{"server_id":119,"name":"Uncletopia | Seattle | 2 | All Maps","name_short":"sea-2","host":"sea-1.us.uncletopia.com","port":27025,"enabled":true,"region":"us-west","cc":"us","latitude":47.608013,"longitude":-122.33517,"reserved":0,"last_update":"0001-01-01T00:00:00Z","name_a2s":"Uncletopia | Seattle | 2 | All Maps","protocol":17,"map":"cp_dustbowl","folder":"tf","game":"Team Fortress","app_id":440,"player_count":18,"max_players":24,"Bots":0,"server_type":"Dedicated","server_os":"Linux","password":true,"vac":true,"version":"7961495","steam_id":85568392924469998,"keywords":["cp","nocrits","nodmgspread","uncletopia"],"game_id":440,"stv_port":27026,"stv_name":"Uncletopia | Seattle | 2 | All Maps | STV","players":[{"user_id":196,"name":"Violet K.","steam_id":76561198062963842,"connected_time":2483000000000,"state":"active","ping":64},{"user_id":210,"name":"crow","steam_id":76561199227874904,"connected_time":647000000000,"state":"active","ping":123},{"user_id":177,"name":"conner","steam_id":76561198052911241,"connected_time":4452000000000,"state":"active","ping":119},{"user_id":207,"name":"seats","steam_id":76561197998756039,"connected_time":1544000000000,"state":"active","ping":76},{"user_id":158,"name":"fishtank.live","steam_id":76561198280085840,"connected_time":5618000000000,"state":"active","ping":67},{"user_id":161,"name":"exephur","steam_id":76561198135763234,"connected_time":5378000000000,"state":"active","ping":59},{"user_id":215,"name":"fragadelphia","steam_id":76561198066116363,"connected_time":412000000000,"state":"active","ping":47},{"user_id":213,"name":"luc","steam_id":76561198093883448,"connected_time":525000000000,"state":"active","ping":55},{"user_id":220,"name":"Luffa Rigno","steam_id":76561197998700507,"connected_time":35000000000,"state":"active","ping":78},{"user_id":205,"name":"Emmy Kat","steam_id":76561198185115417,"connected_time":1696000000000,"state":"active","ping":59},{"user_id":185,"name":"Dongus","steam_id":76561197979056451,"connected_time":3713000000000,"state":"active","ping":44},{"user_id":54,"name":"Nick","steam_id":76561198329096986,"connected_time":11826000000000,"state":"active","ping":80},{"user_id":206,"name":"C0D","steam_id":76561198340544460,"connected_time":1621000000000,"state":"active","ping":43},{"user_id":219,"name":"poundcake","steam_id":76561198796548083,"connected_time":55000000000,"state":"active","ping":45},{"user_id":217,"name":"‚ô°crybaby‚ô°","steam_id":76561199042734489,"connected_time":241000000000,"state":"active","ping":70},{"user_id":192,"name":":(){ :|:\u0026 };:","steam_id":76561198115242460,"connected_time":2979000000000,"state":"active","ping":45},{"user_id":212,"name":"Meatball Obsessed Demoman","steam_id":76561198253325844,"connected_time":560000000000,"state":"active","ping":55},{"user_id":186,"name":"Synergy","steam_id":76561198098630198,"connected_time":3635000000000,"state":"active","ping":44}]},{"server_id":406,"name":"Uncletopia | Seattle | 3 | Stopwatch","name_short":"sea-3","host":"sea-1.us.uncletopia.com","port":27035,"enabled":true,"region":"us-west","cc":"us","latitude":47.608013,"longitude":-122.33517,"reserved":0,"last_update":"0001-01-01T00:00:00Z","name_a2s":"Uncletopia | Seattle | 3 | Stopwatch","protocol":17,"map":"cp_metalworks","folder":"tf","game":"Team Fortress","app_id":440,"player_count":0,"max_players":24,"Bots":0,"server_type":"Dedicated","server_os":"Linux","password":true,"vac":true,"version":"7961495","steam_id":85568392924515217,"keywords":["cp","nocrits","nodmgspread","uncletopia"],"game_id":440,"stv_port":27036,"stv_name":"Uncletopia | Seattle | 3 | Stopwatch | STV","players":null},{"server_id":17,"name":"Uncletopia | San Francisco | 1 | All Maps","name_short":"sfo-1","host":"sfo-1.us.uncletopia.com","port":27015,"enabled":true,"region":"us-west","cc":"us","latitude":37.77397,"longitude":-122.4313,"reserved":0,"last_update":"0001-01-01T00:00:00Z","name_a2s":"Uncletopia | San Francisco | 1 | All Maps","protocol":17,"map":"koth_viaduct","folder":"tf","game":"Team Fortress","app_id":440,"player_count":0,"max_players":24,"Bots":0,"server_type":"Dedicated","server_os":"Linux","password":true,"vac":true,"version":"7961495","steam_id":85568392924469999,"keywords":["cp","nocrits","nodmgspread","uncletopia"],"game_id":440,"stv_port":27016,"stv_name":"Uncletopia | San Francisco | 1 | All Maps | STV","players":null},{"server_id":18,"name":"Uncletopia | San Francisco | 2 | All Maps","name_short":"sfo-2","host":"sfo-1.us.uncletopia.com","port":27025,"enabled":true,"region":"us-west","cc":"us","latitude":37.77397,"longitude":-122.4313,"reserved":0,"last_update":"0001-01-01T00:00:00Z","name_a2s":"Uncletopia | San Francisco | 2 | All Maps","protocol":17,"map":"pl_borneo","folder":"tf","game":"Team Fortress","app_id":440,"player_count":25,"max_players":24,"Bots":0,"server_type":"Dedicated","server_os":"Linux","password":true,"vac":true,"version":"7961495","steam_id":85568392924470000,"keywords":["nocrits","nodmgspread","payload","uncletopia"],"game_id":440,"stv_port":27026,"stv_name":"Uncletopia | San Francisco | 2 | All Maps | STV","players":[{"user_id":656,"name":"Blue Shell Man Guy","steam_id":76561198157985901,"connected_time":2299000000000,"state":"active","ping":83},{"user_id":687,"name":"A Dead Person","steam_id":76561198069696413,"connected_time":70000000000,"state":"active","ping":56},{"user_id":688,"name":"Toastered","steam_id":76561198178459042,"connected_time":69000000000,"state":"active","ping":57},{"user_id":681,"name":"Papa Slim","steam_id":76561198072256119,"connected_time":585000000000,"state":"active","ping":57},{"user_id":623,"name":"Throws Before BrosÛ†Ä°","steam_id":76561197992905530,"connected_time":4066000000000,"state":"active","ping":55},{"user_id":578,"name":"‚ò≠Borris‚ò≠","steam_id":76561198011136886,"connected_time":5980000000000,"state":"active","ping":61},{"user_id":556,"name":"Bolbi","steam_id":76561198051811597,"connected_time":6702000000000,"state":"active","ping":72},{"user_id":692,"name":"Timon's high on crack cocaine!","steam_id":76561198180396430,"connected_time":13000000000,"state":"spawning","ping":39},{"user_id":677,"name":"NASA PEEPO","steam_id":76561198024982267,"connected_time":1002000000000,"state":"active","ping":57},{"user_id":664,"name":"sludge_wizard","steam_id":76561198054482500,"connected_time":2053000000000,"state":"active","ping":120},{"user_id":689,"name":"Mom","steam_id":76561198207936000,"connected_time":34000000000,"state":"active","ping":31},{"user_id":690,"name":"Khrono691","steam_id":76561198246227600,"connected_time":27000000000,"state":"active","ping":61},{"user_id":633,"name":"Gojira19","steam_id":76561198206384351,"connected_time":3554000000000,"state":"active","ping":104},{"user_id":674,"name":"Dreamzapp","steam_id":76561199084936632,"connected_time":1339000000000,"state":"active","ping":70},{"user_id":684,"name":"Phoenix","steam_id":76561198068722818,"connected_time":380000000000,"state":"active","ping":116},{"user_id":626,"name":"love sosa","steam_id":76561198345528370,"connected_time":3840000000000,"state":"active","ping":42},{"user_id":683,"name":"pepsi","steam_id":76561198114655857,"connected_time":422000000000,"state":"active","ping":69},{"user_id":651,"name":"torb loves you","steam_id":76561198386268453,"connected_time":2638000000000,"state":"active","ping":53},{"user_id":691,"name":"sincerelymagicmeister","steam_id":76561198393923543,"connected_time":20000000000,"state":"active","ping":78},{"user_id":639,"name":"Quigi","steam_id":76561198144645874,"connected_time":3202000000000,"state":"active","ping":72},{"user_id":678,"name":"Daddy Topps","steam_id":76561198203594332,"connected_time":993000000000,"state":"active","ping":49},{"user_id":693,"name":"TheBrocklobster","steam_id":76561198039682984,"connected_time":13000000000,"state":"active","ping":67},{"user_id":686,"name":"Brando","steam_id":76561198078306678,"connected_time":214000000000,"state":"active","ping":71},{"user_id":694,"name":"Slope115117","steam_id":76561199028794627,"connected_time":2000000000,"state":"spawning","ping":62},{"user_id":671,"name":"Your Gay Dad","steam_id":76561198271926877,"connected_time":1569000000000,"state":"active","ping":88}]},{"server_id":19,"name":"Uncletopia | San Francisco | 3 | Stopwatch","name_short":"sfo-3","host":"sfo-1.us.uncletopia.com","port":27035,"enabled":true,"region":"us-west","cc":"us","latitude":37.77397,"longitude":-122.4313,"reserved":0,"last_update":"0001-01-01T00:00:00Z","name_a2s":"Uncletopia | San Francisco | 3 | Stopwatch","protocol":17,"map":"pl_borneo","folder":"tf","game":"Team Fortress","app_id":440,"player_count":0,"max_players":24,"Bots":0,"server_type":"Dedicated","server_os":"Linux","password":true,"vac":true,"version":"7961495","steam_id":85568392924742824,"keywords":["nocrits","nodmgspread","payload","uncletopia"],"game_id":440,"stv_port":27036,"stv_name":"Uncletopia | San Francisco | 3 | Stopwatch | STV","players":null},{"server_id":20,"name":"Uncletopia | San Francisco | 4 | Community","name_short":"sfo-4","host":"sfo-1.us.uncletopia.com","port":27045,"enabled":true,"region":"us-west","cc":"us","latitude":37.77397,"longitude":-122.4313,"reserved":0,"last_update":"0001-01-01T00:00:00Z","name_a2s":"Uncletopia | San Francisco | 4 | Community","protocol":17,"map":"workshop/koth_slaughter_rc1.ugc1712845210","folder":"tf","game":"Team Fortress","app_id":440,"player_count":0,"max_players":24,"Bots":0,"server_type":"Dedicated","server_os":"Linux","password":true,"vac":true,"version":"7961495","steam_id":85568392924742826,"keywords":["cp","nocrits","nodmgspread","uncletopia"],"game_id":440,"stv_port":27046,"stv_name":"Uncletopia | San Francisco | 4 | Community | STV","players":null},{"server_id":141,"name":"Uncletopia | Sydney | 1 | All Maps","name_short":"syd-1","host":"syd-1.au.uncletopia.com","port":27015,"enabled":true,"region":"au","cc":"au","latitude":-33.865143,"longitude":151.2099,"reserved":0,"last_update":"0001-01-01T00:00:00Z","name_a2s":"Uncletopia | Sydney | 1 | All Maps","protocol":17,"map":"ctf_doublecross","folder":"tf","game":"Team Fortress","app_id":440,"player_count":13,"max_players":24,"Bots":0,"server_type":"Dedicated","server_os":"Linux","password":true,"vac":true,"version":"7961495","steam_id":85568392924470001,"keywords":["ctf","nocrits","nodmgspread","uncletopia"],"game_id":440,"stv_port":27016,"stv_name":"Uncletopia | Sydney | 1 | All Maps | STV","players":[{"user_id":39,"name":"CypressFluff (she/her)","steam_id":76561198174667818,"connected_time":371000000000,"state":"active","ping":59},{"user_id":43,"name":"beef","steam_id":76561198405899260,"connected_time":246000000000,"state":"active","ping":53},{"user_id":25,"name":"lugig","steam_id":76561198264839805,"connected_time":1649000000000,"state":"active","ping":51},{"user_id":26,"name":"Mario","steam_id":76561198828095685,"connected_time":1548000000000,"state":"active","ping":65},{"user_id":29,"name":"plr_jack","steam_id":76561199124321542,"connected_time":1002000000000,"state":"active","ping":68},{"user_id":31,"name":"Two Fortress Enjoyer","steam_id":76561198039845750,"connected_time":719000000000,"state":"active","ping":59},{"user_id":33,"name":"alex","steam_id":76561198199008741,"connected_time":661000000000,"state":"active","ping":59},{"user_id":38,"name":"JP","steam_id":76561198026221737,"connected_time":518000000000,"state":"active","ping":45},{"user_id":36,"name":"Sea Doggo","steam_id":76561198879017672,"connected_time":584000000000,"state":"active","ping":247},{"user_id":37,"name":"Tzeentch","steam_id":76561198040935557,"connected_time":547000000000,"state":"active","ping":69},{"user_id":42,"name":"John Frask","steam_id":76561198283555464,"connected_time":268000000000,"state":"active","ping":60},{"user_id":44,"name":"Anakin Skywanker","steam_id":76561198199456926,"connected_time":191000000000,"state":"active","ping":149},{"user_id":45,"name":"ZackInAShack","steam_id":76561198986754793,"connected_time":144000000000,"state":"active","ping":293}]},{"server_id":123,"name":"Uncletopia | Sydney | 2 | All Maps","name_short":"syd-2","host":"syd-1.au.uncletopia.com","port":27025,"enabled":true,"region":"au","cc":"au","latitude":-33.865143,"longitude":151.2099,"reserved":0,"last_update":"0001-01-01T00:00:00Z","name_a2s":"Uncletopia | Sydney | 2 | All Maps","protocol":17,"map":"koth_lakeside_final","folder":"tf","game":"Team Fortress","app_id":440,"player_count":0,"max_players":24,"Bots":0,"server_type":"Dedicated","server_os":"Linux","password":true,"vac":true,"version":"7961495","steam_id":85568392924470002,"keywords":["cp","nocrits","nodmgspread","uncletopia"],"game_id":440,"stv_port":27026,"stv_name":"Uncletopia | Sydney | 2 | All Maps | STV","players":null},{"server_id":395,"name":"Uncletopia | Sydney | 3 | All Maps","name_short":"syd-3","host":"syd-1.au.uncletopia.com","port":27035,"enabled":true,"region":"au","cc":"au","latitude":-33.865143,"longitude":151.2099,"reserved":0,"last_update":"0001-01-01T00:00:00Z","name_a2s":"Uncletopia | Sydney | 3 | All Maps","protocol":17,"map":"pl_frontier_final","folder":"tf","game":"Team Fortress","app_id":440,"player_count":0,"max_players":24,"Bots":0,"server_type":"Dedicated","server_os":"Linux","password":true,"vac":true,"version":"7961495","steam_id":85568392925194467,"keywords":["nocrits","nodmgspread","payload","uncletopia"],"game_id":440,"stv_port":27036,"stv_name":"Uncletopia | Sydney | 3 | All Maps | STV","players":null},{"server_id":396,"name":"Uncletopia | Sydney | 4 | All Maps","name_short":"syd-4","host":"syd-1.au.uncletopia.com","port":27045,"enabled":true,"region":"au","cc":"au","latitude":-33.865143,"longitude":151.2099,"reserved":0,"last_update":"0001-01-01T00:00:00Z","name_a2s":"Uncletopia | Sydney | 4 | All Maps","protocol":17,"map":"cp_process_final","folder":"tf","game":"Team Fortress","app_id":440,"player_count":0,"max_players":24,"Bots":0,"server_type":"Dedicated","server_os":"Linux","password":true,"vac":true,"version":"7961495","steam_id":85568392925397958,"keywords":["cp","nocrits","nodmgspread","uncletopia"],"game_id":440,"stv_port":27046,"stv_name":"Uncletopia | Sydney | 4 | All Maps | STV","players":null},{"server_id":58,"name":"Uncletopia | Sydney | 5 | Stopwatch","name_short":"syd-5","host":"syd-1.au.uncletopia.com","port":27055,"enabled":true,"region":"au","cc":"au","latitude":-33.865143,"longitude":151.2099,"reserved":0,"last_update":"0001-01-01T00:00:00Z","name_a2s":"Uncletopia | Sydney | 5 | Stopwatch","protocol":17,"map":"pl_frontier_final","folder":"tf","game":"Team Fortress","app_id":440,"player_count":0,"max_players":24,"Bots":0,"server_type":"Dedicated","server_os":"Linux","password":true,"vac":true,"version":"7961495","steam_id":85568392925397959,"keywords":["nocrits","nodmgspread","payload","uncletopia"],"game_id":440,"stv_port":27056,"stv_name":"Uncletopia | Sydney | 5 | Stopwatch | STV","players":null},{"server_id":59,"name":"Uncletopia | Sydney | 6 | Community","name_short":"syd-6","host":"syd-1.au.uncletopia.com","port":27065,"enabled":true,"region":"au","cc":"au","latitude":-33.865143,"longitude":151.2099,"reserved":0,"last_update":"0001-01-01T00:00:00Z","name_a2s":"Uncletopia | Sydney | 6 | Community","protocol":17,"map":"cp_sunshine","folder":"tf","game":"Team Fortress","app_id":440,"player_count":0,"max_players":24,"Bots":0,"server_type":"Dedicated","server_os":"Linux","password":true,"vac":true,"version":"7961495","steam_id":85568392925397960,"keywords":["cp","nocrits","nodmgspread","uncletopia"],"game_id":440,"stv_port":27066,"stv_name":"Uncletopia | Sydney | 6 | Community | STV","players":null},{"server_id":49,"name":"Uncletopia | Warsaw | 1 | One Thousand Uncles","name_short":"waw-1","host":"waw-1.pl.uncletopia.com","port":27015,"enabled":true,"region":"eu","cc":"pl","latitude":52.2297,"longitude":21.017532,"reserved":0,"last_update":"0001-01-01T00:00:00Z","name_a2s":"Uncletopia | Warsaw | 1 | One Thousand Uncles","protocol":17,"map":"pl_upward","folder":"tf","game":"Team Fortress","app_id":440,"player_count":29,"max_players":32,"Bots":16,"server_type":"Dedicated","server_os":"Linux","password":true,"vac":true,"version":"7961495","steam_id":85568392925397850,"keywords":["alltalk","bots","danepve","increased_maxplayers","nocrits","norespawntime","payload","uncletopia"],"game_id":440,"stv_port":0,"stv_name":"","players":[{"user_id":56,"name":"Lewylow","steam_id":76561198005425686,"connected_time":2068000000000,"state":"active","ping":87},{"user_id":91,"name":"Thrawn1","steam_id":76561197972621859,"connected_time":518000000000,"state":"active","ping":71},{"user_id":47,"name":"Unbelievable!","steam_id":76561198055812586,"connected_time":3210000000000,"state":"active","ping":108},{"user_id":57,"name":"danik.botanik","steam_id":76561198978744585,"connected_time":2019000000000,"state":"active","ping":60},{"user_id":71,"name":"Max717","steam_id":76561199173648449,"connected_time":1064000000000,"state":"active","ping":320},{"user_id":92,"name":"Arcaisen","steam_id":76561199011773598,"connected_time":405000000000,"state":"active","ping":318},{"user_id":49,"name":"divineningennani","steam_id":76561199218381099,"connected_time":2734000000000,"state":"active","ping":69},{"user_id":58,"name":"Enigmus","steam_id":76561197994063627,"connected_time":1781000000000,"state":"active","ping":100},{"user_id":89,"name":"Vitax TF2EASY.COM","steam_id":76561198965197758,"connected_time":783000000000,"state":"active","ping":42},{"user_id":70,"name":"Ahmed_gat","steam_id":76561199372506552,"connected_time":1239000000000,"state":"active","ping":119},{"user_id":94,"name":"Its yah monke","steam_id":76561198323869587,"connected_time":185000000000,"state":"active","ping":65},{"user_id":63,"name":"Van9","steam_id":76561199078054267,"connected_time":1522000000000,"state":"active","ping":47},{"user_id":64,"name":"goop","steam_id":76561198190073005,"connected_time":1514000000000,"state":"active","ping":77}]},{"server_id":50,"name":"Uncletopia | Warsaw | 2 | One Thousand Uncles","name_short":"waw-2","host":"waw-1.pl.uncletopia.com","port":27025,"enabled":true,"region":"eu","cc":"pl","latitude":52.2297,"longitude":21.017532,"reserved":0,"last_update":"0001-01-01T00:00:00Z","name_a2s":"Uncletopia | Warsaw | 2 | One Thousand Uncles","protocol":17,"map":"pl_goldrush","folder":"tf","game":"Team Fortress","app_id":440,"player_count":0,"max_players":32,"Bots":0,"server_type":"Dedicated","server_os":"Linux","password":true,"vac":true,"version":"7961495","steam_id":85568392925397851,"keywords":["alltalk","danepve","increased_maxplayers","nocrits","norespawntime","payload","uncletopia"],"game_id":440,"stv_port":0,"stv_name":"","players":null},{"server_id":51,"name":"Uncletopia | Warsaw | 3 | All Maps","name_short":"waw-3","host":"waw-1.pl.uncletopia.com","port":27035,"enabled":true,"region":"eu","cc":"pl","latitude":52.2297,"longitude":21.017532,"reserved":0,"last_update":"0001-01-01T00:00:00Z","name_a2s":"Uncletopia | Warsaw | 3 | All Maps","protocol":17,"map":"plr_pipeline","folder":"tf","game":"Team Fortress","app_id":440,"player_count":0,"max_players":24,"Bots":0,"server_type":"Dedicated","server_os":"Linux","password":true,"vac":true,"version":"7961495","steam_id":85568392925397852,"keywords":["nocrits","nodmgspread","payload","uncletopia"],"game_id":440,"stv_port":27036,"stv_name":"Uncletopia | Warsaw | 3 | All Maps | STV","players":null},{"server_id":52,"name":"Uncletopia | Warsaw | 4 | All Maps","name_short":"waw-4","host":"waw-1.pl.uncletopia.com","port":27045,"enabled":true,"region":"eu","cc":"pl","latitude":52.2297,"longitude":21.017532,"reserved":0,"last_update":"0001-01-01T00:00:00Z","name_a2s":"Uncletopia | Warsaw | 4 | All Maps","protocol":17,"map":"cp_coldfront","folder":"tf","game":"Team Fortress","app_id":440,"player_count":0,"max_players":24,"Bots":0,"server_type":"Dedicated","server_os":"Linux","password":true,"vac":true,"version":"7961495","steam_id":85568392925397853,"keywords":["cp","nocrits","nodmgspread","uncletopia"],"game_id":440,"stv_port":27046,"stv_name":"Uncletopia | Warsaw | 4 | All Maps | STV","players":null},{"server_id":53,"name":"Uncletopia | Warsaw | 5 | Stopwatch","name_short":"waw-5","host":"waw-1.pl.uncletopia.com","port":27055,"enabled":true,"region":"eu","cc":"pl","latitude":52.2297,"longitude":21.017532,"reserved":0,"last_update":"0001-01-01T00:00:00Z","name_a2s":"Uncletopia | Warsaw | 5 | Stopwatch","protocol":17,"map":"workshop/koth_bagel_rc6.ugc2514036946","folder":"tf","game":"Team Fortress","app_id":440,"player_count":0,"max_players":24,"Bots":0,"server_type":"Dedicated","server_os":"Linux","password":true,"vac":true,"version":"7961495","steam_id":85568392925397854,"keywords":["cp","nocrits","nodmgspread","uncletopia"],"game_id":440,"stv_port":27056,"stv_name":"Uncletopia | Warsaw | 5 | Stopwatch | STV","players":null},{"server_id":54,"name":"Uncletopia | Warsaw | 6 | Community","name_short":"waw-6","host":"waw-1.pl.uncletopia.com","port":27065,"enabled":true,"region":"eu","cc":"pl","latitude":52.2297,"longitude":21.017532,"reserved":0,"last_update":"0001-01-01T00:00:00Z","name_a2s":"Uncletopia | Warsaw | 6 | Community","protocol":17,"map":"workshop/pl_badwater_pro_v12.ugc2142942074","folder":"tf","game":"Team Fortress","app_id":440,"player_count":0,"max_players":24,"Bots":0,"server_type":"Dedicated","server_os":"Linux","password":true,"vac":true,"version":"7961495","steam_id":85568392925397856,"keywords":["nocrits","nodmgspread","payload","uncletopia"],"game_id":440,"stv_port":27066,"stv_name":"Uncletopia | Warsaw | 6 | Community | STV","players":null}]}