{"status":true,"message":"","result":[{"server_id":9,"name":"Uncletopia | Atlanta | 1 | All Maps","name_short":"atl-1","host":"atl-1.us.uncletopia.com","port":27015,"enabled":true,"region":"us-east","cc":"us","latitude":33.753746,"longitude":-84.38633,"reserved":0,"last_update":"0001-01-01T00:00:00Z","name_a2s":"Uncletopia | Atlanta | 1 | All Maps","protocol":17,"map":"pl_thundermountain","folder":"tf","game":"Team Fortress","app_id":440,"player_count":24,"max_players":24,"Bots":0,"server_type":"Dedicated","server_os":"Linux","password":true,"vac":true,"version":"7961495","steam_id":85568392924469982,"keywords":["nocrits","nodmgspread","payload","uncletopia"],"game_id":440,"stv_port":27016,"stv_name":"Uncletopia | Atlanta | 1 | All Maps | STV","players":[{"user_id":216,"name":"Alx","steam_id":76561198080854314,"connected_time":1797000000000,"state":"active","ping":92},{"user_id":227,"name":"Lancer Fan Club","steam_id":76561198355495948,"connected_time":580000000000,"state":"active","ping":48},{"user_id":238,"name":"7 Minutes","steam_id":76561198141375976,"connected_time":30000000000,"state":"spawning","ping":52},{"user_id":223,"name":"Duck","steam_id":76561198303483056,"connected_time":1553000000000,"state":"active","ping":94},{"user_id":215,"name":"K2f","steam_id":76561198049600563,"connected_time":1820000000000,"state":"active","ping":83},{"user_id":204,"name":"The_Stomach_Stone_Surgeon","steam_id":76561198044643725,"connected_time":2670000000000,"state":"active","ping":53},{"user_id":230,"name":"endwalker simp","steam_id":76561198066177299,"connected_time":555000000000,"state":"active","ping":146},{"user_id":219,"name":"Tony dat Brony","steam_id":76561198003863640,"connected_time":1767000000000,"state":"active","ping":56},{"user_id":175,"name":"lil hog","steam_id":76561199230929836,"connected_time":5142000000000,"state":"active","ping":84},{"user_id":167,"name":"Whyamidoingthisaaaa","steam_id":76561199168837342,"connected_time":5720000000000,"state":"active","ping":67},{"user_id":217,"name":"Dāpī","steam_id":76561199131359347,"connected_time":1796000000000,"state":"active","ping":104},{"user_id":199,"name":"JustSomeInternetGuy","steam_id":76561199066037843,"connected_time":3279000000000,"state":"active","ping":88},{"user_id":228,"name":"ma0re","steam_id":76561199231971506,"connected_time":579000000000,"state":"active","ping":62},{"user_id":226,"name":"Motreir","steam_id":76561198151717946,"connected_time":775000000000,"state":"active","ping":81},{"user_id":222,"name":"Joe Rogan (real)","steam_id":76561198359511515,"connected_time":1679000000000,"state":"active","ping":64},{"user_id":218,"name":"Pancakes","steam_id":76561198129482145,"connected_time":1780000000000,"state":"active","ping":68},{"user_id":231,"name":"yoodle doodle","steam_id":76561198054897884,"connected_time":504000000000,"state":"active","ping":62},{"user_id":156,"name":"Motorolª","steam_id":76561198358119669,"connected_time":6809000000000,"state":"active","ping":113},{"user_id":236,"name":"Eins Shinigami","steam_id":76561199030343810,"connected_time":128000000000,"state":"active","ping":40},{"user_id":232,"name":"Okpar","steam_id":76561199221067945,"connected_time":502000000000,"state":"active","ping":80},{"user_id":237,"name":"PinkLemonade","steam_id":76561198799286228,"connected_time":93000000000,"state":"active","ping":75},{"user_id":209,"name":"Grim","steam_id":76561198225241776,"connected_time":2248000000000,"state":"active","ping":68},{"user_id":233,"name":"Skitarii Toaster Enjoyer","steam_id":76561198152437646,"connected_time":494000000000,"state":"active","ping":70},{"user_id":172,"name":"dr. stretch nuts","steam_id":76561198057076267,"connected_time":5398000000000,"state":"active","ping":81}]},{"server_id":104,"name":"Uncletopia | Atlanta | 2 | All Maps","name_short":"atl-2","host":"atl-1.us.uncletopia.com","port":27025,"enabled":true,"region":"us-east","cc":"us","latitude":33.753746,"longitude":-84.38633,"reserved":0,"last_update":"0001-01-01T00:00:00Z","name_a2s":"Uncletopia | Atlanta | 2 | All Maps","protocol":17,"map":"pl_upward","folder":"tf","game":"Team Fortress","app_id":440,"player_count":11,"max_players":24,"Bots":0,"server_type":"Dedicated","server_os":"Linux","password":true,"vac":true,"version":"7961495","steam_id":85568392924469983,"keywords":["nocrits","nodmgspread","payload","uncletopia"],"game_id":440,"stv_port":27026,"stv_name":"Uncletopia | Atlanta | 2 | All Maps | STV","players":[{"user_id":18,"name":"Billy \"The Sandworm\" Sackrider","steam_id":76561199025683243,"connected_time":1322000000000,"state":"active","ping":60},{"user_id":19,"name":"Lee Thats It","steam_id":76561199200579913,"connected_time":1301000000000,"state":"active","ping":121},{"user_id":28,"name":"Biggus idiotus","steam_id":76561198037218103,"connected_time":215000000000,"state":"active","ping":58},{"user_id":21,"name":"CDBeans","steam_id":76561198046990367,"connected_time":1065000000000,"state":"active","ping":81},{"user_id":27,"name":"milanka(HUN)","steam_id":76561199247865467,"connected_time":274000000000,"state":"active","ping":167},{"user_id":24,"name":"King Cotton","steam_id":76561198292444376,"connected_time":651000000000,"state":"active","ping":82},{"user_id":26,"name":"Mer","steam_id":76561198192171041,"connected_time":570000000000,"state":"active","ping":116},{"user_id":29,"name":"piebluedog","steam_id":76561198141362745,"connected_time":201000000000,"state":"active","ping":79},{"user_id":30,"name":"izzydex","steam_id":76561199101531034,"connected_time":173000000000,"state":"active","ping":71},{"user_id":32,"name":"duBstep","steam_id":76561198353928965,"connected_time":45000000000,"state":"active","ping":53},{"user_id":33,"name":"Apantard","steam_id":76561199066783653,"connected_time":30000000000,"state":"active","ping":118}]},{"server_id":400,"name":"Uncletopia | Atlanta | 3 | Stopwatch","name_short":"atl-3","host":"atl-1.us.uncletopia.com","port":27035,"enabled":true,"region":"us-east","cc":"us","latitude":33.753746,"longitude":-84.38633,"reserved":0,"last_update":"0001-01-01T00:00:00Z","name_a2s":"Uncletopia | Atlanta | 3 | Stopwatch","protocol":17,"map":"workshop/koth_ashville_final.ugc2130459942","folder":"tf","game":"Team Fortress","app_id":440,"player_count":0,"max_players":24,"Bots":0,"server_type":"Dedicated","server_os":"Linux","password":true,"vac":true,"version":"7961495","steam_id":85568392924515187,"keywords":["cp","nocrits","nodmgspread","uncletopia"],"game_id":440,"stv_port":27036,"stv_name":"Uncletopia | Atlanta | 3 | Stopwatch | STV","players":null},{"server_id":401,"name":"Uncletopia | Atlanta | 4 | Community","name_short":"atl-4","host":"atl-1.us.uncletopia.com","port":27045,"enabled":true,"region":"us-east","cc":"us","latitude":33.753746,"longitude":-84.38633,"reserved":0,"last_update":"0001-01-01T00:00:00Z","name_a2s":"Uncletopia | Atlanta | 4 | Community","protocol":17,"map":"cp_sunshine","folder":"tf","game":"Team Fortress","app_id":440,"player_count":0,"max_players":24,"Bots":0,"server_type":"Dedicated","server_os":"Linux","password":true,"vac":true,"version":"7961495","steam_id":85568392924515188,"keywords":["cp","nocrits","nodmgspread","uncletopia"],"game_id":440,"stv_port":27046,"stv_name":"Uncletopia | Atlanta | 4 | Community | STV","players":null},{"server_id":2,"name":"Uncletopia | Chicago | 1 | All Maps","name_short":"chi-1","host":"chi-1.us.uncletopia.com","port":27015,"enabled":true,"region":"us-central","cc":"us","latitude":41.881832,"longitude":-87.62318,"reserved":0,"last_update":"0001-01-01T00:00:00Z","name_a2s":"Uncletopia | Chicago | 1 | All Maps","protocol":17,"map":"ctf_well","folder":"tf","game":"Team Fortress","app_id":440,"player_count":23,"max_players":24,"Bots":0,"server_type":"Dedicated","server_os":"Linux","password":true,"vac":true,"version":"7961495","steam_id":85568392924469984,"keywords":["ctf","nocrits","nodmgspread","uncletopia"],"game_id":440,"stv_port":27016,"stv_name":"Uncletopia | Chicago | 1 | All Maps | STV","players":[{"user_id":429,"name":"Stacks63bs","steam_id":76561198067797130,"connected_time":491000000000,"state":"active","ping":81},{"user_id":418,"name":"Fredrick","steam_id":76561197981419964,"connected_time":1423000000000,"state":"active","ping":69},{"user_id":439,"name":"ุ","steam_id":76561198170624701,"connected_time":138000000000,"state":"active","ping":74},{"user_id":433,"name":"AwakenedLaser","steam_id":76561198881657823,"connected_time":468000000000,"state":"active","ping":112},{"user_id":421,"name":"BitPieStudios","steam_id":76561198059216393,"connected_time":1068000000000,"state":"active","ping":90},{"user_id":411,"name":"SandHanitizer","steam_id":76561198234676500,"connected_time":1935000000000,"state":"active","ping":73},{"user_id":331,"name":"Melody","steam_id":76561198407789232,"connected_time":7004000000000,"state":"active","ping":116},{"user_id":430,"name":"toastman","steam_id":76561198207073088,"connected_time":486000000000,"state":"active","ping":67},{"user_id":440,"name":"jenna ortega smallest fan 1","steam_id":76561198073269122,"connected_time":98000000000,"state":"active","ping":60},{"user_id":396,"name":"Luxembird","steam_id":76561198079992107,"connected_time":3274000000000,"state":"active","ping":93},{"user_id":412,"name":"Digit","steam_id":76561198156589157,"connected_time":1880000000000,"state":"active","ping":77},{"user_id":419,"name":"Notsocreative","steam_id":76561198236372202,"connected_time":1164000000000,"state":"active","ping":79},{"user_id":423,"name":"cbv aslkjdpokiqiwyc","steam_id":76561198304661367,"connected_time":946000000000,"state":"active","ping":72},{"user_id":437,"name":"Apotheca","steam_id":76561198041611586,"connected_time":297000000000,"state":"active","ping":60},{"user_id":426,"name":"CheeseLikeSubstance","steam_id":76561197977170646,"connected_time":729000000000,"state":"active","ping":45},{"user_id":438,"name":"Chin, Bruce Lee's Relative","steam_id":76561198240105522,"connected_time":260000000000,"state":"active","ping":74},{"user_id":434,"name":"Kretim","steam_id":76561199204273483,"connected_time":466000000000,"state":"active","ping":69},{"user_id":441,"name":"Toastered","steam_id":76561198178459042,"connected_time":81000000000,"state":"active","ping":103},{"user_id":403,"name":"Coke Himmy","steam_id":76561198397459211,"connected_time":2423000000000,"state":"active","ping":82},{"user_id":428,"name":"the fungus","steam_id":76561198271721689,"connected_time":655000000000,"state":"active","ping":44},{"user_id":436,"name":"Don't Fuckle with Shuckle","steam_id":76561199020102367,"connected_time":382000000000,"state":"active","ping":79},{"user_id":357,"name":"Bond","steam_id":76561198089262776,"connected_time":5215000000000,"state":"active","ping":79},{"user_id":382,"name":"pickup truck with huge honks","steam_id":76561198111447214,"connected_time":3821000000000,"state":"active","ping":90}]},{"server_id":106,"name":"Uncletopia | Chicago | 2 | All Maps","name_short":"chi-2","host":"chi-1.us.uncletopia.com","port":27025,"enabled":true,"region":"us-central","cc":"us","latitude":41.881832,"longitude":-87.62318,"reserved":0,"last_update":"0001-01-01T00:00:00Z","name_a2s":"Uncletopia | Chicago | 2 | All Maps","protocol":17,"map":"pl_borneo","folder":"tf","game":"Team Fortress","app_id":440,"player_count":24,"max_players":24,"Bots":0,"server_type":"Dedicated","server_os":"Linux","password":true,"vac":true,"version":"7961495","steam_id":85568392924469985,"keywords":["nocrits","nodmgspread","payload","uncletopia"],"game_id":440,"stv_port":27026,"stv_name":"Uncletopia | Chicago | 2 | All Maps | STV","players":[{"user_id":364,"name":"Lyathan","steam_id":76561198062773218,"connected_time":3462000000000,"state":"active","ping":61},{"user_id":392,"name":"Kitchen Sink Gaming","steam_id":76561198930293420,"connected_time":1546000000000,"state":"active","ping":60},{"user_id":410,"name":"Starfruit66","steam_id":76561198069917277,"connected_time":436000000000,"state":"active","ping":99},{"user_id":391,"name":"A Rhino with Coronavirus","steam_id":76561197999451366,"connected_time":1605000000000,"state":"active","ping":70},{"user_id":411,"name":"Rat_king","steam_id":76561199465689129,"connected_time":279000000000,"state":"active","ping":80},{"user_id":363,"name":"Micah","steam_id":76561198006837982,"connected_time":3494000000000,"state":"active","ping":96},{"user_id":388,"name":"Chilledr","steam_id":76561198799250315,"connected_time":2038000000000,"state":"active","ping":71},{"user_id":390,"name":"Raizen","steam_id":76561199092445367,"connected_time":1766000000000,"state":"active","ping":52},{"user_id":412,"name":"ThatGamingKiwi","steam_id":76561199170522237,"connected_time":265000000000,"state":"active","ping":71},{"user_id":395,"name":"StompArtist","steam_id":76561198056247405,"connected_time":1505000000000,"state":"active","ping":81},{"user_id":336,"name":"fat fox tiddies","steam_id":76561198056432756,"connected_time":5291000000000,"state":"active","ping":71},{"user_id":413,"name":"1985 Toyota Sprinter Trueno","steam_id":76561198436383373,"connected_time":256000000000,"state":"active","ping":110},{"user_id":397,"name":"creeeeeee","steam_id":76561198392539722,"connected_time":1494000000000,"state":"active","ping":83},{"user_id":409,"name":"loscemo","steam_id":76561197994884609,"connected_time":475000000000,"state":"active","ping":66},{"user_id":371,"name":"ZachChase","steam_id":76561198086057112,"connected_time":3321000000000,"state":"active","ping":104},{"user_id":350,"name":"Plazma1234","steam_id":76561198394203523,"connected_time":4625000000000,"state":"active","ping":158},{"user_id":408,"name":"Docc","steam_id":76561198085598022,"connected_time":581000000000,"state":"active","ping":52},{"user_id":381,"name":"who is gavin?","steam_id":76561198069415057,"connected_time":2812000000000,"state":"active","ping":59},{"user_id":399,"name":"bonk","steam_id":76561198922763623,"connected_time":1489000000000,"state":"active","ping":102},{"user_id":403,"name":"nhbiker","steam_id":76561198081277675,"connected_time":1385000000000,"state":"active","ping":59},{"user_id":389,"name":"Person","steam_id":76561198093244204,"connected_time":2019000000000,"state":"active","ping":75},{"user_id":414,"name":"Rhutebeer","steam_id":76561198018302761,"connected_time":251000000000,"state":"active","ping":102},{"user_id":404,"name":"Sexterminator","steam_id":76561199018767956,"connected_time":1361000000000,"state":"active","ping":50},{"user_id":405,"name":"Squiliam","steam_id":76561198025278006,"connected_time":1332000000000,"state":"active","ping":64}]},{"server_id":402,"name":"Uncletopia | Chicago | 3 | All Maps","name_short":"chi-3","host":"chi-1.us.uncletopia.com","port":27035,"enabled":true,"region":"us-central","cc":"us","latitude":41.881832,"longitude":-87.62318,"reserved":0,"last_update":"0001-01-01T00:00:00Z","name_a2s":"Uncletopia | Chicago | 3 | All Maps","protocol":17,"map":"pl_barnblitz","folder":"tf","game":"Team Fortress","app_id":440,"player_count":24,"max_players":24,"Bots":0,"server_type":"Dedicated","server_os":"Linux","password":true,"vac":true,"version":"7961495","steam_id":85568392924515191,"keywords":["nocrits","nodmgspread","payload","uncletopia"],"game_id":440,"stv_port":27036,"stv_name":"Uncletopia | Chicago | 3 | All Maps | STV","players":[{"user_id":256,"name":"Frito","steam_id":76561199230930921,"connected_time":2658000000000,"state":"active","ping":68},{"user_id":267,"name":"KaiDuck4348","steam_id":76561199060186538,"connected_time":1395000000000,"state":"active","ping":92},{"user_id":268,"name":"[GUT] RiDiK®","steam_id":76561197969756446,"connected_time":1331000000000,"state":"active","ping":57},{"user_id":272,"name":"EpochSpruce","steam_id":76561198067653839,"connected_time":1173000000000,"state":"active","ping":71},{"user_id":265,"name":"while(1)","steam_id":76561198000876529,"connected_time":1441000000000,"state":"active","ping":56},{"user_id":175,"name":"Young-OG","steam_id":76561198058800479,"connected_time":7250000000000,"state":"active","ping":71},{"user_id":244,"name":"JellyManBelly","steam_id":76561198263221903,"connected_time":3392000000000,"state":"active","ping":78},{"user_id":269,"name":"j3nga","steam_id":76561198094296283,"connected_time":1317000000000,"state":"active","ping":90},{"user_id":261,"name":"benjamator67","steam_id":76561198209002860,"connected_time":2031000000000,"state":"active","ping":52},{"user_id":250,"name":"kitchen goblin","steam_id":76561198271710504,"connected_time":3179000000000,"state":"active","ping":58},{"user_id":258,"name":"Dave Davidson","steam_id":76561198010802812,"connected_time":2578000000000,"state":"active","ping":68},{"user_id":243,"name":"(1)stick","steam_id":76561198049489094,"connected_time":3421000000000,"state":"active","ping":69},{"user_id":278,"name":"RZA","steam_id":76561198074428237,"connected_time":131000000000,"state":"active","ping":73},{"user_id":253,"name":"hej","steam_id":76561197996366940,"connected_time":2894000000000,"state":"active","ping":62},{"user_id":217,"name":"Stick","steam_id":76561198127495278,"connected_time":4778000000000,"state":"active","ping":100},{"user_id":277,"name":"Sprinklingmydoughnut","steam_id":76561198168009092,"connected_time":222000000000,"state":"active","ping":97},{"user_id":218,"name":"Pika","steam_id":76561198068063436,"connected_time":4764000000000,"state":"active","ping":52},{"user_id":266,"name":"Mikke","steam_id":76561198170234003,"connected_time":1436000000000,"state":"active","ping":120},{"user_id":270,"name":"Swashbukler","steam_id":76561197969421355,"connected_time":1221000000000,"state":"active","ping":60},{"user_id":274,"name":"Hallowedspoon","steam_id":76561199141350399,"connected_time":897000000000,"state":"active","ping":80},{"user_id":208,"name":"TrashPanda (she/her)","steam_id":76561198447864095,"connected_time":5246000000000,"state":"active","ping":90},{"user_id":276,"name":"ozbulu@statueofItaly #roadtrip","steam_id":76561198067176829,"connected_time":814000000000,"state":"active","ping":106},{"user_id":259,"name":"MedRed™ #IATAH","steam_id":76561198002962970,"connected_time":2557000000000,"state":"active","ping":98},{"user_id":264,"name":"᲼᲼᲼","steam_id":76561198845246815,"connected_time":1467000000000,"state":"active","ping":106}]},{"server_id":403,"name":"Uncletopia | Chicago | 4 | All Maps","name_short":"chi-4","host":"chi-1.us.uncletopia.com","port":27045,"enabled":true,"region":"us-central","cc":"us","latitude":41.881832,"longitude":-87.62318,"reserved":0,"last_update":"0001-01-01T00:00:00Z","name_a2s":"Uncletopia | Chicago | 4 | All Maps","protocol":17,"map":"cp_mountainlab","folder":"tf","game":"Team Fortress","app_id":440,"player_count":24,"max_players":24,"Bots":0,"server_type":"Dedicated","server_os":"Linux","password":true,"vac":true,"version":"7961495","steam_id":85568392924515193,"keywords":["cp","nocrits","nodmgspread","uncletopia"],"game_id":440,"stv_port":27046,"stv_name":"Uncletopia | Chicago | 4 | All Maps | STV","players":[{"user_id":151,"name":"Palamute Jho","steam_id":76561199219936729,"connected_time":891000000000,"state":"active","ping":84},{"user_id":171,"name":"Mr.Pwesident","steam_id":76561198058114703,"connected_time":229000000000,"state":"active","ping":107},{"user_id":125,"name":"Big Mama Q","steam_id":76561198072859367,"connected_time":1947000000000,"state":"active","ping":73},{"user_id":16,"name":"TheGreythreat","steam_id":76561198021995538,"connected_time":7839000000000,"state":"active","ping":62},{"user_id":124,"name":"Comic","steam_id":76561198391882145,"connected_time":1987000000000,"state":"active","ping":40},{"user_id":174,"name":"Yimberly","steam_id":76561199206923109,"connected_time":186000000000,"state":"active","ping":84},{"user_id":160,"name":"Brawling Bouse","steam_id":76561198030271278,"connected_time":471000000000,"state":"active","ping":61},{"user_id":161,"name":"Peepster","steam_id":76561198297854733,"connected_time":463000000000,"state":"active","ping":72},{"user_id":170,"name":"Oogle","steam_id":76561198041815877,"connected_time":246000000000,"state":"active","ping":60},{"user_id":113,"name":"Fog_Ballistic","steam_id":76561199074395345,"connected_time":3031000000000,"state":"active","ping":78},{"user_id":163,"name":"Sasu","steam_id":76561198893447505,"connected_time":444000000000,"state":"active","ping":77},{"user_id":117,"name":"General Jackson","steam_id":76561199449924929,"connected_time":2735000000000,"state":"active","ping":78},{"user_id":106,"name":"bath","steam_id":76561197969993352,"connected_time":3799000000000,"state":"active","ping":66},{"user_id":144,"name":"Mr. Milk","steam_id":76561198068902833,"connected_time":1553000000000,"state":"active","ping":100},{"user_id":115,"name":"down syndrome larry","steam_id":76561198272948471,"connected_time":2888000000000,"state":"active","ping":61},{"user_id":165,"name":"shaq$","steam_id":76561198045246504,"connected_time":391000000000,"state":"active","ping":55},{"user_id":156,"name":"nao","steam_id":76561198073982533,"connected_time":609000000000,"state":"active","ping":108},{"user_id":166,"name":"The Honorable Sir Knish IV","steam_id":76561198427047948,"connected_time":380000000000,"state":"active","ping":71},{"user_id":167,"name":"Bad medic girlfriend","steam_id":76561198294054569,"connected_time":378000000000,"state":"active","ping":87},{"user_id":152,"name":"neet","steam_id":76561197968115168,"connected_time":850000000000,"state":"active","ping":52},{"user_id":173,"name":"The destroyer of foreskin","steam_id":76561198135275966,"connected_time":200000000000,"state":"active","ping":73},{"user_id":158,"name":"jose.gonzales.2003","steam_id":76561199217620385,"connected_time":605000000000,"state":"active","ping":69},{"user_id":133,"name":"KarmaStar","steam_id":76561197971945357,"connected_time":1840000000000,"state":"active","ping":94}]},{"server_id":36,"name":"Uncletopia | Chicago | 5 | All Maps","name_short":"chi-5","host":"chi-2.us.uncletopia.com","port":27015,"enabled":true,"region":"us-central","cc":"us","latitude":41.881832,"longitude":-87.62318,"reserved":0,"last_update":"0001-01-01T00:00:00Z","name_a2s":"Uncletopia | Chicago | 5 | All Maps","protocol":17,"map":"pl_pier","folder":"tf","game":"Team Fortress","app_id":440,"player_count":19,"max_players":24,"Bots":0,"server_type":"Dedicated","server_os":"Linux","password":true,"vac":true,"version":"7961495","steam_id":85568392924866362,"keywords":["nocrits","nodmgspread","payload","uncletopia"],"game_id":440,"stv_port":27016,"stv_name":"Uncletopia | Chicago | 5 | All Maps | STV","players":[{"user_id":333,"name":"Mog","steam_id":76561198025575870,"connected_time":113000000000,"state":"active","ping":59},{"user_id":325,"name":"draculaura (g3)","steam_id":76561198982584470,"connected_time":1042000000000,"state":"active","ping":97},{"user_id":334,"name":"TinyTator","steam_id":76561198799282234,"connected_time":103000000000,"state":"active","ping":75},{"user_id":328,"name":"Bobby","steam_id":76561198037803087,"connected_time":772000000000,"state":"active","ping":64},{"user_id":335,"name":"Harness","steam_id":76561199031066548,"connected_time":68000000000,"state":"active","ping":68},{"user_id":332,"name":"beats!","steam_id":76561199245717718,"connected_time":143000000000,"state":"active","ping":52},{"user_id":303,"name":"3ggsalad3","steam_id":76561199386969191,"connected_time":2178000000000,"state":"active","ping":45},{"user_id":304,"name":"ExplosiveGamer21","steam_id":76561198132370955,"connected_time":2148000000000,"state":"active","ping":104},{"user_id":336,"name":"Art","steam_id":76561198123802486,"connected_time":66000000000,"state":"active","ping":82},{"user_id":319,"name":"Thot Patrol","steam_id":76561198026003193,"connected_time":1380000000000,"state":"active","ping":57},{"user_id":320,"name":"The_Blaze_king","steam_id":76561198324842122,"connected_time":1360000000000,"state":"active","ping":157},{"user_id":337,"name":"Phillip Jeffries","steam_id":76561198064052174,"connected_time":14000000000,"state":"spawning","ping":59},{"user_id":313,"name":"Chunk","steam_id":76561198204275251,"connected_time":2070000000000,"state":"active","ping":75},{"user_id":330,"name":"Drapph","steam_id":76561199384213314,"connected_time":468000000000,"state":"active","ping":60},{"user_id":309,"name":"Circuit Spark","steam_id":76561198832124473,"connected_time":2097000000000,"state":"active","ping":68},{"user_id":310,"name":"Piss Man","steam_id":76561199446367874,"connected_time":2093000000000,"state":"active","ping":47},{"user_id":206,"name":"fresco","steam_id":76561199101199477,"connected_time":8078000000000,"state":"active","ping":59},{"user_id":266,"name":"Greaseball","steam_id":76561198240220178,"connected_time":4826000000000,"state":"active","ping":60},{"user_id":312,"name":"penjamin","steam_id":76561198147833204,"connected_time":2082000000000,"state":"active","ping":110}]},{"server_id":37,"name":"Uncletopia | Chicago | 6 | All Maps","name_short":"chi-6","host":"chi-2.us.uncletopia.com","port":27025,"enabled":true,"region":"us-central","cc":"us","latitude":41.881832,"longitude":-87.62318,"reserved":0,"last_update":"0001-01-01T00:00:00Z","name_a2s":"Uncletopia | Chicago | 6 | All Maps","protocol":17,"map":"koth_suijin","folder":"tf","game":"Team Fortress","app_id":440,"player_count":24,"max_players":24,"Bots":0,"server_type":"Dedicated","server_os":"Linux","password":true,"vac":true,"version":"7961495","steam_id":85568392924866363,"keywords":["cp","nocrits","nodmgspread","uncletopia"],"game_id":440,"stv_port":27026,"stv_name":"Uncletopia | Chicago | 6 | All Maps | STV","players":[{"user_id":24,"name":"Tri-Dot","steam_id":76561199075186597,"connected_time":2837000000000,"state":"active","ping":62},{"user_id":25,"name":"ShawnLmao","steam_id":76561198350691501,"connected_time":2753000000000,"state":"active","ping":74},{"user_id":69,"name":"Oviraptor Supreme","steam_id":76561198044262534,"connected_time":741000000000,"state":"active","ping":71},{"user_id":27,"name":"Dead Face","steam_id":76561198857643139,"connected_time":2587000000000,"state":"active","ping":54},{"user_id":75,"name":"Space","steam_id":76561198350489754,"connected_time":245000000000,"state":"active","ping":46},{"user_id":29,"name":"Ginger Jesus","steam_id":76561198052386458,"connected_time":2432000000000,"state":"active","ping":60},{"user_id":72,"name":"Kart","steam_id":76561198045307014,"connected_time":382000000000,"state":"active","ping":90},{"user_id":74,"name":"Flap","steam_id":76561198078889633,"connected_time":270000000000,"state":"active","ping":56},{"user_id":33,"name":"beans","steam_id":76561199082781884,"connected_time":2261000000000,"state":"active","ping":62},{"user_id":76,"name":"Valuez_THS","steam_id":76561199055291822,"connected_time":57000000000,"state":"active","ping":114},{"user_id":35,"name":"Scum Knight | T.I.D.K.","steam_id":76561198282444763,"connected_time":2198000000000,"state":"active","ping":61},{"user_id":36,"name":"Mercy!Avatar","steam_id":76561199113870006,"connected_time":2135000000000,"state":"active","ping":69},{"user_id":37,"name":"Bones0010","steam_id":76561198096186958,"connected_time":2084000000000,"state":"active","ping":87},{"user_id":38,"name":"Sir.TopHats","steam_id":76561198267326839,"connected_time":2075000000000,"state":"active","ping":84},{"user_id":39,"name":"BaggyCookie","steam_id":76561199172862472,"connected_time":2057000000000,"state":"active","ping":81},{"user_id":78,"name":"jaytheking05","steam_id":76561198856419769,"connected_time":4000000000,"state":"spawning","ping":57},{"user_id":62,"name":"Smashing93","steam_id":76561199058453316,"connected_time":1015000000000,"state":"active","ping":56},{"user_id":65,"name":"c","steam_id":76561198881665250,"connected_time":926000000000,"state":"active","ping":92},{"user_id":67,"name":"Squope","steam_id":76561198983129293,"connected_time":858000000000,"state":"active","ping":68},{"user_id":47,"name":"*Gage*","steam_id":76561197975233869,"connected_time":1939000000000,"state":"active","ping":82},{"user_id":57,"name":"TTVPlumSmug","steam_id":76561198103960265,"connected_time":1706000000000,"state":"active","ping":70},{"user_id":49,"name":"Kindagoodplayer","steam_id":76561198814625843,"connected_time":1925000000000,"state":"active","ping":67},{"user_id":50,"name":"nonagon infinity","steam_id":76561198397662124,"connected_time":1924000000000,"state":"active","ping":86},{"user_id":71,"name":"tA.CHRONIC","steam_id":76561197960760990,"connected_time":521000000000,"state":"active","ping":50}]},{"server_id":38,"name":"Uncletopia | Chicago | 7 | Stopwatch","name_short":"chi-7","host":"chi-2.us.uncletopia.com","port":27035,"enabled":true,"region":"us-central","cc":"us","latitude":41.881832,"longitude":-87.62318,"reserved":0,"last_update":"0001-01-01T00:00:00Z","name_a2s":"Uncletopia | Chicago | 7 | Stopwatch","protocol":17,"map":"koth_highpass","folder":"tf","game":"Team Fortress","app_id":440,"player_count":0,"max_players":24,"Bots":0,"server_type":"Dedicated","server_os":"Linux","password":true,"vac":true,"version":"7961495","steam_id":85568392924866364,"keywords":["cp","nocrits","nodmgspread","uncletopia"],"game_id":440,"stv_port":27036,"stv_name":"Uncletopia | Chicago | 7 | Stopwatch | STV","players":null},{"server_id":39,"name":"Uncletopia | Chicago | 8 | Community","name_short":"chi-8","host":"chi-2.us.uncletopia.com","port":27045,"enabled":true,"region":"us-central","cc":"us","latitude":41.881832,"longitude":-87.62318,"reserved":0,"last_update":"0001-01-01T00:00:00Z","name_a2s":"Uncletopia | Chicago | 8 | Community","protocol":17,"map":"pl_pier","folder":"tf","game":"Team Fortress","app_id":440,"player_count":0,"max_players":24,"Bots":0,"server_type":"Dedicated","server_os":"Linux","password":true,"vac":true,"version":"7961495","steam_id":85568392924866365,"keywords":["nocrits","nodmgspread","payload","uncletopia"],"game_id":440,"stv_port":27046,"stv_name":"Uncletopia | Chicago | 8 | Community | STV","players":null},{"server_id":8,"name":"Uncletopia | Dallas | 1 | All Maps","name_short":"dal-1","host":"dal-1.us.uncletopia.com","port":27015,"enabled":true,"region":"us-central","cc":"us","latitude":32.779167,"longitude":-96.80889,"reserved":0,"last_update":"0001-01-01T00:00:00Z","name_a2s":"Uncletopia | Dallas | 1 | All Maps","protocol":17,"map":"pl_snowycoast","folder":"tf","game":"Team Fortress","app_id":440,"player_count":23,"max_players":24,"Bots":0,"server_type":"Dedicated","server_os":"Linux","password":true,"vac":true,"version":"7961495","steam_id":85568392924469986,"keywords":["nocrits","nodmgspread","payload","uncletopia"],"game_id":440,"stv_port":27016,"stv_name":"Uncletopia | Dallas | 1 | All Maps | STV","players":[{"user_id":253,"name":"Cap'n Bill","steam_id":76561197969559549,"connected_time":4233000000000,"state":"active","ping":76},{"user_id":289,"name":"The_RainbowTrout","steam_id":76561199309554436,"connected_time":1416000000000,"state":"active","ping":93},{"user_id":290,"name":"Sneed-poster","steam_id":76561198206198937,"connected_time":1305000000000,"state":"active","ping":66},{"user_id":303,"name":"Chiyomi","steam_id":76561198119631974,"connected_time":618000000000,"state":"active","ping":76},{"user_id":274,"name":"hunterzar","steam_id":76561198347666725,"connected_time":2980000000000,"state":"active","ping":86},{"user_id":294,"name":"mbell1199","steam_id":76561198827517736,"connected_time":901000000000,"state":"active","ping":68},{"user_id":257,"name":"Hello World","steam_id":76561199093925982,"connected_time":3798000000000,"state":"active","ping":120},{"user_id":305,"name":"C4K3","steam_id":76561197996963285,"connected_time":38000000000,"state":"active","ping":70},{"user_id":208,"name":"Certified Hood Classic","steam_id":76561199086159354,"connected_time":6730000000000,"state":"active","ping":63},{"user_id":281,"name":"chill","steam_id":76561198313364985,"connected_time":2138000000000,"state":"active","ping":87},{"user_id":280,"name":"TechnoBear2099","steam_id":76561198238863596,"connected_time":2389000000000,"state":"active","ping":46},{"user_id":170,"name":"dance monkey","steam_id":76561198188722751,"connected_time":10516000000000,"state":"active","ping":89},{"user_id":260,"name":"37 septillion tapeworms","steam_id":76561198186128723,"connected_time":3630000000000,"state":"active","ping":51},{"user_id":283,"name":"9AM | Jamal27","steam_id":76561198068654532,"connected_time":2087000000000,"state":"active","ping":98},{"user_id":304,"name":"com lag","steam_id":76561198019019392,"connected_time":591000000000,"state":"active","ping":50},{"user_id":299,"name":"Your Loyal Familiar","steam_id":76561198106476075,"connected_time":731000000000,"state":"active","ping":77},{"user_id":265,"name":"Dinosaur","steam_id":76561199079626189,"connected_time":3515000000000,"state":"active","ping":85},{"user_id":292,"name":"SonofaBishop","steam_id":76561198121118762,"connected_time":1024000000000,"state":"active","ping":100},{"user_id":301,"name":"wetto makaveli","steam_id":76561198224811504,"connected_time":667000000000,"state":"active","ping":61},{"user_id":218,"name":"Rappy \u003c3","steam_id":76561198105613110,"connected_time":6498000000000,"state":"active","ping":75},{"user_id":298,"name":"Woody","steam_id":76561198020308956,"connected_time":770000000000,"state":"active","ping":60},{"user_id":302,"name":"banana gaming","steam_id":76561198334907218,"connected_time":666000000000,"state":"active","ping":66},{"user_id":296,"name":"owl","steam_id":76561198088403016,"connected_time":815000000000,"state":"active","ping":171}]},{"server_id":108,"name":"Uncletopia | Dallas | 2 | All Maps","name_short":"dal-2","host":"dal-1.us.uncletopia.com","port":27025,"enabled":true,"region":"us-central","cc":"us","latitude":32.779167,"longitude":-96.80889,"reserved":0,"last_update":"0001-01-01T00:00:00Z","name_a2s":"Uncletopia | Dallas | 2 | All Maps","protocol":17,"map":"pl_badwater","folder":"tf","game":"Team Fortress","app_id":440,"player_count":24,"max_players":24,"Bots":0,"server_type":"Dedicated","server_os":"Linux","password":true,"vac":true,"version":"7961495","steam_id":85568392924469988,"keywords":["nocrits","nodmgspread","payload","uncletopia"],"game_id":440,"stv_port":27026,"stv_name":"Uncletopia | Dallas | 2 | All Maps | STV","players":[{"user_id":294,"name":"cookie","steam_id":76561197971557295,"connected_time":354000000000,"state":"active","ping":84},{"user_id":213,"name":"loooooooooooooooooooooooooooooi","steam_id":76561198138934898,"connected_time":5084000000000,"state":"active","ping":60},{"user_id":290,"name":"sludgebot","steam_id":76561198083789250,"connected_time":517000000000,"state":"active","ping":63},{"user_id":289,"name":"nugit74","steam_id":76561198325736178,"connected_time":534000000000,"state":"active","ping":60},{"user_id":283,"name":"menonamed","steam_id":76561198199564382,"connected_time":1034000000000,"state":"active","ping":86},{"user_id":275,"name":"hoOmIN","steam_id":76561198334947079,"connected_time":1786000000000,"state":"active","ping":73},{"user_id":266,"name":"Kirby.exe","steam_id":76561198242714582,"connected_time":2087000000000,"state":"active","ping":50},{"user_id":292,"name":"incredirocks","steam_id":76561198061079993,"connected_time":474000000000,"state":"active","ping":71},{"user_id":233,"name":"Blippy","steam_id":76561198225904600,"connected_time":3294000000000,"state":"active","ping":57},{"user_id":234,"name":"get scrongled, idiot","steam_id":76561198115874625,"connected_time":3278000000000,"state":"active","ping":91},{"user_id":226,"name":"cupsovietxeno","steam_id":76561198997539399,"connected_time":3639000000000,"state":"active","ping":90},{"user_id":286,"name":"._.","steam_id":76561198300316801,"connected_time":560000000000,"state":"active","ping":76},{"user_id":268,"name":"abolish the federal reserve","steam_id":76561198047796437,"connected_time":2066000000000,"state":"active","ping":85},{"user_id":280,"name":"scoobert","steam_id":76561199215184828,"connected_time":1468000000000,"state":"active","ping":87},{"user_id":298,"name":"sovereign","steam_id":76561198223959572,"connected_time":71000000000,"state":"active","ping":61},{"user_id":139,"name":"ACK","steam_id":76561198130390689,"connected_time":7918000000000,"state":"active","ping":102},{"user_id":269,"name":"rat","steam_id":76561198130412963,"connected_time":2045000000000,"state":"active","ping":72},{"user_id":299,"name":"DualiTea","steam_id":76561198081733870,"connected_time":66000000000,"state":"active","ping":60},{"user_id":297,"name":"artichoke","steam_id":76561198980994364,"connected_time":141000000000,"state":"active","ping":98},{"user_id":263,"name":"Word To Your Mothership","steam_id":76561198034329138,"connected_time":2624000000000,"state":"active","ping":97},{"user_id":243,"name":"laughs bigman","steam_id":76561198067714032,"connected_time":3129000000000,"state":"active","ping":85},{"user_id":217,"name":"JNGthree","steam_id":76561198166002579,"connected_time":4784000000000,"state":"active","ping":67},{"user_id":296,"name":"MN","steam_id":76561199231943078,"connected_time":232000000000,"state":"active","ping":102},{"user_id":254,"name":"bashdzy","steam_id":76561199006087600,"connected_time":3025000000000,"state":"active","ping":67}]},{"server_id":404,"name":"Uncletopia | Dallas | 3 | All Maps","name_short":"dal-3","host":"dal-1.us.uncletopia.com","port":27035,"enabled":true,"region":"us-central","cc":"us","latitude":32.779167,"longitude":-96.80889,"reserved":0,"last_update":"0001-01-01T00:00:00Z","name_a2s":"Uncletopia | Dallas | 3 | All Maps","protocol":17,"map":"ctf_2fort","folder":"tf","game":"Team Fortress","app_id":440,"player_count":0,"max_players":24,"Bots":0,"server_type":"Dedicated","server_os":"Linux","password":true,"vac":true,"version":"7961495","steam_id":85568392924515219,"keywords":["ctf","nocrits","nodmgspread","uncletopia"],"game_id":440,"stv_port":27036,"stv_name":"Uncletopia | Dallas | 3 | All Maps | STV","players":null},{"server_id":405,"name":"Uncletopia | Dallas | 4 | Community","name_short":"dal-4","host":"dal-1.us.uncletopia.com","port":27045,"enabled":true,"region":"us-central","cc":"us","latitude":32.779167,"longitude":-96.80889,"reserved":0,"last_update":"0001-01-01T00:00:00Z","name_a2s":"Uncletopia | Dallas | 4 | Community","protocol":17,"map":"workshop/pl_badwater_pro_v12.ugc2142942074","folder":"tf","game":"Team Fortress","app_id":440,"player_count":0,"max_players":24,"Bots":0,"server_type":"Dedicated","server_os":"Linux","password":true,"vac":true,"version":"7961495","steam_id":85568392924515220,"keywords":["nocrits","nodmgspread","payload","uncletopia"],"game_id":440,"stv_port":27046,"stv_name":"Uncletopia | Dallas | 4 | Community | STV","players":null},{"server_id":5,"name":"Uncletopia | Frankfurt | 1 | All Maps","name_short":"frk-1","host":"frk-1.de.uncletopia.com","port":27015,"enabled":true,"region":"eu","cc":"de","latitude":50.110924,"longitude":8.682127,"reserved":0,"last_update":"0001-01-01T00:00:00Z","name_a2s":"Uncletopia | Frankfurt | 1 | All Maps","protocol":17,"map":"koth_cascade","folder":"tf","game":"Team Fortress","app_id":440,"player_count":24,"max_players":24,"Bots":0,"server_type":"Dedicated","server_os":"Linux","password":true,"vac":true,"version":"7961495","steam_id":85568392924469989,"keywords":["cp","nocrits","nodmgspread","uncletopia"],"game_id":440,"stv_port":27016,"stv_name":"Uncletopia | Frankfurt | 1 | All Maps | STV","players":[{"user_id":639,"name":"Kuickfire","steam_id":76561198066476639,"connected_time":641000000000,"state":"active","ping":138},{"user_id":640,"name":"Niclas","steam_id":76561198834891561,"connected_time":637000000000,"state":"active","ping":72},{"user_id":642,"name":"Pong Lenis","steam_id":76561198039251333,"connected_time":395000000000,"state":"active","ping":105},{"user_id":628,"name":"big bug buttz","steam_id":76561198115106008,"connected_time":1853000000000,"state":"active","ping":87},{"user_id":605,"name":"M7MD3BD0","steam_id":76561199072750769,"connected_time":2852000000000,"state":"active","ping":95},{"user_id":645,"name":"Raulca25","steam_id":76561199068256964,"connected_time":360000000000,"state":"active","ping":85},{"user_id":641,"name":"stefanbejenari","steam_id":76561199466718294,"connected_time":604000000000,"state":"active","ping":75},{"user_id":627,"name":"bloodsvscrips2","steam_id":76561198138928548,"connected_time":1927000000000,"state":"active","ping":46},{"user_id":646,"name":"Over Extended","steam_id":76561199089290269,"connected_time":356000000000,"state":"active","ping":70},{"user_id":658,"name":"Silver","steam_id":76561198175238807,"connected_time":10000000000,"state":"active","ping":119},{"user_id":648,"name":"BigBoyBroccoli","steam_id":76561198029337108,"connected_time":324000000000,"state":"active","ping":58},{"user_id":621,"name":"Arti_Chokes","steam_id":76561199213835861,"connected_time":2036000000000,"state":"active","ping":54},{"user_id":581,"name":"The Narrator","steam_id":76561198046647912,"connected_time":4269000000000,"state":"active","ping":51},{"user_id":649,"name":"Orangoman","steam_id":76561199196701118,"connected_time":300000000000,"state":"active","ping":67},{"user_id":650,"name":"fish","steam_id":76561199401478121,"connected_time":298000000000,"state":"active","ping":72},{"user_id":624,"name":"aspha","steam_id":76561198992891086,"connected_time":1983000000000,"state":"active","ping":74},{"user_id":618,"name":"BabyFoxoti","steam_id":76561198974666142,"connected_time":2278000000000,"state":"active","ping":55},{"user_id":655,"name":"Dr. Jabbinton","steam_id":76561198180007387,"connected_time":87000000000,"state":"active","ping":47},{"user_id":651,"name":"Hawkon","steam_id":76561197999523727,"connected_time":292000000000,"state":"active","ping":71},{"user_id":582,"name":"Jimmy Poppadopolos","steam_id":76561198044825612,"connected_time":4268000000000,"state":"active","ping":59},{"user_id":654,"name":"balder","steam_id":76561198796325635,"connected_time":153000000000,"state":"active","ping":82},{"user_id":653,"name":"klabautermann-67","steam_id":76561199054888931,"connected_time":235000000000,"state":"active","ping":48},{"user_id":656,"name":"Morten49","steam_id":76561199375618712,"connected_time":76000000000,"state":"active","ping":47},{"user_id":657,"name":"kiki","steam_id":76561198838277022,"connected_time":64000000000,"state":"active","ping":68}]},{"server_id":110,"name":"Uncletopia | Frankfurt | 2 | All Maps","name_short":"frk-2","host":"frk-1.de.uncletopia.com","port":27025,"enabled":true,"region":"eu","cc":"de","latitude":50.110924,"longitude":8.682127,"reserved":0,"last_update":"0001-01-01T00:00:00Z","name_a2s":"Uncletopia | Frankfurt | 2 | All Maps","protocol":17,"map":"pl_badwater","folder":"tf","game":"Team Fortress","app_id":440,"player_count":24,"max_players":24,"Bots":0,"server_type":"Dedicated","server_os":"Linux","password":true,"vac":true,"version":"7961495","steam_id":85568392924469990,"keywords":["nocrits","nodmgspread","payload","uncletopia"],"game_id":440,"stv_port":27026,"stv_name":"Uncletopia | Frankfurt | 2 | All Maps | STV","players":[{"user_id":593,"name":"árvíztűrő tükörfúrógép","steam_id":76561198296643061,"connected_time":1121000000000,"state":"active","ping":47},{"user_id":542,"name":"Sandvich","steam_id":76561199079493666,"connected_time":4623000000000,"state":"active","ping":109},{"user_id":580,"name":"trolldier jumpscare","steam_id":76561198271785898,"connected_time":2236000000000,"state":"active","ping":68},{"user_id":586,"name":"iShockwave","steam_id":76561198404037424,"connected_time":1923000000000,"state":"active","ping":98},{"user_id":491,"name":"myon","steam_id":76561197992528570,"connected_time":7800000000000,"state":"active","ping":84},{"user_id":594,"name":"Neotype","steam_id":76561199106822304,"connected_time":1045000000000,"state":"active","ping":86},{"user_id":565,"name":"SocialistBacon","steam_id":76561198055872267,"connected_time":2810000000000,"state":"active","ping":104},{"user_id":600,"name":"Escobar","steam_id":76561198089785078,"connected_time":612000000000,"state":"active","ping":107},{"user_id":591,"name":"Mr.Shpee","steam_id":76561198158701474,"connected_time":1706000000000,"state":"active","ping":81},{"user_id":596,"name":"Brica","steam_id":76561198196324799,"connected_time":840000000000,"state":"active","ping":83},{"user_id":531,"name":"hyvakii705","steam_id":76561198086630552,"connected_time":5326000000000,"state":"active","ping":90},{"user_id":570,"name":"Retaгdo","steam_id":76561198020565536,"connected_time":2536000000000,"state":"active","ping":75},{"user_id":598,"name":"Vilnius","steam_id":76561199027409859,"connected_time":680000000000,"state":"active","ping":85},{"user_id":589,"name":"Columban","steam_id":76561199202258284,"connected_time":1808000000000,"state":"active","ping":38},{"user_id":597,"name":"SynthBox3","steam_id":76561199094075745,"connected_time":793000000000,"state":"active","ping":95},{"user_id":599,"name":"Eric Catman","steam_id":76561198802117294,"connected_time":670000000000,"state":"active","ping":75},{"user_id":576,"name":"Relic","steam_id":76561199499093258,"connected_time":2366000000000,"state":"active","ping":52},{"user_id":590,"name":"Hexagon","steam_id":76561198151205758,"connected_time":1787000000000,"state":"active","ping":56},{"user_id":582,"name":"Fabric","steam_id":76561198118742661,"connected_time":2139000000000,"state":"active","ping":74},{"user_id":558,"name":"luma","steam_id":76561198081649669,"connected_time":3430000000000,"state":"active","ping":60},{"user_id":583,"name":"Mastenbier","steam_id":76561199067658590,"connected_time":2135000000000,"state":"active","ping":123},{"user_id":573,"name":"yuck","steam_id":76561197987249568,"connected_time":2498000000000,"state":"active","ping":104},{"user_id":585,"name":"Walle","steam_id":76561197995148937,"connected_time":1984000000000,"state":"active","ping":65},{"user_id":592,"name":"juni","steam_id":76561198036504214,"connected_time":1706000000000,"state":"active","ping":46}]},{"server_id":308,"name":"Uncletopia | Frankfurt | 3 | All Maps","name_short":"frk-3","host":"frk-1.de.uncletopia.com","port":27035,"enabled":true,"region":"eu","cc":"de","latitude":50.110924,"longitude":8.682127,"reserved":0,"last_update":"0001-01-01T00:00:00Z","name_a2s":"Uncletopia | Frankfurt | 3 | All Maps","protocol":17,"map":"cp_dustbowl","folder":"tf","game":"Team Fortress","app_id":440,"player_count":24,"max_players":24,"Bots":0,"server_type":"Dedicated","server_os":"Linux","password":true,"vac":true,"version":"7961495","steam_id":85568392924504274,"keywords":["cp","nocrits","nodmgspread","uncletopia"],"game_id":440,"stv_port":27036,"stv_name":"Uncletopia | Frankfurt | 3 | All Maps | STV","players":[{"user_id":653,"name":"rehiry","steam_id":76561198039324040,"connected_time":1095000000000,"state":"active","ping":63},{"user_id":626,"name":"cazador","steam_id":76561198123096922,"connected_time":4143000000000,"state":"active","ping":92},{"user_id":649,"name":"Lemon","steam_id":76561198188535947,"connected_time":2164000000000,"state":"active","ping":84},{"user_id":595,"name":"Tea Follet","steam_id":76561198852408734,"connected_time":5287000000000,"state":"active","ping":65},{"user_id":656,"name":"WiDam","steam_id":76561198005976631,"connected_time":275000000000,"state":"active","ping":149},{"user_id":657,"name":"Asmodeus","steam_id":76561198283156425,"connected_time":264000000000,"state":"active","ping":60},{"user_id":629,"name":"MR BUBBLES","steam_id":76561198019005259,"connected_time":3539000000000,"state":"active","ping":102},{"user_id":610,"name":"Jethro Tull","steam_id":76561199034041634,"connected_time":4768000000000,"state":"active","ping":70},{"user_id":635,"name":"JamesPepega","steam_id":76561198019156154,"connected_time":2929000000000,"state":"active","ping":70},{"user_id":632,"name":"HayLeX","steam_id":76561198130997343,"connected_time":3009000000000,"state":"active","ping":84},{"user_id":631,"name":"You slumber","steam_id":76561198344639692,"connected_time":3241000000000,"state":"active","ping":80},{"user_id":658,"name":"Dave The Sloth","steam_id":76561199135831355,"connected_time":221000000000,"state":"active","ping":61},{"user_id":606,"name":"Bobo","steam_id":76561198052308399,"connected_time":4780000000000,"state":"active","ping":59},{"user_id":659,"name":"Gaming memes","steam_id":76561198122306142,"connected_time":165000000000,"state":"active","ping":73},{"user_id":607,"name":"Nickbro101","steam_id":76561198044271692,"connected_time":4775000000000,"state":"active","ping":61},{"user_id":608,"name":"Mario3ghj","steam_id":76561198069804561,"connected_time":4775000000000,"state":"active","ping":94},{"user_id":609,"name":"Arturias","steam_id":76561198188720263,"connected_time":4774000000000,"state":"active","ping":58},{"user_id":661,"name":"Vex","steam_id":76561197992054540,"connected_time":8000000000,"state":"spawning","ping":54},{"user_id":623,"name":"Freddy Fazbear","steam_id":76561198299179114,"connected_time":4573000000000,"state":"active","ping":66},{"user_id":645,"name":"Rockwell Retro Encabulator","steam_id":76561198420349969,"connected_time":2437000000000,"state":"active","ping":104},{"user_id":660,"name":"Accident","steam_id":76561198115160396,"connected_time":87000000000,"state":"active","ping":74},{"user_id":662,"name":"Barbiehunter #SaveTF2","steam_id":76561198071630928,"connected_time":1000000000,"state":"spawning","ping":33},{"user_id":655,"name":"Did somebody say box kites?","steam_id":76561198007653168,"connected_time":924000000000,"state":"active","ping":58},{"user_id":642,"name":"MISTER SUIIII","steam_id":76561198018330092,"connected_time":2609000000000,"state":"active","ping":75}]},{"server_id":309,"name":"Uncletopia | Frankfurt | 4 | All Maps","name_short":"frk-4","host":"frk-1.de.uncletopia.com","port":27045,"enabled":true,"region":"eu","cc":"de","latitude":50.110924,"longitude":8.682127,"reserved":0,"last_update":"0001-01-01T00:00:00Z","name_a2s":"Uncletopia | Frankfurt | 4 | All Maps","protocol":17,"map":"pl_barnblitz","folder":"tf","game":"Team Fortress","app_id":440,"player_count":24,"max_players":24,"Bots":0,"server_type":"Dedicated","server_os":"Linux","password":true,"vac":true,"version":"7961495","steam_id":85568392924504275,"keywords":["nocrits","nodmgspread","payload","uncletopia"],"game_id":440,"stv_port":27046,"stv_name":"Uncletopia | Frankfurt | 4 | All Maps | STV","players":[{"user_id":680,"name":"Sham!","steam_id":76561198050434275,"connected_time":5138000000000,"state":"active","ping":51},{"user_id":717,"name":"Gio'sMonkey","steam_id":76561198892432223,"connected_time":2265000000000,"state":"active","ping":70},{"user_id":739,"name":"rajAs","steam_id":76561198035928111,"connected_time":976000000000,"state":"active","ping":86},{"user_id":736,"name":"skeleton_archer_1","steam_id":76561198407636430,"connected_time":1071000000000,"state":"active","ping":103},{"user_id":749,"name":"Cioly","steam_id":76561198257791981,"connected_time":25000000000,"state":"active","ping":74},{"user_id":709,"name":"CMRDGI","steam_id":76561198141356233,"connected_time":2760000000000,"state":"active","ping":49},{"user_id":722,"name":"Mega","steam_id":76561197970389664,"connected_time":1624000000000,"state":"active","ping":49},{"user_id":747,"name":"brtaba","steam_id":76561198796334790,"connected_time":316000000000,"state":"active","ping":63},{"user_id":740,"name":"Professor Brofessor","steam_id":76561198102541181,"connected_time":968000000000,"state":"active","ping":60},{"user_id":741,"name":"swansong","steam_id":76561198082580561,"connected_time":958000000000,"state":"active","ping":67},{"user_id":733,"name":"Prison Mike","steam_id":76561198014221596,"connected_time":1208000000000,"state":"active","ping":68},{"user_id":727,"name":"chrome heart","steam_id":76561198101978330,"connected_time":1525000000000,"state":"active","ping":60},{"user_id":693,"name":"Schogard","steam_id":76561198847318421,"connected_time":3273000000000,"state":"active","ping":119},{"user_id":748,"name":"Absolute in doubt","steam_id":76561199488752503,"connected_time":313000000000,"state":"active","ping":60},{"user_id":729,"name":"Pup Pa","steam_id":76561198305320696,"connected_time":1510000000000,"state":"active","ping":61},{"user_id":716,"name":"Abyssion","steam_id":76561198040246963,"connected_time":2339000000000,"state":"active","ping":51},{"user_id":720,"name":"Baruu","steam_id":76561199130278220,"connected_time":2005000000000,"state":"active","ping":81},{"user_id":730,"name":"Bzd","steam_id":76561198204521956,"connected_time":1503000000000,"state":"active","ping":70},{"user_id":678,"name":"Marukuso","steam_id":76561198154229845,"connected_time":5373000000000,"state":"active","ping":67},{"user_id":725,"name":"FoOzTV","steam_id":76561197998636728,"connected_time":1540000000000,"state":"active","ping":73},{"user_id":744,"name":"a british monarch is amongst us","steam_id":76561198190936635,"connected_time":639000000000,"state":"active","ping":69},{"user_id":724,"name":"CumbustiblePunda","steam_id":76561197974274677,"connected_time":1602000000000,"state":"active","ping":52},{"user_id":742,"name":"Mr. Boobmastic","steam_id":76561197975482475,"connected_time":930000000000,"state":"active","ping":58},{"user_id":711,"name":"Weegee","steam_id":76561198150308523,"connected_time":2678000000000,"state":"active","ping":64}]},{"server_id":310,"name":"Uncletopia | Frankfurt | 5 | All Maps","name_short":"frk-5","host":"frk-1.de.uncletopia.com","port":27055,"enabled":true,"region":"eu","cc":"de","latitude":50.110924,"longitude":8.682127,"reserved":0,"last_update":"0001-01-01T00:00:00Z","name_a2s":"Uncletopia | Frankfurt | 5 | All Maps","protocol":17,"map":"pl_borneo","folder":"tf","game":"Team Fortress","app_id":440,"player_count":24,"max_players":24,"Bots":0,"server_type":"Dedicated","server_os":"Linux","password":true,"vac":true,"version":"7961495","steam_id":85568392924504277,"keywords":["nocrits","nodmgspread","payload","uncletopia"],"game_id":440,"stv_port":27056,"stv_name":"Uncletopia | Frankfurt | 5 | All Maps | STV","players":[{"user_id":611,"name":"omony","steam_id":76561197983750025,"connected_time":2188000000000,"state":"active","ping":86},{"user_id":637,"name":"manure merchant","steam_id":76561198010109316,"connected_time":639000000000,"state":"active","ping":49},{"user_id":628,"name":"Doritoshredder","steam_id":76561198826710752,"connected_time":1091000000000,"state":"active","ping":131},{"user_id":614,"name":"donatofina","steam_id":76561198353497885,"connected_time":1905000000000,"state":"active","ping":86},{"user_id":513,"name":"Duktigafred","steam_id":76561199211222396,"connected_time":6818000000000,"state":"active","ping":65},{"user_id":574,"name":"forsen tf2","steam_id":76561198125768571,"connected_time":4631000000000,"state":"active","ping":68},{"user_id":638,"name":"lege schappen","steam_id":76561199077022985,"connected_time":603000000000,"state":"active","ping":61},{"user_id":626,"name":"Mléčný Cecek","steam_id":76561198138939377,"connected_time":1259000000000,"state":"active","ping":57},{"user_id":634,"name":"TidB","steam_id":76561198055342304,"connected_time":684000000000,"state":"active","ping":47},{"user_id":635,"name":"grandpa","steam_id":76561198061208814,"connected_time":670000000000,"state":"active","ping":69},{"user_id":636,"name":"Versunix","steam_id":76561197978073496,"connected_time":669000000000,"state":"active","ping":58},{"user_id":639,"name":"randompixel","steam_id":76561198003941207,"connected_time":581000000000,"state":"active","ping":71},{"user_id":612,"name":"finjar","steam_id":76561198350473059,"connected_time":2001000000000,"state":"active","ping":75},{"user_id":624,"name":"◄Areezy►","steam_id":76561198111336972,"connected_time":1324000000000,"state":"active","ping":93},{"user_id":640,"name":"60hz laptop","steam_id":76561198111229919,"connected_time":547000000000,"state":"active","ping":62},{"user_id":594,"name":"pepsimus_maximus (pepsi/max)","steam_id":76561198062425104,"connected_time":4022000000000,"state":"active","ping":78},{"user_id":641,"name":"Arsonist","steam_id":76561199087953833,"connected_time":428000000000,"state":"active","ping":113},{"user_id":642,"name":"GregerUlander","steam_id":76561198152375055,"connected_time":427000000000,"state":"active","ping":84},{"user_id":632,"name":"Valfezant","steam_id":76561199063983797,"connected_time":717000000000,"state":"active","ping":60},{"user_id":617,"name":"corro","steam_id":76561197982510441,"connected_time":1850000000000,"state":"active","ping":46},{"user_id":633,"name":"Archive","steam_id":76561198071255385,"connected_time":711000000000,"state":"active","ping":92},{"user_id":508,"name":"Caliban","steam_id":76561197999696839,"connected_time":7184000000000,"state":"active","ping":111},{"user_id":643,"name":"Testicular torsion","steam_id":76561198119547399,"connected_time":401000000000,"state":"active","ping":58},{"user_id":627,"name":"AftiksPL","steam_id":76561198875182686,"connected_time":1254000000000,"state":"active","ping":94}]},{"server_id":311,"name":"Uncletopia | Frankfurt | 6 | All Maps","name_short":"frk-6","host":"frk-1.de.uncletopia.com","port":27065,"enabled":true,"region":"eu","cc":"de","latitude":50.110924,"longitude":8.682127,"reserved":0,"last_update":"0001-01-01T00:00:00Z","name_a2s":"Uncletopia | Frankfurt | 6 | All Maps","protocol":17,"map":"koth_viaduct","folder":"tf","game":"Team Fortress","app_id":440,"player_count":20,"max_players":24,"Bots":0,"server_type":"Dedicated","server_os":"Linux","password":true,"vac":true,"version":"7961495","steam_id":85568392924504278,"keywords":["cp","nocrits","nodmgspread","uncletopia"],"game_id":440,"stv_port":27066,"stv_name":"Uncletopia | Frankfurt | 6 | All Maps | STV","players":[{"user_id":560,"name":"monocle chicken","steam_id":76561199020106029,"connected_time":73000000000,"state":"active","ping":86},{"user_id":227,"name":"Finnish Farmer","steam_id":76561198205366043,"connected_time":15136000000000,"state":"active","ping":86},{"user_id":557,"name":"scarmu","steam_id":76561198025957341,"connected_time":409000000000,"state":"active","ping":84},{"user_id":540,"name":"coffee","steam_id":76561198382387303,"connected_time":1297000000000,"state":"active","ping":81},{"user_id":513,"name":"BabyYodaIsMySoda","steam_id":76561198321846861,"connected_time":3697000000000,"state":"active","ping":76},{"user_id":531,"name":"Ben UFO","steam_id":76561198001648348,"connected_time":2493000000000,"state":"active","ping":74},{"user_id":532,"name":"K3nza","steam_id":76561198180128410,"connected_time":2493000000000,"state":"active","ping":59},{"user_id":545,"name":"Morpheus","steam_id":76561198984889776,"connected_time":1175000000000,"state":"active","ping":68},{"user_id":544,"name":"ArtaKir","steam_id":76561198291746440,"connected_time":1207000000000,"state":"active","ping":74},{"user_id":555,"name":"Lorenzo Lovers","steam_id":76561198073973581,"connected_time":709000000000,"state":"active","ping":76},{"user_id":546,"name":"Judas","steam_id":76561198044618462,"connected_time":1156000000000,"state":"active","ping":104},{"user_id":553,"name":"POOTIS","steam_id":76561199105020003,"connected_time":1003000000000,"state":"spawning","ping":148},{"user_id":548,"name":"Prox","steam_id":76561198351490981,"connected_time":1145000000000,"state":"active","ping":54},{"user_id":552,"name":"cock","steam_id":76561198307522022,"connected_time":1028000000000,"state":"active","ping":51},{"user_id":541,"name":"Mr Lemon","steam_id":76561198054685254,"connected_time":1267000000000,"state":"active","ping":69},{"user_id":550,"name":"Schiever","steam_id":76561198052136026,"connected_time":1089000000000,"state":"active","ping":57},{"user_id":527,"name":"ඞ","steam_id":76561199500311813,"connected_time":2831000000000,"state":"active","ping":170},{"user_id":558,"name":"Qwertuss","steam_id":76561198026305366,"connected_time":234000000000,"state":"active","ping":62},{"user_id":528,"name":"kevinshark123","steam_id":76561198244631550,"connected_time":2828000000000,"state":"active","ping":67},{"user_id":529,"name":"Ascendmychild","steam_id":76561198099271952,"connected_time":2789000000000,"state":"active","ping":69}]},{"server_id":23,"name":"Uncletopia | Frankfurt | 7 | Stopwatch","name_short":"frk-7","host":"frk-1.de.uncletopia.com","port":27075,"enabled":true,"region":"eu","cc":"de","latitude":50.110924,"longitude":8.682127,"reserved":0,"last_update":"0001-01-01T00:00:00Z","name_a2s":"Uncletopia | Frankfurt | 7 | Stopwatch","protocol":17,"map":"workshop/pl_badwater_pro_v12.ugc2142942074","folder":"tf","game":"Team Fortress","app_id":440,"player_count":2,"max_players":24,"Bots":0,"server_type":"Dedicated","server_os":"Linux","password":true,"vac":true,"version":"7961495","steam_id":85568392924742827,"keywords":["nocrits","nodmgspread","payload","uncletopia"],"game_id":440,"stv_port":27076,"stv_name":"Uncletopia | Frankfurt | 7 | Stopwatch | STV","players":[{"user_id":20,"name":"ran is running","steam_id":76561199443185667,"connected_time":1473000000000,"state":"active","ping":130},{"user_id":21,"name":"piss man (real)","steam_id":76561198839843428,"connected_time":1449000000000,"state":"active","ping":118}]},{"server_id":24,"name":"Uncletopia | Frankfurt | 8 | Community","name_short":"frk-8","host":"frk-1.de.uncletopia.com","port":27085,"enabled":true,"region":"eu","cc":"de","latitude":50.110924,"longitude":8.682127,"reserved":0,"last_update":"0001-01-01T00:00:00Z","name_a2s":"Uncletopia | Frankfurt | 8 | Community","protocol":17,"map":"workshop/cp_caldera_rc3.ugc2834196889","folder":"tf","game":"Team Fortress","app_id":440,"player_count":0,"max_players":24,"Bots":0,"server_type":"Dedicated","server_os":"Linux","password":true,"vac":true,"version":"7961495","steam_id":85568392924742828,"keywords":["cp","nocrits","nodmgspread","uncletopia"],"game_id":440,"stv_port":27086,"stv_name":"Uncletopia | Frankfurt | 8 | Community | STV","players":null},{"server_id":202,"name":"Uncletopia | Hong Kong | 1 | All Maps","name_short":"hgk-1","host":"hgk-1.hk.uncletopia.com","port":27015,"enabled":true,"region":"asia","cc":"hk","latitude":22.302711,"longitude":114.177216,"reserved":0,"last_update":"0001-01-01T00:00:00Z","name_a2s":"Uncletopia | Hong Kong | 1 | All Maps","protocol":17,"map":"koth_viaduct","folder":"tf","game":"Team Fortress","app_id":440,"player_count":0,"max_players":24,"Bots":0,"server_type":"Dedicated","server_os":"Linux","password":true,"vac":true,"version":"7961495","steam_id":85568392924494504,"keywords":["cp","nocrits","nodmgspread","uncletopia"],"game_id":440,"stv_port":27016,"stv_name":"Uncletopia | Hong Kong | 1 | All Maps | STV","players":null},{"server_id":1,"name":"Uncletopia | Los Angeles | 1 | All Maps","name_short":"lax-1","host":"lax-1.us.uncletopia.com","port":27015,"enabled":true,"region":"us-west","cc":"us","latitude":33.94279,"longitude":-118.41004,"reserved":0,"last_update":"0001-01-01T00:00:00Z","name_a2s":"Uncletopia | Los Angeles | 1 | All Maps","protocol":17,"map":"pl_pier","folder":"tf","game":"Team Fortress","app_id":440,"player_count":24,"max_players":24,"Bots":0,"server_type":"Dedicated","server_os":"Linux","password":true,"vac":true,"version":"7961495","steam_id":85568392924469991,"keywords":["nocrits","nodmgspread","payload","uncletopia"],"game_id":440,"stv_port":27016,"stv_name":"Uncletopia | Los Angeles | 1 | All Maps | STV","players":[{"user_id":196,"name":"standing here,","steam_id":76561198066315453,"connected_time":1286000000000,"state":"active","ping":53},{"user_id":188,"name":"Max Headass","steam_id":76561198964210411,"connected_time":2067000000000,"state":"active","ping":58},{"user_id":197,"name":"Grim","steam_id":76561198016978310,"connected_time":1139000000000,"state":"active","ping":71},{"user_id":155,"name":"noceof","steam_id":76561198043656816,"connected_time":5098000000000,"state":"active","ping":170},{"user_id":181,"name":"roach :3","steam_id":76561198354811369,"connected_time":2755000000000,"state":"active","ping":49},{"user_id":140,"name":"unnamed","steam_id":76561198050225055,"connected_time":6463000000000,"state":"active","ping":45},{"user_id":192,"name":"lando.calrissian","steam_id":76561198145669711,"connected_time":1588000000000,"state":"active","ping":44},{"user_id":190,"name":"Fentanyl Warrior","steam_id":76561198074047574,"connected_time":1892000000000,"state":"active","ping":43},{"user_id":204,"name":"Tam Honks","steam_id":76561198044347961,"connected_time":576000000000,"state":"active","ping":71},{"user_id":186,"name":"walrooos","steam_id":76561198024521839,"connected_time":2114000000000,"state":"active","ping":42},{"user_id":202,"name":"Bro_Erazu","steam_id":76561198399356137,"connected_time":849000000000,"state":"active","ping":95},{"user_id":176,"name":"HumbDoe","steam_id":76561198065556553,"connected_time":3526000000000,"state":"active","ping":58},{"user_id":183,"name":"Flavortown Thanos","steam_id":76561198004853966,"connected_time":2133000000000,"state":"active","ping":84},{"user_id":177,"name":"yay","steam_id":76561198338739253,"connected_time":3357000000000,"state":"active","ping":58},{"user_id":172,"name":"no vc no c","steam_id":76561197989503095,"connected_time":3965000000000,"state":"active","ping":169},{"user_id":178,"name":"Risky","steam_id":76561198231029328,"connected_time":3124000000000,"state":"active","ping":67},{"user_id":131,"name":"eggplantgirl♥","steam_id":76561198811515692,"connected_time":7738000000000,"state":"active","ping":45},{"user_id":200,"name":"K-2","steam_id":76561198322606535,"connected_time":1115000000000,"state":"active","ping":77},{"user_id":187,"name":"birbneedsumseed","steam_id":76561198853439850,"connected_time":2111000000000,"state":"active","ping":45},{"user_id":205,"name":"heck","steam_id":76561198315694520,"connected_time":419000000000,"state":"active","ping":46},{"user_id":189,"name":"RC","steam_id":76561198048127881,"connected_time":2054000000000,"state":"active","ping":45},{"user_id":199,"name":"shin megami tensei nocturne","steam_id":76561198026563351,"connected_time":1137000000000,"state":"active","ping":51},{"user_id":136,"name":"Nyges","steam_id":76561198139236154,"connected_time":7034000000000,"state":"active","ping":59},{"user_id":151,"name":"Boxcars","steam_id":76561198120978767,"connected_time":5163000000000,"state":"active","ping":58}]},{"server_id":112,"name":"Uncletopia | Los Angeles | 2 | All Maps","name_short":"lax-2","host":"lax-1.us.uncletopia.com","port":27025,"enabled":true,"region":"us-west","cc":"us","latitude":33.94279,"longitude":-118.41004,"reserved":0,"last_update":"0001-01-01T00:00:00Z","name_a2s":"Uncletopia | Los Angeles | 2 | All Maps","protocol":17,"map":"koth_cascade","folder":"tf","game":"Team Fortress","app_id":440,"player_count":0,"max_players":24,"Bots":0,"server_type":"Dedicated","server_os":"Linux","password":true,"vac":true,"version":"7961495","steam_id":85568392924469992,"keywords":["cp","nocrits","nodmgspread","uncletopia"],"game_id":440,"stv_port":27026,"stv_name":"Uncletopia | Los Angeles | 2 | All Maps | STV","players":null},{"server_id":324,"name":"Uncletopia | Los Angeles | 3 | All Maps","name_short":"lax-3","host":"lax-1.us.uncletopia.com","port":27035,"enabled":true,"region":"us-west","cc":"us","latitude":33.94279,"longitude":-118.41004,"reserved":0,"last_update":"0001-01-01T00:00:00Z","name_a2s":"Uncletopia | Los Angeles | 3 | All Maps","protocol":17,"map":"koth_viaduct","folder":"tf","game":"Team Fortress","app_id":440,"player_count":0,"max_players":24,"Bots":0,"server_type":"Dedicated","server_os":"Linux","password":true,"vac":true,"version":"7961495","steam_id":85568392924510198,"keywords":["cp","nocrits","nodmgspread","uncletopia"],"game_id":440,"stv_port":27036,"stv_name":"Uncletopia | Los Angeles | 3 | All Maps | STV","players":null},{"server_id":25,"name":"Uncletopia | Los Angeles | 4 | Stopwatch","name_short":"lax-4","host":"lax-1.us.uncletopia.com","port":27045,"enabled":true,"region":"us-west","cc":"us","latitude":33.94279,"longitude":-118.41004,"reserved":0,"last_update":"0001-01-01T00:00:00Z","name_a2s":"Uncletopia | Los Angeles | 4 | Stopwatch","protocol":17,"map":"workshop/cp_process_f12.ugc2302948105","folder":"tf","game":"Team Fortress","app_id":440,"player_count":0,"max_players":24,"Bots":0,"server_type":"Dedicated","server_os":"Linux","password":true,"vac":true,"version":"7961495","steam_id":85568392924510199,"keywords":["cp","nocrits","nodmgspread","uncletopia"],"game_id":440,"stv_port":27046,"stv_name":"Uncletopia | Los Angeles | 4 | Stopwatch | STV","players":null},{"server_id":11,"name":"Uncletopia | London | 1 | All Maps","name_short":"lon-1","host":"lon-1.uk.uncletopia.com","port":27015,"enabled":true,"region":"eu","cc":"gb","latitude":51.509865,"longitude":-0.118092,"reserved":0,"last_update":"0001-01-01T00:00:00Z","name_a2s":"Uncletopia | London | 1 | All Maps","protocol":17,"map":"cp_coldfront","folder":"tf","game":"Team Fortress","app_id":440,"player_count":24,"max_players":24,"Bots":0,"server_type":"Dedicated","server_os":"Linux","password":true,"vac":true,"version":"7961495","steam_id":85568392924367362,"keywords":["cp","nocrits","nodmgspread","uncletopia"],"game_id":440,"stv_port":27016,"stv_name":"Uncletopia | London | 1 | All Maps | STV","players":[{"user_id":581,"name":"dec","steam_id":76561198009660168,"connected_time":3718000000000,"state":"active","ping":47},{"user_id":605,"name":"sHIFTINGvORTEX","steam_id":76561198231648332,"connected_time":565000000000,"state":"active","ping":60},{"user_id":583,"name":"Nutty Dark^^","steam_id":76561198036241064,"connected_time":3220000000000,"state":"active","ping":68},{"user_id":599,"name":"Joo ♦","steam_id":76561197987609203,"connected_time":1317000000000,"state":"active","ping":67},{"user_id":584,"name":"✪ Danny","steam_id":76561198104483241,"connected_time":3214000000000,"state":"active","ping":50},{"user_id":553,"name":"steff","steam_id":76561198013306538,"connected_time":8026000000000,"state":"active","ping":49},{"user_id":607,"name":"dogbowcar","steam_id":76561198046597584,"connected_time":196000000000,"state":"active","ping":43},{"user_id":532,"name":"Finkaksu Devourer of Sour Candy","steam_id":76561198201389163,"connected_time":10162000000000,"state":"active","ping":67},{"user_id":597,"name":"♥ඞlilyඞ♥","steam_id":76561198049840460,"connected_time":1531000000000,"state":"active","ping":57},{"user_id":608,"name":"Mintme","steam_id":76561199033531922,"connected_time":103000000000,"state":"active","ping":46},{"user_id":570,"name":"shooer!","steam_id":76561198110531281,"connected_time":5056000000000,"state":"active","ping":72},{"user_id":505,"name":"Lyra","steam_id":76561198043601838,"connected_time":13291000000000,"state":"active","ping":62},{"user_id":609,"name":"Sodsboy","steam_id":76561198030482006,"connected_time":34000000000,"state":"active","ping":44},{"user_id":526,"name":"❤aura❤","steam_id":76561198066258544,"connected_time":11253000000000,"state":"active","ping":66},{"user_id":572,"name":"KnugenIV","steam_id":76561198127091993,"connected_time":4931000000000,"state":"active","ping":56},{"user_id":554,"name":"Kahvi","steam_id":76561198723244199,"connected_time":8017000000000,"state":"active","ping":79},{"user_id":603,"name":"SillySausage812","steam_id":76561198206555636,"connected_time":611000000000,"state":"active","ping":36},{"user_id":598,"name":"MrXtr","steam_id":76561198966247397,"connected_time":1370000000000,"state":"active","ping":70},{"user_id":606,"name":"InfiniteLoop","steam_id":76561198346583346,"connected_time":560000000000,"state":"active","ping":66},{"user_id":562,"name":"Lartsa","steam_id":76561198275690230,"connected_time":6757000000000,"state":"active","ping":108},{"user_id":611,"name":"Baron","steam_id":76561198021901783,"connected_time":19000000000,"state":"spawning","ping":66},{"user_id":574,"name":"Daruun","steam_id":76561198019068781,"connected_time":4820000000000,"state":"active","ping":80},{"user_id":543,"name":"so valid queen slay","steam_id":76561198190583242,"connected_time":8950000000000,"state":"active","ping":90},{"user_id":571,"name":"ein","steam_id":76561198152162834,"connected_time":5054000000000,"state":"active","ping":97}]},{"server_id":114,"name":"Uncletopia | London | 2 | All Maps","name_short":"lon-2","host":"lon-1.uk.uncletopia.com","port":27025,"enabled":true,"region":"eu","cc":"gb","latitude":51.509865,"longitude":-0.118092,"reserved":0,"last_update":"0001-01-01T00:00:00Z","name_a2s":"Uncletopia | London | 2 | All Maps","protocol":17,"map":"cp_sunshine","folder":"tf","game":"Team Fortress","app_id":440,"player_count":9,"max_players":24,"Bots":0,"server_type":"Dedicated","server_os":"Linux","password":true,"vac":true,"version":"7961495","steam_id":85568392924470941,"keywords":["cp","nocrits","nodmgspread","uncletopia"],"game_id":440,"stv_port":27026,"stv_name":"Uncletopia | London | 2 | All Maps | STV","players":[{"user_id":541,"name":"The worst TF2 player(real)","steam_id":76561199184873889,"connected_time":172000000000,"state":"active","ping":66},{"user_id":532,"name":"child cruncher","steam_id":76561199376433147,"connected_time":852000000000,"state":"active","ping":47},{"user_id":474,"name":"THY DARK L0RD","steam_id":76561198029005085,"connected_time":3784000000000,"state":"active","ping":66},{"user_id":475,"name":"Enigmatic Gale","steam_id":76561198039416982,"connected_time":3780000000000,"state":"active","ping":55},{"user_id":515,"name":"zayd","steam_id":76561198895235231,"connected_time":1862000000000,"state":"active","ping":52},{"user_id":439,"name":"I am dating your grandmother","steam_id":76561198268159433,"connected_time":5700000000000,"state":"active","ping":86},{"user_id":513,"name":"SirDirtbag","steam_id":76561198091890855,"connected_time":1925000000000,"state":"active","ping":81},{"user_id":528,"name":"lawn","steam_id":76561198001243486,"connected_time":1077000000000,"state":"active","ping":39},{"user_id":502,"name":"Brian","steam_id":76561198077756206,"connected_time":2445000000000,"state":"active","ping":34}]},{"server_id":320,"name":"Uncletopia | London | 3 | All Maps","name_short":"lon-3","host":"lon-1.uk.uncletopia.com","port":27035,"enabled":true,"region":"eu","cc":"gb","latitude":51.509865,"longitude":-0.118092,"reserved":0,"last_update":"0001-01-01T00:00:00Z","name_a2s":"Uncletopia | London | 3 | All Maps","protocol":17,"map":"cp_sunshine","folder":"tf","game":"Team Fortress","app_id":440,"player_count":21,"max_players":24,"Bots":0,"server_type":"Dedicated","server_os":"Linux","password":true,"vac":true,"version":"7961495","steam_id":85568392924510192,"keywords":["cp","nocrits","nodmgspread","uncletopia"],"game_id":440,"stv_port":27036,"stv_name":"Uncletopia | London | 3 | All Maps | STV","players":[{"user_id":743,"name":"Proper Noun","steam_id":76561198055264269,"connected_time":540000000000,"state":"active","ping":76},{"user_id":685,"name":"Spinya","steam_id":76561198086653667,"connected_time":4150000000000,"state":"active","ping":52},{"user_id":731,"name":"EricToGo","steam_id":76561198068019642,"connected_time":1528000000000,"state":"active","ping":64},{"user_id":745,"name":"Margarito_snake","steam_id":76561198132001394,"connected_time":259000000000,"state":"active","ping":113},{"user_id":725,"name":"CNTRL","steam_id":76561199125803827,"connected_time":1565000000000,"state":"active","ping":65},{"user_id":722,"name":"herbal tea","steam_id":76561197980736364,"connected_time":2035000000000,"state":"active","ping":89},{"user_id":689,"name":"DudeoftheRock","steam_id":76561198059401865,"connected_time":4131000000000,"state":"active","ping":59},{"user_id":735,"name":"Trølli","steam_id":76561198069281758,"connected_time":1158000000000,"state":"active","ping":59},{"user_id":712,"name":"armadillo","steam_id":76561198324656652,"connected_time":2601000000000,"state":"active","ping":45},{"user_id":727,"name":"SoaCrow","steam_id":76561198069420717,"connected_time":1543000000000,"state":"active","ping":74},{"user_id":690,"name":"418 131","steam_id":76561198097789669,"connected_time":4121000000000,"state":"active","ping":69},{"user_id":738,"name":"Mr.Okman","steam_id":76561198119636866,"connected_time":887000000000,"state":"active","ping":96},{"user_id":698,"name":"MK-Ultra Violence","steam_id":76561198081328238,"connected_time":3698000000000,"state":"active","ping":72},{"user_id":744,"name":"sv_MrGibbs","steam_id":76561198114071972,"connected_time":505000000000,"state":"active","ping":45},{"user_id":724,"name":"Cillian","steam_id":76561199471571148,"connected_time":1570000000000,"state":"active","ping":72},{"user_id":734,"name":"legalize marijuana","steam_id":76561198988882521,"connected_time":1394000000000,"state":"active","ping":88},{"user_id":747,"name":"ScapeGoat","steam_id":76561198137868829,"connected_time":152000000000,"state":"active","ping":56},{"user_id":741,"name":"flamingosaurus","steam_id":76561198051455397,"connected_time":626000000000,"state":"active","ping":38},{"user_id":742,"name":"Odin","steam_id":76561198087800030,"connected_time":552000000000,"state":"active","ping":30},{"user_id":684,"name":"Skarp","steam_id":76561198034398376,"connected_time":4270000000000,"state":"active","ping":60},{"user_id":721,"name":"Lithe","steam_id":76561198097130024,"connected_time":2127000000000,"state":"active","ping":53}]},{"server_id":321,"name":"Uncletopia | London | 4 | All Maps","name_short":"lon-4","host":"lon-1.uk.uncletopia.com","port":27045,"enabled":true,"region":"eu","cc":"gb","latitude":51.509865,"longitude":-0.118092,"reserved":0,"last_update":"0001-01-01T00:00:00Z","name_a2s":"Uncletopia | London | 4 | All Maps","protocol":17,"map":"cp_sunshine","folder":"tf","game":"Team Fortress","app_id":440,"player_count":24,"max_players":24,"Bots":0,"server_type":"Dedicated","server_os":"Linux","password":true,"vac":true,"version":"7961495","steam_id":85568392924510193,"keywords":["cp","nocrits","nodmgspread","uncletopia"],"game_id":440,"stv_port":27046,"stv_name":"Uncletopia | London | 4 | All Maps | STV","players":[{"user_id":483,"name":"ddchdrn","steam_id":76561198024358566,"connected_time":1340000000000,"state":"active","ping":68},{"user_id":444,"name":"Qwerty","steam_id":76561198023525894,"connected_time":3816000000000,"state":"active","ping":83},{"user_id":488,"name":"Gameing","steam_id":76561198199687607,"connected_time":1136000000000,"state":"active","ping":72},{"user_id":499,"name":"Udinese Dion","steam_id":76561198067931573,"connected_time":148000000000,"state":"active","ping":54},{"user_id":478,"name":"xavier","steam_id":76561198076494034,"connected_time":1526000000000,"state":"active","ping":49},{"user_id":487,"name":"goop","steam_id":76561198190073005,"connected_time":1172000000000,"state":"active","ping":45},{"user_id":493,"name":"Milk","steam_id":76561198125876588,"connected_time":606000000000,"state":"active","ping":39},{"user_id":434,"name":"Clownputer? what the fuck?","steam_id":76561198033032672,"connected_time":5034000000000,"state":"active","ping":53},{"user_id":477,"name":"Just Navlis","steam_id":76561198090479609,"connected_time":1556000000000,"state":"active","ping":55},{"user_id":492,"name":"100 real chicken beast","steam_id":76561198023211417,"connected_time":1003000000000,"state":"active","ping":56},{"user_id":500,"name":"Guil","steam_id":76561197993289176,"connected_time":116000000000,"state":"active","ping":131},{"user_id":454,"name":"Deez nuts","steam_id":76561199429562693,"connected_time":2606000000000,"state":"active","ping":69},{"user_id":496,"name":"froggy with Cheese","steam_id":76561198163244605,"connected_time":185000000000,"state":"active","ping":70},{"user_id":498,"name":"Bobirulez","steam_id":76561198009125458,"connected_time":154000000000,"state":"active","ping":74},{"user_id":456,"name":"105,5","steam_id":76561198256619964,"connected_time":2581000000000,"state":"active","ping":76},{"user_id":391,"name":"Jussukka","steam_id":76561198122894683,"connected_time":7609000000000,"state":"active","ping":85},{"user_id":457,"name":"noot","steam_id":76561198148074472,"connected_time":2580000000000,"state":"active","ping":49},{"user_id":484,"name":"fl1p","steam_id":76561198148565659,"connected_time":1319000000000,"state":"active","ping":77},{"user_id":458,"name":"Vershal Smershal","steam_id":76561198116223995,"connected_time":2572000000000,"state":"active","ping":57},{"user_id":473,"name":"Kenny_killer_69","steam_id":76561199465207725,"connected_time":2242000000000,"state":"active","ping":77},{"user_id":481,"name":"Bajas","steam_id":76561198179339326,"connected_time":1432000000000,"state":"active","ping":77},{"user_id":433,"name":"sponsored by nord vpn","steam_id":76561198044704458,"connected_time":5129000000000,"state":"active","ping":53},{"user_id":485,"name":"Loitsu","steam_id":76561198098177012,"connected_time":1279000000000,"state":"active","ping":113},{"user_id":495,"name":"A literal heavy","steam_id":76561199219233587,"connected_time":574000000000,"state":"active","ping":80}]},{"server_id":21,"name":"Uncletopia | London | 5 | All Maps","name_short":"lon-5","host":"lon-1.uk.uncletopia.com","port":27055,"enabled":true,"region":"eu","cc":"gb","latitude":51.509865,"longitude":-0.118092,"reserved":0,"last_update":"0001-01-01T00:00:00Z","name_a2s":"Uncletopia | London | 5 | All Maps","protocol":17,"map":"pl_barnblitz","folder":"tf","game":"Team Fortress","app_id":440,"player_count":24,"max_players":24,"Bots":0,"server_type":"Dedicated","server_os":"Linux","password":true,"vac":true,"version":"7961495","steam_id":85568392924742829,"keywords":["nocrits","nodmgspread","payload","uncletopia"],"game_id":440,"stv_port":27056,"stv_name":"Uncletopia | London | 5 | All Maps | STV","players":[{"user_id":560,"name":"I will violate you","steam_id":76561198349830813,"connected_time":720000000000,"state":"active","ping":43},{"user_id":558,"name":"Alpaca","steam_id":76561198029839079,"connected_time":1066000000000,"state":"active","ping":50},{"user_id":564,"name":"Ark-e","steam_id":76561198261870909,"connected_time":166000000000,"state":"active","ping":36},{"user_id":563,"name":"walrus","steam_id":76561198167898969,"connected_time":213000000000,"state":"active","ping":64},{"user_id":525,"name":"YARrICk.«+»","steam_id":76561197990126485,"connected_time":3441000000000,"state":"active","ping":60},{"user_id":488,"name":"LiterallyRyanGosling","steam_id":76561199017856691,"connected_time":5137000000000,"state":"active","ping":88},{"user_id":537,"name":"Darfsterman #rustclash","steam_id":76561199004139305,"connected_time":2234000000000,"state":"active","ping":65},{"user_id":333,"name":"Zerosiini","steam_id":76561198113771976,"connected_time":12540000000000,"state":"active","ping":71},{"user_id":545,"name":"guru{Hari}","steam_id":76561197997001681,"connected_time":1767000000000,"state":"active","ping":66},{"user_id":542,"name":"Dingle Loui","steam_id":76561198114985331,"connected_time":1784000000000,"state":"active","ping":54},{"user_id":546,"name":"BlueyRain","steam_id":76561199311762382,"connected_time":1765000000000,"state":"active","ping":98},{"user_id":557,"name":"Darth Falcon","steam_id":76561199033727636,"connected_time":1165000000000,"state":"active","ping":183},{"user_id":515,"name":"Zonddey","steam_id":76561198134885222,"connected_time":3718000000000,"state":"active","ping":58},{"user_id":480,"name":"DiracDeltaFunction","steam_id":76561199201624841,"connected_time":6027000000000,"state":"active","ping":90},{"user_id":562,"name":"Creep","steam_id":76561198067157049,"connected_time":494000000000,"state":"active","ping":62},{"user_id":561,"name":"horrors within my comprehension","steam_id":76561198363841749,"connected_time":716000000000,"state":"active","ping":88},{"user_id":554,"name":"tete","steam_id":76561198045222850,"connected_time":1630000000000,"state":"active","ping":75},{"user_id":559,"name":"LITTLEDUDE37","steam_id":76561198093314328,"connected_time":959000000000,"state":"active","ping":59},{"user_id":532,"name":"Axter","steam_id":76561198118747192,"connected_time":2813000000000,"state":"active","ping":102},{"user_id":555,"name":"Scatter","steam_id":76561198258085271,"connected_time":1272000000000,"state":"active","ping":79},{"user_id":519,"name":"jerkwaterberg","steam_id":76561198134165667,"connected_time":3646000000000,"state":"active","ping":51},{"user_id":506,"name":"Penis Contortionist","steam_id":76561198073663784,"connected_time":4497000000000,"state":"active","ping":85},{"user_id":550,"name":"Jonno","steam_id":76561198023443744,"connected_time":1748000000000,"state":"active","ping":54},{"user_id":535,"name":"Egor Pomidor","steam_id":76561199175688390,"connected_time":2544000000000,"state":"active","ping":89}]},{"server_id":22,"name":"Uncletopia | London | 6 | All Maps","name_short":"lon-6","host":"lon-1.uk.uncletopia.com","port":27065,"enabled":true,"region":"eu","cc":"gb","latitude":51.509865,"longitude":-0.118092,"reserved":0,"last_update":"0001-01-01T00:00:00Z","name_a2s":"Uncletopia | London | 6 | All Maps","protocol":17,"map":"pl_borneo","folder":"tf","game":"Team Fortress","app_id":440,"player_count":24,"max_players":24,"Bots":0,"server_type":"Dedicated","server_os":"Linux","password":true,"vac":true,"version":"7961495","steam_id":85568392924742830,"keywords":["nocrits","nodmgspread","payload","uncletopia"],"game_id":440,"stv_port":27066,"stv_name":"Uncletopia | London | 6 | All Maps | STV","players":[{"user_id":207,"name":"Pomson 6000","steam_id":76561198435297875,"connected_time":758000000000,"state":"active","ping":54},{"user_id":174,"name":"Peskyplumber64","steam_id":76561198044458330,"connected_time":5101000000000,"state":"active","ping":53},{"user_id":171,"name":"BELADIT","steam_id":76561198011911501,"connected_time":5242000000000,"state":"active","ping":83},{"user_id":213,"name":"Special Agent Big Smoke","steam_id":76561198154468827,"connected_time":145000000000,"state":"active","ping":74},{"user_id":192,"name":"♂Kipu♂","steam_id":76561198046239061,"connected_time":3004000000000,"state":"active","ping":87},{"user_id":204,"name":"Jersku","steam_id":76561198140994845,"connected_time":1353000000000,"state":"active","ping":77},{"user_id":208,"name":"LOBZIK","steam_id":76561198114830120,"connected_time":747000000000,"state":"active","ping":76},{"user_id":214,"name":"pakin157","steam_id":76561198035125667,"connected_time":90000000000,"state":"active","ping":96},{"user_id":193,"name":"SpiritStar","steam_id":76561198063920313,"connected_time":2526000000000,"state":"active","ping":135},{"user_id":173,"name":"XxBenShapiro420xX","steam_id":76561199229373972,"connected_time":5218000000000,"state":"active","ping":63},{"user_id":199,"name":"lillunya ♡","steam_id":76561198330418866,"connected_time":2277000000000,"state":"active","ping":71},{"user_id":94,"name":"Beanie","steam_id":76561198173882658,"connected_time":9186000000000,"state":"active","ping":53},{"user_id":95,"name":"skittish maiden","steam_id":76561198096856475,"connected_time":9166000000000,"state":"active","ping":50},{"user_id":116,"name":"IanThatMiner","steam_id":76561198079785511,"connected_time":8503000000000,"state":"active","ping":144},{"user_id":187,"name":"ANGHENFILOD","steam_id":76561199492622823,"connected_time":3955000000000,"state":"active","ping":39},{"user_id":162,"name":"yush","steam_id":76561198121688934,"connected_time":5497000000000,"state":"active","ping":81},{"user_id":211,"name":"TR1dent02","steam_id":76561198199276830,"connected_time":478000000000,"state":"active","ping":44},{"user_id":189,"name":"CzechMate #SaveTF2","steam_id":76561198012687703,"connected_time":3793000000000,"state":"active","ping":59},{"user_id":114,"name":"Frozen Ocelot","steam_id":76561198023761571,"connected_time":8506000000000,"state":"active","ping":48},{"user_id":194,"name":"MrSoy","steam_id":76561198082960634,"connected_time":2504000000000,"state":"active","ping":64},{"user_id":190,"name":"desmo_","steam_id":76561198023528339,"connected_time":3469000000000,"state":"active","ping":81},{"user_id":212,"name":"flick","steam_id":76561198083505031,"connected_time":455000000000,"state":"active","ping":39},{"user_id":205,"name":"Omyskull","steam_id":76561198131711758,"connected_time":1331000000000,"state":"active","ping":63},{"user_id":200,"name":"TreatFly","steam_id":76561198069707362,"connected_time":2039000000000,"state":"active","ping":56}]},{"server_id":40,"name":"Uncletopia | London | 7 | Stopwatch","name_short":"lon-7","host":"lon-1.uk.uncletopia.com","port":27075,"enabled":true,"region":"eu","cc":"gb","latitude":51.509865,"longitude":-0.118092,"reserved":0,"last_update":"0001-01-01T00:00:00Z","name_a2s":"Uncletopia | London | 7 | Stopwatch","protocol":17,"map":"workshop/koth_product_final.ugc454272353","folder":"tf","game":"Team Fortress","app_id":440,"player_count":0,"max_players":24,"Bots":0,"server_type":"Dedicated","server_os":"Linux","password":true,"vac":true,"version":"7961495","steam_id":85568392924964314,"keywords":["cp","nocrits","nodmgspread","uncletopia"],"game_id":440,"stv_port":27076,"stv_name":"Uncletopia | London | 7 | Stopwatch | STV","players":null},{"server_id":41,"name":"Uncletopia | London | 8 | Community","name_short":"lon-8","host":"lon-1.uk.uncletopia.com","port":27085,"enabled":true,"region":"eu","cc":"gb","latitude":51.509865,"longitude":-0.118092,"reserved":0,"last_update":"0001-01-01T00:00:00Z","name_a2s":"Uncletopia | London | 8 | Community","protocol":17,"map":"workshop/cp_sulfur_rc2.ugc619869471","folder":"tf","game":"Team Fortress","app_id":440,"player_count":0,"max_players":24,"Bots":0,"server_type":"Dedicated","server_os":"Linux","password":true,"vac":true,"version":"7961495","steam_id":85568392924964315,"keywords":["cp","nocrits","nodmgspread","uncletopia"],"game_id":440,"stv_port":27086,"stv_name":"Uncletopia | London | 8 | Community | STV","players":null},{"server_id":300,"name":"Uncletopia | Montréal | 1 | One Thousand Uncles","name_short":"mtl-1","host":"mtl-1.ca.uncletopia.com","port":27015,"enabled":true,"region":"us-east","cc":"ca","latitude":45.50889,"longitude":-73.56167,"reserved":0,"last_update":"0001-01-01T00:00:00Z","name_a2s":"","protocol":0,"map":"","folder":"","game":"","app_id":0,"player_count":4,"max_players":0,"Bots":0,"server_type":"","server_os":"","password":false,"vac":false,"version":"","steam_id":0,"keywords":null,"game_id":0,"stv_port":0,"stv_name":"","players":[{"user_id":153,"name":"d4efeb","steam_id":76561198148098761,"connected_time":4852000000000,"state":"active","ping":59},{"user_id":170,"name":"gravid baby","steam_id":76561198318646867,"connected_time":4191000000000,"state":"active","ping":43},{"user_id":176,"name":"Phantom Watcher","steam_id":76561197986292563,"connected_time":320000000000,"state":"active","ping":86},{"user_id":175,"name":"LightBulbGlue #SaveTF2","steam_id":76561198329573529,"connected_time":611000000000,"state":"active","ping":75}]},{"server_id":301,"name":"Uncletopia | Montréal | 2 | One Thousand Uncles","name_short":"mtl-2","host":"mtl-1.ca.uncletopia.com","port":27025,"enabled":true,"region":"us-east","cc":"ca","latitude":45.50889,"longitude":-73.56167,"reserved":0,"last_update":"0001-01-01T00:00:00Z","name_a2s":"","protocol":0,"map":"","folder":"","game":"","app_id":0,"player_count":7,"max_players":0,"Bots":0,"server_type":"","server_os":"","password":false,"vac":false,"version":"","steam_id":0,"keywords":null,"game_id":0,"stv_port":0,"stv_name":"","players":[{"user_id":138,"name":"Lots0","steam_id":76561198043143145,"connected_time":983000000000,"state":"active","ping":94},{"user_id":127,"name":"ConnorWRM","steam_id":76561199350333302,"connected_time":2546000000000,"state":"active","ping":119},{"user_id":140,"name":"WM1 PYRO","steam_id":76561198045893896,"connected_time":70000000000,"state":"active","ping":95},{"user_id":130,"name":"squash deez nuts in yo mouth","steam_id":76561199091479616,"connected_time":1777000000000,"state":"active","ping":139},{"user_id":133,"name":"backwoods","steam_id":76561198328109873,"connected_time":1582000000000,"state":"active","ping":72},{"user_id":135,"name":"Feet Bandit","steam_id":76561199152252878,"connected_time":1286000000000,"state":"active","ping":64},{"user_id":139,"name":"WillDragonangel","steam_id":76561198258025259,"connected_time":897000000000,"state":"active","ping":57}]},{"server_id":302,"name":"Uncletopia | Montréal | 3 | One Thousand Uncles","name_short":"mtl-3","host":"mtl-1.ca.uncletopia.com","port":27035,"enabled":true,"region":"us-east","cc":"ca","latitude":45.50889,"longitude":-73.56167,"reserved":0,"last_update":"0001-01-01T00:00:00Z","name_a2s":"","protocol":0,"map":"","folder":"","game":"","app_id":0,"player_count":0,"max_players":0,"Bots":0,"server_type":"","server_os":"","password":false,"vac":false,"version":"","steam_id":0,"keywords":null,"game_id":0,"stv_port":0,"stv_name":"","players":null},{"server_id":13,"name":"Uncletopia | New York City | 1 | All Maps","name_short":"nyc-1","host":"nyc-1.us.uncletopia.com","port":27015,"enabled":true,"region":"us-east","cc":"us","latitude":40.73061,"longitude":-73.93524,"reserved":0,"last_update":"0001-01-01T00:00:00Z","name_a2s":"Uncletopia | New York City | 1 | All Maps","protocol":17,"map":"pl_badwater","folder":"tf","game":"Team Fortress","app_id":440,"player_count":24,"max_players":24,"Bots":0,"server_type":"Dedicated","server_os":"Linux","password":true,"vac":true,"version":"7961495","steam_id":85568392924469993,"keywords":["nocrits","nodmgspread","payload","uncletopia"],"game_id":440,"stv_port":27016,"stv_name":"Uncletopia | New York City | 1 | All Maps | STV","players":[{"user_id":495,"name":"Gabeyboy321","steam_id":76561199379213615,"connected_time":7427000000000,"state":"active","ping":94},{"user_id":578,"name":"Dragus","steam_id":76561198032967285,"connected_time":574000000000,"state":"active","ping":83},{"user_id":579,"name":"pinkissocool {f2p}","steam_id":76561198989599828,"connected_time":562000000000,"state":"active","ping":41},{"user_id":580,"name":"Asanez3","steam_id":76561198037381436,"connected_time":560000000000,"state":"active","ping":60},{"user_id":577,"name":"judesro","steam_id":76561198352244888,"connected_time":593000000000,"state":"active","ping":70},{"user_id":567,"name":"🚽KorfJob🚽","steam_id":76561198212932833,"connected_time":1387000000000,"state":"active","ping":174},{"user_id":551,"name":"Hellmonger","steam_id":76561198016058155,"connected_time":2922000000000,"state":"active","ping":70},{"user_id":574,"name":"feleven","steam_id":76561198853721046,"connected_time":894000000000,"state":"active","ping":53},{"user_id":568,"name":"Sha-Woompa","steam_id":76561199068063459,"connected_time":1381000000000,"state":"active","ping":65},{"user_id":540,"name":"OKAY","steam_id":76561198091980659,"connected_time":4276000000000,"state":"active","ping":55},{"user_id":566,"name":"General Lee","steam_id":76561199501497157,"connected_time":1673000000000,"state":"active","ping":63},{"user_id":572,"name":"kid named finger","steam_id":76561199211445229,"connected_time":1307000000000,"state":"active","ping":72},{"user_id":565,"name":"GH578","steam_id":76561199493262585,"connected_time":1970000000000,"state":"active","ping":125},{"user_id":569,"name":"The Guy","steam_id":76561198799183693,"connected_time":1379000000000,"state":"active","ping":78},{"user_id":570,"name":"Average JoJo Fan","steam_id":76561198863432523,"connected_time":1349000000000,"state":"active","ping":122},{"user_id":550,"name":"ROGUE-PLANET","steam_id":76561198116023052,"connected_time":3311000000000,"state":"active","ping":88},{"user_id":581,"name":"George Holdin' W Bush","steam_id":76561198030066204,"connected_time":549000000000,"state":"active","ping":44},{"user_id":582,"name":"sasharudzik","steam_id":76561199126617781,"connected_time":515000000000,"state":"active","ping":81},{"user_id":552,"name":"H0wlr","steam_id":76561198012332824,"connected_time":2630000000000,"state":"active","ping":51},{"user_id":485,"name":"ุ","steam_id":76561198118480346,"connected_time":8117000000000,"state":"active","ping":70},{"user_id":583,"name":"big gamer","steam_id":76561199102883421,"connected_time":510000000000,"state":"active","ping":68},{"user_id":576,"name":"Rax","steam_id":76561198044277259,"connected_time":604000000000,"state":"active","ping":54},{"user_id":523,"name":"Cat_Gaben","steam_id":76561198308094558,"connected_time":6390000000000,"state":"active","ping":68},{"user_id":585,"name":"Ice","steam_id":76561198069065342,"connected_time":27000000000,"state":"active","ping":62}]},{"server_id":14,"name":"Uncletopia | New York City | 2 | All Maps","name_short":"nyc-2","host":"nyc-1.us.uncletopia.com","port":27025,"enabled":true,"region":"us-east","cc":"us","latitude":40.73061,"longitude":-73.93524,"reserved":0,"last_update":"0001-01-01T00:00:00Z","name_a2s":"Uncletopia | New York City | 2 | All Maps","protocol":17,"map":"pl_pier","folder":"tf","game":"Team Fortress","app_id":440,"player_count":24,"max_players":24,"Bots":0,"server_type":"Dedicated","server_os":"Linux","password":true,"vac":true,"version":"7961495","steam_id":85568392924469994,"keywords":["nocrits","nodmgspread","payload","uncletopia"],"game_id":440,"stv_port":27026,"stv_name":"Uncletopia | New York City | 2 | All Maps | STV","players":[{"user_id":393,"name":"puffy","steam_id":76561198411347037,"connected_time":3545000000000,"state":"active","ping":51},{"user_id":420,"name":"LuckyTaco","steam_id":76561198871931383,"connected_time":1237000000000,"state":"active","ping":58},{"user_id":431,"name":"fear_the-penguins","steam_id":76561199013292217,"connected_time":266000000000,"state":"active","ping":58},{"user_id":417,"name":"aurro","steam_id":76561198315692300,"connected_time":1304000000000,"state":"active","ping":59},{"user_id":433,"name":"Toast","steam_id":76561199207957224,"connected_time":228000000000,"state":"active","ping":90},{"user_id":399,"name":"The Nikocado Enjoyer","steam_id":76561198263154374,"connected_time":2352000000000,"state":"active","ping":58},{"user_id":400,"name":"mothwizard","steam_id":76561198847493072,"connected_time":2345000000000,"state":"active","ping":72},{"user_id":434,"name":"Female Gamer","steam_id":76561199366482682,"connected_time":212000000000,"state":"active","ping":125},{"user_id":425,"name":"bigSMALL","steam_id":76561198964101426,"connected_time":1000000000000,"state":"active","ping":37},{"user_id":415,"name":"No Credit","steam_id":76561198110245806,"connected_time":1352000000000,"state":"active","ping":57},{"user_id":422,"name":"sketch","steam_id":76561198138216669,"connected_time":1198000000000,"state":"active","ping":77},{"user_id":430,"name":"jimmyfnaf172198yay","steam_id":76561198311446636,"connected_time":330000000000,"state":"active","ping":77},{"user_id":372,"name":"chippy","steam_id":76561198079655664,"connected_time":5280000000000,"state":"active","ping":69},{"user_id":362,"name":"mollusk_obliteration","steam_id":76561198085388962,"connected_time":5659000000000,"state":"active","ping":79},{"user_id":432,"name":"Satan-2","steam_id":76561199231742764,"connected_time":258000000000,"state":"active","ping":56},{"user_id":435,"name":"C+","steam_id":76561198140279542,"connected_time":194000000000,"state":"active","ping":45},{"user_id":364,"name":"barefoot fruitscato","steam_id":76561198094225038,"connected_time":5621000000000,"state":"active","ping":95},{"user_id":421,"name":"WinterBerry","steam_id":76561198437148505,"connected_time":1218000000000,"state":"active","ping":108},{"user_id":411,"name":".jpg","steam_id":76561198137237377,"connected_time":1809000000000,"state":"active","ping":59},{"user_id":424,"name":"donkey","steam_id":76561198288539461,"connected_time":1112000000000,"state":"active","ping":72},{"user_id":436,"name":"MisterJackster999","steam_id":76561198452593271,"connected_time":182000000000,"state":"active","ping":86},{"user_id":428,"name":"✨✨ BOILING PIZZA ✨✨","steam_id":76561198354108114,"connected_time":764000000000,"state":"active","ping":118},{"user_id":392,"name":"fried rice","steam_id":76561198928939100,"connected_time":3669000000000,"state":"active","ping":97},{"user_id":437,"name":"drain.pablo.2005","steam_id":76561198303963691,"connected_time":0,"state":"spawning","ping":58}]},{"server_id":15,"name":"Uncletopia | New York City | 3 | Stopwatch","name_short":"nyc-3","host":"nyc-1.us.uncletopia.com","port":27035,"enabled":true,"region":"us-east","cc":"us","latitude":40.73061,"longitude":-73.93524,"reserved":0,"last_update":"0001-01-01T00:00:00Z","name_a2s":"Uncletopia | New York City | 3 | Stopwatch","protocol":17,"map":"workshop/koth_product_final.ugc454272353","folder":"tf","game":"Team Fortress","app_id":440,"player_count":0,"max_players":24,"Bots":0,"server_type":"Dedicated","server_os":"Linux","password":true,"vac":true,"version":"7961495","steam_id":85568392924742820,"keywords":["cp","nocrits","nodmgspread","uncletopia"],"game_id":440,"stv_port":27036,"stv_name":"Uncletopia | New York City | 3 | Stopwatch | STV","players":null},{"server_id":16,"name":"Uncletopia | New York City | 4 | Community","name_short":"nyc-4","host":"nyc-1.us.uncletopia.com","port":27045,"enabled":true,"region":"us-east","cc":"us","latitude":40.73061,"longitude":-73.93524,"reserved":0,"last_update":"0001-01-01T00:00:00Z","name_a2s":"Uncletopia | New York City | 4 | Community","protocol":17,"map":"workshop/pl_emerge_rc2.ugc888027758","folder":"tf","game":"Team Fortress","app_id":440,"player_count":0,"max_players":24,"Bots":0,"server_type":"Dedicated","server_os":"Linux","password":true,"vac":true,"version":"7961495","steam_id":85568392924742821,"keywords":["nocrits","nodmgspread","payload","uncletopia"],"game_id":440,"stv_port":27046,"stv_name":"Uncletopia | New York City | 4 | Community | STV","players":null},{"server_id":142,"name":"Uncletopia | São Paulo | 1 | All Maps","name_short":"sao-1","host":"sao-1.br.uncletopia.com","port":27015,"enabled":true,"region":"sa","cc":"br","latitude":-23.533773,"longitude":-46.62529,"reserved":0,"last_update":"0001-01-01T00:00:00Z","name_a2s":"Uncletopia | São Paulo | 1 | All Maps","protocol":17,"map":"pl_pier","folder":"tf","game":"Team Fortress","app_id":440,"player_count":0,"max_players":24,"Bots":0,"server_type":"Dedicated","server_os":"Linux","password":true,"vac":true,"version":"7961495","steam_id":85568392924469996,"keywords":["nocrits","nodmgspread","payload","uncletopia"],"game_id":440,"stv_port":27016,"stv_name":"Uncletopia | São Paulo | 1 | All Maps | STV","players":null},{"server_id":143,"name":"Uncletopia | São Paulo | 2 | Community","name_short":"sao-2","host":"sao-2.br.uncletopia.com","port":27015,"enabled":true,"region":"sa","cc":"br","latitude":-23.533773,"longitude":-46.62529,"reserved":0,"last_update":"0001-01-01T00:00:00Z","name_a2s":"Uncletopia | São Paulo | 2 | Community","protocol":17,"map":"workshop/pl_badwater_pro_v12.ugc2142942074","folder":"tf","game":"Team Fortress","app_id":440,"player_count":0,"max_players":24,"Bots":0,"server_type":"Dedicated","server_os":"Linux","password":true,"vac":true,"version":"7961495","steam_id":85568392924485349,"keywords":["nocrits","nodmgspread","payload","uncletopia"],"game_id":440,"stv_port":27016,"stv_name":"Uncletopia | São Paulo | 2 | Community | STV","players":null},{"server_id":7,"name":"Uncletopia | Seattle | 1 | All Maps","name_short":"sea-1","host":"sea-1.us.uncletopia.com","port":27015,"enabled":true,"region":"us-west","cc":"us","latitude":47.608013,"longitude":-122.33517,"reserved":0,"last_update":"0001-01-01T00:00:00Z","name_a2s":"Uncletopia | Seattle | 1 | All Maps","protocol":17,"map":"pl_rumford_event","folder":"tf","game":"Team Fortress","app_id":440,"player_count":24,"max_players":24,"Bots":0,"server_type":"Dedicated","server_os":"Linux","password":true,"vac":true,"version":"7961495","steam_id":85568392924469997,"keywords":["nocrits","nodmgspread","payload","uncletopia"],"game_id":440,"stv_port":27016,"stv_name":"Uncletopia | Seattle | 1 | All Maps | STV","players":[{"user_id":358,"name":"Reiho","steam_id":76561198108938752,"connected_time":1523000000000,"state":"active","ping":104},{"user_id":337,"name":"Little Linguine","steam_id":76561198816986370,"connected_time":2575000000000,"state":"active","ping":45},{"user_id":375,"name":"Greskrendtregk","steam_id":76561197969553142,"connected_time":452000000000,"state":"active","ping":50},{"user_id":367,"name":"Barbecue  Bacon Burger","steam_id":76561198981135699,"connected_time":604000000000,"state":"active","ping":113},{"user_id":377,"name":"TheRatBoi","steam_id":76561199123032506,"connected_time":102000000000,"state":"active","ping":105},{"user_id":368,"name":"havarti gaming","steam_id":76561198069895678,"connected_time":518000000000,"state":"active","ping":62},{"user_id":336,"name":"Gm_Sweet","steam_id":76561199445091548,"connected_time":2797000000000,"state":"active","ping":59},{"user_id":231,"name":"Spectre","steam_id":76561198037535169,"connected_time":10006000000000,"state":"active","ping":66},{"user_id":369,"name":"I Eat Money","steam_id":76561199226007666,"connected_time":498000000000,"state":"active","ping":114},{"user_id":333,"name":"Y2K (^_^) ! ! !","steam_id":76561199191855486,"connected_time":2828000000000,"state":"active","ping":45},{"user_id":345,"name":"slushy :))","steam_id":76561198135281802,"connected_time":2344000000000,"state":"active","ping":42},{"user_id":370,"name":"Rennsellaer","steam_id":76561198096207580,"connected_time":482000000000,"state":"active","ping":82},{"user_id":339,"name":"DaddyGalaxy","steam_id":76561198139697796,"connected_time":2571000000000,"state":"active","ping":58},{"user_id":326,"name":"MeowthWins","steam_id":76561198124085329,"connected_time":3879000000000,"state":"active","ping":76},{"user_id":373,"name":"Tom","steam_id":76561198070630154,"connected_time":465000000000,"state":"active","ping":65},{"user_id":374,"name":"Kay Z1014","steam_id":76561198374228296,"connected_time":463000000000,"state":"active","ping":64},{"user_id":360,"name":"shrigma","steam_id":76561198101301195,"connected_time":1441000000000,"state":"active","ping":78},{"user_id":332,"name":"Keamy","steam_id":76561199471434875,"connected_time":3179000000000,"state":"active","ping":45},{"user_id":321,"name":"DiscoTraveler","steam_id":76561199240168088,"connected_time":4482000000000,"state":"active","ping":111},{"user_id":348,"name":"Sploonbabagoosecooties","steam_id":76561198139972201,"connected_time":2121000000000,"state":"active","ping":47},{"user_id":347,"name":"TheMagicMrWaffle","steam_id":76561198104357256,"connected_time":2139000000000,"state":"active","ping":71},{"user_id":357,"name":"Krazy","steam_id":76561198835502709,"connected_time":1557000000000,"state":"active","ping":75},{"user_id":365,"name":"Meso","steam_id":76561199088153190,"connected_time":815000000000,"state":"active","ping":59},{"user_id":313,"name":"Mr.Bones","steam_id":76561198205170595,"connected_time":4725000000000,"state":"active","ping":53}]},{"server_id":119,"name":"Uncletopia | Seattle | 2 | All Maps","name_short":"sea-2","host":"sea-1.us.uncletopia.com","port":27025,"enabled":true,"region":"us-west","cc":"us","latitude":47.608013,"longitude":-122.33517,"reserved":0,"last_update":"0001-01-01T00:00:00Z","name_a2s":"Uncletopia | Seattle | 2 | All Maps","protocol":17,"map":"koth_cascade","folder":"tf","game":"Team Fortress","app_id":440,"player_count":22,"max_players":24,"Bots":0,"server_type":"Dedicated","server_os":"Linux","password":true,"vac":true,"version":"7961495","steam_id":85568392924469998,"keywords":["cp","nocrits","nodmgspread","uncletopia"],"game_id":440,"stv_port":27026,"stv_name":"Uncletopia | Seattle | 2 | All Maps | STV","players":[{"user_id":16,"name":"ejschild745","steam_id":76561199013388867,"connected_time":1042000000000,"state":"active","ping":54},{"user_id":17,"name":"spiderland","steam_id":76561198335992132,"connected_time":852000000000,"state":"active","ping":38},{"user_id":18,"name":"cielael","steam_id":76561198043971956,"connected_time":834000000000,"state":"active","ping":75},{"user_id":26,"name":"Noobynoob15","steam_id":76561199497020916,"connected_time":580000000000,"state":"active","ping":69},{"user_id":27,"name":"catrinaisahuman","steam_id":76561198281355729,"connected_time":477000000000,"state":"active","ping":75},{"user_id":22,"name":"Oninja94","steam_id":76561199467195274,"connected_time":757000000000,"state":"active","ping":36},{"user_id":28,"name":"Pump Jockey! Works For Tips!","steam_id":76561198813586588,"connected_time":460000000000,"state":"active","ping":60},{"user_id":24,"name":"JustChillaax","steam_id":76561198149907019,"connected_time":692000000000,"state":"active","ping":80},{"user_id":29,"name":"ilyKittyXOXO","steam_id":76561198179569849,"connected_time":428000000000,"state":"active","ping":81},{"user_id":30,"name":"Wheaty","steam_id":76561198003553412,"connected_time":341000000000,"state":"active","ping":56},{"user_id":31,"name":"Uncle Wahzoinsky","steam_id":76561199462907840,"connected_time":330000000000,"state":"active","ping":66},{"user_id":32,"name":"RockiMtnOystr","steam_id":76561198106915405,"connected_time":320000000000,"state":"active","ping":102},{"user_id":33,"name":"McSpazatron","steam_id":76561198955942148,"connected_time":280000000000,"state":"active","ping":56},{"user_id":34,"name":"★Deebo★","steam_id":76561198060081522,"connected_time":257000000000,"state":"active","ping":89},{"user_id":35,"name":"AgentEpsilon","steam_id":76561198043705715,"connected_time":233000000000,"state":"active","ping":126},{"user_id":36,"name":"Pixelated Pussy","steam_id":76561198002511088,"connected_time":154000000000,"state":"active","ping":72},{"user_id":37,"name":"el payaso","steam_id":76561199380864529,"connected_time":127000000000,"state":"active","ping":123},{"user_id":38,"name":"Boone","steam_id":76561198398931575,"connected_time":116000000000,"state":"active","ping":87},{"user_id":39,"name":"Gorebyss","steam_id":76561198084823665,"connected_time":112000000000,"state":"active","ping":76},{"user_id":40,"name":"Youngblood5780","steam_id":76561198113934410,"connected_time":85000000000,"state":"active","ping":75},{"user_id":41,"name":"LACTAID","steam_id":76561198276585202,"connected_time":78000000000,"state":"active","ping":76},{"user_id":42,"name":"Five","steam_id":76561198026640473,"connected_time":69000000000,"state":"active","ping":60}]},{"server_id":406,"name":"Uncletopia | Seattle | 3 | Stopwatch","name_short":"sea-3","host":"sea-1.us.uncletopia.com","port":27035,"enabled":true,"region":"us-west","cc":"us","latitude":47.608013,"longitude":-122.33517,"reserved":0,"last_update":"0001-01-01T00:00:00Z","name_a2s":"Uncletopia | Seattle | 3 | Stopwatch","protocol":17,"map":"pl_pier","folder":"tf","game":"Team Fortress","app_id":440,"player_count":0,"max_players":24,"Bots":0,"server_type":"Dedicated","server_os":"Linux","password":true,"vac":true,"version":"7961495","steam_id":85568392924515217,"keywords":["nocrits","nodmgspread","payload","uncletopia"],"game_id":440,"stv_port":27036,"stv_name":"Uncletopia | Seattle | 3 | Stopwatch | STV","players":null},{"server_id":17,"name":"Uncletopia | San Francisco | 1 | All Maps","name_short":"sfo-1","host":"sfo-1.us.uncletopia.com","port":27015,"enabled":true,"region":"us-west","cc":"us","latitude":37.77397,"longitude":-122.4313,"reserved":0,"last_update":"0001-01-01T00:00:00Z","name_a2s":"Uncletopia | San Francisco | 1 | All Maps","protocol":17,"map":"koth_cascade","folder":"tf","game":"Team Fortress","app_id":440,"player_count":0,"max_players":24,"Bots":0,"server_type":"Dedicated","server_os":"Linux","password":true,"vac":true,"version":"7961495","steam_id":85568392924469999,"keywords":["cp","nocrits","nodmgspread","uncletopia"],"game_id":440,"stv_port":27016,"stv_name":"Uncletopia | San Francisco | 1 | All Maps | STV","players":null},{"server_id":18,"name":"Uncletopia | San Francisco | 2 | All Maps","name_short":"sfo-2","host":"sfo-1.us.uncletopia.com","port":27025,"enabled":true,"region":"us-west","cc":"us","latitude":37.77397,"longitude":-122.4313,"reserved":0,"last_update":"0001-01-01T00:00:00Z","name_a2s":"Uncletopia | San Francisco | 2 | All Maps","protocol":17,"map":"cp_sunshine","folder":"tf","game":"Team Fortress","app_id":440,"player_count":0,"max_players":24,"Bots":0,"server_type":"Dedicated","server_os":"Linux","password":true,"vac":true,"version":"7961495","steam_id":85568392924470000,"keywords":["cp","nocrits","nodmgspread","uncletopia"],"game_id":440,"stv_port":27026,"stv_name":"Uncletopia | San Francisco | 2 | All Maps | STV","players":null},{"server_id":19,"name":"Uncletopia | San Francisco | 3 | Stopwatch","name_short":"sfo-3","host":"sfo-1.us.uncletopia.com","port":27035,"enabled":true,"region":"us-west","cc":"us","latitude":37.77397,"longitude":-122.4313,"reserved":0,"last_update":"0001-01-01T00:00:00Z","name_a2s":"Uncletopia | San Francisco | 3 | Stopwatch","protocol":17,"map":"pl_pier","folder":"tf","game":"Team Fortress","app_id":440,"player_count":0,"max_players":24,"Bots":0,"server_type":"Dedicated","server_os":"Linux","password":true,"vac":true,"version":"7961495","steam_id":85568392924742824,"keywords":["nocrits","nodmgspread","payload","uncletopia"],"game_id":440,"stv_port":27036,"stv_name":"Uncletopia | San Francisco | 3 | Stopwatch | STV","players":null},{"server_id":20,"name":"Uncletopia | San Francisco | 4 | Community","name_short":"sfo-4","host":"sfo-1.us.uncletopia.com","port":27045,"enabled":true,"region":"us-west","cc":"us","latitude":37.77397,"longitude":-122.4313,"reserved":0,"last_update":"0001-01-01T00:00:00Z","name_a2s":"Uncletopia | San Francisco | 4 | Community","protocol":17,"map":"pl_pier","folder":"tf","game":"Team Fortress","app_id":440,"player_count":0,"max_players":24,"Bots":0,"server_type":"Dedicated","server_os":"Linux","password":true,"vac":true,"version":"7961495","steam_id":85568392924742826,"keywords":["nocrits","nodmgspread","payload","uncletopia"],"game_id":440,"stv_port":27046,"stv_name":"Uncletopia | San Francisco | 4 | Community | STV","players":null},{"server_id":141,"name":"Uncletopia | Sydney | 1 | All Maps","name_short":"syd-1","host":"syd-1.au.uncletopia.com","port":27015,"enabled":true,"region":"au","cc":"au","latitude":-33.865143,"longitude":151.2099,"reserved":0,"last_update":"0001-01-01T00:00:00Z","name_a2s":"Uncletopia | Sydney | 1 | All Maps","protocol":17,"map":"koth_viaduct","folder":"tf","game":"Team Fortress","app_id":440,"player_count":0,"max_players":24,"Bots":0,"server_type":"Dedicated","server_os":"Linux","password":true,"vac":true,"version":"7961495","steam_id":85568392924470001,"keywords":["cp","nocrits","nodmgspread","uncletopia"],"game_id":440,"stv_port":27016,"stv_name":"Uncletopia | Sydney | 1 | All Maps | STV","players":null},{"server_id":123,"name":"Uncletopia | Sydney | 2 | All Maps","name_short":"syd-2","host":"syd-1.au.uncletopia.com","port":27025,"enabled":true,"region":"au","cc":"au","latitude":-33.865143,"longitude":151.2099,"reserved":0,"last_update":"0001-01-01T00:00:00Z","name_a2s":"Uncletopia | Sydney | 2 | All Maps","protocol":17,"map":"koth_lakeside_final","folder":"tf","game":"Team Fortress","app_id":440,"player_count":0,"max_players":24,"Bots":0,"server_type":"Dedicated","server_os":"Linux","password":true,"vac":true,"version":"7961495","steam_id":85568392924470002,"keywords":["cp","nocrits","nodmgspread","uncletopia"],"game_id":440,"stv_port":27026,"stv_name":"Uncletopia | Sydney | 2 | All Maps | STV","players":null},{"server_id":395,"name":"Uncletopia | Sydney | 3 | All Maps","name_short":"syd-3","host":"syd-1.au.uncletopia.com","port":27035,"enabled":true,"region":"au","cc":"au","latitude":-33.865143,"longitude":151.2099,"reserved":0,"last_update":"0001-01-01T00:00:00Z","name_a2s":"Uncletopia | Sydney | 3 | All Maps","protocol":17,"map":"pl_frontier_final","folder":"tf","game":"Team Fortress","app_id":440,"player_count":0,"max_players":24,"Bots":0,"server_type":"Dedicated","server_os":"Linux","password":true,"vac":true,"version":"7961495","steam_id":85568392925194467,"keywords":["nocrits","nodmgspread","payload","uncletopia"],"game_id":440,"stv_port":27036,"stv_name":"Uncletopia | Sydney | 3 | All Maps | STV","players":null},{"server_id":396,"name":"Uncletopia | Sydney | 4 | All Maps","name_short":"syd-4","host":"syd-1.au.uncletopia.com","port":27045,"enabled":true,"region":"au","cc":"au","latitude":-33.865143,"longitude":151.2099,"reserved":0,"last_update":"0001-01-01T00:00:00Z","name_a2s":"Uncletopia | Sydney | 4 | All Maps","protocol":17,"map":"cp_process_final","folder":"tf","game":"Team Fortress","app_id":440,"player_count":0,"max_players":24,"Bots":0,"server_type":"Dedicated","server_os":"Linux","password":true,"vac":true,"version":"7961495","steam_id":85568392925397958,"keywords":["cp","nocrits","nodmgspread","uncletopia"],"game_id":440,"stv_port":27046,"stv_name":"Uncletopia | Sydney | 4 | All Maps | STV","players":null},{"server_id":58,"name":"Uncletopia | Sydney | 5 | Stopwatch","name_short":"syd-5","host":"syd-1.au.uncletopia.com","port":27055,"enabled":true,"region":"au","cc":"au","latitude":-33.865143,"longitude":151.2099,"reserved":0,"last_update":"0001-01-01T00:00:00Z","name_a2s":"Uncletopia | Sydney | 5 | Stopwatch","protocol":17,"map":"pl_frontier_final","folder":"tf","game":"Team Fortress","app_id":440,"player_count":0,"max_players":24,"Bots":0,"server_type":"Dedicated","server_os":"Linux","password":true,"vac":true,"version":"7961495","steam_id":85568392925397959,"keywords":["nocrits","nodmgspread","payload","uncletopia"],"game_id":440,"stv_port":27056,"stv_name":"Uncletopia | Sydney | 5 | Stopwatch | STV","players":null},{"server_id":59,"name":"Uncletopia | Sydney | 6 | Community","name_short":"syd-6","host":"syd-1.au.uncletopia.com","port":27065,"enabled":true,"region":"au","cc":"au","latitude":-33.865143,"longitude":151.2099,"reserved":0,"last_update":"0001-01-01T00:00:00Z","name_a2s":"Uncletopia | Sydney | 6 | Community","protocol":17,"map":"cp_sunshine","folder":"tf","game":"Team Fortress","app_id":440,"player_count":0,"max_players":24,"Bots":0,"server_type":"Dedicated","server_os":"Linux","password":true,"vac":true,"version":"7961495","steam_id":85568392925397960,"keywords":["cp","nocrits","nodmgspread","uncletopia"],"game_id":440,"stv_port":27066,"stv_name":"Uncletopia | Sydney | 6 | Community | STV","players":null},{"server_id":49,"name":"Uncletopia | Warsaw | 1 | One Thousand Uncles","name_short":"waw-1","host":"waw-1.pl.uncletopia.com","port":27015,"enabled":true,"region":"eu","cc":"pl","latitude":52.2297,"longitude":21.017532,"reserved":0,"last_update":"0001-01-01T00:00:00Z","name_a2s":"Uncletopia | Warsaw | 1 | One Thousand Uncles","protocol":17,"map":"pl_upward","folder":"tf","game":"Team Fortress","app_id":440,"player_count":28,"max_players":32,"Bots":16,"server_type":"Dedicated","server_os":"Linux","password":true,"vac":true,"version":"7961495","steam_id":85568392925397850,"keywords":["alltalk","bots","danepve","increased_maxplayers","nocrits","norespawntime","payload","uncletopia"],"game_id":440,"stv_port":0,"stv_name":"","players":[{"user_id":792,"name":"farfarspace","steam_id":76561198161253565,"connected_time":464000000000,"state":"active","ping":102},{"user_id":781,"name":"[SQ UA] MartianDill","steam_id":76561198405382822,"connected_time":1531000000000,"state":"active","ping":57},{"user_id":790,"name":"CH1NASKEE","steam_id":76561198021531683,"connected_time":733000000000,"state":"active","ping":101},{"user_id":786,"name":"God's Drunkest Driver","steam_id":76561199174579733,"connected_time":831000000000,"state":"active","ping":150},{"user_id":759,"name":"Scout","steam_id":76561198992898803,"connected_time":2240000000000,"state":"active","ping":75},{"user_id":789,"name":"duck_fetish","steam_id":76561199015909776,"connected_time":758000000000,"state":"active","ping":64},{"user_id":748,"name":"the baddest boy in btd5","steam_id":76561199487914508,"connected_time":3212000000000,"state":"active","ping":40},{"user_id":791,"name":"Оргислав Коксакы","steam_id":76561198001085724,"connected_time":732000000000,"state":"active","ping":98},{"user_id":795,"name":"hmm yes","steam_id":76561198170322809,"connected_time":71000000000,"state":"active","ping":69},{"user_id":760,"name":"Minister of cocks","steam_id":76561198829740342,"connected_time":2238000000000,"state":"active","ping":89},{"user_id":753,"name":"Darkgege22","steam_id":76561198176636583,"connected_time":2714000000000,"state":"active","ping":78},{"user_id":744,"name":"DAMJANT2010","steam_id":76561199493932486,"connected_time":3619000000000,"state":"active","ping":90}]},{"server_id":50,"name":"Uncletopia | Warsaw | 2 | One Thousand Uncles","name_short":"waw-2","host":"waw-1.pl.uncletopia.com","port":27025,"enabled":true,"region":"eu","cc":"pl","latitude":52.2297,"longitude":21.017532,"reserved":0,"last_update":"0001-01-01T00:00:00Z","name_a2s":"Uncletopia | Warsaw | 2 | One Thousand Uncles","protocol":17,"map":"pl_badwater","folder":"tf","game":"Team Fortress","app_id":440,"player_count":32,"max_players":32,"Bots":16,"server_type":"Dedicated","server_os":"Linux","password":true,"vac":true,"version":"7961495","steam_id":85568392925397851,"keywords":["alltalk","bots","danepve","increased_maxplayers","nocrits","norespawntime","payload","uncletopia"],"game_id":440,"stv_port":0,"stv_name":"","players":[{"user_id":563,"name":"Lukas","steam_id":76561198009118452,"connected_time":1404000000000,"state":"active","ping":66},{"user_id":492,"name":"I.C. Wiener","steam_id":76561197999912254,"connected_time":6262000000000,"state":"active","ping":55},{"user_id":591,"name":"Mario Bong","steam_id":76561198100898729,"connected_time":159000000000,"state":"active","ping":186},{"user_id":564,"name":"hgvgdwa","steam_id":76561198156499356,"connected_time":1314000000000,"state":"active","ping":44},{"user_id":570,"name":"BouwerDean_YT","steam_id":76561198859993015,"connected_time":772000000000,"state":"active","ping":85},{"user_id":551,"name":"Max Power","steam_id":76561198019269089,"connected_time":2857000000000,"state":"active","ping":63},{"user_id":592,"name":"DarnRootinTootinBlootinScootin","steam_id":76561198126016824,"connected_time":115000000000,"state":"active","ping":183},{"user_id":555,"name":"Prusakol","steam_id":76561198052306519,"connected_time":2324000000000,"state":"active","ping":46},{"user_id":567,"name":"The one True Mads","steam_id":76561197999204692,"connected_time":955000000000,"state":"active","ping":75},{"user_id":557,"name":"loup le solitaire","steam_id":76561198884393063,"connected_time":2168000000000,"state":"active","ping":228},{"user_id":568,"name":"andrzej.myszka","steam_id":76561199379419605,"connected_time":875000000000,"state":"active","ping":42},{"user_id":558,"name":"C.E.O. of stab industry","steam_id":76561198242840202,"connected_time":2075000000000,"state":"active","ping":78},{"user_id":560,"name":"kakash","steam_id":76561199420637314,"connected_time":1722000000000,"state":"active","ping":79},{"user_id":593,"name":"КОНЧ_ЖЕЛЕЗНЫЙ","steam_id":76561199389403987,"connected_time":72000000000,"state":"active","ping":87},{"user_id":594,"name":"blackman.vbhop.2004","steam_id":76561198268384872,"connected_time":33000000000,"state":"active","ping":111},{"user_id":595,"name":"Isokaro","steam_id":76561198103276073,"connected_time":22000000000,"state":"active","ping":457}]},{"server_id":51,"name":"Uncletopia | Warsaw | 3 | All Maps","name_short":"waw-3","host":"waw-1.pl.uncletopia.com","port":27035,"enabled":true,"region":"eu","cc":"pl","latitude":52.2297,"longitude":21.017532,"reserved":0,"last_update":"0001-01-01T00:00:00Z","name_a2s":"Uncletopia | Warsaw | 3 | All Maps","protocol":17,"map":"pl_borneo","folder":"tf","game":"Team Fortress","app_id":440,"player_count":21,"max_players":24,"Bots":0,"server_type":"Dedicated","server_os":"Linux","password":true,"vac":true,"version":"7961495","steam_id":85568392925397852,"keywords":["nocrits","nodmgspread","payload","uncletopia"],"game_id":440,"stv_port":27036,"stv_name":"Uncletopia | Warsaw | 3 | All Maps | STV","players":[{"user_id":45,"name":"darKnight | T.I.D.K.","steam_id":76561199012488416,"connected_time":1889000000000,"state":"active","ping":90},{"user_id":46,"name":"XBOCTATbIN","steam_id":76561198269421883,"connected_time":1869000000000,"state":"active","ping":92},{"user_id":47,"name":"Pilly Jeam","steam_id":76561199031613147,"connected_time":1847000000000,"state":"active","ping":68},{"user_id":48,"name":"Giga Nigga","steam_id":76561199119030020,"connected_time":1842000000000,"state":"active","ping":103},{"user_id":50,"name":"Captain Merlin","steam_id":76561198145783370,"connected_time":1813000000000,"state":"active","ping":103},{"user_id":51,"name":"Valdemar den Store","steam_id":76561198112120293,"connected_time":1742000000000,"state":"active","ping":71},{"user_id":52,"name":"J1nR0","steam_id":76561198435398506,"connected_time":1734000000000,"state":"active","ping":92},{"user_id":57,"name":"Terrans","steam_id":76561198307559896,"connected_time":1416000000000,"state":"active","ping":79},{"user_id":76,"name":"Greg","steam_id":76561198014131702,"connected_time":464000000000,"state":"active","ping":133},{"user_id":77,"name":"1ggy","steam_id":76561199051285912,"connected_time":441000000000,"state":"active","ping":90},{"user_id":80,"name":"burn1n9","steam_id":76561198264195521,"connected_time":320000000000,"state":"active","ping":74},{"user_id":81,"name":"Tito Gaming","steam_id":76561198378716003,"connected_time":319000000000,"state":"active","ping":117},{"user_id":60,"name":"Birchly","steam_id":76561198140011785,"connected_time":1375000000000,"state":"active","ping":79},{"user_id":61,"name":"Jsmatic","steam_id":76561198070476202,"connected_time":1369000000000,"state":"active","ping":86},{"user_id":62,"name":"Stoyach","steam_id":76561198042517412,"connected_time":1369000000000,"state":"active","ping":69},{"user_id":63,"name":"Lukia","steam_id":76561198071345930,"connected_time":1365000000000,"state":"active","ping":88},{"user_id":64,"name":"Slepp","steam_id":76561198043040934,"connected_time":1350000000000,"state":"active","ping":82},{"user_id":65,"name":"Team Red Rocket","steam_id":76561198091064959,"connected_time":1301000000000,"state":"active","ping":75},{"user_id":75,"name":"monke","steam_id":76561198352121164,"connected_time":614000000000,"state":"active","ping":38},{"user_id":69,"name":"mt","steam_id":76561197961319303,"connected_time":1218000000000,"state":"active","ping":61},{"user_id":70,"name":"svenska krigsmakten","steam_id":76561198023117553,"connected_time":1218000000000,"state":"active","ping":70}]},{"server_id":52,"name":"Uncletopia | Warsaw | 4 | All Maps","name_short":"waw-4","host":"waw-1.pl.uncletopia.com","port":27045,"enabled":true,"region":"eu","cc":"pl","latitude":52.2297,"longitude":21.017532,"reserved":0,"last_update":"0001-01-01T00:00:00Z","name_a2s":"Uncletopia | Warsaw | 4 | All Maps","protocol":17,"map":"cp_steel","folder":"tf","game":"Team Fortress","app_id":440,"player_count":0,"max_players":24,"Bots":0,"server_type":"Dedicated","server_os":"Linux","password":true,"vac":true,"version":"7961495","steam_id":85568392925397853,"keywords":["cp","nocrits","nodmgspread","uncletopia"],"game_id":440,"stv_port":27046,"stv_name":"Uncletopia | Warsaw | 4 | All Maps | STV","players":null},{"server_id":53,"name":"Uncletopia | Warsaw | 5 | Stopwatch","name_short":"waw-5","host":"waw-1.pl.uncletopia.com","port":27055,"enabled":true,"region":"eu","cc":"pl","latitude":52.2297,"longitude":21.017532,"reserved":0,"last_update":"0001-01-01T00:00:00Z","name_a2s":"Uncletopia | Warsaw | 5 | Stopwatch","protocol":17,"map":"workshop/pl_barnblitz_pro7.ugc582280235","folder":"tf","game":"Team Fortress","app_id":440,"player_count":0,"max_players":24,"Bots":0,"server_type":"Dedicated","server_os":"Linux","password":true,"vac":true,"version":"7961495","steam_id":85568392925397854,"keywords":["nocrits","nodmgspread","payload","uncletopia"],"game_id":440,"stv_port":27056,"stv_name":"Uncletopia | Warsaw | 5 | Stopwatch | STV","players":null},{"server_id":54,"name":"Uncletopia | Warsaw | 6 | Community","name_short":"waw-6","host":"waw-1.pl.uncletopia.com","port":27065,"enabled":true,"region":"eu","cc":"pl","latitude":52.2297,"longitude":21.017532,"reserved":0,"last_update":"0001-01-01T00:00:00Z","name_a2s":"Uncletopia | Warsaw | 6 | Community","protocol":17,"map":"workshop/rd_asteroid_redux_b1.ugc2154902912","folder":"tf","game":"Team Fortress","app_id":440,"player_count":0,"max_players":24,"Bots":0,"server_type":"Dedicated","server_os":"Linux","password":true,"vac":true,"version":"7961495","steam_id":85568392925397856,"keywords":["beta","nocrits","nodmgspread","rd","uncletopia"],"game_id":440,"stv_port":27066,"stv_name":"Uncletopia | Warsaw | 6 | Community | STV","players":null}]}