{"status":true,"message":"","result":[{"server_id":9,"name":"Uncletopia | Atlanta | 1 | All Maps","name_short":"atl-1","host":"atl-1.us.uncletopia.com","port":27015,"enabled":true,"region":"us-east","cc":"us","latitude":33.753746,"longitude":-84.38633,"reserved":0,"last_update":"0001-01-01T00:00:00Z","name_a2s":"Uncletopia | Atlanta | 1 | All Maps","protocol":17,"map":"pl_pier","folder":"tf","game":"Team Fortress","app_id":440,"player_count":0,"max_players":24,"Bots":0,"server_type":"Dedicated","server_os":"Linux","password":true,"vac":true,"version":"7757534","steam_id":85568392924469982,"keywords":["nocrits","nodmgspread","payload","uncletopia"],"game_id":440,"stv_port":27016,"stv_name":"Uncletopia | Atlanta | 1 | All Maps | STV","players":null},{"server_id":400,"name":"Uncletopia | Atlanta | 3 | Community","name_short":"atl-3","host":"atl-1.us.uncletopia.com","port":27035,"enabled":true,"region":"us-east","cc":"us","latitude":33.753746,"longitude":-84.38633,"reserved":0,"last_update":"0001-01-01T00:00:00Z","name_a2s":"Uncletopia | Atlanta | 3 | Community","protocol":17,"map":"pl_swiftwater_final1","folder":"tf","game":"Team Fortress","app_id":440,"player_count":0,"max_players":32,"Bots":0,"server_type":"Dedicated","server_os":"Linux","password":true,"vac":true,"version":"7757534","steam_id":85568392924515187,"keywords":["increased_maxplayers","nocrits","nodmgspread","payload","uncletopia"],"game_id":440,"stv_port":27036,"stv_name":"Uncletopia | Atlanta | 3 | Community | STV","players":null},{"server_id":401,"name":"Uncletopia | Atlanta | 4 | No Payload","name_short":"atl-4","host":"atl-1.us.uncletopia.com","port":27045,"enabled":true,"region":"us-east","cc":"us","latitude":33.753746,"longitude":-84.38633,"reserved":0,"last_update":"0001-01-01T00:00:00Z","name_a2s":"","protocol":0,"map":"","folder":"","game":"","app_id":0,"player_count":0,"max_players":0,"Bots":0,"server_type":"","server_os":"","password":false,"vac":false,"version":"","steam_id":0,"keywords":null,"game_id":0,"stv_port":0,"stv_name":"","players":null},{"server_id":2,"name":"Uncletopia | Chicago | 1 | All Maps","name_short":"chi-1","host":"chi-1.us.uncletopia.com","port":27015,"enabled":true,"region":"us-central","cc":"us","latitude":41.881832,"longitude":-87.62318,"reserved":0,"last_update":"0001-01-01T00:00:00Z","name_a2s":"Uncletopia | Chicago | 1 | All Maps","protocol":17,"map":"pl_barnblitz","folder":"tf","game":"Team Fortress","app_id":440,"player_count":5,"max_players":24,"Bots":0,"server_type":"Dedicated","server_os":"Linux","password":true,"vac":true,"version":"7757534","steam_id":85568392924469984,"keywords":["nocrits","nodmgspread","payload","uncletopia"],"game_id":440,"stv_port":27016,"stv_name":"Uncletopia | Chicago | 1 | All Maps | STV","players":[{"user_id":22,"name":"SCATTER","steam_id":76561198405168492,"connected_time":740000000000,"state":"active","ping":79},{"user_id":23,"name":"AdorableMew","steam_id":76561198186706405,"connected_time":362000000000,"state":"active","ping":68},{"user_id":24,"name":"RandyPickleshoes [BEC]","steam_id":76561198064139260,"connected_time":358000000000,"state":"active","ping":69},{"user_id":25,"name":"ok","steam_id":76561198445140249,"connected_time":159000000000,"state":"active","ping":80},{"user_id":26,"name":"FuMoment (real)","steam_id":76561198281974391,"connected_time":34000000000,"state":"active","ping":61}]},{"server_id":106,"name":"Uncletopia | Chicago | 2 | All Maps","name_short":"chi-2","host":"chi-1.us.uncletopia.com","port":27025,"enabled":true,"region":"us-central","cc":"us","latitude":41.881832,"longitude":-87.62318,"reserved":0,"last_update":"0001-01-01T00:00:00Z","name_a2s":"Uncletopia | Chicago | 2 | All Maps","protocol":17,"map":"koth_viaduct","folder":"tf","game":"Team Fortress","app_id":440,"player_count":0,"max_players":24,"Bots":0,"server_type":"Dedicated","server_os":"Linux","password":true,"vac":true,"version":"7757534","steam_id":85568392924469985,"keywords":["cp","nocrits","nodmgspread","uncletopia"],"game_id":440,"stv_port":27026,"stv_name":"Uncletopia | Chicago | 2 | All Maps | STV","players":null},{"server_id":402,"name":"Uncletopia | Chicago | 3 | All Maps","name_short":"chi-3","host":"chi-1.us.uncletopia.com","port":27035,"enabled":true,"region":"us-central","cc":"us","latitude":41.881832,"longitude":-87.62318,"reserved":0,"last_update":"0001-01-01T00:00:00Z","name_a2s":"Uncletopia | Chicago | 3 | All Maps","protocol":17,"map":"koth_lakeside_final","folder":"tf","game":"Team Fortress","app_id":440,"player_count":0,"max_players":24,"Bots":0,"server_type":"Dedicated","server_os":"Linux","password":true,"vac":true,"version":"7757534","steam_id":85568392924515191,"keywords":["cp","nocrits","nodmgspread","uncletopia"],"game_id":440,"stv_port":27036,"stv_name":"Uncletopia | Chicago | 3 | All Maps | STV","players":null},{"server_id":403,"name":"Uncletopia | Chicago | 4 | All Maps","name_short":"chi-4","host":"chi-1.us.uncletopia.com","port":27045,"enabled":true,"region":"us-central","cc":"us","latitude":41.881832,"longitude":-87.62318,"reserved":0,"last_update":"0001-01-01T00:00:00Z","name_a2s":"Uncletopia | Chicago | 4 | All Maps","protocol":17,"map":"cp_mountainlab","folder":"tf","game":"Team Fortress","app_id":440,"player_count":24,"max_players":24,"Bots":0,"server_type":"Dedicated","server_os":"Linux","password":true,"vac":true,"version":"7757534","steam_id":85568392924515193,"keywords":["cp","nocrits","nodmgspread","uncletopia"],"game_id":440,"stv_port":27046,"stv_name":"Uncletopia | Chicago | 4 | All Maps | STV","players":[{"user_id":86,"name":"Chicanery","steam_id":76561198977589038,"connected_time":520000000000,"state":"active","ping":83},{"user_id":72,"name":"BetoelAff es","steam_id":76561198377842585,"connected_time":1738000000000,"state":"active","ping":130},{"user_id":92,"name":"Trolldier 76","steam_id":76561198036504161,"connected_time":194000000000,"state":"active","ping":173},{"user_id":73,"name":"Fregler","steam_id":76561198236563848,"connected_time":1697000000000,"state":"active","ping":73},{"user_id":65,"name":"Chrisjongun","steam_id":76561198331685904,"connected_time":2249000000000,"state":"active","ping":76},{"user_id":84,"name":"dara","steam_id":76561198079451856,"connected_time":880000000000,"state":"active","ping":86},{"user_id":74,"name":"Spraxinator","steam_id":76561199083563607,"connected_time":1663000000000,"state":"active","ping":87},{"user_id":70,"name":"lost in spaaaaace","steam_id":76561199085974120,"connected_time":2015000000000,"state":"active","ping":70},{"user_id":55,"name":"A Rhino with Coronavirus","steam_id":76561197999451366,"connected_time":2982000000000,"state":"active","ping":83},{"user_id":20,"name":"Marlee_Goat","steam_id":76561198828640523,"connected_time":4584000000000,"state":"active","ping":45},{"user_id":76,"name":"Ejaculation Zach","steam_id":76561198203765200,"connected_time":1515000000000,"state":"active","ping":54},{"user_id":87,"name":"Sous-Chef","steam_id":76561198075705827,"connected_time":509000000000,"state":"active","ping":71},{"user_id":66,"name":"The Engineer","steam_id":76561198219035947,"connected_time":2239000000000,"state":"active","ping":49},{"user_id":81,"name":"\"totally\" original","steam_id":76561199122341080,"connected_time":1204000000000,"state":"active","ping":60},{"user_id":88,"name":"Spacey","steam_id":76561198127335850,"connected_time":503000000000,"state":"active","ping":83},{"user_id":89,"name":"SButton","steam_id":76561198135521569,"connected_time":501000000000,"state":"active","ping":74},{"user_id":62,"name":"The Noise Pizza Tower","steam_id":76561198841915882,"connected_time":2369000000000,"state":"active","ping":163},{"user_id":80,"name":"trinqette","steam_id":76561198119543621,"connected_time":1225000000000,"state":"active","ping":60},{"user_id":75,"name":"send teeth","steam_id":76561198000617929,"connected_time":1651000000000,"state":"active","ping":70},{"user_id":78,"name":"Stock Medic","steam_id":76561198065479730,"connected_time":1310000000000,"state":"active","ping":44},{"user_id":82,"name":"Samus","steam_id":76561198121933439,"connected_time":1110000000000,"state":"active","ping":77},{"user_id":90,"name":"milk","steam_id":76561198085319245,"connected_time":494000000000,"state":"active","ping":79},{"user_id":43,"name":"Walkiing","steam_id":76561198074473413,"connected_time":3773000000000,"state":"active","ping":42},{"user_id":91,"name":"nel","steam_id":76561199211193548,"connected_time":474000000000,"state":"active","ping":67}]},{"server_id":36,"name":"Uncletopia | Chicago | 5 | All Maps","name_short":"chi-5","host":"chi-2.us.uncletopia.com","port":27015,"enabled":true,"region":"us-central","cc":"us","latitude":41.881832,"longitude":-87.62318,"reserved":0,"last_update":"0001-01-01T00:00:00Z","name_a2s":"Uncletopia | Chicago | 5 | All Maps","protocol":17,"map":"koth_cascade","folder":"tf","game":"Team Fortress","app_id":440,"player_count":0,"max_players":24,"Bots":0,"server_type":"Dedicated","server_os":"Linux","password":true,"vac":true,"version":"7757534","steam_id":85568392924866362,"keywords":["cp","nocrits","nodmgspread","uncletopia"],"game_id":440,"stv_port":27016,"stv_name":"Uncletopia | Chicago | 5 | All Maps | STV","players":null},{"server_id":37,"name":"Uncletopia | Chicago | 6 | All Maps","name_short":"chi-6","host":"chi-2.us.uncletopia.com","port":27025,"enabled":true,"region":"us-central","cc":"us","latitude":41.881832,"longitude":-87.62318,"reserved":0,"last_update":"0001-01-01T00:00:00Z","name_a2s":"Uncletopia | Chicago | 6 | All Maps","protocol":17,"map":"koth_cascade","folder":"tf","game":"Team Fortress","app_id":440,"player_count":0,"max_players":24,"Bots":0,"server_type":"Dedicated","server_os":"Linux","password":true,"vac":true,"version":"7757534","steam_id":85568392924866363,"keywords":["cp","nocrits","nodmgspread","uncletopia"],"game_id":440,"stv_port":27026,"stv_name":"Uncletopia | Chicago | 6 | All Maps | STV","players":null},{"server_id":38,"name":"Uncletopia | Chicago | 7 | Stopwatch Beta","name_short":"chi-7","host":"chi-2.us.uncletopia.com","port":27035,"enabled":true,"region":"us-central","cc":"us","latitude":41.881832,"longitude":-87.62318,"reserved":0,"last_update":"0001-01-01T00:00:00Z","name_a2s":"Uncletopia | Chicago | 7 | Stopwatch Beta","protocol":17,"map":"pl_upward","folder":"tf","game":"Team Fortress","app_id":440,"player_count":0,"max_players":24,"Bots":0,"server_type":"Dedicated","server_os":"Linux","password":true,"vac":true,"version":"7757534","steam_id":85568392924866364,"keywords":["nocrits","nodmgspread","payload","uncletopia"],"game_id":440,"stv_port":27036,"stv_name":"Uncletopia | Chicago | 7 | Stopwatch Beta | STV","players":null},{"server_id":39,"name":"Uncletopia | Chicago | 8 | Community","name_short":"chi-8","host":"chi-2.us.uncletopia.com","port":27045,"enabled":true,"region":"us-central","cc":"us","latitude":41.881832,"longitude":-87.62318,"reserved":0,"last_update":"0001-01-01T00:00:00Z","name_a2s":"Uncletopia | Chicago | 8 | Community","protocol":17,"map":"pl_barnblitz","folder":"tf","game":"Team Fortress","app_id":440,"player_count":0,"max_players":24,"Bots":0,"server_type":"Dedicated","server_os":"Linux","password":true,"vac":true,"version":"7757534","steam_id":85568392924866365,"keywords":["nocrits","nodmgspread","payload","uncletopia"],"game_id":440,"stv_port":27046,"stv_name":"Uncletopia | Chicago | 8 | Community | STV","players":null},{"server_id":8,"name":"Uncletopia | Dallas | 1 | All Maps","name_short":"dal-1","host":"dal-1.us.uncletopia.com","port":27015,"enabled":true,"region":"us-central","cc":"us","latitude":32.779167,"longitude":-96.80889,"reserved":0,"last_update":"0001-01-01T00:00:00Z","name_a2s":"Uncletopia | Dallas | 1 | All Maps","protocol":17,"map":"koth_cascade","folder":"tf","game":"Team Fortress","app_id":440,"player_count":0,"max_players":24,"Bots":0,"server_type":"Dedicated","server_os":"Linux","password":true,"vac":true,"version":"7757534","steam_id":85568392924469986,"keywords":["cp","nocrits","nodmgspread","uncletopia"],"game_id":440,"stv_port":27016,"stv_name":"Uncletopia | Dallas | 1 | All Maps | STV","players":null},{"server_id":108,"name":"Uncletopia | Dallas | 2 | All Maps","name_short":"dal-2","host":"dal-1.us.uncletopia.com","port":27025,"enabled":true,"region":"us-central","cc":"us","latitude":32.779167,"longitude":-96.80889,"reserved":0,"last_update":"0001-01-01T00:00:00Z","name_a2s":"Uncletopia | Dallas | 2 | All Maps","protocol":17,"map":"cp_altitude","folder":"tf","game":"Team Fortress","app_id":440,"player_count":0,"max_players":24,"Bots":0,"server_type":"Dedicated","server_os":"Linux","password":true,"vac":true,"version":"7757534","steam_id":85568392924469988,"keywords":["cp","nocrits","nodmgspread","uncletopia"],"game_id":440,"stv_port":27026,"stv_name":"Uncletopia | Dallas | 2 | All Maps | STV","players":null},{"server_id":5,"name":"Uncletopia | Frankfurt | 1 | All Maps","name_short":"frk-1","host":"frk-1.de.uncletopia.com","port":27015,"enabled":true,"region":"eu","cc":"de","latitude":50.110924,"longitude":8.682127,"reserved":0,"last_update":"0001-01-01T00:00:00Z","name_a2s":"Uncletopia | Frankfurt | 1 | All Maps","protocol":17,"map":"pl_badwater","folder":"tf","game":"Team Fortress","app_id":440,"player_count":24,"max_players":24,"Bots":0,"server_type":"Dedicated","server_os":"Linux","password":true,"vac":true,"version":"7757534","steam_id":85568392924469989,"keywords":["nocrits","nodmgspread","payload","uncletopia"],"game_id":440,"stv_port":27016,"stv_name":"Uncletopia | Frankfurt | 1 | All Maps | STV","players":[{"user_id":247,"name":"Groose","steam_id":76561198261094295,"connected_time":1420000000000,"state":"active","ping":49},{"user_id":236,"name":"Dolcelatte","steam_id":76561198038501770,"connected_time":2770000000000,"state":"active","ping":60},{"user_id":249,"name":"Derp","steam_id":76561198197901062,"connected_time":1345000000000,"state":"active","ping":48},{"user_id":257,"name":"candice","steam_id":76561198184881255,"connected_time":1071000000000,"state":"active","ping":69},{"user_id":263,"name":"dunduu","steam_id":76561198875240717,"connected_time":534000000000,"state":"active","ping":62},{"user_id":234,"name":"Giga Cheddar","steam_id":76561199072919985,"connected_time":2801000000000,"state":"active","ping":106},{"user_id":270,"name":"GregerUlander","steam_id":76561198152375055,"connected_time":207000000000,"state":"active","ping":72},{"user_id":271,"name":"Zenos","steam_id":76561198212366199,"connected_time":155000000000,"state":"active","ping":51},{"user_id":198,"name":"d00bie","steam_id":76561198025295218,"connected_time":3814000000000,"state":"active","ping":66},{"user_id":272,"name":"‚ô•MsVioletBlossom‚ô•","steam_id":76561198041855404,"connected_time":151000000000,"state":"active","ping":75},{"user_id":225,"name":"masatin","steam_id":76561198044967818,"connected_time":3011000000000,"state":"active","ping":61},{"user_id":268,"name":"üÉî Nugg1t(sme/lly)","steam_id":76561198065652251,"connected_time":347000000000,"state":"active","ping":41},{"user_id":210,"name":"tqla","steam_id":76561198073092585,"connected_time":3498000000000,"state":"active","ping":92},{"user_id":254,"name":"spearfishNL","steam_id":76561199077022985,"connected_time":1238000000000,"state":"active","ping":61},{"user_id":202,"name":"{*R@MIRU$*}","steam_id":76561197989873986,"connected_time":3745000000000,"state":"active","ping":90},{"user_id":266,"name":"ParryRiposte","steam_id":76561199004231677,"connected_time":463000000000,"state":"active","ping":147},{"user_id":217,"name":"Ach Wheesht","steam_id":76561197996993222,"connected_time":3339000000000,"state":"active","ping":53},{"user_id":273,"name":"lousof71","steam_id":76561199104427894,"connected_time":141000000000,"state":"active","ping":95},{"user_id":200,"name":"Smiffsmiffwild3","steam_id":76561199097073780,"connected_time":3762000000000,"state":"active","ping":68},{"user_id":235,"name":"Vollys","steam_id":76561198018077773,"connected_time":2797000000000,"state":"active","ping":62},{"user_id":265,"name":"Jendos","steam_id":76561198026471272,"connected_time":488000000000,"state":"active","ping":93},{"user_id":274,"name":"wootabs","steam_id":76561198831766743,"connected_time":118000000000,"state":"active","ping":63},{"user_id":275,"name":"fried","steam_id":76561198307522022,"connected_time":106000000000,"state":"active","ping":52},{"user_id":242,"name":"CumbustiblePunda","steam_id":76561197974274677,"connected_time":2450000000000,"state":"active","ping":48}]},{"server_id":110,"name":"Uncletopia | Frankfurt | 2 | All Maps","name_short":"frk-2","host":"frk-1.de.uncletopia.com","port":27025,"enabled":true,"region":"eu","cc":"de","latitude":50.110924,"longitude":8.682127,"reserved":0,"last_update":"0001-01-01T00:00:00Z","name_a2s":"Uncletopia | Frankfurt | 2 | All Maps","protocol":17,"map":"cp_dustbowl","folder":"tf","game":"Team Fortress","app_id":440,"player_count":24,"max_players":24,"Bots":0,"server_type":"Dedicated","server_os":"Linux","password":true,"vac":true,"version":"7757534","steam_id":85568392924469990,"keywords":["cp","nocrits","nodmgspread","uncletopia"],"game_id":440,"stv_port":27026,"stv_name":"Uncletopia | Frankfurt | 2 | All Maps | STV","players":[{"user_id":187,"name":"Hegyi tah√≥ F2P","steam_id":76561199219150356,"connected_time":363000000000,"state":"active","ping":93},{"user_id":162,"name":"Marcos","steam_id":76561198798925721,"connected_time":2062000000000,"state":"active","ping":67},{"user_id":167,"name":"funny baller man","steam_id":76561199066888917,"connected_time":1538000000000,"state":"active","ping":51},{"user_id":185,"name":"Lux","steam_id":76561198060417740,"connected_time":487000000000,"state":"active","ping":59},{"user_id":171,"name":"üóªüé¥Hadrian Maloneüé¥üóª","steam_id":76561198036151103,"connected_time":1290000000000,"state":"active","ping":62},{"user_id":186,"name":"Ltn. What's-his-Nuts","steam_id":76561198133834262,"connected_time":437000000000,"state":"active","ping":161},{"user_id":188,"name":"Micha≈Ç","steam_id":76561198320346362,"connected_time":316000000000,"state":"active","ping":53},{"user_id":189,"name":"Kardiol","steam_id":76561198122344852,"connected_time":315000000000,"state":"active","ping":59},{"user_id":190,"name":"disposablesuperbread","steam_id":76561199074703607,"connected_time":314000000000,"state":"active","ping":67},{"user_id":159,"name":"Bob Sacamano","steam_id":76561198085610701,"connected_time":2419000000000,"state":"active","ping":84},{"user_id":169,"name":"Ballfondler","steam_id":76561199165355017,"connected_time":1487000000000,"state":"active","ping":103},{"user_id":192,"name":"Laki","steam_id":76561198126078953,"connected_time":85000000000,"state":"active","ping":109},{"user_id":165,"name":"Randomer","steam_id":76561198010533981,"connected_time":1816000000000,"state":"active","ping":72},{"user_id":179,"name":"fector","steam_id":76561199204249586,"connected_time":936000000000,"state":"active","ping":120},{"user_id":163,"name":"moon","steam_id":76561199212557251,"connected_time":1942000000000,"state":"active","ping":117},{"user_id":180,"name":"MAKENTAKEN","steam_id":76561199127359587,"connected_time":705000000000,"state":"active","ping":88},{"user_id":120,"name":"Potat Master |Potato Industries","steam_id":76561199112380553,"connected_time":4706000000000,"state":"active","ping":92},{"user_id":193,"name":"daanvanliempt05","steam_id":76561198355398948,"connected_time":71000000000,"state":"active","ping":59},{"user_id":168,"name":"steakman10","steam_id":76561198152584691,"connected_time":1537000000000,"state":"active","ping":74},{"user_id":178,"name":"Lucan","steam_id":76561198219195135,"connected_time":1004000000000,"state":"active","ping":52},{"user_id":194,"name":"Chebur","steam_id":76561198083726877,"connected_time":40000000000,"state":"spawning","ping":78},{"user_id":196,"name":"Drdarlekzzz","steam_id":76561198160141785,"connected_time":23000000000,"state":"active","ping":57},{"user_id":153,"name":"KnusprigeKloake","steam_id":76561198051422734,"connected_time":2684000000000,"state":"active","ping":48},{"user_id":175,"name":"Lucky B.üèÜ","steam_id":76561198077571162,"connected_time":1186000000000,"state":"active","ping":54}]},{"server_id":308,"name":"Uncletopia | Frankfurt | 3 | All Maps","name_short":"frk-3","host":"frk-1.de.uncletopia.com","port":27035,"enabled":true,"region":"eu","cc":"de","latitude":50.110924,"longitude":8.682127,"reserved":0,"last_update":"0001-01-01T00:00:00Z","name_a2s":"Uncletopia | Frankfurt | 3 | All Maps","protocol":17,"map":"cp_altitude","folder":"tf","game":"Team Fortress","app_id":440,"player_count":0,"max_players":24,"Bots":0,"server_type":"Dedicated","server_os":"Linux","password":true,"vac":true,"version":"7757534","steam_id":85568392924504274,"keywords":["cp","nocrits","nodmgspread","uncletopia"],"game_id":440,"stv_port":27036,"stv_name":"Uncletopia | Frankfurt | 3 | All Maps | STV","players":null},{"server_id":309,"name":"Uncletopia | Frankfurt | 4 | All Maps","name_short":"frk-4","host":"frk-1.de.uncletopia.com","port":27045,"enabled":true,"region":"eu","cc":"de","latitude":50.110924,"longitude":8.682127,"reserved":0,"last_update":"0001-01-01T00:00:00Z","name_a2s":"Uncletopia | Frankfurt | 4 | All Maps","protocol":17,"map":"koth_viaduct","folder":"tf","game":"Team Fortress","app_id":440,"player_count":24,"max_players":24,"Bots":0,"server_type":"Dedicated","server_os":"Linux","password":true,"vac":true,"version":"7757534","steam_id":85568392924504275,"keywords":["cp","nocrits","nodmgspread","uncletopia"],"game_id":440,"stv_port":27046,"stv_name":"Uncletopia | Frankfurt | 4 | All Maps | STV","players":[{"user_id":208,"name":"Young trunks","steam_id":76561198807869634,"connected_time":119000000000,"state":"active","ping":64},{"user_id":99,"name":"smrk","steam_id":76561198066926098,"connected_time":7612000000000,"state":"active","ping":59},{"user_id":192,"name":"im_g4m3r","steam_id":76561199086480891,"connected_time":1178000000000,"state":"active","ping":64},{"user_id":209,"name":"Purplenoogie","steam_id":76561198081872160,"connected_time":82000000000,"state":"active","ping":51},{"user_id":183,"name":"Unseen","steam_id":76561198154670360,"connected_time":1924000000000,"state":"active","ping":89},{"user_id":194,"name":"‚òûLaZe‚òú","steam_id":76561198202191400,"connected_time":1007000000000,"state":"active","ping":71},{"user_id":195,"name":"lacurio","steam_id":76561198059701776,"connected_time":981000000000,"state":"active","ping":62},{"user_id":196,"name":"Pokoiting","steam_id":76561198340607364,"connected_time":956000000000,"state":"active","ping":117},{"user_id":162,"name":"hushhx","steam_id":76561198216200092,"connected_time":3155000000000,"state":"active","ping":62},{"user_id":207,"name":"[Sheep] Tomco","steam_id":76561198388549261,"connected_time":232000000000,"state":"active","ping":78},{"user_id":210,"name":"Pintarolas","steam_id":76561198124839451,"connected_time":52000000000,"state":"active","ping":100},{"user_id":198,"name":"GHO5T","steam_id":76561198930223980,"connected_time":786000000000,"state":"active","ping":62},{"user_id":199,"name":"romaingallo","steam_id":76561198268112907,"connected_time":778000000000,"state":"active","ping":71},{"user_id":200,"name":"saywoo","steam_id":76561198904469197,"connected_time":775000000000,"state":"active","ping":72},{"user_id":167,"name":"Sylbar","steam_id":76561198065379590,"connected_time":2982000000000,"state":"active","ping":59},{"user_id":211,"name":"heavy sings (real)","steam_id":76561199023804405,"connected_time":32000000000,"state":"active","ping":94},{"user_id":202,"name":"Staffy","steam_id":76561198859722036,"connected_time":719000000000,"state":"active","ping":114},{"user_id":179,"name":"bachusa1657","steam_id":76561198202175911,"connected_time":2295000000000,"state":"active","ping":73},{"user_id":212,"name":"Avocado [Ham Mafia]","steam_id":76561199007231261,"connected_time":17000000000,"state":"spawning","ping":79},{"user_id":203,"name":"iBojhut","steam_id":76561198427102646,"connected_time":704000000000,"state":"active","ping":55},{"user_id":190,"name":"—Å–ø–∞—Ä–∏–Ω–≥ –ø–∞—Ä—Ç–Ω—ë—Ä46","steam_id":76561197974177672,"connected_time":1402000000000,"state":"active","ping":83},{"user_id":206,"name":"cinny","steam_id":76561198832112629,"connected_time":442000000000,"state":"active","ping":76},{"user_id":204,"name":"JIT SLID ON ME","steam_id":76561198048250715,"connected_time":686000000000,"state":"active","ping":58},{"user_id":205,"name":"pogfish","steam_id":76561198061427584,"connected_time":685000000000,"state":"active","ping":60}]},{"server_id":310,"name":"Uncletopia | Frankfurt | 5 | All Maps","name_short":"frk-5","host":"frk-1.de.uncletopia.com","port":27055,"enabled":true,"region":"eu","cc":"de","latitude":50.110924,"longitude":8.682127,"reserved":0,"last_update":"0001-01-01T00:00:00Z","name_a2s":"Uncletopia | Frankfurt | 5 | All Maps","protocol":17,"map":"pl_frontier_final","folder":"tf","game":"Team Fortress","app_id":440,"player_count":0,"max_players":24,"Bots":0,"server_type":"Dedicated","server_os":"Linux","password":true,"vac":true,"version":"7757534","steam_id":85568392924504277,"keywords":["nocrits","nodmgspread","payload","uncletopia"],"game_id":440,"stv_port":27056,"stv_name":"Uncletopia | Frankfurt | 5 | All Maps | STV","players":null},{"server_id":311,"name":"Uncletopia | Frankfurt | 6 | All Maps","name_short":"frk-6","host":"frk-1.de.uncletopia.com","port":27065,"enabled":true,"region":"eu","cc":"de","latitude":50.110924,"longitude":8.682127,"reserved":0,"last_update":"0001-01-01T00:00:00Z","name_a2s":"Uncletopia | Frankfurt | 6 | All Maps","protocol":17,"map":"pl_upward","folder":"tf","game":"Team Fortress","app_id":440,"player_count":24,"max_players":24,"Bots":0,"server_type":"Dedicated","server_os":"Linux","password":true,"vac":true,"version":"7757534","steam_id":85568392924504278,"keywords":["nocrits","nodmgspread","payload","uncletopia"],"game_id":440,"stv_port":27066,"stv_name":"Uncletopia | Frankfurt | 6 | All Maps | STV","players":[{"user_id":82,"name":"Rubi","steam_id":76561198139410003,"connected_time":1102000000000,"state":"active","ping":83},{"user_id":78,"name":"generic alias","steam_id":76561198271607226,"connected_time":1249000000000,"state":"active","ping":98},{"user_id":92,"name":"Toaster1337","steam_id":76561198103706881,"connected_time":100000000000,"state":"active","ping":67},{"user_id":72,"name":"Chicote","steam_id":76561198054689637,"connected_time":1850000000000,"state":"active","ping":69},{"user_id":91,"name":"Snortman","steam_id":76561199012566222,"connected_time":126000000000,"state":"active","ping":52},{"user_id":86,"name":"Joel!","steam_id":76561198155422742,"connected_time":802000000000,"state":"active","ping":60},{"user_id":80,"name":"the kiler [RU]","steam_id":76561198074917015,"connected_time":1233000000000,"state":"active","ping":72},{"user_id":89,"name":"Luuk","steam_id":76561198088266026,"connected_time":440000000000,"state":"active","ping":42},{"user_id":58,"name":"Dr.Sees [F2P]","steam_id":76561199219233587,"connected_time":2890000000000,"state":"active","ping":89},{"user_id":70,"name":"Noob_with_source","steam_id":76561198870362103,"connected_time":1948000000000,"state":"active","ping":60},{"user_id":73,"name":"Max","steam_id":76561198021865328,"connected_time":1808000000000,"state":"active","ping":65},{"user_id":90,"name":"LEGEND FUMO.","steam_id":76561198061033903,"connected_time":384000000000,"state":"active","ping":55},{"user_id":33,"name":"Balls","steam_id":76561198086400484,"connected_time":5329000000000,"state":"active","ping":89},{"user_id":28,"name":"NitPig","steam_id":76561198212991935,"connected_time":5515000000000,"state":"active","ping":106},{"user_id":31,"name":"citronous","steam_id":76561198093290934,"connected_time":5351000000000,"state":"active","ping":56},{"user_id":85,"name":"Caro-Kann","steam_id":76561198065506317,"connected_time":974000000000,"state":"active","ping":66},{"user_id":54,"name":"HUGO","steam_id":76561198317134996,"connected_time":3122000000000,"state":"active","ping":84},{"user_id":57,"name":"Rezkey","steam_id":76561198206079048,"connected_time":2976000000000,"state":"active","ping":60},{"user_id":49,"name":"Tynnyri","steam_id":76561198075516541,"connected_time":3895000000000,"state":"active","ping":118},{"user_id":74,"name":"tummaluppo taivaltaja","steam_id":76561198093458326,"connected_time":1480000000000,"state":"active","ping":58},{"user_id":84,"name":"Lamar","steam_id":76561199149905723,"connected_time":1039000000000,"state":"active","ping":78},{"user_id":55,"name":"simon","steam_id":76561198880361394,"connected_time":3105000000000,"state":"active","ping":51},{"user_id":81,"name":"drew","steam_id":76561198012304706,"connected_time":1221000000000,"state":"active","ping":96},{"user_id":83,"name":"Sammy","steam_id":76561198303329392,"connected_time":1082000000000,"state":"active","ping":45}]},{"server_id":23,"name":"Uncletopia | Frankfurt | 7 | Stopwatch Beta","name_short":"frk-7","host":"frk-1.de.uncletopia.com","port":27075,"enabled":true,"region":"eu","cc":"de","latitude":50.110924,"longitude":8.682127,"reserved":0,"last_update":"0001-01-01T00:00:00Z","name_a2s":"Uncletopia | Frankfurt | 7 | Stopwatch Beta","protocol":17,"map":"pl_frontier_final","folder":"tf","game":"Team Fortress","app_id":440,"player_count":0,"max_players":24,"Bots":0,"server_type":"Dedicated","server_os":"Linux","password":true,"vac":true,"version":"7757534","steam_id":85568392924742827,"keywords":["nocrits","nodmgspread","payload","uncletopia"],"game_id":440,"stv_port":27076,"stv_name":"Uncletopia | Frankfurt | 7 | Stopwatch Beta | STV","players":null},{"server_id":24,"name":"Uncletopia | Frankfurt | 8 | Community","name_short":"frk-8","host":"frk-1.de.uncletopia.com","port":27085,"enabled":true,"region":"eu","cc":"de","latitude":50.110924,"longitude":8.682127,"reserved":0,"last_update":"0001-01-01T00:00:00Z","name_a2s":"Uncletopia | Frankfurt | 8 | Community","protocol":17,"map":"workshop/koth_bagel_rc5.ugc2514036946","folder":"tf","game":"Team Fortress","app_id":440,"player_count":24,"max_players":24,"Bots":0,"server_type":"Dedicated","server_os":"Linux","password":true,"vac":true,"version":"7757534","steam_id":85568392924742828,"keywords":["cp","nocrits","nodmgspread","uncletopia"],"game_id":440,"stv_port":27086,"stv_name":"Uncletopia | Frankfurt | 8 | Community | STV","players":[{"user_id":84,"name":"Ork","steam_id":76561197968575924,"connected_time":4587000000000,"state":"active","ping":62},{"user_id":145,"name":"Welder","steam_id":76561198355300561,"connected_time":391000000000,"state":"active","ping":64},{"user_id":87,"name":"true","steam_id":76561198031145243,"connected_time":3861000000000,"state":"active","ping":83},{"user_id":147,"name":"Ches is into Cro-Cro","steam_id":76561198067204908,"connected_time":296000000000,"state":"active","ping":63},{"user_id":127,"name":"medicinal man","steam_id":76561198202668788,"connected_time":816000000000,"state":"active","ping":61},{"user_id":92,"name":"silicon based life form","steam_id":76561199127121346,"connected_time":3338000000000,"state":"active","ping":70},{"user_id":128,"name":"festive","steam_id":76561197993892057,"connected_time":805000000000,"state":"active","ping":77},{"user_id":144,"name":"Hollow","steam_id":76561198315485935,"connected_time":418000000000,"state":"active","ping":60},{"user_id":148,"name":"Vash","steam_id":76561198083867904,"connected_time":56000000000,"state":"spawning","ping":157},{"user_id":130,"name":"Sprayus","steam_id":76561198399216417,"connected_time":695000000000,"state":"active","ping":63},{"user_id":131,"name":"C0d3s","steam_id":76561198093907544,"connected_time":647000000000,"state":"active","ping":100},{"user_id":103,"name":"wepon","steam_id":76561198097789669,"connected_time":2442000000000,"state":"active","ping":60},{"user_id":146,"name":"Preksy","steam_id":76561199179193076,"connected_time":387000000000,"state":"active","ping":65},{"user_id":132,"name":"Wakkieboe","steam_id":76561199120012558,"connected_time":633000000000,"state":"active","ping":76},{"user_id":106,"name":"Lordware","steam_id":76561198022011299,"connected_time":2317000000000,"state":"active","ping":82},{"user_id":107,"name":"Wir suchen dich!","steam_id":76561198307613521,"connected_time":2251000000000,"state":"active","ping":55},{"user_id":133,"name":"nightmare","steam_id":76561198386928726,"connected_time":628000000000,"state":"active","ping":100},{"user_id":109,"name":"TheFox.tf","steam_id":76561197996851702,"connected_time":2228000000000,"state":"active","ping":63},{"user_id":111,"name":"Mury","steam_id":76561198069743049,"connected_time":1967000000000,"state":"active","ping":158},{"user_id":112,"name":"PizzaPete123","steam_id":76561198089478290,"connected_time":1883000000000,"state":"active","ping":49},{"user_id":122,"name":"dreamybullxxx","steam_id":76561198415697906,"connected_time":1475000000000,"state":"active","ping":143},{"user_id":119,"name":"hud_saytext_time 0","steam_id":76561198010327228,"connected_time":1617000000000,"state":"active","ping":65},{"user_id":121,"name":"Flame","steam_id":76561198286672104,"connected_time":1567000000000,"state":"active","ping":108},{"user_id":134,"name":"AmssoBador Spacelot","steam_id":76561197993444617,"connected_time":585000000000,"state":"active","ping":90}]},{"server_id":202,"name":"Uncletopia | Hong Kong | 1 | All Maps","name_short":"hgk-1","host":"hgk-1.hk.uncletopia.com","port":27015,"enabled":true,"region":"asia","cc":"hk","latitude":22.302711,"longitude":114.177216,"reserved":0,"last_update":"0001-01-01T00:00:00Z","name_a2s":"Uncletopia | Hong Kong | 1 | All Maps","protocol":17,"map":"pl_barnblitz","folder":"tf","game":"Team Fortress","app_id":440,"player_count":24,"max_players":24,"Bots":0,"server_type":"Dedicated","server_os":"Linux","password":true,"vac":true,"version":"7757534","steam_id":85568392924494504,"keywords":["nocrits","nodmgspread","payload","uncletopia"],"game_id":440,"stv_port":27016,"stv_name":"Uncletopia | Hong Kong | 1 | All Maps | STV","players":[{"user_id":429,"name":"1127","steam_id":76561198840458959,"connected_time":2007000000000,"state":"active","ping":43},{"user_id":392,"name":"ÊØç„ÅÆËÇâÂõ£Â≠ê@hao123.com","steam_id":76561198069561896,"connected_time":4350000000000,"state":"active","ping":32},{"user_id":414,"name":"Pistorix","steam_id":76561199170954298,"connected_time":3022000000000,"state":"active","ping":96},{"user_id":403,"name":"Ïø†ÌÇ§","steam_id":76561197997220367,"connected_time":3754000000000,"state":"active","ping":51},{"user_id":459,"name":"razetime","steam_id":76561198093904557,"connected_time":221000000000,"state":"active","ping":126},{"user_id":441,"name":"cinderacefan500","steam_id":76561198981987710,"connected_time":1431000000000,"state":"active","ping":93},{"user_id":402,"name":"syekh","steam_id":76561198303237073,"connected_time":3811000000000,"state":"active","ping":89},{"user_id":239,"name":"Stupid B l #saveTF2","steam_id":76561198131423270,"connected_time":9887000000000,"state":"active","ping":98},{"user_id":454,"name":"Isda","steam_id":76561198871392299,"connected_time":928000000000,"state":"active","ping":67},{"user_id":433,"name":"witness protection","steam_id":76561198237547120,"connected_time":1812000000000,"state":"active","ping":66},{"user_id":291,"name":"DresatCouchonion","steam_id":76561199388364553,"connected_time":7249000000000,"state":"active","ping":124},{"user_id":452,"name":"old chunk of coal","steam_id":76561197990537324,"connected_time":1146000000000,"state":"active","ping":143},{"user_id":395,"name":"guys my bocchi has an 8ft cock","steam_id":76561199146847474,"connected_time":4219000000000,"state":"active","ping":65},{"user_id":455,"name":"DC","steam_id":76561198837122605,"connected_time":807000000000,"state":"active","ping":65},{"user_id":436,"name":"Saffron","steam_id":76561199025320247,"connected_time":1693000000000,"state":"active","ping":61},{"user_id":219,"name":"silverhouse7","steam_id":76561198349634906,"connected_time":13178000000000,"state":"active","ping":89},{"user_id":456,"name":"ÁëõÁ•∫ÂØ∂ÂØ∂","steam_id":76561198048928746,"connected_time":623000000000,"state":"active","ping":53},{"user_id":458,"name":"Puddin","steam_id":76561198140052918,"connected_time":428000000000,"state":"active","ping":98},{"user_id":438,"name":"30-sama","steam_id":76561198970626362,"connected_time":1512000000000,"state":"active","ping":90},{"user_id":388,"name":"lil' birb","steam_id":76561198878176849,"connected_time":4452000000000,"state":"active","ping":90},{"user_id":457,"name":"Â§èÊ¶ÆÂØ∂ÂØ∂","steam_id":76561198091076596,"connected_time":477000000000,"state":"active","ping":55},{"user_id":423,"name":"17","steam_id":76561198241530712,"connected_time":2902000000000,"state":"active","ping":59},{"user_id":460,"name":"Jackal Queenston","steam_id":76561199012678702,"connected_time":6000000000,"state":"spawning","ping":62},{"user_id":443,"name":"[Rowdy A.]kirito","steam_id":76561198181919483,"connected_time":1394000000000,"state":"active","ping":89}]},{"server_id":1,"name":"Uncletopia | Los Angeles | 1 | All Maps","name_short":"lax-1","host":"lax-1.us.uncletopia.com","port":27015,"enabled":true,"region":"us-west","cc":"us","latitude":33.94279,"longitude":-118.41004,"reserved":0,"last_update":"0001-01-01T00:00:00Z","name_a2s":"Uncletopia | Los Angeles | 1 | All Maps","protocol":17,"map":"pl_borneo","folder":"tf","game":"Team Fortress","app_id":440,"player_count":0,"max_players":24,"Bots":0,"server_type":"Dedicated","server_os":"Linux","password":true,"vac":true,"version":"7757534","steam_id":85568392924469991,"keywords":["nocrits","nodmgspread","payload","uncletopia"],"game_id":440,"stv_port":27016,"stv_name":"Uncletopia | Los Angeles | 1 | All Maps | STV","players":null},{"server_id":112,"name":"Uncletopia | Los Angeles | 2 | All Maps","name_short":"lax-2","host":"lax-1.us.uncletopia.com","port":27025,"enabled":true,"region":"us-west","cc":"us","latitude":33.94279,"longitude":-118.41004,"reserved":0,"last_update":"0001-01-01T00:00:00Z","name_a2s":"Uncletopia | Los Angeles | 2 | All Maps","protocol":17,"map":"koth_cascade","folder":"tf","game":"Team Fortress","app_id":440,"player_count":0,"max_players":24,"Bots":0,"server_type":"Dedicated","server_os":"Linux","password":true,"vac":true,"version":"7757534","steam_id":85568392924469992,"keywords":["cp","nocrits","nodmgspread","uncletopia"],"game_id":440,"stv_port":27026,"stv_name":"Uncletopia | Los Angeles | 2 | All Maps | STV","players":null},{"server_id":324,"name":"Uncletopia | Los Angeles | 3 | All Maps","name_short":"lax-3","host":"lax-1.us.uncletopia.com","port":27035,"enabled":true,"region":"us-west","cc":"us","latitude":33.94279,"longitude":-118.41004,"reserved":0,"last_update":"0001-01-01T00:00:00Z","name_a2s":"Uncletopia | Los Angeles | 3 | All Maps","protocol":17,"map":"pl_pier","folder":"tf","game":"Team Fortress","app_id":440,"player_count":0,"max_players":24,"Bots":0,"server_type":"Dedicated","server_os":"Linux","password":true,"vac":true,"version":"7757534","steam_id":85568392924510198,"keywords":["nocrits","nodmgspread","payload","uncletopia"],"game_id":440,"stv_port":27036,"stv_name":"Uncletopia | Los Angeles | 3 | All Maps | STV","players":null},{"server_id":25,"name":"Uncletopia | Los Angeles | 4 | Stopwatch Beta","name_short":"lax-4","host":"lax-1.us.uncletopia.com","port":27045,"enabled":true,"region":"us-west","cc":"us","latitude":33.94279,"longitude":-118.41004,"reserved":0,"last_update":"0001-01-01T00:00:00Z","name_a2s":"Uncletopia | Los Angeles | 4 | Stopwatch Beta","protocol":17,"map":"pl_frontier_final","folder":"tf","game":"Team Fortress","app_id":440,"player_count":0,"max_players":24,"Bots":0,"server_type":"Dedicated","server_os":"Linux","password":true,"vac":true,"version":"7757534","steam_id":85568392924510199,"keywords":["nocrits","nodmgspread","payload","uncletopia"],"game_id":440,"stv_port":27046,"stv_name":"Uncletopia | Los Angeles | 4 | Stopwatch Beta | STV","players":null},{"server_id":11,"name":"Uncletopia | London | 1 | All Maps","name_short":"lon-1","host":"lon-1.uk.uncletopia.com","port":27015,"enabled":true,"region":"eu","cc":"gb","latitude":51.509865,"longitude":-0.118092,"reserved":0,"last_update":"0001-01-01T00:00:00Z","name_a2s":"Uncletopia | London | 1 | All Maps","protocol":17,"map":"pl_upward","folder":"tf","game":"Team Fortress","app_id":440,"player_count":24,"max_players":24,"Bots":0,"server_type":"Dedicated","server_os":"Linux","password":true,"vac":true,"version":"7757534","steam_id":85568392924367362,"keywords":["nocrits","nodmgspread","payload","uncletopia"],"game_id":440,"stv_port":27016,"stv_name":"Uncletopia | London | 1 | All Maps | STV","players":[{"user_id":412,"name":"mouse","steam_id":76561198349648942,"connected_time":1554000000000,"state":"active","ping":89},{"user_id":417,"name":"Hrafnin","steam_id":76561197970358069,"connected_time":1321000000000,"state":"active","ping":89},{"user_id":370,"name":"Nick","steam_id":76561198036109469,"connected_time":4577000000000,"state":"active","ping":104},{"user_id":418,"name":"InsertNameHere","steam_id":76561199237340935,"connected_time":1140000000000,"state":"active","ping":170},{"user_id":428,"name":"Rain","steam_id":76561198186993269,"connected_time":482000000000,"state":"active","ping":70},{"user_id":351,"name":"playing while wearing crocs.","steam_id":76561198139404261,"connected_time":6280000000000,"state":"active","ping":43},{"user_id":429,"name":"‚ô´‚òÖXriasp‚òÖ‚ô´","steam_id":76561198104721321,"connected_time":465000000000,"state":"active","ping":80},{"user_id":430,"name":"wicked","steam_id":76561198164376035,"connected_time":431000000000,"state":"active","ping":80},{"user_id":401,"name":"Rambi","steam_id":76561199058078505,"connected_time":2024000000000,"state":"active","ping":161},{"user_id":360,"name":"Carrot","steam_id":76561198119340863,"connected_time":5706000000000,"state":"active","ping":36},{"user_id":420,"name":"Fus in Boots","steam_id":76561198053897722,"connected_time":1067000000000,"state":"active","ping":51},{"user_id":393,"name":"DirkPittNCC1701","steam_id":76561199155289715,"connected_time":2849000000000,"state":"active","ping":71},{"user_id":435,"name":"„Ç¥„Ç¥ Stupid Stand User „Ç¥„Ç¥","steam_id":76561198246219624,"connected_time":128000000000,"state":"active","ping":170},{"user_id":421,"name":"Caskye","steam_id":76561198165430888,"connected_time":925000000000,"state":"active","ping":76},{"user_id":422,"name":"Svilar","steam_id":76561198828348612,"connected_time":911000000000,"state":"active","ping":84},{"user_id":334,"name":"akakez","steam_id":76561198095432821,"connected_time":7581000000000,"state":"active","ping":114},{"user_id":423,"name":"KFC Enjoyer","steam_id":76561198840259819,"connected_time":872000000000,"state":"active","ping":59},{"user_id":416,"name":"house","steam_id":76561198055283295,"connected_time":1511000000000,"state":"active","ping":51},{"user_id":410,"name":"Samplee","steam_id":76561198063406140,"connected_time":1570000000000,"state":"active","ping":68},{"user_id":427,"name":"GogsCrunchyNuts","steam_id":76561198150599213,"connected_time":546000000000,"state":"active","ping":102},{"user_id":426,"name":"relic_","steam_id":76561199053114167,"connected_time":788000000000,"state":"active","ping":83},{"user_id":402,"name":"nouse","steam_id":76561197994492154,"connected_time":2005000000000,"state":"active","ping":75},{"user_id":407,"name":"DocTwoEight","steam_id":76561198153488940,"connected_time":1597000000000,"state":"active","ping":79},{"user_id":434,"name":"Phas","steam_id":76561198823490066,"connected_time":149000000000,"state":"active","ping":169}]},{"server_id":114,"name":"Uncletopia | London | 2 | All Maps","name_short":"lon-2","host":"lon-1.uk.uncletopia.com","port":27025,"enabled":true,"region":"eu","cc":"gb","latitude":51.509865,"longitude":-0.118092,"reserved":0,"last_update":"0001-01-01T00:00:00Z","name_a2s":"Uncletopia | London | 2 | All Maps","protocol":17,"map":"pl_barnblitz","folder":"tf","game":"Team Fortress","app_id":440,"player_count":0,"max_players":24,"Bots":0,"server_type":"Dedicated","server_os":"Linux","password":true,"vac":true,"version":"7757534","steam_id":85568392924470941,"keywords":["nocrits","nodmgspread","payload","uncletopia"],"game_id":440,"stv_port":27026,"stv_name":"Uncletopia | London | 2 | All Maps | STV","players":null},{"server_id":320,"name":"Uncletopia | London | 3 | All Maps","name_short":"lon-3","host":"lon-1.uk.uncletopia.com","port":27035,"enabled":true,"region":"eu","cc":"gb","latitude":51.509865,"longitude":-0.118092,"reserved":0,"last_update":"0001-01-01T00:00:00Z","name_a2s":"Uncletopia | London | 3 | All Maps","protocol":17,"map":"koth_viaduct","folder":"tf","game":"Team Fortress","app_id":440,"player_count":0,"max_players":24,"Bots":0,"server_type":"Dedicated","server_os":"Linux","password":true,"vac":true,"version":"7757534","steam_id":85568392924510192,"keywords":["cp","nocrits","nodmgspread","uncletopia"],"game_id":440,"stv_port":27036,"stv_name":"Uncletopia | London | 3 | All Maps | STV","players":null},{"server_id":321,"name":"Uncletopia | London | 4 | All Maps","name_short":"lon-4","host":"lon-1.uk.uncletopia.com","port":27045,"enabled":true,"region":"eu","cc":"gb","latitude":51.509865,"longitude":-0.118092,"reserved":0,"last_update":"0001-01-01T00:00:00Z","name_a2s":"Uncletopia | London | 4 | All Maps","protocol":17,"map":"koth_viaduct","folder":"tf","game":"Team Fortress","app_id":440,"player_count":0,"max_players":24,"Bots":0,"server_type":"Dedicated","server_os":"Linux","password":true,"vac":true,"version":"7757534","steam_id":85568392924510193,"keywords":["cp","nocrits","nodmgspread","uncletopia"],"game_id":440,"stv_port":27046,"stv_name":"Uncletopia | London | 4 | All Maps | STV","players":null},{"server_id":21,"name":"Uncletopia | London | 5 | All Maps","name_short":"lon-5","host":"lon-1.uk.uncletopia.com","port":27055,"enabled":true,"region":"eu","cc":"gb","latitude":51.509865,"longitude":-0.118092,"reserved":0,"last_update":"0001-01-01T00:00:00Z","name_a2s":"Uncletopia | London | 5 | All Maps","protocol":17,"map":"pl_barnblitz","folder":"tf","game":"Team Fortress","app_id":440,"player_count":24,"max_players":24,"Bots":0,"server_type":"Dedicated","server_os":"Linux","password":true,"vac":true,"version":"7757534","steam_id":85568392924742829,"keywords":["nocrits","nodmgspread","payload","uncletopia"],"game_id":440,"stv_port":27056,"stv_name":"Uncletopia | London | 5 | All Maps | STV","players":[{"user_id":4,"name":"ran is running","steam_id":76561199443185667,"connected_time":1784000000000,"state":"active","ping":135},{"user_id":5,"name":"justin_ (f2p) (real)","steam_id":76561198839843428,"connected_time":1666000000000,"state":"active","ping":113},{"user_id":36,"name":"Bad and Wuji","steam_id":76561199385280253,"connected_time":102000000000,"state":"active","ping":120},{"user_id":7,"name":"Krea_tor","steam_id":76561199049663197,"connected_time":1446000000000,"state":"active","ping":70},{"user_id":8,"name":"Memesus","steam_id":76561199362236174,"connected_time":1406000000000,"state":"active","ping":71},{"user_id":9,"name":"Beast?","steam_id":76561198277243732,"connected_time":1107000000000,"state":"active","ping":59},{"user_id":32,"name":"–î–µ–Ω–∏—Å –ë–∞–∑—É–∫–∞","steam_id":76561198835849082,"connected_time":230000000000,"state":"active","ping":88},{"user_id":11,"name":"GiBrAlTaR fr","steam_id":76561199004833709,"connected_time":992000000000,"state":"active","ping":111},{"user_id":23,"name":"I-I","steam_id":76561198267969436,"connected_time":508000000000,"state":"active","ping":70},{"user_id":13,"name":"Mowelic","steam_id":76561198873641222,"connected_time":816000000000,"state":"active","ping":88},{"user_id":16,"name":"Kotlet schabowy","steam_id":76561198048983509,"connected_time":664000000000,"state":"active","ping":89},{"user_id":21,"name":"Cheepoi","steam_id":76561198214357576,"connected_time":540000000000,"state":"active","ping":47},{"user_id":18,"name":"camdog0820","steam_id":76561199381688984,"connected_time":656000000000,"state":"active","ping":140},{"user_id":33,"name":"Cheddar","steam_id":76561198094192281,"connected_time":226000000000,"state":"active","ping":46},{"user_id":22,"name":"Sunday!","steam_id":76561198727666366,"connected_time":536000000000,"state":"active","ping":39},{"user_id":24,"name":"kotamine","steam_id":76561198068907991,"connected_time":484000000000,"state":"active","ping":75},{"user_id":25,"name":"Uncle Terry","steam_id":76561198396415736,"connected_time":464000000000,"state":"active","ping":55},{"user_id":26,"name":"jim","steam_id":76561198172003783,"connected_time":448000000000,"state":"active","ping":103},{"user_id":27,"name":"Minimi","steam_id":76561198873850443,"connected_time":372000000000,"state":"active","ping":45},{"user_id":29,"name":"Bat in a thousand","steam_id":76561198320506848,"connected_time":297000000000,"state":"active","ping":44},{"user_id":30,"name":"Krokinet","steam_id":76561198985877252,"connected_time":276000000000,"state":"active","ping":94},{"user_id":31,"name":"¬£blz","steam_id":76561198084804183,"connected_time":250000000000,"state":"active","ping":44},{"user_id":34,"name":"madacid","steam_id":76561198212315885,"connected_time":212000000000,"state":"active","ping":43},{"user_id":35,"name":"Haha?","steam_id":76561198056882245,"connected_time":135000000000,"state":"active","ping":44}]},{"server_id":22,"name":"Uncletopia | London | 6 | All Maps","name_short":"lon-6","host":"lon-1.uk.uncletopia.com","port":27065,"enabled":true,"region":"eu","cc":"gb","latitude":51.509865,"longitude":-0.118092,"reserved":0,"last_update":"0001-01-01T00:00:00Z","name_a2s":"Uncletopia | London | 6 | All Maps","protocol":17,"map":"koth_cascade","folder":"tf","game":"Team Fortress","app_id":440,"player_count":0,"max_players":24,"Bots":0,"server_type":"Dedicated","server_os":"Linux","password":true,"vac":true,"version":"7757534","steam_id":85568392924742830,"keywords":["cp","nocrits","nodmgspread","uncletopia"],"game_id":440,"stv_port":27066,"stv_name":"Uncletopia | London | 6 | All Maps | STV","players":null},{"server_id":40,"name":"Uncletopia | London | 7 | No Payload","name_short":"lon-7","host":"lon-1.uk.uncletopia.com","port":27075,"enabled":true,"region":"eu","cc":"gb","latitude":51.509865,"longitude":-0.118092,"reserved":0,"last_update":"0001-01-01T00:00:00Z","name_a2s":"Uncletopia | London | 7 | No Payload","protocol":17,"map":"koth_harvest_final","folder":"tf","game":"Team Fortress","app_id":440,"player_count":0,"max_players":24,"Bots":0,"server_type":"Dedicated","server_os":"Linux","password":true,"vac":true,"version":"7757534","steam_id":85568392924964314,"keywords":["cp","nocrits","nodmgspread","uncletopia"],"game_id":440,"stv_port":27076,"stv_name":"Uncletopia | London | 7 | No Payload | STV","players":null},{"server_id":41,"name":"Uncletopia | London | 8 | Community","name_short":"lon-8","host":"lon-1.uk.uncletopia.com","port":27085,"enabled":true,"region":"eu","cc":"gb","latitude":51.509865,"longitude":-0.118092,"reserved":0,"last_update":"0001-01-01T00:00:00Z","name_a2s":"Uncletopia | London | 8 | Community","protocol":17,"map":"pl_upward","folder":"tf","game":"Team Fortress","app_id":440,"player_count":0,"max_players":24,"Bots":0,"server_type":"Dedicated","server_os":"Linux","password":true,"vac":true,"version":"7757534","steam_id":85568392924964315,"keywords":["nocrits","nodmgspread","payload","uncletopia"],"game_id":440,"stv_port":27086,"stv_name":"Uncletopia | London | 8 | Community | STV","players":null},{"server_id":300,"name":"Uncletopia | Montr√©al | 1 | All Maps","name_short":"mtl-1","host":"mtl-1.ca.uncletopia.com","port":27015,"enabled":true,"region":"us-east","cc":"ca","latitude":45.50889,"longitude":-73.56167,"reserved":0,"last_update":"0001-01-01T00:00:00Z","name_a2s":"Uncletopia | Montr√©al | 1 | All Maps","protocol":17,"map":"pl_snowycoast","folder":"tf","game":"Team Fortress","app_id":440,"player_count":0,"max_players":24,"Bots":0,"server_type":"Dedicated","server_os":"Linux","password":true,"vac":true,"version":"7757534","steam_id":85568392924500087,"keywords":["nocrits","nodmgspread","payload","uncletopia"],"game_id":440,"stv_port":27016,"stv_name":"Uncletopia | Montr√©al | 1 | All Maps | STV","players":null},{"server_id":301,"name":"Uncletopia | Montr√©al | 2 | All Maps","name_short":"mtl-2","host":"mtl-1.ca.uncletopia.com","port":27025,"enabled":true,"region":"us-east","cc":"ca","latitude":45.50889,"longitude":-73.56167,"reserved":0,"last_update":"0001-01-01T00:00:00Z","name_a2s":"Uncletopia | Montr√©al | 2 | All Maps","protocol":17,"map":"pl_snowycoast","folder":"tf","game":"Team Fortress","app_id":440,"player_count":0,"max_players":24,"Bots":0,"server_type":"Dedicated","server_os":"Linux","password":true,"vac":true,"version":"7757534","steam_id":85568392924500088,"keywords":["nocrits","nodmgspread","payload","uncletopia"],"game_id":440,"stv_port":27026,"stv_name":"Uncletopia | Montr√©al | 2 | All Maps | STV","players":null},{"server_id":302,"name":"Uncletopia | Montr√©al | 3 | All Maps","name_short":"mtl-3","host":"mtl-1.ca.uncletopia.com","port":27035,"enabled":true,"region":"us-east","cc":"ca","latitude":45.50889,"longitude":-73.56167,"reserved":0,"last_update":"0001-01-01T00:00:00Z","name_a2s":"Uncletopia | Montr√©al | 3 | All Maps","protocol":17,"map":"cp_dustbowl","folder":"tf","game":"Team Fortress","app_id":440,"player_count":0,"max_players":24,"Bots":0,"server_type":"Dedicated","server_os":"Linux","password":true,"vac":true,"version":"7757534","steam_id":85568392924500089,"keywords":["cp","nocrits","nodmgspread","uncletopia"],"game_id":440,"stv_port":27036,"stv_name":"Uncletopia | Montr√©al | 3 | All Maps | STV","players":null},{"server_id":303,"name":"Uncletopia | Montr√©al | 4 | No Payload","name_short":"mtl-4","host":"mtl-1.ca.uncletopia.com","port":27045,"enabled":true,"region":"us-east","cc":"ca","latitude":45.50889,"longitude":-73.56167,"reserved":0,"last_update":"0001-01-01T00:00:00Z","name_a2s":"Uncletopia | Montr√©al | 4 | No Payload","protocol":17,"map":"pl_borneo","folder":"tf","game":"Team Fortress","app_id":440,"player_count":0,"max_players":24,"Bots":0,"server_type":"Dedicated","server_os":"Linux","password":true,"vac":true,"version":"7757534","steam_id":85568392924500090,"keywords":["nocrits","nodmgspread","payload","uncletopia"],"game_id":440,"stv_port":27046,"stv_name":"Uncletopia | Montr√©al | 4 | No Payload | STV","players":null},{"server_id":13,"name":"Uncletopia | New York City | 1 | All Maps","name_short":"nyc-1","host":"nyc-1.us.uncletopia.com","port":27015,"enabled":true,"region":"us-east","cc":"us","latitude":40.73061,"longitude":-73.93524,"reserved":0,"last_update":"0001-01-01T00:00:00Z","name_a2s":"Uncletopia | New York City | 1 | All Maps","protocol":17,"map":"pl_upward","folder":"tf","game":"Team Fortress","app_id":440,"player_count":24,"max_players":24,"Bots":0,"server_type":"Dedicated","server_os":"Linux","password":true,"vac":true,"version":"7757534","steam_id":85568392924469993,"keywords":["nocrits","nodmgspread","payload","uncletopia"],"game_id":440,"stv_port":27016,"stv_name":"Uncletopia | New York City | 1 | All Maps | STV","players":[{"user_id":87,"name":"raid...","steam_id":76561198328109873,"connected_time":665000000000,"state":"active","ping":62},{"user_id":73,"name":"Dot.","steam_id":76561198149463984,"connected_time":1922000000000,"state":"active","ping":42},{"user_id":20,"name":"Reisen","steam_id":76561197968832019,"connected_time":5562000000000,"state":"active","ping":36},{"user_id":43,"name":"Unban Level Eater (She/They)","steam_id":76561198823616667,"connected_time":4342000000000,"state":"active","ping":97},{"user_id":103,"name":"uVeins","steam_id":76561198067445528,"connected_time":80000000000,"state":"active","ping":49},{"user_id":96,"name":"Windy Writer","steam_id":76561198048217633,"connected_time":315000000000,"state":"active","ping":63},{"user_id":97,"name":"resu","steam_id":76561198024192155,"connected_time":282000000000,"state":"active","ping":76},{"user_id":95,"name":"W","steam_id":76561198227153828,"connected_time":328000000000,"state":"active","ping":77},{"user_id":81,"name":"Bocchi the Rock","steam_id":76561198025668771,"connected_time":1753000000000,"state":"active","ping":149},{"user_id":85,"name":"BIG HOG","steam_id":76561198079923652,"connected_time":825000000000,"state":"active","ping":87},{"user_id":98,"name":"el penis","steam_id":76561199389283507,"connected_time":264000000000,"state":"active","ping":90},{"user_id":63,"name":"Green Icicle","steam_id":76561198069624529,"connected_time":2745000000000,"state":"active","ping":115},{"user_id":45,"name":"Dankey Kang","steam_id":76561198090232160,"connected_time":4215000000000,"state":"active","ping":84},{"user_id":86,"name":"meat","steam_id":76561198199803242,"connected_time":813000000000,"state":"active","ping":75},{"user_id":88,"name":"RadioIris","steam_id":76561199119284107,"connected_time":665000000000,"state":"active","ping":125},{"user_id":99,"name":"Venti The Owl","steam_id":76561198966265282,"connected_time":262000000000,"state":"active","ping":39},{"user_id":89,"name":"Dave5744","steam_id":76561198117207566,"connected_time":609000000000,"state":"active","ping":45},{"user_id":46,"name":"Riske","steam_id":76561198115840568,"connected_time":4149000000000,"state":"active","ping":72},{"user_id":100,"name":"lu","steam_id":76561198080731872,"connected_time":261000000000,"state":"active","ping":72},{"user_id":101,"name":"Infinite Hyperdeath","steam_id":76561198168946002,"connected_time":238000000000,"state":"active","ping":46},{"user_id":102,"name":"Adamantium44","steam_id":76561198266957710,"connected_time":233000000000,"state":"active","ping":87},{"user_id":47,"name":"Stephen \"Fatso\" Stromboli","steam_id":76561198060911025,"connected_time":4137000000000,"state":"active","ping":55},{"user_id":92,"name":"anti air turret","steam_id":76561199079513908,"connected_time":399000000000,"state":"active","ping":145},{"user_id":66,"name":"Albino Jellyfish","steam_id":76561198208561097,"connected_time":2049000000000,"state":"active","ping":52}]},{"server_id":14,"name":"Uncletopia | New York City | 2 | All Maps","name_short":"nyc-2","host":"nyc-1.us.uncletopia.com","port":27025,"enabled":true,"region":"us-east","cc":"us","latitude":40.73061,"longitude":-73.93524,"reserved":0,"last_update":"0001-01-01T00:00:00Z","name_a2s":"Uncletopia | New York City | 2 | All Maps","protocol":17,"map":"pl_borneo","folder":"tf","game":"Team Fortress","app_id":440,"player_count":1,"max_players":24,"Bots":0,"server_type":"Dedicated","server_os":"Linux","password":true,"vac":true,"version":"7757534","steam_id":85568392924469994,"keywords":["nocrits","nodmgspread","payload","uncletopia"],"game_id":440,"stv_port":27026,"stv_name":"Uncletopia | New York City | 2 | All Maps | STV","players":[{"user_id":6,"name":"rotten (transgner","steam_id":76561199050833356,"connected_time":18000000000,"state":"active","ping":56}]},{"server_id":15,"name":"Uncletopia | New York City | 3 | Stopwatch Beta","name_short":"nyc-3","host":"nyc-1.us.uncletopia.com","port":27035,"enabled":true,"region":"us-east","cc":"us","latitude":40.73061,"longitude":-73.93524,"reserved":0,"last_update":"0001-01-01T00:00:00Z","name_a2s":"Uncletopia | New York City | 3 | Stopwatch Beta","protocol":17,"map":"koth_highpass","folder":"tf","game":"Team Fortress","app_id":440,"player_count":0,"max_players":24,"Bots":0,"server_type":"Dedicated","server_os":"Linux","password":true,"vac":true,"version":"7757534","steam_id":85568392924742820,"keywords":["cp","nocrits","nodmgspread","uncletopia"],"game_id":440,"stv_port":27036,"stv_name":"Uncletopia | New York City | 3 | Stopwatch Beta | STV","players":null},{"server_id":16,"name":"Uncletopia | New York City | 4 | Community","name_short":"nyc-4","host":"nyc-1.us.uncletopia.com","port":27045,"enabled":true,"region":"us-east","cc":"us","latitude":40.73061,"longitude":-73.93524,"reserved":0,"last_update":"0001-01-01T00:00:00Z","name_a2s":"Uncletopia | New York City | 4 | Community","protocol":17,"map":"pl_borneo","folder":"tf","game":"Team Fortress","app_id":440,"player_count":0,"max_players":24,"Bots":0,"server_type":"Dedicated","server_os":"Linux","password":true,"vac":true,"version":"7757534","steam_id":85568392924742821,"keywords":["nocrits","nodmgspread","payload","uncletopia"],"game_id":440,"stv_port":27046,"stv_name":"Uncletopia | New York City | 4 | Community | STV","players":null},{"server_id":142,"name":"Uncletopia | S√£o Paulo | 1 | All Maps","name_short":"sao-1","host":"sao-1.br.uncletopia.com","port":27015,"enabled":true,"region":"sa","cc":"br","latitude":-23.533773,"longitude":-46.62529,"reserved":0,"last_update":"0001-01-01T00:00:00Z","name_a2s":"Uncletopia | S√£o Paulo | 1 | All Maps","protocol":17,"map":"koth_highpass","folder":"tf","game":"Team Fortress","app_id":440,"player_count":0,"max_players":24,"Bots":0,"server_type":"Dedicated","server_os":"Linux","password":true,"vac":true,"version":"7757534","steam_id":85568392924469996,"keywords":["cp","nocrits","nodmgspread","uncletopia"],"game_id":440,"stv_port":27016,"stv_name":"Uncletopia | S√£o Paulo | 1 | All Maps | STV","players":null},{"server_id":143,"name":"Uncletopia | S√£o Paulo | 2 | All Maps","name_short":"sao-2","host":"sao-2.br.uncletopia.com","port":27015,"enabled":true,"region":"sa","cc":"br","latitude":-23.533773,"longitude":-46.62529,"reserved":0,"last_update":"0001-01-01T00:00:00Z","name_a2s":"Uncletopia | S√£o Paulo | 2 | All Maps","protocol":17,"map":"pl_upward","folder":"tf","game":"Team Fortress","app_id":440,"player_count":0,"max_players":24,"Bots":0,"server_type":"Dedicated","server_os":"Linux","password":true,"vac":true,"version":"7757534","steam_id":85568392924485349,"keywords":["nocrits","nodmgspread","payload","uncletopia"],"game_id":440,"stv_port":27016,"stv_name":"Uncletopia | S√£o Paulo | 2 | All Maps | STV","players":null},{"server_id":7,"name":"Uncletopia | Seattle | 1 | All Maps","name_short":"sea-1","host":"sea-1.us.uncletopia.com","port":27015,"enabled":true,"region":"us-west","cc":"us","latitude":47.608013,"longitude":-122.33517,"reserved":0,"last_update":"0001-01-01T00:00:00Z","name_a2s":"Uncletopia | Seattle | 1 | All Maps","protocol":17,"map":"pl_badwater","folder":"tf","game":"Team Fortress","app_id":440,"player_count":24,"max_players":24,"Bots":0,"server_type":"Dedicated","server_os":"Linux","password":true,"vac":true,"version":"7757534","steam_id":85568392924469997,"keywords":["nocrits","nodmgspread","payload","uncletopia"],"game_id":440,"stv_port":27016,"stv_name":"Uncletopia | Seattle | 1 | All Maps | STV","players":[{"user_id":91,"name":"pt","steam_id":76561198143023330,"connected_time":1596000000000,"state":"active","ping":75},{"user_id":104,"name":"Erntest","steam_id":76561198049499899,"connected_time":751000000000,"state":"active","ping":72},{"user_id":38,"name":"mumbles","steam_id":76561197994528974,"connected_time":5989000000000,"state":"active","ping":77},{"user_id":86,"name":"Omnoman","steam_id":76561198006258213,"connected_time":2513000000000,"state":"active","ping":144},{"user_id":109,"name":"Nico The Cheese","steam_id":76561199065272792,"connected_time":152000000000,"state":"active","ping":77},{"user_id":107,"name":"Shark Sandwich","steam_id":76561198025007938,"connected_time":346000000000,"state":"active","ping":98},{"user_id":53,"name":"Loppert","steam_id":76561198027113524,"connected_time":4850000000000,"state":"active","ping":116},{"user_id":26,"name":"Little Linguine","steam_id":76561198816986370,"connected_time":6488000000000,"state":"active","ping":56},{"user_id":110,"name":"drink my *** u nasty ****","steam_id":76561199100813140,"connected_time":133000000000,"state":"active","ping":86},{"user_id":106,"name":"a Hippobottomus","steam_id":76561198126853441,"connected_time":419000000000,"state":"active","ping":93},{"user_id":94,"name":"Skabbety","steam_id":76561198168044257,"connected_time":972000000000,"state":"active","ping":43},{"user_id":105,"name":"D(b) Hell","steam_id":76561198067869016,"connected_time":534000000000,"state":"active","ping":71},{"user_id":92,"name":"ShredMaan","steam_id":76561198429982138,"connected_time":1230000000000,"state":"active","ping":84},{"user_id":87,"name":"the good sir bob","steam_id":76561199119865292,"connected_time":2511000000000,"state":"active","ping":150},{"user_id":70,"name":"The Great Eagle Scourge of 1822","steam_id":76561198325086209,"connected_time":3201000000000,"state":"active","ping":93},{"user_id":89,"name":"WalkinMan","steam_id":76561198047941142,"connected_time":1737000000000,"state":"active","ping":55},{"user_id":95,"name":"JayJayMed320 (She/Her)","steam_id":76561198286568264,"connected_time":971000000000,"state":"active","ping":47},{"user_id":101,"name":"Whoplops","steam_id":76561197977188933,"connected_time":794000000000,"state":"active","ping":135},{"user_id":50,"name":"4 Itchy Tasty","steam_id":76561198009869383,"connected_time":5144000000000,"state":"active","ping":121},{"user_id":90,"name":"Coffeemelon","steam_id":76561198285891257,"connected_time":1651000000000,"state":"active","ping":83},{"user_id":102,"name":"Mongo","steam_id":76561198242548846,"connected_time":773000000000,"state":"active","ping":136},{"user_id":93,"name":"128gb sd card","steam_id":76561198043636749,"connected_time":985000000000,"state":"active","ping":75},{"user_id":84,"name":"Live Studio Audience","steam_id":76561199008293783,"connected_time":2614000000000,"state":"active","ping":103},{"user_id":103,"name":"Margaret Thatcher, but moreso","steam_id":76561198121955432,"connected_time":772000000000,"state":"active","ping":101}]},{"server_id":119,"name":"Uncletopia | Seattle | 2 | All Maps","name_short":"sea-2","host":"sea-1.us.uncletopia.com","port":27025,"enabled":true,"region":"us-west","cc":"us","latitude":47.608013,"longitude":-122.33517,"reserved":0,"last_update":"0001-01-01T00:00:00Z","name_a2s":"Uncletopia | Seattle | 2 | All Maps","protocol":17,"map":"koth_cascade","folder":"tf","game":"Team Fortress","app_id":440,"player_count":0,"max_players":24,"Bots":0,"server_type":"Dedicated","server_os":"Linux","password":true,"vac":true,"version":"7757534","steam_id":85568392924469998,"keywords":["cp","nocrits","nodmgspread","uncletopia"],"game_id":440,"stv_port":27026,"stv_name":"Uncletopia | Seattle | 2 | All Maps | STV","players":null},{"server_id":406,"name":"Uncletopia | Seattle | 3 | Stopwatch Beta","name_short":"sea-3","host":"sea-1.us.uncletopia.com","port":27035,"enabled":true,"region":"us-west","cc":"us","latitude":47.608013,"longitude":-122.33517,"reserved":0,"last_update":"0001-01-01T00:00:00Z","name_a2s":"Uncletopia | Seattle | 3 | Stopwatch Beta","protocol":17,"map":"pl_barnblitz","folder":"tf","game":"Team Fortress","app_id":440,"player_count":0,"max_players":24,"Bots":0,"server_type":"Dedicated","server_os":"Linux","password":true,"vac":true,"version":"7757534","steam_id":85568392924515217,"keywords":["nocrits","nodmgspread","payload","uncletopia"],"game_id":440,"stv_port":27036,"stv_name":"Uncletopia | Seattle | 3 | Stopwatch Beta | STV","players":null},{"server_id":17,"name":"Uncletopia | San Francisco | 1 | All Maps","name_short":"sfo-1","host":"sfo-1.us.uncletopia.com","port":27015,"enabled":true,"region":"us-west","cc":"us","latitude":37.77397,"longitude":-122.4313,"reserved":0,"last_update":"0001-01-01T00:00:00Z","name_a2s":"Uncletopia | San Francisco | 1 | All Maps","protocol":17,"map":"cp_process_final","folder":"tf","game":"Team Fortress","app_id":440,"player_count":0,"max_players":24,"Bots":0,"server_type":"Dedicated","server_os":"Linux","password":true,"vac":true,"version":"7757534","steam_id":85568392924469999,"keywords":["cp","nocrits","nodmgspread","uncletopia"],"game_id":440,"stv_port":27016,"stv_name":"Uncletopia | San Francisco | 1 | All Maps | STV","players":null},{"server_id":18,"name":"Uncletopia | San Francisco | 2 | All Maps","name_short":"sfo-2","host":"sfo-1.us.uncletopia.com","port":27025,"enabled":true,"region":"us-west","cc":"us","latitude":37.77397,"longitude":-122.4313,"reserved":0,"last_update":"0001-01-01T00:00:00Z","name_a2s":"Uncletopia | San Francisco | 2 | All Maps","protocol":17,"map":"cp_sunshine","folder":"tf","game":"Team Fortress","app_id":440,"player_count":0,"max_players":24,"Bots":0,"server_type":"Dedicated","server_os":"Linux","password":true,"vac":true,"version":"7757534","steam_id":85568392924470000,"keywords":["cp","nocrits","nodmgspread","uncletopia"],"game_id":440,"stv_port":27026,"stv_name":"Uncletopia | San Francisco | 2 | All Maps | STV","players":null},{"server_id":19,"name":"Uncletopia | San Francisco | 3 | Stopwatch Beta","name_short":"sfo-3","host":"sfo-1.us.uncletopia.com","port":27035,"enabled":true,"region":"us-west","cc":"us","latitude":37.77397,"longitude":-122.4313,"reserved":0,"last_update":"0001-01-01T00:00:00Z","name_a2s":"Uncletopia | San Francisco | 3 | Stopwatch Beta","protocol":17,"map":"pl_borneo","folder":"tf","game":"Team Fortress","app_id":440,"player_count":0,"max_players":24,"Bots":0,"server_type":"Dedicated","server_os":"Linux","password":true,"vac":true,"version":"7757534","steam_id":85568392924742824,"keywords":["nocrits","nodmgspread","payload","uncletopia"],"game_id":440,"stv_port":27036,"stv_name":"Uncletopia | San Francisco | 3 | Stopwatch Beta | STV","players":null},{"server_id":20,"name":"Uncletopia | San Francisco | 4 | Community","name_short":"sfo-4","host":"sfo-1.us.uncletopia.com","port":27045,"enabled":true,"region":"us-west","cc":"us","latitude":37.77397,"longitude":-122.4313,"reserved":0,"last_update":"0001-01-01T00:00:00Z","name_a2s":"Uncletopia | San Francisco | 4 | Community","protocol":17,"map":"koth_highpass","folder":"tf","game":"Team Fortress","app_id":440,"player_count":0,"max_players":24,"Bots":0,"server_type":"Dedicated","server_os":"Linux","password":true,"vac":true,"version":"7757534","steam_id":85568392924742826,"keywords":["cp","nocrits","nodmgspread","uncletopia"],"game_id":440,"stv_port":27046,"stv_name":"Uncletopia | San Francisco | 4 | Community | STV","players":null},{"server_id":141,"name":"Uncletopia | Sydney | 1 | All Maps","name_short":"syd-1","host":"syd-1.au.uncletopia.com","port":27015,"enabled":true,"region":"au","cc":"au","latitude":-33.865143,"longitude":151.2099,"reserved":0,"last_update":"0001-01-01T00:00:00Z","name_a2s":"Uncletopia | Sydney | 1 | All Maps","protocol":17,"map":"koth_lakeside_final","folder":"tf","game":"Team Fortress","app_id":440,"player_count":0,"max_players":24,"Bots":0,"server_type":"Dedicated","server_os":"Linux","password":true,"vac":true,"version":"7757534","steam_id":85568392924470001,"keywords":["cp","nocrits","nodmgspread","uncletopia"],"game_id":440,"stv_port":27016,"stv_name":"Uncletopia | Sydney | 1 | All Maps | STV","players":null},{"server_id":123,"name":"Uncletopia | Sydney | 2 | All Maps","name_short":"syd-2","host":"syd-1.au.uncletopia.com","port":27025,"enabled":true,"region":"au","cc":"au","latitude":-33.865143,"longitude":151.2099,"reserved":0,"last_update":"0001-01-01T00:00:00Z","name_a2s":"Uncletopia | Sydney | 2 | All Maps","protocol":17,"map":"koth_lakeside_final","folder":"tf","game":"Team Fortress","app_id":440,"player_count":0,"max_players":24,"Bots":0,"server_type":"Dedicated","server_os":"Linux","password":true,"vac":true,"version":"7757534","steam_id":85568392924470002,"keywords":["cp","nocrits","nodmgspread","uncletopia"],"game_id":440,"stv_port":27026,"stv_name":"Uncletopia | Sydney | 2 | All Maps | STV","players":null},{"server_id":395,"name":"Uncletopia | Sydney | 3 | All Maps","name_short":"syd-3","host":"syd-1.au.uncletopia.com","port":27035,"enabled":true,"region":"au","cc":"au","latitude":-33.865143,"longitude":151.2099,"reserved":0,"last_update":"0001-01-01T00:00:00Z","name_a2s":"Uncletopia | Sydney | 3 | All Maps","protocol":17,"map":"koth_viaduct","folder":"tf","game":"Team Fortress","app_id":440,"player_count":0,"max_players":24,"Bots":0,"server_type":"Dedicated","server_os":"Linux","password":true,"vac":true,"version":"7757534","steam_id":85568392925194467,"keywords":["cp","nocrits","nodmgspread","uncletopia"],"game_id":440,"stv_port":27036,"stv_name":"Uncletopia | Sydney | 3 | All Maps | STV","players":null},{"server_id":396,"name":"Uncletopia | Sydney | 4 | All Maps","name_short":"syd-4","host":"syd-1.au.uncletopia.com","port":27045,"enabled":true,"region":"au","cc":"au","latitude":-33.865143,"longitude":151.2099,"reserved":0,"last_update":"0001-01-01T00:00:00Z","name_a2s":"Uncletopia | Sydney | 4 | All Maps","protocol":17,"map":"koth_lakeside_final","folder":"tf","game":"Team Fortress","app_id":440,"player_count":0,"max_players":24,"Bots":0,"server_type":"Dedicated","server_os":"Linux","password":true,"vac":true,"version":"7757534","steam_id":85568392925397958,"keywords":["cp","nocrits","nodmgspread","uncletopia"],"game_id":440,"stv_port":27046,"stv_name":"Uncletopia | Sydney | 4 | All Maps | STV","players":null},{"server_id":58,"name":"Uncletopia | Sydney | 5 | Stopwatch Beta","name_short":"syd-5","host":"syd-1.au.uncletopia.com","port":27055,"enabled":true,"region":"au","cc":"au","latitude":-33.865143,"longitude":151.2099,"reserved":0,"last_update":"0001-01-01T00:00:00Z","name_a2s":"Uncletopia | Sydney | 5 | Stopwatch Beta","protocol":17,"map":"koth_highpass","folder":"tf","game":"Team Fortress","app_id":440,"player_count":0,"max_players":24,"Bots":0,"server_type":"Dedicated","server_os":"Linux","password":true,"vac":true,"version":"7757534","steam_id":85568392925397959,"keywords":["cp","nocrits","nodmgspread","uncletopia"],"game_id":440,"stv_port":27056,"stv_name":"Uncletopia | Sydney | 5 | Stopwatch Beta | STV","players":null},{"server_id":59,"name":"Uncletopia | Sydney | 6 | Community","name_short":"syd-6","host":"syd-1.au.uncletopia.com","port":27065,"enabled":true,"region":"au","cc":"au","latitude":-33.865143,"longitude":151.2099,"reserved":0,"last_update":"0001-01-01T00:00:00Z","name_a2s":"Uncletopia | Sydney | 6 | Community","protocol":17,"map":"workshop/koth_trenchfoot_b1a.ugc731436616","folder":"tf","game":"Team Fortress","app_id":440,"player_count":0,"max_players":24,"Bots":0,"server_type":"Dedicated","server_os":"Linux","password":true,"vac":true,"version":"7757534","steam_id":85568392925397960,"keywords":["cp","nocrits","nodmgspread","uncletopia"],"game_id":440,"stv_port":27066,"stv_name":"Uncletopia | Sydney | 6 | Community | STV","players":null},{"server_id":49,"name":"Uncletopia | Warsaw | 1 | All Maps","name_short":"waw-1","host":"waw-1.pl.uncletopia.com","port":27015,"enabled":true,"region":"eu","cc":"pl","latitude":52.2297,"longitude":21.017532,"reserved":0,"last_update":"0001-01-01T00:00:00Z","name_a2s":"","protocol":0,"map":"","folder":"","game":"","app_id":0,"player_count":0,"max_players":0,"Bots":0,"server_type":"","server_os":"","password":false,"vac":false,"version":"","steam_id":0,"keywords":null,"game_id":0,"stv_port":0,"stv_name":"","players":null},{"server_id":50,"name":"Uncletopia | Warsaw | 2 | All Maps","name_short":"waw-2","host":"waw-1.pl.uncletopia.com","port":27025,"enabled":true,"region":"eu","cc":"pl","latitude":52.2297,"longitude":21.017532,"reserved":0,"last_update":"0001-01-01T00:00:00Z","name_a2s":"Uncletopia | Warsaw | 2 | All Maps","protocol":17,"map":"koth_highpass","folder":"tf","game":"Team Fortress","app_id":440,"player_count":0,"max_players":24,"Bots":0,"server_type":"Dedicated","server_os":"Linux","password":true,"vac":true,"version":"7757534","steam_id":85568392925397851,"keywords":["cp","nocrits","nodmgspread","uncletopia"],"game_id":440,"stv_port":27026,"stv_name":"Uncletopia | Warsaw | 2 | All Maps | STV","players":null},{"server_id":51,"name":"Uncletopia | Warsaw | 3 | All Maps","name_short":"waw-3","host":"waw-1.pl.uncletopia.com","port":27035,"enabled":true,"region":"eu","cc":"pl","latitude":52.2297,"longitude":21.017532,"reserved":0,"last_update":"0001-01-01T00:00:00Z","name_a2s":"Uncletopia | Warsaw | 3 | All Maps","protocol":17,"map":"pl_barnblitz","folder":"tf","game":"Team Fortress","app_id":440,"player_count":0,"max_players":24,"Bots":0,"server_type":"Dedicated","server_os":"Linux","password":true,"vac":true,"version":"7757534","steam_id":85568392925397852,"keywords":["nocrits","nodmgspread","payload","uncletopia"],"game_id":440,"stv_port":27036,"stv_name":"Uncletopia | Warsaw | 3 | All Maps | STV","players":null},{"server_id":52,"name":"Uncletopia | Warsaw | 4 | All Maps","name_short":"waw-4","host":"waw-1.pl.uncletopia.com","port":27045,"enabled":true,"region":"eu","cc":"pl","latitude":52.2297,"longitude":21.017532,"reserved":0,"last_update":"0001-01-01T00:00:00Z","name_a2s":"Uncletopia | Warsaw | 4 | All Maps","protocol":17,"map":"cp_dustbowl","folder":"tf","game":"Team Fortress","app_id":440,"player_count":0,"max_players":24,"Bots":0,"server_type":"Dedicated","server_os":"Linux","password":true,"vac":true,"version":"7757534","steam_id":85568392925397853,"keywords":["cp","nocrits","nodmgspread","uncletopia"],"game_id":440,"stv_port":27046,"stv_name":"Uncletopia | Warsaw | 4 | All Maps | STV","players":null},{"server_id":53,"name":"Uncletopia | Warsaw | 5 | Stopwatch Beta","name_short":"waw-5","host":"waw-1.pl.uncletopia.com","port":27055,"enabled":true,"region":"eu","cc":"pl","latitude":52.2297,"longitude":21.017532,"reserved":0,"last_update":"0001-01-01T00:00:00Z","name_a2s":"Uncletopia | Warsaw | 5 | Stopwatch Beta","protocol":17,"map":"pl_barnblitz","folder":"tf","game":"Team Fortress","app_id":440,"player_count":0,"max_players":24,"Bots":0,"server_type":"Dedicated","server_os":"Linux","password":true,"vac":true,"version":"7757534","steam_id":85568392925397854,"keywords":["nocrits","nodmgspread","payload","uncletopia"],"game_id":440,"stv_port":27056,"stv_name":"Uncletopia | Warsaw | 5 | Stopwatch Beta | STV","players":null},{"server_id":54,"name":"Uncletopia | Warsaw | 6 | Community","name_short":"waw-6","host":"waw-1.pl.uncletopia.com","port":27065,"enabled":true,"region":"eu","cc":"pl","latitude":52.2297,"longitude":21.017532,"reserved":0,"last_update":"0001-01-01T00:00:00Z","name_a2s":"Uncletopia | Warsaw | 6 | Community","protocol":17,"map":"workshop/rd_asteroid_redux_b1.ugc2154902912","folder":"tf","game":"Team Fortress","app_id":440,"player_count":0,"max_players":24,"Bots":0,"server_type":"Dedicated","server_os":"Linux","password":true,"vac":true,"version":"7757534","steam_id":85568392925397856,"keywords":["beta","nocrits","nodmgspread","rd","uncletopia"],"game_id":440,"stv_port":27066,"stv_name":"Uncletopia | Warsaw | 6 | Community | STV","players":null}]}