{"status":true,"message":"","result":[{"server_id":9,"name":"Uncletopia | Atlanta | 1 | All Maps","name_short":"atl-1","host":"atl-1.us.uncletopia.com","port":27015,"enabled":true,"region":"us-east","cc":"us","latitude":33.753746,"longitude":-84.38633,"reserved":0,"last_update":"0001-01-01T00:00:00Z","name_a2s":"Uncletopia | Atlanta | 1 | All Maps","protocol":17,"map":"pl_frontier_final","folder":"tf","game":"Team Fortress","app_id":440,"player_count":24,"max_players":24,"Bots":0,"server_type":"Dedicated","server_os":"Linux","password":true,"vac":true,"version":"7742253","steam_id":85568392924469982,"keywords":["nocrits","nodmgspread","payload","uncletopia"],"game_id":440,"stv_port":27016,"stv_name":"Uncletopia | Atlanta | 1 | All Maps | STV","players":[{"user_id":3,"name":"newyears.jimmy.2014","steam_id":76561199177672325,"connected_time":9242000000000,"state":"active","ping":42},{"user_id":120,"name":"Lloyd Braun","steam_id":76561197996180869,"connected_time":109000000000,"state":"active","ping":59},{"user_id":105,"name":"fritzzl","steam_id":76561199067153815,"connected_time":1316000000000,"state":"active","ping":100},{"user_id":114,"name":"ATL1 | Pango","steam_id":76561198069811545,"connected_time":628000000000,"state":"active","ping":44},{"user_id":74,"name":"Stauxie","steam_id":76561198255030077,"connected_time":3072000000000,"state":"active","ping":57},{"user_id":103,"name":"qwertyuiop[]\\asdfghjkl;","steam_id":76561198119826352,"connected_time":1728000000000,"state":"active","ping":60},{"user_id":42,"name":"bear","steam_id":76561198083276946,"connected_time":6001000000000,"state":"active","ping":60},{"user_id":75,"name":"Scorch","steam_id":76561198167024005,"connected_time":3047000000000,"state":"active","ping":60},{"user_id":117,"name":"exer","steam_id":76561197973093864,"connected_time":122000000000,"state":"active","ping":60},{"user_id":78,"name":"Mr.Mug","steam_id":76561199282207802,"connected_time":2923000000000,"state":"active","ping":73},{"user_id":116,"name":"Cad","steam_id":76561198312145232,"connected_time":493000000000,"state":"active","ping":79},{"user_id":108,"name":"mxgic","steam_id":76561198354656195,"connected_time":1166000000000,"state":"active","ping":117},{"user_id":118,"name":"Sandor","steam_id":76561198067899943,"connected_time":121000000000,"state":"active","ping":59},{"user_id":119,"name":"DIYspaceship17","steam_id":76561199042640810,"connected_time":120000000000,"state":"active","ping":81},{"user_id":104,"name":"Thurricane","steam_id":76561198410724666,"connected_time":1677000000000,"state":"active","ping":74},{"user_id":124,"name":"Singularity","steam_id":76561198000284742,"connected_time":45000000000,"state":"active","ping":53},{"user_id":121,"name":"AliCeline","steam_id":76561198207017241,"connected_time":107000000000,"state":"active","ping":67},{"user_id":111,"name":"Twisted Cryptid","steam_id":76561198283785778,"connected_time":1131000000000,"state":"active","ping":69},{"user_id":24,"name":"CRAZY engineer","steam_id":76561198887937902,"connected_time":7166000000000,"state":"active","ping":89},{"user_id":122,"name":"Menlymen","steam_id":76561198046508051,"connected_time":94000000000,"state":"active","ping":87},{"user_id":95,"name":"Waffle Wannabe","steam_id":76561198064510650,"connected_time":2189000000000,"state":"active","ping":65},{"user_id":54,"name":"NoShen","steam_id":76561198147434663,"connected_time":5036000000000,"state":"active","ping":46},{"user_id":123,"name":"WX-78","steam_id":76561199117263527,"connected_time":64000000000,"state":"active","ping":58},{"user_id":125,"name":"World Of Illusions","steam_id":76561197995662897,"connected_time":22000000000,"state":"active","ping":160}]},{"server_id":400,"name":"Uncletopia | Atlanta | 3 | Stopwatch Beta","name_short":"atl-3","host":"atl-1.us.uncletopia.com","port":27035,"enabled":true,"region":"us-east","cc":"us","latitude":33.753746,"longitude":-84.38633,"reserved":0,"last_update":"0001-01-01T00:00:00Z","name_a2s":"Uncletopia | Atlanta | 3 | Stopwatch Beta","protocol":17,"map":"pl_pier","folder":"tf","game":"Team Fortress","app_id":440,"player_count":0,"max_players":24,"Bots":0,"server_type":"Dedicated","server_os":"Linux","password":true,"vac":true,"version":"7742253","steam_id":85568392924515187,"keywords":["nocrits","nodmgspread","payload","uncletopia"],"game_id":440,"stv_port":27036,"stv_name":"Uncletopia | Atlanta | 3 | Stopwatch Beta | STV","players":null},{"server_id":401,"name":"Uncletopia | Atlanta | 4 | No Payload","name_short":"atl-4","host":"atl-1.us.uncletopia.com","port":27045,"enabled":true,"region":"us-east","cc":"us","latitude":33.753746,"longitude":-84.38633,"reserved":0,"last_update":"0001-01-01T00:00:00Z","name_a2s":"Uncletopia | Atlanta | 4 | No Payload","protocol":17,"map":"pl_pier","folder":"tf","game":"Team Fortress","app_id":440,"player_count":0,"max_players":24,"Bots":0,"server_type":"Dedicated","server_os":"Linux","password":true,"vac":true,"version":"7723704","steam_id":85568392924515188,"keywords":["nocrits","nodmgspread","payload","uncletopia"],"game_id":440,"stv_port":27046,"stv_name":"Uncletopia | Atlanta | 4 | No Payload | STV","players":null},{"server_id":2,"name":"Uncletopia | Chicago | 1 | All Maps","name_short":"chi-1","host":"chi-1.us.uncletopia.com","port":27015,"enabled":true,"region":"us-central","cc":"us","latitude":41.881832,"longitude":-87.62318,"reserved":0,"last_update":"0001-01-01T00:00:00Z","name_a2s":"Uncletopia | Chicago | 1 | All Maps","protocol":17,"map":"pl_badwater","folder":"tf","game":"Team Fortress","app_id":440,"player_count":24,"max_players":24,"Bots":0,"server_type":"Dedicated","server_os":"Linux","password":true,"vac":true,"version":"7742253","steam_id":85568392924469984,"keywords":["nocrits","nodmgspread","payload","uncletopia"],"game_id":440,"stv_port":27016,"stv_name":"Uncletopia | Chicago | 1 | All Maps | STV","players":[{"user_id":69,"name":"Graeyarea","steam_id":76561198046250445,"connected_time":388000000000,"state":"active","ping":120},{"user_id":72,"name":"‚àÄ…ê","steam_id":76561198139718219,"connected_time":4000000000,"state":"spawning","ping":89},{"user_id":24,"name":"Schizophrenic with explosives","steam_id":76561198002964332,"connected_time":2786000000000,"state":"active","ping":61},{"user_id":26,"name":"cokersworld","steam_id":76561198039731344,"connected_time":2734000000000,"state":"active","ping":82},{"user_id":57,"name":"SquirrelAway‚Ñ¢","steam_id":76561197998828619,"connected_time":1485000000000,"state":"active","ping":72},{"user_id":64,"name":"stitchu27","steam_id":76561199087081376,"connected_time":947000000000,"state":"active","ping":76},{"user_id":61,"name":"mobe","steam_id":76561198121633820,"connected_time":1260000000000,"state":"active","ping":103},{"user_id":34,"name":"tbuoft","steam_id":76561198426655364,"connected_time":2406000000000,"state":"active","ping":74},{"user_id":22,"name":"Just-Some-Menace","steam_id":76561198152324397,"connected_time":2828000000000,"state":"active","ping":66},{"user_id":38,"name":"ginjitz","steam_id":76561199211170006,"connected_time":2330000000000,"state":"active","ping":170},{"user_id":54,"name":"merge without looking","steam_id":76561198056702628,"connected_time":1677000000000,"state":"active","ping":59},{"user_id":55,"name":"NerdyEnforcement","steam_id":76561198437710820,"connected_time":1669000000000,"state":"active","ping":52},{"user_id":62,"name":"Jimothy","steam_id":76561198982248872,"connected_time":1086000000000,"state":"active","ping":76},{"user_id":51,"name":"YungKeet","steam_id":76561198293854963,"connected_time":1772000000000,"state":"active","ping":81},{"user_id":63,"name":"Jailbreak","steam_id":76561198802085218,"connected_time":1079000000000,"state":"active","ping":76},{"user_id":65,"name":"Dr Frasier Crane","steam_id":76561198071790583,"connected_time":943000000000,"state":"active","ping":62},{"user_id":58,"name":"Omni-S","steam_id":76561198082396372,"connected_time":1413000000000,"state":"active","ping":69},{"user_id":53,"name":"BluTagg63„Äé·µÄ ∞·µÉ·µó·¥ÆÀ°·µò","steam_id":76561198827222309,"connected_time":1756000000000,"state":"active","ping":61},{"user_id":44,"name":"Ripheart","steam_id":76561198089661561,"connected_time":2158000000000,"state":"active","ping":58},{"user_id":70,"name":"Undercover Koala","steam_id":76561198004429020,"connected_time":366000000000,"state":"active","ping":100},{"user_id":56,"name":"Quentin","steam_id":76561198032941413,"connected_time":1573000000000,"state":"active","ping":79},{"user_id":59,"name":"Arjen PSN 23","steam_id":76561198963682232,"connected_time":1376000000000,"state":"active","ping":69},{"user_id":48,"name":"Scout","steam_id":76561198081464125,"connected_time":2046000000000,"state":"active","ping":62},{"user_id":49,"name":"Roz257","steam_id":76561198842844532,"connected_time":2000000000000,"state":"active","ping":84}]},{"server_id":106,"name":"Uncletopia | Chicago | 2 | All Maps","name_short":"chi-2","host":"chi-1.us.uncletopia.com","port":27025,"enabled":true,"region":"us-central","cc":"us","latitude":41.881832,"longitude":-87.62318,"reserved":0,"last_update":"0001-01-01T00:00:00Z","name_a2s":"Uncletopia | Chicago | 2 | All Maps","protocol":17,"map":"pl_snowycoast","folder":"tf","game":"Team Fortress","app_id":440,"player_count":0,"max_players":24,"Bots":0,"server_type":"Dedicated","server_os":"Linux","password":true,"vac":true,"version":"7742253","steam_id":85568392924469985,"keywords":["nocrits","nodmgspread","payload","uncletopia"],"game_id":440,"stv_port":27026,"stv_name":"Uncletopia | Chicago | 2 | All Maps | STV","players":null},{"server_id":402,"name":"Uncletopia | Chicago | 3 | All Maps","name_short":"chi-3","host":"chi-1.us.uncletopia.com","port":27035,"enabled":true,"region":"us-central","cc":"us","latitude":41.881832,"longitude":-87.62318,"reserved":0,"last_update":"0001-01-01T00:00:00Z","name_a2s":"Uncletopia | Chicago | 3 | All Maps","protocol":17,"map":"koth_harvest_final","folder":"tf","game":"Team Fortress","app_id":440,"player_count":24,"max_players":24,"Bots":0,"server_type":"Dedicated","server_os":"Linux","password":true,"vac":true,"version":"7742253","steam_id":85568392924515191,"keywords":["cp","nocrits","nodmgspread","uncletopia"],"game_id":440,"stv_port":27036,"stv_name":"Uncletopia | Chicago | 3 | All Maps | STV","players":[{"user_id":49,"name":"fifteen22","steam_id":76561198138781868,"connected_time":3250000000000,"state":"active","ping":67},{"user_id":4,"name":"Heroofchaos","steam_id":76561199106660090,"connected_time":6701000000000,"state":"active","ping":64},{"user_id":83,"name":"moron, son of boron","steam_id":76561198081681647,"connected_time":289000000000,"state":"active","ping":71},{"user_id":46,"name":"coffeeghost","steam_id":76561198155142385,"connected_time":3281000000000,"state":"active","ping":72},{"user_id":79,"name":"Crayfry","steam_id":76561198146525237,"connected_time":317000000000,"state":"active","ping":45},{"user_id":89,"name":"Uncle","steam_id":76561197988647705,"connected_time":114000000000,"state":"active","ping":57},{"user_id":76,"name":"the12xu","steam_id":76561198197086561,"connected_time":873000000000,"state":"active","ping":70},{"user_id":43,"name":"Lucon","steam_id":76561198067147724,"connected_time":3836000000000,"state":"active","ping":51},{"user_id":73,"name":"fvmilivr","steam_id":76561198094637461,"connected_time":1129000000000,"state":"active","ping":62},{"user_id":82,"name":"-flagellum","steam_id":76561198006297974,"connected_time":300000000000,"state":"active","ping":79},{"user_id":84,"name":"energem beholder","steam_id":76561197998344127,"connected_time":276000000000,"state":"active","ping":74},{"user_id":85,"name":"KOOSTIFF","steam_id":76561198053727976,"connected_time":265000000000,"state":"active","ping":72},{"user_id":51,"name":"Gas Can","steam_id":76561198162853003,"connected_time":3241000000000,"state":"active","ping":72},{"user_id":65,"name":"dr peppah chug!","steam_id":76561198068835693,"connected_time":2197000000000,"state":"active","ping":84},{"user_id":69,"name":"it comes with eggroll","steam_id":76561198337692867,"connected_time":1945000000000,"state":"active","ping":77},{"user_id":80,"name":"Rhutebeer","steam_id":76561198018302761,"connected_time":310000000000,"state":"active","ping":92},{"user_id":44,"name":"Scorpsy","steam_id":76561198024477688,"connected_time":3594000000000,"state":"active","ping":75},{"user_id":86,"name":"stop","steam_id":76561198268686419,"connected_time":263000000000,"state":"active","ping":52},{"user_id":72,"name":"ForShovelry1","steam_id":76561198149395527,"connected_time":1307000000000,"state":"active","ping":58},{"user_id":71,"name":"chalk","steam_id":76561198328109873,"connected_time":1755000000000,"state":"active","ping":77},{"user_id":67,"name":"Pixeled","steam_id":76561198088917077,"connected_time":2152000000000,"state":"active","ping":84},{"user_id":68,"name":"kametro4","steam_id":76561198835430429,"connected_time":2151000000000,"state":"active","ping":86},{"user_id":78,"name":"bigtrucker55649","steam_id":76561198288604502,"connected_time":416000000000,"state":"active","ping":79},{"user_id":87,"name":"boquifies","steam_id":76561199120493300,"connected_time":242000000000,"state":"active","ping":165}]},{"server_id":403,"name":"Uncletopia | Chicago | 4 | All Maps","name_short":"chi-4","host":"chi-1.us.uncletopia.com","port":27045,"enabled":true,"region":"us-central","cc":"us","latitude":41.881832,"longitude":-87.62318,"reserved":0,"last_update":"0001-01-01T00:00:00Z","name_a2s":"Uncletopia | Chicago | 4 | All Maps","protocol":17,"map":"pl_pier","folder":"tf","game":"Team Fortress","app_id":440,"player_count":0,"max_players":24,"Bots":0,"server_type":"Dedicated","server_os":"Linux","password":true,"vac":true,"version":"7742253","steam_id":85568392924515193,"keywords":["nocrits","nodmgspread","payload","uncletopia"],"game_id":440,"stv_port":27046,"stv_name":"Uncletopia | Chicago | 4 | All Maps | STV","players":null},{"server_id":36,"name":"Uncletopia | Chicago | 5 | All Maps","name_short":"chi-5","host":"chi-2.us.uncletopia.com","port":27015,"enabled":true,"region":"us-central","cc":"us","latitude":41.881832,"longitude":-87.62318,"reserved":0,"last_update":"0001-01-01T00:00:00Z","name_a2s":"Uncletopia | Chicago | 5 | All Maps","protocol":17,"map":"koth_highpass","folder":"tf","game":"Team Fortress","app_id":440,"player_count":0,"max_players":24,"Bots":0,"server_type":"Dedicated","server_os":"Linux","password":true,"vac":true,"version":"7742253","steam_id":85568392924866362,"keywords":["cp","nocrits","nodmgspread","uncletopia"],"game_id":440,"stv_port":27016,"stv_name":"Uncletopia | Chicago | 5 | All Maps | STV","players":null},{"server_id":37,"name":"Uncletopia | Chicago | 6 | All Maps","name_short":"chi-6","host":"chi-2.us.uncletopia.com","port":27025,"enabled":true,"region":"us-central","cc":"us","latitude":41.881832,"longitude":-87.62318,"reserved":0,"last_update":"0001-01-01T00:00:00Z","name_a2s":"Uncletopia | Chicago | 6 | All Maps","protocol":17,"map":"koth_lakeside_final","folder":"tf","game":"Team Fortress","app_id":440,"player_count":1,"max_players":24,"Bots":0,"server_type":"Dedicated","server_os":"Linux","password":true,"vac":true,"version":"7742253","steam_id":85568392924866363,"keywords":["cp","nocrits","nodmgspread","uncletopia"],"game_id":440,"stv_port":27026,"stv_name":"Uncletopia | Chicago | 6 | All Maps | STV","players":[{"user_id":6,"name":"Thefriendlyrussian","steam_id":76561199023796787,"connected_time":31000000000,"state":"connecting","ping":0}]},{"server_id":38,"name":"Uncletopia | Chicago | 7 | Stopwatch Beta","name_short":"chi-7","host":"chi-2.us.uncletopia.com","port":27035,"enabled":true,"region":"us-central","cc":"us","latitude":41.881832,"longitude":-87.62318,"reserved":0,"last_update":"0001-01-01T00:00:00Z","name_a2s":"Uncletopia | Chicago | 7 | Stopwatch Beta","protocol":17,"map":"workshop/koth_bagel_rc5.ugc2514036946","folder":"tf","game":"Team Fortress","app_id":440,"player_count":0,"max_players":24,"Bots":0,"server_type":"Dedicated","server_os":"Linux","password":true,"vac":true,"version":"7742253","steam_id":85568392924866364,"keywords":["cp","nocrits","nodmgspread","uncletopia"],"game_id":440,"stv_port":27036,"stv_name":"Uncletopia | Chicago | 7 | Stopwatch Beta | STV","players":null},{"server_id":39,"name":"Uncletopia | Chicago | 8 | Community","name_short":"chi-8","host":"chi-2.us.uncletopia.com","port":27045,"enabled":true,"region":"us-central","cc":"us","latitude":41.881832,"longitude":-87.62318,"reserved":0,"last_update":"0001-01-01T00:00:00Z","name_a2s":"Uncletopia | Chicago | 8 | Community","protocol":17,"map":"koth_lakeside_final","folder":"tf","game":"Team Fortress","app_id":440,"player_count":0,"max_players":24,"Bots":0,"server_type":"Dedicated","server_os":"Linux","password":true,"vac":true,"version":"7742253","steam_id":85568392924866365,"keywords":["cp","nocrits","nodmgspread","uncletopia"],"game_id":440,"stv_port":27046,"stv_name":"Uncletopia | Chicago | 8 | Community | STV","players":null},{"server_id":8,"name":"Uncletopia | Dallas | 1 | All Maps","name_short":"dal-1","host":"dal-1.us.uncletopia.com","port":27015,"enabled":true,"region":"us-central","cc":"us","latitude":32.779167,"longitude":-96.80889,"reserved":0,"last_update":"0001-01-01T00:00:00Z","name_a2s":"Uncletopia | Dallas | 1 | All Maps","protocol":17,"map":"pl_badwater","folder":"tf","game":"Team Fortress","app_id":440,"player_count":24,"max_players":24,"Bots":0,"server_type":"Dedicated","server_os":"Linux","password":true,"vac":true,"version":"7742253","steam_id":85568392924469986,"keywords":["nocrits","nodmgspread","payload","uncletopia"],"game_id":440,"stv_port":27016,"stv_name":"Uncletopia | Dallas | 1 | All Maps | STV","players":[{"user_id":179,"name":"SGT Disoriented","steam_id":76561198058177958,"connected_time":232000000000,"state":"active","ping":48},{"user_id":129,"name":"Sammy","steam_id":76561199027981643,"connected_time":4736000000000,"state":"active","ping":62},{"user_id":104,"name":"exTrEmE2055","steam_id":76561198199687529,"connected_time":7525000000000,"state":"active","ping":78},{"user_id":180,"name":"Shroob","steam_id":76561198041081978,"connected_time":86000000000,"state":"active","ping":90},{"user_id":161,"name":"Ventastega","steam_id":76561197999366317,"connected_time":1862000000000,"state":"active","ping":107},{"user_id":178,"name":"Coup de Grass","steam_id":76561198011643226,"connected_time":294000000000,"state":"active","ping":59},{"user_id":157,"name":"RedMustrd","steam_id":76561199246218857,"connected_time":2204000000000,"state":"active","ping":86},{"user_id":163,"name":"FUSION","steam_id":76561197972659738,"connected_time":1636000000000,"state":"active","ping":75},{"user_id":164,"name":"Teeheeman456","steam_id":76561198418971756,"connected_time":1605000000000,"state":"active","ping":68},{"user_id":181,"name":"Unionized Gnoll","steam_id":76561198005577021,"connected_time":71000000000,"state":"active","ping":63},{"user_id":165,"name":"Quansen","steam_id":76561198151594550,"connected_time":1577000000000,"state":"active","ping":75},{"user_id":158,"name":"Legal Helpy","steam_id":76561198399334453,"connected_time":2151000000000,"state":"active","ping":54},{"user_id":166,"name":"Yimi","steam_id":76561198097984345,"connected_time":1544000000000,"state":"active","ping":68},{"user_id":154,"name":"fudo myoo","steam_id":76561198456258164,"connected_time":2405000000000,"state":"active","ping":75},{"user_id":146,"name":"Brian","steam_id":76561198144650969,"connected_time":3068000000000,"state":"active","ping":105},{"user_id":172,"name":"ck_rene","steam_id":76561199079260488,"connected_time":1421000000000,"state":"active","ping":83},{"user_id":143,"name":"Red","steam_id":76561197998285162,"connected_time":3228000000000,"state":"active","ping":92},{"user_id":168,"name":"Todouw","steam_id":76561199197628378,"connected_time":1469000000000,"state":"active","ping":151},{"user_id":169,"name":"Karate","steam_id":76561198352187445,"connected_time":1446000000000,"state":"active","ping":76},{"user_id":170,"name":"CryoCrab12","steam_id":76561198398818373,"connected_time":1440000000000,"state":"active","ping":89},{"user_id":159,"name":"mini egg","steam_id":76561198954286468,"connected_time":2095000000000,"state":"active","ping":84},{"user_id":171,"name":"Warzard","steam_id":76561199154051413,"connected_time":1438000000000,"state":"active","ping":113},{"user_id":87,"name":"Elias","steam_id":76561198106431732,"connected_time":8527000000000,"state":"active","ping":78},{"user_id":174,"name":"Tritium","steam_id":76561198043305626,"connected_time":1372000000000,"state":"active","ping":96}]},{"server_id":108,"name":"Uncletopia | Dallas | 2 | All Maps","name_short":"dal-2","host":"dal-1.us.uncletopia.com","port":27025,"enabled":true,"region":"us-central","cc":"us","latitude":32.779167,"longitude":-96.80889,"reserved":0,"last_update":"0001-01-01T00:00:00Z","name_a2s":"Uncletopia | Dallas | 2 | All Maps","protocol":17,"map":"koth_viaduct","folder":"tf","game":"Team Fortress","app_id":440,"player_count":0,"max_players":24,"Bots":0,"server_type":"Dedicated","server_os":"Linux","password":true,"vac":true,"version":"7742253","steam_id":85568392924469988,"keywords":["cp","nocrits","nodmgspread","uncletopia"],"game_id":440,"stv_port":27026,"stv_name":"Uncletopia | Dallas | 2 | All Maps | STV","players":null},{"server_id":5,"name":"Uncletopia | Frankfurt | 1 | All Maps","name_short":"frk-1","host":"frk-1.de.uncletopia.com","port":27015,"enabled":true,"region":"eu","cc":"de","latitude":50.110924,"longitude":8.682127,"reserved":0,"last_update":"0001-01-01T00:00:00Z","name_a2s":"Uncletopia | Frankfurt | 1 | All Maps","protocol":17,"map":"cp_sunshine","folder":"tf","game":"Team Fortress","app_id":440,"player_count":24,"max_players":24,"Bots":0,"server_type":"Dedicated","server_os":"Linux","password":true,"vac":true,"version":"7742253","steam_id":85568392924469989,"keywords":["cp","nocrits","nodmgspread","uncletopia"],"game_id":440,"stv_port":27016,"stv_name":"Uncletopia | Frankfurt | 1 | All Maps | STV","players":[{"user_id":429,"name":"Soya Suki","steam_id":76561197998106435,"connected_time":1093000000000,"state":"active","ping":44},{"user_id":386,"name":"Landsknecht","steam_id":76561199293036742,"connected_time":4611000000000,"state":"active","ping":54},{"user_id":443,"name":"Gordon Birdman","steam_id":76561198013382324,"connected_time":88000000000,"state":"active","ping":75},{"user_id":423,"name":"Infantile Pillock","steam_id":76561198283851362,"connected_time":1834000000000,"state":"active","ping":59},{"user_id":435,"name":"Michael","steam_id":76561198003146906,"connected_time":928000000000,"state":"active","ping":65},{"user_id":441,"name":"dan.","steam_id":76561198098572024,"connected_time":346000000000,"state":"active","ping":63},{"user_id":418,"name":"Cippo95","steam_id":76561198255311582,"connected_time":2593000000000,"state":"active","ping":70},{"user_id":405,"name":"pepper","steam_id":76561198059782462,"connected_time":3370000000000,"state":"active","ping":50},{"user_id":400,"name":"C++","steam_id":76561198214855155,"connected_time":3685000000000,"state":"active","ping":65},{"user_id":434,"name":"JC","steam_id":76561198029213352,"connected_time":1020000000000,"state":"active","ping":49},{"user_id":332,"name":"Mi Manchi","steam_id":76561198171573129,"connected_time":9296000000000,"state":"active","ping":59},{"user_id":440,"name":"‚ôÇ Dungeon Master ‚ôÇ","steam_id":76561198106441033,"connected_time":376000000000,"state":"active","ping":104},{"user_id":424,"name":"Andreus","steam_id":76561199403926001,"connected_time":1741000000000,"state":"active","ping":69},{"user_id":426,"name":"LasagnaLarry22","steam_id":76561198089478290,"connected_time":1471000000000,"state":"active","ping":53},{"user_id":355,"name":"Bajas","steam_id":76561198179339326,"connected_time":7498000000000,"state":"active","ping":81},{"user_id":444,"name":"The Scout","steam_id":76561199057666269,"connected_time":13000000000,"state":"spawning","ping":79},{"user_id":428,"name":"The Funny Cat-Heaby","steam_id":76561198439978112,"connected_time":1146000000000,"state":"active","ping":104},{"user_id":336,"name":"real shellos hours","steam_id":76561198058012525,"connected_time":8849000000000,"state":"active","ping":76},{"user_id":432,"name":"BobTheBox","steam_id":76561198080894136,"connected_time":1058000000000,"state":"active","ping":60},{"user_id":379,"name":"TheShadowScribe","steam_id":76561199037525945,"connected_time":5292000000000,"state":"active","ping":89},{"user_id":442,"name":"fdavid","steam_id":76561198090277224,"connected_time":270000000000,"state":"active","ping":88},{"user_id":410,"name":"Sylbar","steam_id":76561198065379590,"connected_time":3150000000000,"state":"active","ping":66},{"user_id":425,"name":"Vershal Smershal","steam_id":76561198116223995,"connected_time":1531000000000,"state":"active","ping":61}]},{"server_id":110,"name":"Uncletopia | Frankfurt | 2 | All Maps","name_short":"frk-2","host":"frk-1.de.uncletopia.com","port":27025,"enabled":true,"region":"eu","cc":"de","latitude":50.110924,"longitude":8.682127,"reserved":0,"last_update":"0001-01-01T00:00:00Z","name_a2s":"Uncletopia | Frankfurt | 2 | All Maps","protocol":17,"map":"cp_mountainlab","folder":"tf","game":"Team Fortress","app_id":440,"player_count":4,"max_players":24,"Bots":0,"server_type":"Dedicated","server_os":"Linux","password":true,"vac":true,"version":"7742253","steam_id":85568392924469990,"keywords":["cp","nocrits","nodmgspread","uncletopia"],"game_id":440,"stv_port":27026,"stv_name":"Uncletopia | Frankfurt | 2 | All Maps | STV","players":[{"user_id":230,"name":"…ò∆ö…í‚ÖÉ…ò∆ö…í‚ÖÉ /./ =)(= \\.\\","steam_id":76561198053339372,"connected_time":128000000000,"state":"active","ping":115},{"user_id":228,"name":"WaterStop","steam_id":76561198057248243,"connected_time":174000000000,"state":"active","ping":91},{"user_id":229,"name":"ampersandbear","steam_id":76561198054336112,"connected_time":170000000000,"state":"active","ping":75},{"user_id":231,"name":"ProfessorCrack","steam_id":76561199035475627,"connected_time":100000000000,"state":"active","ping":75}]},{"server_id":308,"name":"Uncletopia | Frankfurt | 3 | All Maps","name_short":"frk-3","host":"frk-1.de.uncletopia.com","port":27035,"enabled":true,"region":"eu","cc":"de","latitude":50.110924,"longitude":8.682127,"reserved":0,"last_update":"0001-01-01T00:00:00Z","name_a2s":"Uncletopia | Frankfurt | 3 | All Maps","protocol":17,"map":"koth_cascade","folder":"tf","game":"Team Fortress","app_id":440,"player_count":0,"max_players":24,"Bots":0,"server_type":"Dedicated","server_os":"Linux","password":true,"vac":true,"version":"7742253","steam_id":85568392924504274,"keywords":["cp","nocrits","nodmgspread","uncletopia"],"game_id":440,"stv_port":27036,"stv_name":"Uncletopia | Frankfurt | 3 | All Maps | STV","players":null},{"server_id":309,"name":"Uncletopia | Frankfurt | 4 | All Maps","name_short":"frk-4","host":"frk-1.de.uncletopia.com","port":27045,"enabled":true,"region":"eu","cc":"de","latitude":50.110924,"longitude":8.682127,"reserved":0,"last_update":"0001-01-01T00:00:00Z","name_a2s":"Uncletopia | Frankfurt | 4 | All Maps","protocol":17,"map":"cp_mountainlab","folder":"tf","game":"Team Fortress","app_id":440,"player_count":24,"max_players":24,"Bots":0,"server_type":"Dedicated","server_os":"Linux","password":true,"vac":true,"version":"7742253","steam_id":85568392924504275,"keywords":["cp","nocrits","nodmgspread","uncletopia"],"game_id":440,"stv_port":27046,"stv_name":"Uncletopia | Frankfurt | 4 | All Maps | STV","players":[{"user_id":37,"name":"–°—Ç–∞—Å)","steam_id":76561198161215388,"connected_time":3529000000000,"state":"active","ping":120},{"user_id":59,"name":"nuts","steam_id":76561198125766089,"connected_time":2758000000000,"state":"active","ping":68},{"user_id":18,"name":"InfamousAxe","steam_id":76561198099504739,"connected_time":4891000000000,"state":"active","ping":110},{"user_id":101,"name":"Bones","steam_id":76561198065081225,"connected_time":28000000000,"state":"active","ping":84},{"user_id":50,"name":"–£–Ω–¥–µ—Ä–§–∞—Ñ–ª—è","steam_id":76561198059599948,"connected_time":2921000000000,"state":"active","ping":104},{"user_id":79,"name":"Laura ‚ù§","steam_id":76561198975652501,"connected_time":2306000000000,"state":"active","ping":90},{"user_id":26,"name":"PogoGogo","steam_id":76561198124435543,"connected_time":3898000000000,"state":"active","ping":74},{"user_id":88,"name":"Sreak","steam_id":76561198209131656,"connected_time":1477000000000,"state":"active","ping":45},{"user_id":95,"name":"Codename 50","steam_id":76561198024454833,"connected_time":431000000000,"state":"active","ping":149},{"user_id":85,"name":"Rayoo 420 BLAZE IT üêü","steam_id":76561198215225492,"connected_time":2056000000000,"state":"active","ping":60},{"user_id":31,"name":"Dedeil","steam_id":76561198254839532,"connected_time":3696000000000,"state":"active","ping":56},{"user_id":99,"name":"jormavainen","steam_id":76561198126115435,"connected_time":319000000000,"state":"active","ping":103},{"user_id":94,"name":"AforeKingDwarf","steam_id":76561198043562926,"connected_time":710000000000,"state":"active","ping":56},{"user_id":65,"name":"Distant Skies","steam_id":76561198168929678,"connected_time":2602000000000,"state":"active","ping":78},{"user_id":96,"name":"Stinker_05","steam_id":76561198058320327,"connected_time":423000000000,"state":"active","ping":87},{"user_id":97,"name":"NaN","steam_id":76561198071098413,"connected_time":341000000000,"state":"active","ping":54},{"user_id":66,"name":"GEEBUZ","steam_id":76561198046829164,"connected_time":2600000000000,"state":"active","ping":90},{"user_id":55,"name":"Tedkon","steam_id":76561198034141061,"connected_time":2803000000000,"state":"active","ping":130},{"user_id":93,"name":"BinaryTrees","steam_id":76561198046819746,"connected_time":899000000000,"state":"active","ping":41},{"user_id":98,"name":"TTV/pablo_ricco","steam_id":76561198279839318,"connected_time":334000000000,"state":"active","ping":81},{"user_id":86,"name":"PWizard","steam_id":76561198026458489,"connected_time":2053000000000,"state":"active","ping":77},{"user_id":76,"name":"Ser.Herpiman","steam_id":76561198314165728,"connected_time":2453000000000,"state":"active","ping":88},{"user_id":100,"name":"Val","steam_id":76561198039196844,"connected_time":315000000000,"state":"active","ping":105},{"user_id":78,"name":"Average Sniper Enjoyer","steam_id":76561197965556042,"connected_time":2421000000000,"state":"active","ping":92}]},{"server_id":310,"name":"Uncletopia | Frankfurt | 5 | All Maps","name_short":"frk-5","host":"frk-1.de.uncletopia.com","port":27055,"enabled":true,"region":"eu","cc":"de","latitude":50.110924,"longitude":8.682127,"reserved":0,"last_update":"0001-01-01T00:00:00Z","name_a2s":"Uncletopia | Frankfurt | 5 | All Maps","protocol":17,"map":"pl_pier","folder":"tf","game":"Team Fortress","app_id":440,"player_count":24,"max_players":24,"Bots":0,"server_type":"Dedicated","server_os":"Linux","password":true,"vac":true,"version":"7742253","steam_id":85568392924504277,"keywords":["nocrits","nodmgspread","payload","uncletopia"],"game_id":440,"stv_port":27056,"stv_name":"Uncletopia | Frankfurt | 5 | All Maps | STV","players":[{"user_id":341,"name":"Loop_Cat","steam_id":76561199045902145,"connected_time":1238000000000,"state":"active","ping":110},{"user_id":317,"name":"Doriian","steam_id":76561198071438810,"connected_time":2472000000000,"state":"active","ping":79},{"user_id":351,"name":"I was good before.","steam_id":76561198187045217,"connected_time":345000000000,"state":"active","ping":68},{"user_id":305,"name":"ksg","steam_id":76561198042894236,"connected_time":4148000000000,"state":"active","ping":74},{"user_id":330,"name":"TheWisePenny","steam_id":76561198196492146,"connected_time":1488000000000,"state":"active","ping":58},{"user_id":343,"name":"–ë–ª–∞–≥–æ–¥–∞—Ç–Ω—ã–π–•–æ–º—è\ufffd","steam_id":76561198001687159,"connected_time":854000000000,"state":"active","ping":81},{"user_id":346,"name":"Superfudge","steam_id":76561198336342475,"connected_time":507000000000,"state":"active","ping":70},{"user_id":347,"name":"Zelumie","steam_id":76561198147335801,"connected_time":494000000000,"state":"active","ping":161},{"user_id":310,"name":"glyph","steam_id":76561197980736364,"connected_time":3699000000000,"state":"active","ping":77},{"user_id":348,"name":"Saul Goodsex","steam_id":76561198173218318,"connected_time":448000000000,"state":"active","ping":50},{"user_id":336,"name":"NiKoRo","steam_id":76561197963686614,"connected_time":1408000000000,"state":"active","ping":89},{"user_id":278,"name":"bro.","steam_id":76561198053394831,"connected_time":5523000000000,"state":"active","ping":66},{"user_id":324,"name":"–î–µ–Ω–∏—Å –ë–∞–∑—É–∫–∞","steam_id":76561198835849082,"connected_time":1639000000000,"state":"active","ping":110},{"user_id":329,"name":"Great Teacher Onizuka","steam_id":76561198808819694,"connected_time":1496000000000,"state":"active","ping":45},{"user_id":349,"name":"SoupER","steam_id":76561198063056668,"connected_time":372000000000,"state":"active","ping":54},{"user_id":339,"name":"Uncle Lame","steam_id":76561198089003514,"connected_time":1318000000000,"state":"active","ping":45},{"user_id":255,"name":"subway vergil","steam_id":76561199110064166,"connected_time":8014000000000,"state":"active","ping":102},{"user_id":344,"name":"wertiop","steam_id":76561198260627072,"connected_time":594000000000,"state":"active","ping":80},{"user_id":326,"name":"Knoxxen","steam_id":76561198071114510,"connected_time":1620000000000,"state":"active","ping":61},{"user_id":350,"name":"DoctorTopLeL","steam_id":76561198088533595,"connected_time":354000000000,"state":"active","ping":113},{"user_id":352,"name":"f0x","steam_id":76561198072921704,"connected_time":322000000000,"state":"active","ping":69},{"user_id":342,"name":"Eliminated","steam_id":76561199042470246,"connected_time":1042000000000,"state":"active","ping":60},{"user_id":340,"name":"Yona_Man_Jones","steam_id":76561198986032201,"connected_time":1263000000000,"state":"active","ping":106},{"user_id":353,"name":"Xayir","steam_id":76561198079566786,"connected_time":318000000000,"state":"active","ping":64}]},{"server_id":311,"name":"Uncletopia | Frankfurt | 6 | All Maps","name_short":"frk-6","host":"frk-1.de.uncletopia.com","port":27065,"enabled":true,"region":"eu","cc":"de","latitude":50.110924,"longitude":8.682127,"reserved":0,"last_update":"0001-01-01T00:00:00Z","name_a2s":"Uncletopia | Frankfurt | 6 | All Maps","protocol":17,"map":"pl_barnblitz","folder":"tf","game":"Team Fortress","app_id":440,"player_count":24,"max_players":24,"Bots":0,"server_type":"Dedicated","server_os":"Linux","password":true,"vac":true,"version":"7742253","steam_id":85568392924504278,"keywords":["nocrits","nodmgspread","payload","uncletopia"],"game_id":440,"stv_port":27066,"stv_name":"Uncletopia | Frankfurt | 6 | All Maps | STV","players":[{"user_id":165,"name":"simonjohna646","steam_id":76561199403481880,"connected_time":81000000000,"state":"active","ping":82},{"user_id":129,"name":"The Fellow Feller","steam_id":76561198188864306,"connected_time":1747000000000,"state":"active","ping":58},{"user_id":127,"name":"bubblojoe","steam_id":76561198044534119,"connected_time":1815000000000,"state":"active","ping":61},{"user_id":108,"name":"mohemmedmokhter2005","steam_id":76561199197650506,"connected_time":3059000000000,"state":"active","ping":116},{"user_id":138,"name":"Lewee","steam_id":76561198058828018,"connected_time":1103000000000,"state":"active","ping":61},{"user_id":110,"name":"YeetusFeetus","steam_id":76561199043598948,"connected_time":2626000000000,"state":"active","ping":118},{"user_id":154,"name":"Suat","steam_id":76561198052327588,"connected_time":214000000000,"state":"active","ping":107},{"user_id":86,"name":"Protector.CZ","steam_id":76561197972341084,"connected_time":4301000000000,"state":"active","ping":65},{"user_id":140,"name":"Locke","steam_id":76561198339408300,"connected_time":781000000000,"state":"active","ping":75},{"user_id":116,"name":"unconnected","steam_id":76561199216923710,"connected_time":2396000000000,"state":"active","ping":134},{"user_id":157,"name":"Tonne","steam_id":76561197970856766,"connected_time":182000000000,"state":"active","ping":49},{"user_id":142,"name":"Dolcelatte","steam_id":76561198038501770,"connected_time":619000000000,"state":"active","ping":60},{"user_id":164,"name":"panakid","steam_id":76561198364121077,"connected_time":105000000000,"state":"active","ping":96},{"user_id":134,"name":"DogBazooka23","steam_id":76561198251943518,"connected_time":1192000000000,"state":"active","ping":55},{"user_id":80,"name":"Mr. Mundy","steam_id":76561198132008918,"connected_time":4594000000000,"state":"active","ping":76},{"user_id":163,"name":"-=ScoRpioN=-","steam_id":76561197971491109,"connected_time":111000000000,"state":"active","ping":91},{"user_id":159,"name":"rwota","steam_id":76561198385769722,"connected_time":154000000000,"state":"active","ping":96},{"user_id":31,"name":"Hexagon","steam_id":76561198151205758,"connected_time":7508000000000,"state":"active","ping":47},{"user_id":152,"name":"linkinparkfan123","steam_id":76561199033782005,"connected_time":261000000000,"state":"active","ping":81},{"user_id":145,"name":"JoJoMaMa","steam_id":76561199072686648,"connected_time":559000000000,"state":"active","ping":76},{"user_id":147,"name":"dispenser (vibegoose)","steam_id":76561199065362078,"connected_time":341000000000,"state":"active","ping":61},{"user_id":160,"name":"Kruthal","steam_id":76561198245726582,"connected_time":143000000000,"state":"active","ping":76},{"user_id":139,"name":"Zelmor","steam_id":76561197997708311,"connected_time":1064000000000,"state":"active","ping":53},{"user_id":97,"name":"thebadgerzoo","steam_id":76561198811205360,"connected_time":3948000000000,"state":"active","ping":181}]},{"server_id":23,"name":"Uncletopia | Frankfurt | 7 | Stopwatch Beta","name_short":"frk-7","host":"frk-1.de.uncletopia.com","port":27075,"enabled":true,"region":"eu","cc":"de","latitude":50.110924,"longitude":8.682127,"reserved":0,"last_update":"0001-01-01T00:00:00Z","name_a2s":"Uncletopia | Frankfurt | 7 | Stopwatch Beta","protocol":17,"map":"workshop/pl_summercoast_rc8e.ugc1761528829","folder":"tf","game":"Team Fortress","app_id":440,"player_count":0,"max_players":24,"Bots":0,"server_type":"Dedicated","server_os":"Linux","password":true,"vac":true,"version":"7742253","steam_id":85568392924742827,"keywords":["nocrits","nodmgspread","payload","uncletopia"],"game_id":440,"stv_port":27076,"stv_name":"Uncletopia | Frankfurt | 7 | Stopwatch Beta | STV","players":null},{"server_id":24,"name":"Uncletopia | Frankfurt | 8 | Community","name_short":"frk-8","host":"frk-1.de.uncletopia.com","port":27085,"enabled":true,"region":"eu","cc":"de","latitude":50.110924,"longitude":8.682127,"reserved":0,"last_update":"0001-01-01T00:00:00Z","name_a2s":"Uncletopia | Frankfurt | 8 | Community","protocol":17,"map":"workshop/pl_vigil_rc9.ugc1266210012","folder":"tf","game":"Team Fortress","app_id":440,"player_count":1,"max_players":24,"Bots":0,"server_type":"Dedicated","server_os":"Linux","password":true,"vac":true,"version":"7742253","steam_id":85568392924742828,"keywords":["nocrits","nodmgspread","payload","uncletopia"],"game_id":440,"stv_port":27086,"stv_name":"Uncletopia | Frankfurt | 8 | Community | STV","players":[{"user_id":297,"name":"quadr","steam_id":76561198871716755,"connected_time":174000000000,"state":"active","ping":92}]},{"server_id":202,"name":"Uncletopia | Hong Kong | 1 | All Maps","name_short":"hgk-1","host":"hgk-1.hk.uncletopia.com","port":27015,"enabled":true,"region":"asia","cc":"hk","latitude":22.302711,"longitude":114.177216,"reserved":0,"last_update":"0001-01-01T00:00:00Z","name_a2s":"Uncletopia | Hong Kong | 1 | All Maps","protocol":17,"map":"pl_snowycoast","folder":"tf","game":"Team Fortress","app_id":440,"player_count":24,"max_players":24,"Bots":0,"server_type":"Dedicated","server_os":"Linux","password":true,"vac":true,"version":"7742253","steam_id":85568392924494504,"keywords":["nocrits","nodmgspread","payload","uncletopia"],"game_id":440,"stv_port":27016,"stv_name":"Uncletopia | Hong Kong | 1 | All Maps | STV","players":[{"user_id":774,"name":"TomProPlayer","steam_id":76561199223292521,"connected_time":1582000000000,"state":"active","ping":66},{"user_id":813,"name":"LuCYMuSIC","steam_id":76561198843414093,"connected_time":66000000000,"state":"active","ping":55},{"user_id":781,"name":"ÊØç„ÅÆËÇâÂõ£Â≠ê","steam_id":76561198069561896,"connected_time":1185000000000,"state":"active","ping":42},{"user_id":797,"name":"Violezine","steam_id":76561199000502615,"connected_time":798000000000,"state":"active","ping":81},{"user_id":666,"name":"v1.","steam_id":76561198037571054,"connected_time":10627000000000,"state":"active","ping":42},{"user_id":716,"name":"twitch.tv/vision515","steam_id":76561198065293729,"connected_time":6339000000000,"state":"active","ping":158},{"user_id":787,"name":"Him Him Ung","steam_id":76561198204789021,"connected_time":1126000000000,"state":"active","ping":50},{"user_id":760,"name":"goodly rotten apple","steam_id":76561198136506876,"connected_time":3054000000000,"state":"active","ping":62},{"user_id":788,"name":"Skyler White yo","steam_id":76561198895193247,"connected_time":1104000000000,"state":"active","ping":68},{"user_id":717,"name":"Ê≤°ÊúâÂÜ∞Ê∑áÊ∑ãÂìàÂìà","steam_id":76561199158327323,"connected_time":6331000000000,"state":"active","ping":77},{"user_id":784,"name":"big poo (training arc)","steam_id":76561199104552936,"connected_time":1153000000000,"state":"active","ping":119},{"user_id":786,"name":"elite anarchest","steam_id":76561198411982822,"connected_time":1132000000000,"state":"active","ping":113},{"user_id":775,"name":"Degenerate and Deranged","steam_id":76561198403808601,"connected_time":1347000000000,"state":"active","ping":83},{"user_id":809,"name":"uptriste","steam_id":76561198158666692,"connected_time":381000000000,"state":"active","ping":38},{"user_id":776,"name":"Ïø†ÌÇ§","steam_id":76561197997220367,"connected_time":1303000000000,"state":"active","ping":49},{"user_id":742,"name":":D","steam_id":76561198009692495,"connected_time":4528000000000,"state":"active","ping":84},{"user_id":807,"name":"Du57Y","steam_id":76561198120973476,"connected_time":531000000000,"state":"active","ping":84},{"user_id":812,"name":"Remember, drink water","steam_id":76561198061484697,"connected_time":231000000000,"state":"active","ping":44},{"user_id":744,"name":"ratfucker47","steam_id":76561198413116920,"connected_time":4362000000000,"state":"active","ping":88},{"user_id":773,"name":"Momoxhien","steam_id":76561198414997429,"connected_time":1725000000000,"state":"active","ping":66},{"user_id":782,"name":"Talkk More","steam_id":76561198305424433,"connected_time":1185000000000,"state":"active","ping":100},{"user_id":761,"name":"ScaldingCoffee","steam_id":76561199053910995,"connected_time":2820000000000,"state":"active","ping":86},{"user_id":778,"name":"Mega 00F","steam_id":76561198962485791,"connected_time":1278000000000,"state":"active","ping":88},{"user_id":811,"name":"Gregory","steam_id":76561199038664603,"connected_time":255000000000,"state":"active","ping":107}]},{"server_id":1,"name":"Uncletopia | Los Angeles | 1 | All Maps","name_short":"lax-1","host":"lax-1.us.uncletopia.com","port":27015,"enabled":true,"region":"us-west","cc":"us","latitude":33.94279,"longitude":-118.41004,"reserved":0,"last_update":"0001-01-01T00:00:00Z","name_a2s":"Uncletopia | Los Angeles | 1 | All Maps","protocol":17,"map":"cp_dustbowl","folder":"tf","game":"Team Fortress","app_id":440,"player_count":0,"max_players":24,"Bots":0,"server_type":"Dedicated","server_os":"Linux","password":true,"vac":true,"version":"7742253","steam_id":85568392924469991,"keywords":["cp","nocrits","nodmgspread","uncletopia"],"game_id":440,"stv_port":27016,"stv_name":"Uncletopia | Los Angeles | 1 | All Maps | STV","players":null},{"server_id":112,"name":"Uncletopia | Los Angeles | 2 | All Maps","name_short":"lax-2","host":"lax-1.us.uncletopia.com","port":27025,"enabled":true,"region":"us-west","cc":"us","latitude":33.94279,"longitude":-118.41004,"reserved":0,"last_update":"0001-01-01T00:00:00Z","name_a2s":"Uncletopia | Los Angeles | 2 | All Maps","protocol":17,"map":"pl_swiftwater_final1","folder":"tf","game":"Team Fortress","app_id":440,"player_count":0,"max_players":24,"Bots":0,"server_type":"Dedicated","server_os":"Linux","password":true,"vac":true,"version":"7742253","steam_id":85568392924469992,"keywords":["nocrits","nodmgspread","payload","uncletopia"],"game_id":440,"stv_port":27026,"stv_name":"Uncletopia | Los Angeles | 2 | All Maps | STV","players":null},{"server_id":324,"name":"Uncletopia | Los Angeles | 3 | All Maps","name_short":"lax-3","host":"lax-1.us.uncletopia.com","port":27035,"enabled":true,"region":"us-west","cc":"us","latitude":33.94279,"longitude":-118.41004,"reserved":0,"last_update":"0001-01-01T00:00:00Z","name_a2s":"Uncletopia | Los Angeles | 3 | All Maps","protocol":17,"map":"cp_snakewater_final1","folder":"tf","game":"Team Fortress","app_id":440,"player_count":0,"max_players":24,"Bots":0,"server_type":"Dedicated","server_os":"Linux","password":true,"vac":true,"version":"7742253","steam_id":85568392924510198,"keywords":["cp","nocrits","nodmgspread","uncletopia"],"game_id":440,"stv_port":27036,"stv_name":"Uncletopia | Los Angeles | 3 | All Maps | STV","players":null},{"server_id":25,"name":"Uncletopia | Los Angeles | 4 | Stopwatch Beta","name_short":"lax-4","host":"lax-1.us.uncletopia.com","port":27045,"enabled":true,"region":"us-west","cc":"us","latitude":33.94279,"longitude":-118.41004,"reserved":0,"last_update":"0001-01-01T00:00:00Z","name_a2s":"Uncletopia | Los Angeles | 4 | Stopwatch Beta","protocol":17,"map":"cp_snakewater_final1","folder":"tf","game":"Team Fortress","app_id":440,"player_count":0,"max_players":24,"Bots":0,"server_type":"Dedicated","server_os":"Linux","password":true,"vac":true,"version":"7742253","steam_id":85568392924510199,"keywords":["cp","nocrits","nodmgspread","uncletopia"],"game_id":440,"stv_port":27046,"stv_name":"Uncletopia | Los Angeles | 4 | Stopwatch Beta | STV","players":null},{"server_id":11,"name":"Uncletopia | London | 1 | All Maps","name_short":"lon-1","host":"lon-1.uk.uncletopia.com","port":27015,"enabled":true,"region":"eu","cc":"gb","latitude":51.509865,"longitude":-0.118092,"reserved":0,"last_update":"0001-01-01T00:00:00Z","name_a2s":"Uncletopia | London | 1 | All Maps","protocol":17,"map":"pl_badwater","folder":"tf","game":"Team Fortress","app_id":440,"player_count":25,"max_players":24,"Bots":0,"server_type":"Dedicated","server_os":"Linux","password":true,"vac":true,"version":"7742253","steam_id":85568392924367362,"keywords":["nocrits","nodmgspread","payload","uncletopia"],"game_id":440,"stv_port":27016,"stv_name":"Uncletopia | London | 1 | All Maps | STV","players":[{"user_id":226,"name":"Hermitcrack","steam_id":76561198149216441,"connected_time":699000000000,"state":"active","ping":75},{"user_id":238,"name":"Mlanky","steam_id":76561198047796778,"connected_time":56000000000,"state":"active","ping":37},{"user_id":228,"name":"UltimateSlayer","steam_id":76561198384109309,"connected_time":414000000000,"state":"active","ping":57},{"user_id":203,"name":"Rask","steam_id":76561198052934944,"connected_time":1674000000000,"state":"active","ping":82},{"user_id":239,"name":"PokiMann","steam_id":76561198189055357,"connected_time":51000000000,"state":"active","ping":63},{"user_id":231,"name":"AWJ ÀÜ-ÀÜ","steam_id":76561198053628243,"connected_time":214000000000,"state":"active","ping":45},{"user_id":235,"name":"BigGuyGeorge","steam_id":76561198043141880,"connected_time":95000000000,"state":"active","ping":60},{"user_id":234,"name":"Jainpeur","steam_id":76561198037938833,"connected_time":102000000000,"state":"active","ping":49},{"user_id":215,"name":"Jaku-Zama","steam_id":76561198096557915,"connected_time":1342000000000,"state":"active","ping":73},{"user_id":181,"name":"Green","steam_id":76561198183580019,"connected_time":3229000000000,"state":"active","ping":74},{"user_id":157,"name":"Hrafnin","steam_id":76561197970358069,"connected_time":5130000000000,"state":"active","ping":73},{"user_id":237,"name":"Lord Hobo!","steam_id":76561198037967654,"connected_time":62000000000,"state":"active","ping":63},{"user_id":225,"name":"Osmo","steam_id":76561199286764992,"connected_time":806000000000,"state":"active","ping":95},{"user_id":224,"name":"Kotlet schabowy","steam_id":76561198048983509,"connected_time":954000000000,"state":"active","ping":85},{"user_id":207,"name":"dgz","steam_id":76561197979345019,"connected_time":1587000000000,"state":"active","ping":79},{"user_id":173,"name":"Rambi","steam_id":76561199058078505,"connected_time":4143000000000,"state":"active","ping":164},{"user_id":208,"name":"Puzzles","steam_id":76561198137106459,"connected_time":1523000000000,"state":"active","ping":60},{"user_id":227,"name":"Jan005","steam_id":76561198410047633,"connected_time":617000000000,"state":"active","ping":55},{"user_id":232,"name":"Tywhip","steam_id":76561199207545191,"connected_time":118000000000,"state":"active","ping":57},{"user_id":240,"name":"this is pointless","steam_id":76561198093605066,"connected_time":47000000000,"state":"spawning","ping":107},{"user_id":243,"name":"possiblename","steam_id":76561199064350902,"connected_time":15000000000,"state":"connecting","ping":0},{"user_id":242,"name":"hinfort","steam_id":76561198046354794,"connected_time":40000000000,"state":"spawning","ping":56},{"user_id":178,"name":"Borat","steam_id":76561198122226417,"connected_time":3847000000000,"state":"active","ping":41},{"user_id":200,"name":"Talent","steam_id":76561198153880354,"connected_time":1998000000000,"state":"active","ping":43},{"user_id":220,"name":"thefatcontroller","steam_id":76561199332965146,"connected_time":1185000000000,"state":"active","ping":93}]},{"server_id":114,"name":"Uncletopia | London | 2 | All Maps","name_short":"lon-2","host":"lon-1.uk.uncletopia.com","port":27025,"enabled":true,"region":"eu","cc":"gb","latitude":51.509865,"longitude":-0.118092,"reserved":0,"last_update":"0001-01-01T00:00:00Z","name_a2s":"Uncletopia | London | 2 | All Maps","protocol":17,"map":"pl_borneo","folder":"tf","game":"Team Fortress","app_id":440,"player_count":24,"max_players":24,"Bots":0,"server_type":"Dedicated","server_os":"Linux","password":true,"vac":true,"version":"7742253","steam_id":85568392924470941,"keywords":["nocrits","nodmgspread","payload","uncletopia"],"game_id":440,"stv_port":27026,"stv_name":"Uncletopia | London | 2 | All Maps | STV","players":[{"user_id":445,"name":"risco1bolota","steam_id":76561198323074603,"connected_time":6762000000000,"state":"active","ping":106},{"user_id":526,"name":"Fortezza","steam_id":76561198972539903,"connected_time":741000000000,"state":"active","ping":60},{"user_id":471,"name":"Regan","steam_id":76561198100631086,"connected_time":4812000000000,"state":"active","ping":48},{"user_id":431,"name":"Blo","steam_id":76561198161651469,"connected_time":7472000000000,"state":"active","ping":48},{"user_id":528,"name":":D","steam_id":76561198106788720,"connected_time":597000000000,"state":"active","ping":82},{"user_id":492,"name":"arcSolver","steam_id":76561198212013944,"connected_time":3221000000000,"state":"active","ping":44},{"user_id":521,"name":"?","steam_id":76561198030022305,"connected_time":1047000000000,"state":"active","ping":97},{"user_id":484,"name":"Duarte‚Ñ¢","steam_id":76561198131456324,"connected_time":3810000000000,"state":"active","ping":98},{"user_id":519,"name":"Prox","steam_id":76561198351490981,"connected_time":1423000000000,"state":"active","ping":38},{"user_id":515,"name":"Syetriz","steam_id":76561198058616414,"connected_time":1668000000000,"state":"active","ping":80},{"user_id":495,"name":"Rosehip","steam_id":76561198860690846,"connected_time":3162000000000,"state":"active","ping":114},{"user_id":517,"name":"Koalified","steam_id":76561198095350290,"connected_time":1645000000000,"state":"active","ping":180},{"user_id":530,"name":"Pence","steam_id":76561198124994550,"connected_time":31000000000,"state":"spawning","ping":54},{"user_id":502,"name":"G/3","steam_id":76561198234844188,"connected_time":2696000000000,"state":"active","ping":59},{"user_id":427,"name":"spy gaming","steam_id":76561198410955546,"connected_time":7692000000000,"state":"active","ping":84},{"user_id":514,"name":"Nobaddy","steam_id":76561198037871007,"connected_time":1835000000000,"state":"active","ping":76},{"user_id":496,"name":"israelimostwanted","steam_id":76561199277727142,"connected_time":3155000000000,"state":"active","ping":123},{"user_id":497,"name":"look buddy","steam_id":76561198161824724,"connected_time":3134000000000,"state":"active","ping":133},{"user_id":486,"name":"Feelin' Supersonic","steam_id":76561198005738407,"connected_time":3775000000000,"state":"active","ping":90},{"user_id":490,"name":"–ì–¥–µ –º–æ—Ä–µ?","steam_id":76561197979625544,"connected_time":3466000000000,"state":"active","ping":94},{"user_id":505,"name":"Purple Pumpkin","steam_id":76561199030211616,"connected_time":2540000000000,"state":"active","ping":143},{"user_id":523,"name":"Grovier","steam_id":76561198391878348,"connected_time":981000000000,"state":"active","ping":90},{"user_id":500,"name":"God¬¥s Cock","steam_id":76561198058947923,"connected_time":2922000000000,"state":"active","ping":65},{"user_id":525,"name":"„Ç¥M1n3ru„Ç¥","steam_id":76561198994711138,"connected_time":762000000000,"state":"active","ping":83}]},{"server_id":320,"name":"Uncletopia | London | 3 | All Maps","name_short":"lon-3","host":"lon-1.uk.uncletopia.com","port":27035,"enabled":true,"region":"eu","cc":"gb","latitude":51.509865,"longitude":-0.118092,"reserved":0,"last_update":"0001-01-01T00:00:00Z","name_a2s":"Uncletopia | London | 3 | All Maps","protocol":17,"map":"pl_barnblitz","folder":"tf","game":"Team Fortress","app_id":440,"player_count":24,"max_players":24,"Bots":0,"server_type":"Dedicated","server_os":"Linux","password":true,"vac":true,"version":"7742253","steam_id":85568392924510192,"keywords":["nocrits","nodmgspread","payload","uncletopia"],"game_id":440,"stv_port":27036,"stv_name":"Uncletopia | London | 3 | All Maps | STV","players":[{"user_id":243,"name":"Woodsman","steam_id":76561198083570900,"connected_time":450000000000,"state":"active","ping":139},{"user_id":203,"name":"sniffin out trouble","steam_id":76561198259668029,"connected_time":3530000000000,"state":"active","ping":44},{"user_id":242,"name":"Laurie","steam_id":76561198082951750,"connected_time":481000000000,"state":"active","ping":44},{"user_id":229,"name":"The Erotic Barber","steam_id":76561198423902979,"connected_time":1825000000000,"state":"active","ping":45},{"user_id":239,"name":"kuiperc","steam_id":76561198169511570,"connected_time":1003000000000,"state":"active","ping":46},{"user_id":235,"name":"JebusTheSavior","steam_id":76561197970083444,"connected_time":1329000000000,"state":"active","ping":124},{"user_id":244,"name":"Drdarlekzzz","steam_id":76561198160141785,"connected_time":415000000000,"state":"active","ping":45},{"user_id":245,"name":"aikeb","steam_id":76561198137506427,"connected_time":371000000000,"state":"active","ping":91},{"user_id":198,"name":"Keelan","steam_id":76561198013665543,"connected_time":3761000000000,"state":"active","ping":60},{"user_id":251,"name":"kaT","steam_id":76561198879664338,"connected_time":75000000000,"state":"spawning","ping":75},{"user_id":162,"name":"night.s","steam_id":76561198326287823,"connected_time":6398000000000,"state":"active","ping":87},{"user_id":215,"name":"Foxyz","steam_id":76561198040642992,"connected_time":3050000000000,"state":"active","ping":93},{"user_id":218,"name":"Bozo","steam_id":76561198995009722,"connected_time":2697000000000,"state":"active","ping":88},{"user_id":227,"name":"Sonny","steam_id":76561198042064091,"connected_time":1935000000000,"state":"active","ping":45},{"user_id":246,"name":"Dr.Sees [F2P]","steam_id":76561199219233587,"connected_time":348000000000,"state":"active","ping":76},{"user_id":233,"name":"Jaxonfogcap","steam_id":76561198327688357,"connected_time":1496000000000,"state":"active","ping":47},{"user_id":247,"name":"i am bread","steam_id":76561199180277321,"connected_time":307000000000,"state":"active","ping":71},{"user_id":248,"name":".quickfast.","steam_id":76561199438900919,"connected_time":305000000000,"state":"active","ping":47},{"user_id":199,"name":"Toylanska Kazemski","steam_id":76561198135343869,"connected_time":3754000000000,"state":"active","ping":98},{"user_id":213,"name":"|20BB)\u003eMach","steam_id":76561198952487564,"connected_time":3160000000000,"state":"active","ping":92},{"user_id":249,"name":"Oscar","steam_id":76561198002478110,"connected_time":302000000000,"state":"active","ping":52},{"user_id":250,"name":"Darconnoisseur","steam_id":76561198007618821,"connected_time":181000000000,"state":"active","ping":73},{"user_id":212,"name":"Bumblebee","steam_id":76561198033551105,"connected_time":3237000000000,"state":"active","ping":70},{"user_id":241,"name":"john tickle","steam_id":76561198108020471,"connected_time":581000000000,"state":"active","ping":52}]},{"server_id":321,"name":"Uncletopia | London | 4 | All Maps","name_short":"lon-4","host":"lon-1.uk.uncletopia.com","port":27045,"enabled":true,"region":"eu","cc":"gb","latitude":51.509865,"longitude":-0.118092,"reserved":0,"last_update":"0001-01-01T00:00:00Z","name_a2s":"Uncletopia | London | 4 | All Maps","protocol":17,"map":"koth_highpass","folder":"tf","game":"Team Fortress","app_id":440,"player_count":0,"max_players":24,"Bots":0,"server_type":"Dedicated","server_os":"Linux","password":true,"vac":true,"version":"7742253","steam_id":85568392924510193,"keywords":["cp","nocrits","nodmgspread","uncletopia"],"game_id":440,"stv_port":27046,"stv_name":"Uncletopia | London | 4 | All Maps | STV","players":null},{"server_id":21,"name":"Uncletopia | London | 5 | All Maps","name_short":"lon-5","host":"lon-1.uk.uncletopia.com","port":27055,"enabled":true,"region":"eu","cc":"gb","latitude":51.509865,"longitude":-0.118092,"reserved":0,"last_update":"0001-01-01T00:00:00Z","name_a2s":"Uncletopia | London | 5 | All Maps","protocol":17,"map":"pl_swiftwater_final1","folder":"tf","game":"Team Fortress","app_id":440,"player_count":22,"max_players":24,"Bots":0,"server_type":"Dedicated","server_os":"Linux","password":true,"vac":true,"version":"7742253","steam_id":85568392924742829,"keywords":["nocrits","nodmgspread","payload","uncletopia"],"game_id":440,"stv_port":27056,"stv_name":"Uncletopia | London | 5 | All Maps | STV","players":[{"user_id":137,"name":"tori_spring","steam_id":76561199375975842,"connected_time":828000000000,"state":"active","ping":49},{"user_id":143,"name":"Frylock","steam_id":76561198050292560,"connected_time":102000000000,"state":"active","ping":45},{"user_id":114,"name":"British Disapproval","steam_id":76561198001375260,"connected_time":1489000000000,"state":"active","ping":52},{"user_id":115,"name":"KillerQueen (he/they/she)","steam_id":76561199019399725,"connected_time":1439000000000,"state":"active","ping":46},{"user_id":144,"name":"RazorsEdge","steam_id":76561198006549279,"connected_time":9000000000,"state":"spawning","ping":47},{"user_id":112,"name":"Videogamer","steam_id":76561198106012909,"connected_time":1851000000000,"state":"active","ping":65},{"user_id":145,"name":"possiblename","steam_id":76561199064350902,"connected_time":5000000000,"state":"spawning","ping":124},{"user_id":97,"name":"Octoblue64","steam_id":76561198388997283,"connected_time":3038000000000,"state":"active","ping":43},{"user_id":133,"name":"JustACoomer","steam_id":76561198151433181,"connected_time":902000000000,"state":"active","ping":47},{"user_id":100,"name":"Kodutah","steam_id":76561198203405574,"connected_time":2908000000000,"state":"active","ping":87},{"user_id":124,"name":".Aq","steam_id":76561198043376092,"connected_time":1313000000000,"state":"active","ping":101},{"user_id":106,"name":"Maya #transrights","steam_id":76561198290614621,"connected_time":2652000000000,"state":"active","ping":55},{"user_id":139,"name":"Dogface","steam_id":76561198118379559,"connected_time":547000000000,"state":"active","ping":75},{"user_id":141,"name":"s8nschoice","steam_id":76561198176658659,"connected_time":404000000000,"state":"active","ping":123},{"user_id":134,"name":"Penis Contortionist","steam_id":76561198073663784,"connected_time":883000000000,"state":"active","ping":36},{"user_id":135,"name":"daanvanliempt05","steam_id":76561198355398948,"connected_time":863000000000,"state":"active","ping":52},{"user_id":128,"name":"donal rump","steam_id":76561198136239861,"connected_time":1126000000000,"state":"active","ping":34},{"user_id":142,"name":"makarov","steam_id":76561198363892870,"connected_time":237000000000,"state":"active","ping":70},{"user_id":98,"name":"Psychicpie","steam_id":76561198126065206,"connected_time":3038000000000,"state":"active","ping":46},{"user_id":129,"name":"Micha≈Ç","steam_id":76561198320346362,"connected_time":1125000000000,"state":"active","ping":60},{"user_id":90,"name":"‚ô£–ë—Ä–µ–¥–æ–≤—ã–π –ú–µ—Å—è—Ü","steam_id":76561198796404149,"connected_time":3695000000000,"state":"active","ping":168},{"user_id":110,"name":"Shimon","steam_id":76561199061086990,"connected_time":2418000000000,"state":"active","ping":61}]},{"server_id":22,"name":"Uncletopia | London | 6 | All Maps","name_short":"lon-6","host":"lon-1.uk.uncletopia.com","port":27065,"enabled":true,"region":"eu","cc":"gb","latitude":51.509865,"longitude":-0.118092,"reserved":0,"last_update":"0001-01-01T00:00:00Z","name_a2s":"Uncletopia | London | 6 | All Maps","protocol":17,"map":"koth_highpass","folder":"tf","game":"Team Fortress","app_id":440,"player_count":0,"max_players":24,"Bots":0,"server_type":"Dedicated","server_os":"Linux","password":true,"vac":true,"version":"7742253","steam_id":85568392924742830,"keywords":["cp","nocrits","nodmgspread","uncletopia"],"game_id":440,"stv_port":27066,"stv_name":"Uncletopia | London | 6 | All Maps | STV","players":null},{"server_id":40,"name":"Uncletopia | London | 7 | No Payload","name_short":"lon-7","host":"lon-1.uk.uncletopia.com","port":27075,"enabled":true,"region":"eu","cc":"gb","latitude":51.509865,"longitude":-0.118092,"reserved":0,"last_update":"0001-01-01T00:00:00Z","name_a2s":"Uncletopia | London | 7 | No Payload","protocol":17,"map":"koth_viaduct","folder":"tf","game":"Team Fortress","app_id":440,"player_count":0,"max_players":24,"Bots":0,"server_type":"Dedicated","server_os":"Linux","password":true,"vac":true,"version":"7742253","steam_id":85568392924964314,"keywords":["cp","nocrits","nodmgspread","uncletopia"],"game_id":440,"stv_port":27076,"stv_name":"Uncletopia | London | 7 | No Payload | STV","players":null},{"server_id":41,"name":"Uncletopia | London | 8 | Community","name_short":"lon-8","host":"lon-1.uk.uncletopia.com","port":27085,"enabled":true,"region":"eu","cc":"gb","latitude":51.509865,"longitude":-0.118092,"reserved":0,"last_update":"0001-01-01T00:00:00Z","name_a2s":"Uncletopia | London | 8 | Community","protocol":17,"map":"cp_altitude","folder":"tf","game":"Team Fortress","app_id":440,"player_count":0,"max_players":24,"Bots":0,"server_type":"Dedicated","server_os":"Linux","password":true,"vac":true,"version":"7742253","steam_id":85568392924964315,"keywords":["cp","nocrits","nodmgspread","uncletopia"],"game_id":440,"stv_port":27086,"stv_name":"Uncletopia | London | 8 | Community | STV","players":null},{"server_id":300,"name":"Uncletopia | Montr√©al | 1 | All Maps","name_short":"mtl-1","host":"mtl-1.ca.uncletopia.com","port":27015,"enabled":true,"region":"us-east","cc":"ca","latitude":45.50889,"longitude":-73.56167,"reserved":0,"last_update":"0001-01-01T00:00:00Z","name_a2s":"Uncletopia | Montr√©al | 1 | All Maps","protocol":17,"map":"cp_snakewater_final1","folder":"tf","game":"Team Fortress","app_id":440,"player_count":0,"max_players":24,"Bots":0,"server_type":"Dedicated","server_os":"Linux","password":true,"vac":true,"version":"7742253","steam_id":85568392924500087,"keywords":["cp","nocrits","nodmgspread","uncletopia"],"game_id":440,"stv_port":27016,"stv_name":"Uncletopia | Montr√©al | 1 | All Maps | STV","players":null},{"server_id":301,"name":"Uncletopia | Montr√©al | 2 | All Maps","name_short":"mtl-2","host":"mtl-1.ca.uncletopia.com","port":27025,"enabled":true,"region":"us-east","cc":"ca","latitude":45.50889,"longitude":-73.56167,"reserved":0,"last_update":"0001-01-01T00:00:00Z","name_a2s":"Uncletopia | Montr√©al | 2 | All Maps","protocol":17,"map":"koth_highpass","folder":"tf","game":"Team Fortress","app_id":440,"player_count":0,"max_players":24,"Bots":0,"server_type":"Dedicated","server_os":"Linux","password":true,"vac":true,"version":"7742253","steam_id":85568392924500088,"keywords":["cp","nocrits","nodmgspread","uncletopia"],"game_id":440,"stv_port":27026,"stv_name":"Uncletopia | Montr√©al | 2 | All Maps | STV","players":null},{"server_id":302,"name":"Uncletopia | Montr√©al | 3 | All Maps","name_short":"mtl-3","host":"mtl-1.ca.uncletopia.com","port":27035,"enabled":true,"region":"us-east","cc":"ca","latitude":45.50889,"longitude":-73.56167,"reserved":0,"last_update":"0001-01-01T00:00:00Z","name_a2s":"Uncletopia | Montr√©al | 3 | All Maps","protocol":17,"map":"cp_mountainlab","folder":"tf","game":"Team Fortress","app_id":440,"player_count":0,"max_players":24,"Bots":0,"server_type":"Dedicated","server_os":"Linux","password":true,"vac":true,"version":"7742253","steam_id":85568392924500089,"keywords":["cp","nocrits","nodmgspread","uncletopia"],"game_id":440,"stv_port":27036,"stv_name":"Uncletopia | Montr√©al | 3 | All Maps | STV","players":null},{"server_id":303,"name":"Uncletopia | Montr√©al | 4 | No Payload","name_short":"mtl-4","host":"mtl-1.ca.uncletopia.com","port":27045,"enabled":true,"region":"us-east","cc":"ca","latitude":45.50889,"longitude":-73.56167,"reserved":0,"last_update":"0001-01-01T00:00:00Z","name_a2s":"Uncletopia | Montr√©al | 4 | No Payload","protocol":17,"map":"cp_snakewater_final1","folder":"tf","game":"Team Fortress","app_id":440,"player_count":0,"max_players":24,"Bots":0,"server_type":"Dedicated","server_os":"Linux","password":true,"vac":true,"version":"7742253","steam_id":85568392924500090,"keywords":["cp","nocrits","nodmgspread","uncletopia"],"game_id":440,"stv_port":27046,"stv_name":"Uncletopia | Montr√©al | 4 | No Payload | STV","players":null},{"server_id":13,"name":"Uncletopia | New York City | 1 | All Maps","name_short":"nyc-1","host":"nyc-1.us.uncletopia.com","port":27015,"enabled":true,"region":"us-east","cc":"us","latitude":40.73061,"longitude":-73.93524,"reserved":0,"last_update":"0001-01-01T00:00:00Z","name_a2s":"Uncletopia | New York City | 1 | All Maps","protocol":17,"map":"cp_process_final","folder":"tf","game":"Team Fortress","app_id":440,"player_count":0,"max_players":24,"Bots":0,"server_type":"Dedicated","server_os":"Linux","password":true,"vac":true,"version":"7742253","steam_id":85568392924469993,"keywords":["cp","nocrits","nodmgspread","uncletopia"],"game_id":440,"stv_port":27016,"stv_name":"Uncletopia | New York City | 1 | All Maps | STV","players":null},{"server_id":14,"name":"Uncletopia | New York City | 2 | All Maps","name_short":"nyc-2","host":"nyc-1.us.uncletopia.com","port":27025,"enabled":true,"region":"us-east","cc":"us","latitude":40.73061,"longitude":-73.93524,"reserved":0,"last_update":"0001-01-01T00:00:00Z","name_a2s":"Uncletopia | New York City | 2 | All Maps","protocol":17,"map":"cp_mountainlab","folder":"tf","game":"Team Fortress","app_id":440,"player_count":0,"max_players":24,"Bots":0,"server_type":"Dedicated","server_os":"Linux","password":true,"vac":true,"version":"7742253","steam_id":85568392924469994,"keywords":["cp","nocrits","nodmgspread","uncletopia"],"game_id":440,"stv_port":27026,"stv_name":"Uncletopia | New York City | 2 | All Maps | STV","players":null},{"server_id":15,"name":"Uncletopia | New York City | 3 | Stopwatch Beta","name_short":"nyc-3","host":"nyc-1.us.uncletopia.com","port":27035,"enabled":true,"region":"us-east","cc":"us","latitude":40.73061,"longitude":-73.93524,"reserved":0,"last_update":"0001-01-01T00:00:00Z","name_a2s":"Uncletopia | New York City | 3 | Stopwatch Beta","protocol":17,"map":"pl_pier","folder":"tf","game":"Team Fortress","app_id":440,"player_count":0,"max_players":24,"Bots":0,"server_type":"Dedicated","server_os":"Linux","password":true,"vac":true,"version":"7742253","steam_id":85568392924742820,"keywords":["nocrits","nodmgspread","payload","uncletopia"],"game_id":440,"stv_port":27036,"stv_name":"Uncletopia | New York City | 3 | Stopwatch Beta | STV","players":null},{"server_id":16,"name":"Uncletopia | New York City | 4 | Community","name_short":"nyc-4","host":"nyc-1.us.uncletopia.com","port":27045,"enabled":true,"region":"us-east","cc":"us","latitude":40.73061,"longitude":-73.93524,"reserved":0,"last_update":"0001-01-01T00:00:00Z","name_a2s":"Uncletopia | New York City | 4 | Community","protocol":17,"map":"koth_viaduct","folder":"tf","game":"Team Fortress","app_id":440,"player_count":0,"max_players":24,"Bots":0,"server_type":"Dedicated","server_os":"Linux","password":true,"vac":true,"version":"7742253","steam_id":85568392924742821,"keywords":["cp","nocrits","nodmgspread","uncletopia"],"game_id":440,"stv_port":27046,"stv_name":"Uncletopia | New York City | 4 | Community | STV","players":null},{"server_id":142,"name":"Uncletopia | S√£o Paulo | 1 | All Maps","name_short":"sao-1","host":"sao-1.br.uncletopia.com","port":27015,"enabled":true,"region":"sa","cc":"br","latitude":-23.533773,"longitude":-46.62529,"reserved":0,"last_update":"0001-01-01T00:00:00Z","name_a2s":"Uncletopia | S√£o Paulo | 1 | All Maps","protocol":17,"map":"koth_viaduct","folder":"tf","game":"Team Fortress","app_id":440,"player_count":0,"max_players":24,"Bots":0,"server_type":"Dedicated","server_os":"Linux","password":true,"vac":true,"version":"7742253","steam_id":85568392924469996,"keywords":["cp","nocrits","nodmgspread","uncletopia"],"game_id":440,"stv_port":27016,"stv_name":"Uncletopia | S√£o Paulo | 1 | All Maps | STV","players":null},{"server_id":143,"name":"Uncletopia | S√£o Paulo | 2 | All Maps","name_short":"sao-2","host":"sao-2.br.uncletopia.com","port":27015,"enabled":true,"region":"sa","cc":"br","latitude":-23.533773,"longitude":-46.62529,"reserved":0,"last_update":"0001-01-01T00:00:00Z","name_a2s":"Uncletopia | S√£o Paulo | 2 | All Maps","protocol":17,"map":"koth_viaduct","folder":"tf","game":"Team Fortress","app_id":440,"player_count":0,"max_players":24,"Bots":0,"server_type":"Dedicated","server_os":"Linux","password":true,"vac":true,"version":"7742253","steam_id":85568392924485349,"keywords":["cp","nocrits","nodmgspread","uncletopia"],"game_id":440,"stv_port":27016,"stv_name":"Uncletopia | S√£o Paulo | 2 | All Maps | STV","players":null},{"server_id":7,"name":"Uncletopia | Seattle | 1 | All Maps","name_short":"sea-1","host":"sea-1.us.uncletopia.com","port":27015,"enabled":true,"region":"us-west","cc":"us","latitude":47.608013,"longitude":-122.33517,"reserved":0,"last_update":"0001-01-01T00:00:00Z","name_a2s":"Uncletopia | Seattle | 1 | All Maps","protocol":17,"map":"pl_borneo","folder":"tf","game":"Team Fortress","app_id":440,"player_count":0,"max_players":24,"Bots":0,"server_type":"Dedicated","server_os":"Linux","password":true,"vac":true,"version":"7742253","steam_id":85568392924469997,"keywords":["nocrits","nodmgspread","payload","uncletopia"],"game_id":440,"stv_port":27016,"stv_name":"Uncletopia | Seattle | 1 | All Maps | STV","players":null},{"server_id":119,"name":"Uncletopia | Seattle | 2 | All Maps","name_short":"sea-2","host":"sea-1.us.uncletopia.com","port":27025,"enabled":true,"region":"us-west","cc":"us","latitude":47.608013,"longitude":-122.33517,"reserved":0,"last_update":"0001-01-01T00:00:00Z","name_a2s":"Uncletopia | Seattle | 2 | All Maps","protocol":17,"map":"pl_pier","folder":"tf","game":"Team Fortress","app_id":440,"player_count":8,"max_players":24,"Bots":0,"server_type":"Dedicated","server_os":"Linux","password":true,"vac":true,"version":"7742253","steam_id":85568392924469998,"keywords":["nocrits","nodmgspread","payload","uncletopia"],"game_id":440,"stv_port":27026,"stv_name":"Uncletopia | Seattle | 2 | All Maps | STV","players":[{"user_id":8,"name":"Bagel","steam_id":76561198167747447,"connected_time":682000000000,"state":"active","ping":117},{"user_id":4,"name":"demoman from tf2","steam_id":76561199023433533,"connected_time":1972000000000,"state":"active","ping":229},{"user_id":5,"name":"SEBTHECAPSLOCKER","steam_id":76561199230158696,"connected_time":1934000000000,"state":"active","ping":218},{"user_id":9,"name":"Kid named download","steam_id":76561199192074448,"connected_time":654000000000,"state":"active","ping":120},{"user_id":10,"name":"‚ù§Dumpster Cat‚ù§","steam_id":76561199200969139,"connected_time":459000000000,"state":"active","ping":54},{"user_id":12,"name":"Kallen Lamar","steam_id":76561197999530478,"connected_time":351000000000,"state":"active","ping":123},{"user_id":14,"name":"earthtraveler413","steam_id":76561198865139926,"connected_time":158000000000,"state":"active","ping":47},{"user_id":15,"name":"breathing meat donut","steam_id":76561198123566649,"connected_time":56000000000,"state":"active","ping":88}]},{"server_id":406,"name":"Uncletopia | Seattle | 3 | Stopwatch Beta","name_short":"sea-3","host":"sea-1.us.uncletopia.com","port":27035,"enabled":true,"region":"us-west","cc":"us","latitude":47.608013,"longitude":-122.33517,"reserved":0,"last_update":"0001-01-01T00:00:00Z","name_a2s":"Uncletopia | Seattle | 3 | Stopwatch Beta","protocol":17,"map":"cp_altitude","folder":"tf","game":"Team Fortress","app_id":440,"player_count":0,"max_players":24,"Bots":0,"server_type":"Dedicated","server_os":"Linux","password":true,"vac":true,"version":"7742253","steam_id":85568392924515217,"keywords":["cp","nocrits","nodmgspread","uncletopia"],"game_id":440,"stv_port":27036,"stv_name":"Uncletopia | Seattle | 3 | Stopwatch Beta | STV","players":null},{"server_id":17,"name":"Uncletopia | San Francisco | 1 | All Maps","name_short":"sfo-1","host":"sfo-1.us.uncletopia.com","port":27015,"enabled":true,"region":"us-west","cc":"us","latitude":37.77397,"longitude":-122.4313,"reserved":0,"last_update":"0001-01-01T00:00:00Z","name_a2s":"Uncletopia | San Francisco | 1 | All Maps","protocol":17,"map":"pl_snowycoast","folder":"tf","game":"Team Fortress","app_id":440,"player_count":0,"max_players":24,"Bots":0,"server_type":"Dedicated","server_os":"Linux","password":true,"vac":true,"version":"7742253","steam_id":85568392924469999,"keywords":["nocrits","nodmgspread","payload","uncletopia"],"game_id":440,"stv_port":27016,"stv_name":"Uncletopia | San Francisco | 1 | All Maps | STV","players":null},{"server_id":18,"name":"Uncletopia | San Francisco | 2 | All Maps","name_short":"sfo-2","host":"sfo-1.us.uncletopia.com","port":27025,"enabled":true,"region":"us-west","cc":"us","latitude":37.77397,"longitude":-122.4313,"reserved":0,"last_update":"0001-01-01T00:00:00Z","name_a2s":"Uncletopia | San Francisco | 2 | All Maps","protocol":17,"map":"cp_altitude","folder":"tf","game":"Team Fortress","app_id":440,"player_count":0,"max_players":24,"Bots":0,"server_type":"Dedicated","server_os":"Linux","password":true,"vac":true,"version":"7742253","steam_id":85568392924470000,"keywords":["cp","nocrits","nodmgspread","uncletopia"],"game_id":440,"stv_port":27026,"stv_name":"Uncletopia | San Francisco | 2 | All Maps | STV","players":null},{"server_id":19,"name":"Uncletopia | San Francisco | 3 | Stopwatch Beta","name_short":"sfo-3","host":"sfo-1.us.uncletopia.com","port":27035,"enabled":true,"region":"us-west","cc":"us","latitude":37.77397,"longitude":-122.4313,"reserved":0,"last_update":"0001-01-01T00:00:00Z","name_a2s":"Uncletopia | San Francisco | 3 | Stopwatch Beta","protocol":17,"map":"cp_snakewater_final1","folder":"tf","game":"Team Fortress","app_id":440,"player_count":0,"max_players":24,"Bots":0,"server_type":"Dedicated","server_os":"Linux","password":true,"vac":true,"version":"7742253","steam_id":85568392924742824,"keywords":["cp","nocrits","nodmgspread","uncletopia"],"game_id":440,"stv_port":27036,"stv_name":"Uncletopia | San Francisco | 3 | Stopwatch Beta | STV","players":null},{"server_id":20,"name":"Uncletopia | San Francisco | 4 | Community","name_short":"sfo-4","host":"sfo-1.us.uncletopia.com","port":27045,"enabled":true,"region":"us-west","cc":"us","latitude":37.77397,"longitude":-122.4313,"reserved":0,"last_update":"0001-01-01T00:00:00Z","name_a2s":"Uncletopia | San Francisco | 4 | Community","protocol":17,"map":"cp_dustbowl","folder":"tf","game":"Team Fortress","app_id":440,"player_count":0,"max_players":24,"Bots":0,"server_type":"Dedicated","server_os":"Linux","password":true,"vac":true,"version":"7742253","steam_id":85568392924742826,"keywords":["cp","nocrits","nodmgspread","uncletopia"],"game_id":440,"stv_port":27046,"stv_name":"Uncletopia | San Francisco | 4 | Community | STV","players":null},{"server_id":141,"name":"Uncletopia | Sydney | 1 | All Maps","name_short":"syd-1","host":"syd-1.au.uncletopia.com","port":27015,"enabled":true,"region":"au","cc":"au","latitude":-33.865143,"longitude":151.2099,"reserved":0,"last_update":"0001-01-01T00:00:00Z","name_a2s":"Uncletopia | Sydney | 1 | All Maps","protocol":17,"map":"koth_viaduct","folder":"tf","game":"Team Fortress","app_id":440,"player_count":0,"max_players":24,"Bots":0,"server_type":"Dedicated","server_os":"Linux","password":true,"vac":true,"version":"7742253","steam_id":85568392924470001,"keywords":["cp","nocrits","nodmgspread","uncletopia"],"game_id":440,"stv_port":27016,"stv_name":"Uncletopia | Sydney | 1 | All Maps | STV","players":null},{"server_id":123,"name":"Uncletopia | Sydney | 2 | All Maps","name_short":"syd-2","host":"syd-1.au.uncletopia.com","port":27025,"enabled":true,"region":"au","cc":"au","latitude":-33.865143,"longitude":151.2099,"reserved":0,"last_update":"0001-01-01T00:00:00Z","name_a2s":"Uncletopia | Sydney | 2 | All Maps","protocol":17,"map":"cp_sunshine","folder":"tf","game":"Team Fortress","app_id":440,"player_count":2,"max_players":24,"Bots":0,"server_type":"Dedicated","server_os":"Linux","password":true,"vac":true,"version":"7742253","steam_id":85568392924470002,"keywords":["cp","nocrits","nodmgspread","uncletopia"],"game_id":440,"stv_port":27026,"stv_name":"Uncletopia | Sydney | 2 | All Maps | STV","players":[{"user_id":868,"name":";-;","steam_id":76561199237432540,"connected_time":3813000000000,"state":"active","ping":190},{"user_id":885,"name":"BIGNATE","steam_id":76561199207791519,"connected_time":574000000000,"state":"active","ping":82}]},{"server_id":395,"name":"Uncletopia | Sydney | 3 | All Maps","name_short":"syd-3","host":"syd-1.au.uncletopia.com","port":27035,"enabled":true,"region":"au","cc":"au","latitude":-33.865143,"longitude":151.2099,"reserved":0,"last_update":"0001-01-01T00:00:00Z","name_a2s":"Uncletopia | Sydney | 3 | All Maps","protocol":17,"map":"koth_viaduct","folder":"tf","game":"Team Fortress","app_id":440,"player_count":0,"max_players":24,"Bots":0,"server_type":"Dedicated","server_os":"Linux","password":true,"vac":true,"version":"7742253","steam_id":85568392925194467,"keywords":["cp","nocrits","nodmgspread","uncletopia"],"game_id":440,"stv_port":27036,"stv_name":"Uncletopia | Sydney | 3 | All Maps | STV","players":null},{"server_id":396,"name":"Uncletopia | Sydney | 4 | All Maps","name_short":"syd-4","host":"syd-1.au.uncletopia.com","port":27045,"enabled":true,"region":"au","cc":"au","latitude":-33.865143,"longitude":151.2099,"reserved":0,"last_update":"0001-01-01T00:00:00Z","name_a2s":"Uncletopia | Sydney | 4 | All Maps","protocol":17,"map":"cp_mountainlab","folder":"tf","game":"Team Fortress","app_id":440,"player_count":0,"max_players":24,"Bots":0,"server_type":"Dedicated","server_os":"Linux","password":true,"vac":true,"version":"7742253","steam_id":85568392925397958,"keywords":["cp","nocrits","nodmgspread","uncletopia"],"game_id":440,"stv_port":27046,"stv_name":"Uncletopia | Sydney | 4 | All Maps | STV","players":null},{"server_id":58,"name":"Uncletopia | Sydney | 5 | Stopwatch Beta","name_short":"syd-5","host":"syd-1.au.uncletopia.com","port":27055,"enabled":true,"region":"au","cc":"au","latitude":-33.865143,"longitude":151.2099,"reserved":0,"last_update":"0001-01-01T00:00:00Z","name_a2s":"Uncletopia | Sydney | 5 | Stopwatch Beta","protocol":17,"map":"workshop/pl_badwater_pro_v12.ugc2142942074","folder":"tf","game":"Team Fortress","app_id":440,"player_count":0,"max_players":24,"Bots":0,"server_type":"Dedicated","server_os":"Linux","password":true,"vac":true,"version":"7742253","steam_id":85568392925397959,"keywords":["nocrits","nodmgspread","payload","uncletopia"],"game_id":440,"stv_port":27056,"stv_name":"Uncletopia | Sydney | 5 | Stopwatch Beta | STV","players":null},{"server_id":59,"name":"Uncletopia | Sydney | 6 | Community","name_short":"syd-6","host":"syd-1.au.uncletopia.com","port":27065,"enabled":true,"region":"au","cc":"au","latitude":-33.865143,"longitude":151.2099,"reserved":0,"last_update":"0001-01-01T00:00:00Z","name_a2s":"Uncletopia | Sydney | 6 | Community","protocol":17,"map":"workshop/koth_ashville_final.ugc2130459942","folder":"tf","game":"Team Fortress","app_id":440,"player_count":0,"max_players":24,"Bots":0,"server_type":"Dedicated","server_os":"Linux","password":true,"vac":true,"version":"7742253","steam_id":85568392925397960,"keywords":["cp","nocrits","nodmgspread","uncletopia"],"game_id":440,"stv_port":27066,"stv_name":"Uncletopia | Sydney | 6 | Community | STV","players":null},{"server_id":49,"name":"Uncletopia | Warsaw | 1 | All Maps","name_short":"waw-1","host":"waw-1.pl.uncletopia.com","port":27015,"enabled":true,"region":"eu","cc":"pl","latitude":52.2297,"longitude":21.017532,"reserved":0,"last_update":"0001-01-01T00:00:00Z","name_a2s":"","protocol":0,"map":"","folder":"","game":"","app_id":0,"player_count":0,"max_players":0,"Bots":0,"server_type":"","server_os":"","password":false,"vac":false,"version":"","steam_id":0,"keywords":null,"game_id":0,"stv_port":0,"stv_name":"","players":null},{"server_id":50,"name":"Uncletopia | Warsaw | 2 | All Maps","name_short":"waw-2","host":"waw-1.pl.uncletopia.com","port":27025,"enabled":true,"region":"eu","cc":"pl","latitude":52.2297,"longitude":21.017532,"reserved":0,"last_update":"0001-01-01T00:00:00Z","name_a2s":"Uncletopia | Warsaw | 2 | All Maps","protocol":17,"map":"koth_viaduct","folder":"tf","game":"Team Fortress","app_id":440,"player_count":3,"max_players":24,"Bots":0,"server_type":"Dedicated","server_os":"Linux","password":true,"vac":true,"version":"7742253","steam_id":85568392925397851,"keywords":["cp","nocrits","nodmgspread","uncletopia"],"game_id":440,"stv_port":27026,"stv_name":"Uncletopia | Warsaw | 2 | All Maps | STV","players":[{"user_id":7,"name":"hamerskapavlina","steam_id":76561199416873236,"connected_time":830000000000,"state":"active","ping":68},{"user_id":8,"name":"Nff99","steam_id":76561198815177936,"connected_time":724000000000,"state":"active","ping":46},{"user_id":9,"name":"grotty YTBL","steam_id":76561198426831610,"connected_time":58000000000,"state":"active","ping":89}]},{"server_id":51,"name":"Uncletopia | Warsaw | 3 | All Maps","name_short":"waw-3","host":"waw-1.pl.uncletopia.com","port":27035,"enabled":true,"region":"eu","cc":"pl","latitude":52.2297,"longitude":21.017532,"reserved":0,"last_update":"0001-01-01T00:00:00Z","name_a2s":"Uncletopia | Warsaw | 3 | All Maps","protocol":17,"map":"koth_harvest_final","folder":"tf","game":"Team Fortress","app_id":440,"player_count":0,"max_players":24,"Bots":0,"server_type":"Dedicated","server_os":"Linux","password":true,"vac":true,"version":"7742253","steam_id":85568392925397852,"keywords":["cp","nocrits","nodmgspread","uncletopia"],"game_id":440,"stv_port":27036,"stv_name":"Uncletopia | Warsaw | 3 | All Maps | STV","players":null},{"server_id":52,"name":"Uncletopia | Warsaw | 4 | All Maps","name_short":"waw-4","host":"waw-1.pl.uncletopia.com","port":27045,"enabled":true,"region":"eu","cc":"pl","latitude":52.2297,"longitude":21.017532,"reserved":0,"last_update":"0001-01-01T00:00:00Z","name_a2s":"Uncletopia | Warsaw | 4 | All Maps","protocol":17,"map":"cp_dustbowl","folder":"tf","game":"Team Fortress","app_id":440,"player_count":0,"max_players":24,"Bots":0,"server_type":"Dedicated","server_os":"Linux","password":true,"vac":true,"version":"7742253","steam_id":85568392925397853,"keywords":["cp","nocrits","nodmgspread","uncletopia"],"game_id":440,"stv_port":27046,"stv_name":"Uncletopia | Warsaw | 4 | All Maps | STV","players":null},{"server_id":53,"name":"Uncletopia | Warsaw | 5 | Stopwatch Beta","name_short":"waw-5","host":"waw-1.pl.uncletopia.com","port":27055,"enabled":true,"region":"eu","cc":"pl","latitude":52.2297,"longitude":21.017532,"reserved":0,"last_update":"0001-01-01T00:00:00Z","name_a2s":"Uncletopia | Warsaw | 5 | Stopwatch Beta","protocol":17,"map":"pl_swiftwater_final1","folder":"tf","game":"Team Fortress","app_id":440,"player_count":0,"max_players":24,"Bots":0,"server_type":"Dedicated","server_os":"Linux","password":true,"vac":true,"version":"7742253","steam_id":85568392925397854,"keywords":["nocrits","nodmgspread","payload","uncletopia"],"game_id":440,"stv_port":27056,"stv_name":"Uncletopia | Warsaw | 5 | Stopwatch Beta | STV","players":null},{"server_id":54,"name":"Uncletopia | Warsaw | 6 | Community","name_short":"waw-6","host":"waw-1.pl.uncletopia.com","port":27065,"enabled":true,"region":"eu","cc":"pl","latitude":52.2297,"longitude":21.017532,"reserved":0,"last_update":"0001-01-01T00:00:00Z","name_a2s":"Uncletopia | Warsaw | 6 | Community","protocol":17,"map":"workshop/pl_vigil_rc9.ugc1266210012","folder":"tf","game":"Team Fortress","app_id":440,"player_count":0,"max_players":24,"Bots":0,"server_type":"Dedicated","server_os":"Linux","password":true,"vac":true,"version":"7742253","steam_id":85568392925397856,"keywords":["nocrits","nodmgspread","payload","uncletopia"],"game_id":440,"stv_port":27066,"stv_name":"Uncletopia | Warsaw | 6 | Community | STV","players":null}]}