{"status":true,"message":"","result":[{"server_id":9,"name":"Uncletopia | Atlanta | 1 | All Maps","name_short":"atl-1","host":"atl-1.us.uncletopia.com","port":27015,"enabled":true,"region":"us-east","cc":"us","latitude":33.753746,"longitude":-84.38633,"reserved":0,"last_update":"0001-01-01T00:00:00Z","name_a2s":"Uncletopia | Atlanta | 1 | All Maps","protocol":17,"map":"cp_mountainlab","folder":"tf","game":"Team Fortress","app_id":440,"player_count":24,"max_players":24,"Bots":0,"server_type":"Dedicated","server_os":"Linux","password":true,"vac":true,"version":"7961495","steam_id":85568392924469982,"keywords":["cp","nocrits","nodmgspread","uncletopia"],"game_id":440,"stv_port":27016,"stv_name":"Uncletopia | Atlanta | 1 | All Maps | STV","players":null},{"server_id":104,"name":"Uncletopia | Atlanta | 2 | All Maps","name_short":"atl-2","host":"atl-1.us.uncletopia.com","port":27025,"enabled":true,"region":"us-east","cc":"us","latitude":33.753746,"longitude":-84.38633,"reserved":0,"last_update":"0001-01-01T00:00:00Z","name_a2s":"Uncletopia | Atlanta | 2 | All Maps","protocol":17,"map":"pl_thundermountain","folder":"tf","game":"Team Fortress","app_id":440,"player_count":24,"max_players":24,"Bots":0,"server_type":"Dedicated","server_os":"Linux","password":true,"vac":true,"version":"7961495","steam_id":85568392924469983,"keywords":["nocrits","nodmgspread","payload","uncletopia"],"game_id":440,"stv_port":27026,"stv_name":"Uncletopia | Atlanta | 2 | All Maps | STV","players":null},{"server_id":400,"name":"Uncletopia | Atlanta | 3 | Stopwatch","name_short":"atl-3","host":"atl-1.us.uncletopia.com","port":27035,"enabled":true,"region":"us-east","cc":"us","latitude":33.753746,"longitude":-84.38633,"reserved":0,"last_update":"0001-01-01T00:00:00Z","name_a2s":"Uncletopia | Atlanta | 3 | Stopwatch","protocol":17,"map":"koth_clearcut_b15","folder":"tf","game":"Team Fortress","app_id":440,"player_count":0,"max_players":24,"Bots":0,"server_type":"Dedicated","server_os":"Linux","password":true,"vac":true,"version":"7961495","steam_id":85568392924515187,"keywords":["cp","nocrits","nodmgspread","uncletopia"],"game_id":440,"stv_port":27036,"stv_name":"Uncletopia | Atlanta | 3 | Stopwatch | STV","players":null},{"server_id":401,"name":"Uncletopia | Atlanta | 4 | Community","name_short":"atl-4","host":"atl-1.us.uncletopia.com","port":27045,"enabled":true,"region":"us-east","cc":"us","latitude":33.753746,"longitude":-84.38633,"reserved":0,"last_update":"0001-01-01T00:00:00Z","name_a2s":"Uncletopia | Atlanta | 4 | Community","protocol":17,"map":"koth_kemptown_rc1","folder":"tf","game":"Team Fortress","app_id":440,"player_count":1,"max_players":24,"Bots":0,"server_type":"Dedicated","server_os":"Linux","password":true,"vac":true,"version":"7961495","steam_id":85568392924515188,"keywords":["cp","nocrits","nodmgspread","uncletopia"],"game_id":440,"stv_port":27046,"stv_name":"Uncletopia | Atlanta | 4 | Community | STV","players":null},{"server_id":2,"name":"Uncletopia | Chicago | 1 | All Maps","name_short":"chi-1","host":"chi-1.us.uncletopia.com","port":27015,"enabled":true,"region":"us-central","cc":"us","latitude":41.881832,"longitude":-87.62318,"reserved":0,"last_update":"0001-01-01T00:00:00Z","name_a2s":"Uncletopia | Chicago | 1 | All Maps","protocol":17,"map":"koth_cascade","folder":"tf","game":"Team Fortress","app_id":440,"player_count":24,"max_players":24,"Bots":0,"server_type":"Dedicated","server_os":"Linux","password":true,"vac":true,"version":"7961495","steam_id":85568392924469984,"keywords":["cp","nocrits","nodmgspread","uncletopia"],"game_id":440,"stv_port":27016,"stv_name":"Uncletopia | Chicago | 1 | All Maps | STV","players":[{"user_id":445,"name":"ViserofJustice","steam_id":76561198267918559,"connected_time":1057000000000,"state":"active","ping":67},{"user_id":373,"name":"Your Local Queer Librarian","steam_id":76561198013077080,"connected_time":6250000000000,"state":"active","ping":57},{"user_id":430,"name":"t.tv/FamilyGuyFunnyMoments277","steam_id":76561198416047580,"connected_time":2909000000000,"state":"active","ping":67},{"user_id":442,"name":"Sexual Butt","steam_id":76561198102241399,"connected_time":1794000000000,"state":"active","ping":66},{"user_id":474,"name":"superbug3003","steam_id":76561198311447642,"connected_time":13000000000,"state":"active","ping":73},{"user_id":461,"name":"feudalism","steam_id":76561198057374871,"connected_time":410000000000,"state":"active","ping":61},{"user_id":431,"name":"chunk","steam_id":76561198134775401,"connected_time":2903000000000,"state":"active","ping":54},{"user_id":450,"name":"[S]Mr. X [No Monitor]","steam_id":76561197963746035,"connected_time":961000000000,"state":"active","ping":131},{"user_id":472,"name":"TheDon","steam_id":76561198384811047,"connected_time":72000000000,"state":"active","ping":68},{"user_id":470,"name":"DJtrickshot2013","steam_id":76561199184622920,"connected_time":105000000000,"state":"active","ping":81},{"user_id":452,"name":"↱yate↲","steam_id":76561198311004039,"connected_time":942000000000,"state":"active","ping":92},{"user_id":475,"name":"thisisnotaustin","steam_id":76561198074463510,"connected_time":12000000000,"state":"spawning","ping":52},{"user_id":473,"name":"solid_bambino","steam_id":76561198408197311,"connected_time":56000000000,"state":"active","ping":94},{"user_id":436,"name":"CDRW Enjoyer","steam_id":76561198119393205,"connected_time":2738000000000,"state":"active","ping":74},{"user_id":467,"name":"choi","steam_id":76561198053669887,"connected_time":211000000000,"state":"active","ping":118},{"user_id":462,"name":"♥Bunny♥Slut♥","steam_id":76561198206376851,"connected_time":323000000000,"state":"active","ping":87},{"user_id":397,"name":"Andrestor","steam_id":76561198005934930,"connected_time":4539000000000,"state":"active","ping":128},{"user_id":446,"name":"maS","steam_id":76561198033846407,"connected_time":1046000000000,"state":"active","ping":56},{"user_id":468,"name":"Natsuki the Scunt","steam_id":76561199175922684,"connected_time":199000000000,"state":"active","ping":81},{"user_id":438,"name":"y0","steam_id":76561198143894333,"connected_time":2365000000000,"state":"active","ping":55},{"user_id":443,"name":"Chlorm","steam_id":76561198147052737,"connected_time":1637000000000,"state":"active","ping":45},{"user_id":439,"name":"Milkmur","steam_id":76561198210043821,"connected_time":1934000000000,"state":"active","ping":71},{"user_id":447,"name":"Astoriae!","steam_id":76561199090168858,"connected_time":1045000000000,"state":"active","ping":99},{"user_id":464,"name":"Lain","steam_id":76561198029303534,"connected_time":317000000000,"state":"active","ping":71}]},{"server_id":106,"name":"Uncletopia | Chicago | 2 | All Maps","name_short":"chi-2","host":"chi-1.us.uncletopia.com","port":27025,"enabled":true,"region":"us-central","cc":"us","latitude":41.881832,"longitude":-87.62318,"reserved":0,"last_update":"0001-01-01T00:00:00Z","name_a2s":"Uncletopia | Chicago | 2 | All Maps","protocol":17,"map":"pl_pier","folder":"tf","game":"Team Fortress","app_id":440,"player_count":24,"max_players":24,"Bots":0,"server_type":"Dedicated","server_os":"Linux","password":true,"vac":true,"version":"7961495","steam_id":85568392924469985,"keywords":["nocrits","nodmgspread","payload","uncletopia"],"game_id":440,"stv_port":27026,"stv_name":"Uncletopia | Chicago | 2 | All Maps | STV","players":[{"user_id":399,"name":"nine","steam_id":76561198150445230,"connected_time":158000000000,"state":"active","ping":81},{"user_id":403,"name":"WLpeanut","steam_id":76561197981006264,"connected_time":125000000000,"state":"active","ping":82},{"user_id":384,"name":"Engineer Caretaker","steam_id":76561199020244051,"connected_time":2064000000000,"state":"active","ping":102},{"user_id":352,"name":"Darkmaen","steam_id":76561198060543390,"connected_time":5146000000000,"state":"active","ping":138},{"user_id":389,"name":"pinky","steam_id":76561199109784776,"connected_time":1688000000000,"state":"active","ping":56},{"user_id":357,"name":"Rustyorion","steam_id":76561198439186347,"connected_time":5038000000000,"state":"active","ping":121},{"user_id":358,"name":"key ingredient","steam_id":76561198046055673,"connected_time":4948000000000,"state":"active","ping":76},{"user_id":404,"name":"MagFoxx","steam_id":76561198994002105,"connected_time":74000000000,"state":"active","ping":83},{"user_id":337,"name":"Pyuku","steam_id":76561198811554257,"connected_time":6339000000000,"state":"active","ping":60},{"user_id":341,"name":"King's Disease","steam_id":76561198076639682,"connected_time":5743000000000,"state":"active","ping":77},{"user_id":397,"name":"Fuzzy Toast","steam_id":76561198028067781,"connected_time":162000000000,"state":"active","ping":46},{"user_id":405,"name":"DinkleBerg","steam_id":76561198891626233,"connected_time":49000000000,"state":"active","ping":69},{"user_id":396,"name":"daffodil","steam_id":76561198049480053,"connected_time":614000000000,"state":"active","ping":62},{"user_id":386,"name":"A Puppy","steam_id":76561198828184456,"connected_time":1920000000000,"state":"active","ping":66},{"user_id":382,"name":"DoomSpiral","steam_id":76561199099015519,"connected_time":2073000000000,"state":"active","ping":78},{"user_id":391,"name":"Would You Make Me A Sandwich?","steam_id":76561198152332211,"connected_time":1444000000000,"state":"active","ping":61},{"user_id":400,"name":"Orijinal","steam_id":76561198044709519,"connected_time":155000000000,"state":"active","ping":49},{"user_id":398,"name":"HOTA","steam_id":76561199002778841,"connected_time":162000000000,"state":"active","ping":76},{"user_id":395,"name":"Cat in Your Backyard","steam_id":76561197979078330,"connected_time":1152000000000,"state":"active","ping":61},{"user_id":363,"name":"YummerBummer","steam_id":76561198094773987,"connected_time":4880000000000,"state":"active","ping":77},{"user_id":401,"name":"chikmslaad","steam_id":76561198871478705,"connected_time":148000000000,"state":"active","ping":87},{"user_id":402,"name":"GoySlop","steam_id":76561197986994889,"connected_time":147000000000,"state":"active","ping":122},{"user_id":340,"name":"Lia_Rein","steam_id":76561198151569597,"connected_time":6215000000000,"state":"active","ping":147},{"user_id":379,"name":"Necrophage#SaveTF2","steam_id":76561198861595622,"connected_time":2105000000000,"state":"active","ping":106}]},{"server_id":402,"name":"Uncletopia | Chicago | 3 | All Maps","name_short":"chi-3","host":"chi-1.us.uncletopia.com","port":27035,"enabled":true,"region":"us-central","cc":"us","latitude":41.881832,"longitude":-87.62318,"reserved":0,"last_update":"0001-01-01T00:00:00Z","name_a2s":"Uncletopia | Chicago | 3 | All Maps","protocol":17,"map":"pl_badwater","folder":"tf","game":"Team Fortress","app_id":440,"player_count":24,"max_players":24,"Bots":0,"server_type":"Dedicated","server_os":"Linux","password":true,"vac":true,"version":"7961495","steam_id":85568392924515191,"keywords":["nocrits","nodmgspread","payload","uncletopia"],"game_id":440,"stv_port":27036,"stv_name":"Uncletopia | Chicago | 3 | All Maps | STV","players":[{"user_id":151,"name":"derdds","steam_id":76561198034339940,"connected_time":2159000000000,"state":"active","ping":54},{"user_id":155,"name":"Vorco","steam_id":76561197996937734,"connected_time":1812000000000,"state":"active","ping":75},{"user_id":108,"name":"super cheese","steam_id":76561198128444122,"connected_time":4463000000000,"state":"active","ping":99},{"user_id":166,"name":"Primal","steam_id":76561197983118203,"connected_time":815000000000,"state":"active","ping":80},{"user_id":152,"name":"turnip","steam_id":76561197999375941,"connected_time":2120000000000,"state":"active","ping":86},{"user_id":146,"name":"GIGAHAXX","steam_id":76561197993714726,"connected_time":2516000000000,"state":"active","ping":60},{"user_id":162,"name":"Jesse","steam_id":76561198157305426,"connected_time":1233000000000,"state":"active","ping":68},{"user_id":144,"name":"Nero","steam_id":76561198449565973,"connected_time":2665000000000,"state":"active","ping":78},{"user_id":106,"name":"rickyrickyricky","steam_id":76561198041765918,"connected_time":5055000000000,"state":"active","ping":82},{"user_id":148,"name":"chen","steam_id":76561198064872330,"connected_time":2392000000000,"state":"active","ping":70},{"user_id":127,"name":"menonamed","steam_id":76561198199564382,"connected_time":3579000000000,"state":"active","ping":71},{"user_id":164,"name":"Jak(i)","steam_id":76561198076823144,"connected_time":924000000000,"state":"active","ping":63},{"user_id":167,"name":"Burp 2600","steam_id":76561198044480181,"connected_time":683000000000,"state":"active","ping":50},{"user_id":156,"name":"SoCal Kaizer","steam_id":76561198334361081,"connected_time":1800000000000,"state":"active","ping":123},{"user_id":117,"name":"Rec","steam_id":76561198022813906,"connected_time":3713000000000,"state":"active","ping":54},{"user_id":105,"name":"Letters","steam_id":76561198035508148,"connected_time":5380000000000,"state":"active","ping":72},{"user_id":29,"name":"Allah-lover","steam_id":76561198076768673,"connected_time":9206000000000,"state":"active","ping":61},{"user_id":157,"name":"[DATS➡] Sugar Meowth","steam_id":76561197995251793,"connected_time":1751000000000,"state":"active","ping":91},{"user_id":55,"name":"TransSammie","steam_id":76561198046331930,"connected_time":8171000000000,"state":"active","ping":89},{"user_id":165,"name":"MillerWhite","steam_id":76561198076060357,"connected_time":853000000000,"state":"active","ping":81},{"user_id":158,"name":"run fast fall dopwn","steam_id":76561198048925904,"connected_time":1596000000000,"state":"active","ping":113},{"user_id":161,"name":"Walt","steam_id":76561198964107245,"connected_time":1298000000000,"state":"active","ping":93},{"user_id":150,"name":"Gheeotine","steam_id":76561198010181698,"connected_time":2374000000000,"state":"active","ping":89},{"user_id":154,"name":"Shitsack the Indomitable","steam_id":76561198408159536,"connected_time":1824000000000,"state":"active","ping":56}]},{"server_id":403,"name":"Uncletopia | Chicago | 4 | All Maps","name_short":"chi-4","host":"chi-1.us.uncletopia.com","port":27045,"enabled":true,"region":"us-central","cc":"us","latitude":41.881832,"longitude":-87.62318,"reserved":0,"last_update":"0001-01-01T00:00:00Z","name_a2s":"Uncletopia | Chicago | 4 | All Maps","protocol":17,"map":"pl_pier","folder":"tf","game":"Team Fortress","app_id":440,"player_count":24,"max_players":24,"Bots":0,"server_type":"Dedicated","server_os":"Linux","password":true,"vac":true,"version":"7961495","steam_id":85568392924515193,"keywords":["nocrits","nodmgspread","payload","uncletopia"],"game_id":440,"stv_port":27046,"stv_name":"Uncletopia | Chicago | 4 | All Maps | STV","players":[{"user_id":353,"name":"knatspray","steam_id":76561198832507482,"connected_time":686000000000,"state":"active","ping":118},{"user_id":199,"name":"ElephantHydrogen4277882","steam_id":76561198175741741,"connected_time":6122000000000,"state":"active","ping":72},{"user_id":343,"name":"cadian guard drop engineer","steam_id":76561199104829802,"connected_time":1482000000000,"state":"active","ping":156},{"user_id":356,"name":"Kidzbopsicle","steam_id":76561198047660691,"connected_time":227000000000,"state":"active","ping":56},{"user_id":360,"name":"blood-thirsty pitbull","steam_id":76561198106690989,"connected_time":182000000000,"state":"active","ping":75},{"user_id":297,"name":"caption cool","steam_id":76561197990612056,"connected_time":2744000000000,"state":"active","ping":45},{"user_id":344,"name":"Mecha","steam_id":76561198014927379,"connected_time":1463000000000,"state":"active","ping":66},{"user_id":295,"name":"guh","steam_id":76561197972342286,"connected_time":2770000000000,"state":"active","ping":69},{"user_id":354,"name":"Hezxp","steam_id":76561198312931111,"connected_time":653000000000,"state":"active","ping":82},{"user_id":332,"name":"LittleFieryOne","steam_id":76561198107463724,"connected_time":2189000000000,"state":"active","ping":52},{"user_id":219,"name":"paypur -rng","steam_id":76561198214370515,"connected_time":5023000000000,"state":"active","ping":66},{"user_id":275,"name":"Okpar","steam_id":76561199221067945,"connected_time":3123000000000,"state":"active","ping":94},{"user_id":338,"name":"CupFruit","steam_id":76561198983993193,"connected_time":1827000000000,"state":"active","ping":109},{"user_id":224,"name":"Bin","steam_id":76561198042557767,"connected_time":4900000000000,"state":"active","ping":71},{"user_id":357,"name":"Roz257","steam_id":76561198842844532,"connected_time":224000000000,"state":"active","ping":62},{"user_id":355,"name":"Talented","steam_id":76561198800259660,"connected_time":259000000000,"state":"active","ping":68},{"user_id":333,"name":"joe","steam_id":76561199389283507,"connected_time":2154000000000,"state":"active","ping":74},{"user_id":243,"name":"RandomRainbow","steam_id":76561199107573588,"connected_time":3811000000000,"state":"active","ping":46},{"user_id":358,"name":"cart","steam_id":76561198253731826,"connected_time":206000000000,"state":"active","ping":56},{"user_id":345,"name":"Scuff1e","steam_id":76561198272995728,"connected_time":1404000000000,"state":"active","ping":76},{"user_id":359,"name":"Johnny Lawrence #JohnnyMaxxing","steam_id":76561199367141671,"connected_time":204000000000,"state":"active","ping":60},{"user_id":363,"name":":)","steam_id":76561198093921290,"connected_time":20000000000,"state":"spawning","ping":58},{"user_id":362,"name":"TwoBit","steam_id":76561198062437559,"connected_time":178000000000,"state":"active","ping":86},{"user_id":237,"name":"frid","steam_id":76561198005806915,"connected_time":4555000000000,"state":"active","ping":67}]},{"server_id":36,"name":"Uncletopia | Chicago | 5 | All Maps","name_short":"chi-5","host":"chi-2.us.uncletopia.com","port":27015,"enabled":true,"region":"us-central","cc":"us","latitude":41.881832,"longitude":-87.62318,"reserved":0,"last_update":"0001-01-01T00:00:00Z","name_a2s":"Uncletopia | Chicago | 5 | All Maps","protocol":17,"map":"pl_upward","folder":"tf","game":"Team Fortress","app_id":440,"player_count":23,"max_players":24,"Bots":0,"server_type":"Dedicated","server_os":"Linux","password":true,"vac":true,"version":"7961495","steam_id":85568392924866362,"keywords":["nocrits","nodmgspread","payload","uncletopia"],"game_id":440,"stv_port":27016,"stv_name":"Uncletopia | Chicago | 5 | All Maps | STV","players":[{"user_id":224,"name":"Ranch","steam_id":76561198035557013,"connected_time":790000000000,"state":"active","ping":46},{"user_id":237,"name":"Uplego13","steam_id":76561198135415659,"connected_time":23000000000,"state":"active","ping":88},{"user_id":215,"name":"R Kay","steam_id":76561199107386147,"connected_time":1701000000000,"state":"active","ping":74},{"user_id":219,"name":"loser","steam_id":76561198259380127,"connected_time":1634000000000,"state":"active","ping":50},{"user_id":226,"name":"Sir Valentouser","steam_id":76561199013400087,"connected_time":730000000000,"state":"active","ping":84},{"user_id":187,"name":"IAmAProfesonal","steam_id":76561199171858953,"connected_time":3129000000000,"state":"active","ping":53},{"user_id":232,"name":"demoknight tf2","steam_id":76561198070393998,"connected_time":192000000000,"state":"active","ping":63},{"user_id":234,"name":"Fredrick","steam_id":76561197981419964,"connected_time":84000000000,"state":"active","ping":67},{"user_id":129,"name":"Tater Thot","steam_id":76561198156437343,"connected_time":5926000000000,"state":"active","ping":73},{"user_id":235,"name":"bookreader","steam_id":76561198978568007,"connected_time":66000000000,"state":"active","ping":49},{"user_id":229,"name":"caberknight tf2  (f2p-ish)","steam_id":76561199273882768,"connected_time":616000000000,"state":"active","ping":67},{"user_id":236,"name":"braxtontaylor09","steam_id":76561198157971274,"connected_time":59000000000,"state":"active","ping":80},{"user_id":217,"name":"CynForSin","steam_id":76561198094739849,"connected_time":1681000000000,"state":"active","ping":71},{"user_id":238,"name":"BoopingBears","steam_id":76561198346929455,"connected_time":16000000000,"state":"spawning","ping":78},{"user_id":179,"name":"the archmage","steam_id":76561198380018244,"connected_time":3747000000000,"state":"active","ping":72},{"user_id":188,"name":"styraxic","steam_id":76561198987579589,"connected_time":2874000000000,"state":"active","ping":49},{"user_id":230,"name":"The Grim Heaper","steam_id":76561197987759101,"connected_time":616000000000,"state":"active","ping":108},{"user_id":183,"name":"Angry Ginger","steam_id":76561198256929349,"connected_time":3440000000000,"state":"active","ping":53},{"user_id":239,"name":"Revolver","steam_id":76561198169352967,"connected_time":7000000000,"state":"spawning","ping":81},{"user_id":198,"name":"Sparse","steam_id":76561198865084441,"connected_time":2469000000000,"state":"active","ping":73},{"user_id":209,"name":"BookBurner23","steam_id":76561198034771185,"connected_time":1983000000000,"state":"active","ping":69},{"user_id":221,"name":"Hobo Joe","steam_id":76561198021453917,"connected_time":1512000000000,"state":"active","ping":65},{"user_id":210,"name":"[SpA]Awesome","steam_id":76561198044262711,"connected_time":1983000000000,"state":"active","ping":88}]},{"server_id":37,"name":"Uncletopia | Chicago | 6 | All Maps","name_short":"chi-6","host":"chi-2.us.uncletopia.com","port":27025,"enabled":true,"region":"us-central","cc":"us","latitude":41.881832,"longitude":-87.62318,"reserved":0,"last_update":"0001-01-01T00:00:00Z","name_a2s":"Uncletopia | Chicago | 6 | All Maps","protocol":17,"map":"koth_highpass","folder":"tf","game":"Team Fortress","app_id":440,"player_count":0,"max_players":24,"Bots":0,"server_type":"Dedicated","server_os":"Linux","password":true,"vac":true,"version":"7961495","steam_id":85568392924866363,"keywords":["cp","nocrits","nodmgspread","uncletopia"],"game_id":440,"stv_port":27026,"stv_name":"Uncletopia | Chicago | 6 | All Maps | STV","players":null},{"server_id":38,"name":"Uncletopia | Chicago | 7 | Stopwatch","name_short":"chi-7","host":"chi-2.us.uncletopia.com","port":27035,"enabled":true,"region":"us-central","cc":"us","latitude":41.881832,"longitude":-87.62318,"reserved":0,"last_update":"0001-01-01T00:00:00Z","name_a2s":"Uncletopia | Chicago | 7 | Stopwatch","protocol":17,"map":"cp_process_final","folder":"tf","game":"Team Fortress","app_id":440,"player_count":17,"max_players":24,"Bots":0,"server_type":"Dedicated","server_os":"Linux","password":true,"vac":true,"version":"7961495","steam_id":85568392924866364,"keywords":["cp","nocrits","nodmgspread","uncletopia"],"game_id":440,"stv_port":27036,"stv_name":"Uncletopia | Chicago | 7 | Stopwatch | STV","players":[{"user_id":396,"name":"A Can of AriZona Green Tea","steam_id":76561198062481133,"connected_time":3671000000000,"state":"spawning","ping":111},{"user_id":451,"name":"SadDragonMan","steam_id":76561198358280010,"connected_time":324000000000,"state":"spawning","ping":141},{"user_id":452,"name":"Samara Rei","steam_id":76561198080265445,"connected_time":121000000000,"state":"spawning","ping":167},{"user_id":425,"name":"Chef__7","steam_id":76561199056921540,"connected_time":2080000000000,"state":"spawning","ping":136},{"user_id":438,"name":"k3ramb1t","steam_id":76561198097880352,"connected_time":1233000000000,"state":"spawning","ping":143},{"user_id":442,"name":"DropBear","steam_id":76561197964435496,"connected_time":905000000000,"state":"spawning","ping":183},{"user_id":423,"name":"Cornelius","steam_id":76561198123447388,"connected_time":2387000000000,"state":"spawning","ping":153},{"user_id":416,"name":"cool #1 weezer fan","steam_id":76561199172518546,"connected_time":2985000000000,"state":"spawning","ping":152},{"user_id":443,"name":"Loafus","steam_id":76561198154561111,"connected_time":896000000000,"state":"spawning","ping":198},{"user_id":375,"name":"1-800-GHOST-DANCE","steam_id":76561198835430429,"connected_time":4722000000000,"state":"spawning","ping":275},{"user_id":435,"name":"dominix","steam_id":76561199045061504,"connected_time":1368000000000,"state":"spawning","ping":296},{"user_id":418,"name":"crisp","steam_id":76561198084230569,"connected_time":2639000000000,"state":"spawning","ping":155},{"user_id":430,"name":"Bobby Fischer was right","steam_id":76561198286792807,"connected_time":1870000000000,"state":"spawning","ping":199},{"user_id":444,"name":"Johik Quifina","steam_id":76561198148410506,"connected_time":890000000000,"state":"spawning","ping":107},{"user_id":436,"name":"MidSobbes08","steam_id":76561199013101925,"connected_time":1348000000000,"state":"spawning","ping":150},{"user_id":448,"name":"Madeline","steam_id":76561198002123006,"connected_time":424000000000,"state":"spawning","ping":149},{"user_id":355,"name":"muck","steam_id":76561198120437909,"connected_time":5463000000000,"state":"spawning","ping":190}]},{"server_id":39,"name":"Uncletopia | Chicago | 8 | Community","name_short":"chi-8","host":"chi-2.us.uncletopia.com","port":27045,"enabled":true,"region":"us-central","cc":"us","latitude":41.881832,"longitude":-87.62318,"reserved":0,"last_update":"0001-01-01T00:00:00Z","name_a2s":"Uncletopia | Chicago | 8 | Community","protocol":17,"map":"workshop/cp_overgrown_rc8.ugc503939302","folder":"tf","game":"Team Fortress","app_id":440,"player_count":13,"max_players":24,"Bots":0,"server_type":"Dedicated","server_os":"Linux","password":true,"vac":true,"version":"7961495","steam_id":85568392924866365,"keywords":["cp","nocrits","nodmgspread","uncletopia"],"game_id":440,"stv_port":27046,"stv_name":"Uncletopia | Chicago | 8 | Community | STV","players":[{"user_id":11,"name":"ur mothers sex tape","steam_id":76561198253709930,"connected_time":836000000000,"state":"active","ping":199},{"user_id":12,"name":"ArmyGuyIan","steam_id":76561198120926552,"connected_time":750000000000,"state":"active","ping":94},{"user_id":13,"name":"kicks","steam_id":76561199228854923,"connected_time":729000000000,"state":"active","ping":66},{"user_id":16,"name":"Sushi","steam_id":76561198087371890,"connected_time":448000000000,"state":"active","ping":72},{"user_id":15,"name":"ADrunkCaliburn","steam_id":76561198390889014,"connected_time":546000000000,"state":"active","ping":59},{"user_id":22,"name":"Zod","steam_id":76561197970504146,"connected_time":169000000000,"state":"active","ping":58},{"user_id":18,"name":"Shuu","steam_id":76561199199180558,"connected_time":343000000000,"state":"active","ping":59},{"user_id":19,"name":"donkey","steam_id":76561198288539461,"connected_time":314000000000,"state":"active","ping":65},{"user_id":20,"name":"Professional Brohamad","steam_id":76561198824025210,"connected_time":261000000000,"state":"active","ping":44},{"user_id":23,"name":"Limerumpus","steam_id":76561198138113676,"connected_time":169000000000,"state":"active","ping":84},{"user_id":24,"name":"Sarah D she\\her","steam_id":76561199376578224,"connected_time":91000000000,"state":"active","ping":186},{"user_id":25,"name":"ThatGamerGuy","steam_id":76561198979057176,"connected_time":51000000000,"state":"spawning","ping":295},{"user_id":26,"name":"Thedarkdot","steam_id":76561199200787877,"connected_time":39000000000,"state":"active","ping":70}]},{"server_id":8,"name":"Uncletopia | Dallas | 1 | All Maps","name_short":"dal-1","host":"dal-1.us.uncletopia.com","port":27015,"enabled":true,"region":"us-central","cc":"us","latitude":32.779167,"longitude":-96.80889,"reserved":0,"last_update":"0001-01-01T00:00:00Z","name_a2s":"Uncletopia | Dallas | 1 | All Maps","protocol":17,"map":"pl_frontier_final","folder":"tf","game":"Team Fortress","app_id":440,"player_count":24,"max_players":24,"Bots":0,"server_type":"Dedicated","server_os":"Linux","password":true,"vac":true,"version":"7961495","steam_id":85568392924469986,"keywords":["nocrits","nodmgspread","payload","uncletopia"],"game_id":440,"stv_port":27016,"stv_name":"Uncletopia | Dallas | 1 | All Maps | STV","players":[{"user_id":588,"name":"Glaceon","steam_id":76561198177715869,"connected_time":5645000000000,"state":"active","ping":69},{"user_id":666,"name":"cree","steam_id":76561198392539722,"connected_time":286000000000,"state":"active","ping":86},{"user_id":668,"name":"imng","steam_id":76561198014988031,"connected_time":146000000000,"state":"active","ping":72},{"user_id":658,"name":"Silvermace","steam_id":76561198090696843,"connected_time":522000000000,"state":"active","ping":60},{"user_id":652,"name":"THRONGLER","steam_id":76561198198563466,"connected_time":956000000000,"state":"active","ping":40},{"user_id":604,"name":"Mocha Josie","steam_id":76561198066452726,"connected_time":4320000000000,"state":"active","ping":77},{"user_id":656,"name":"*","steam_id":76561198387782040,"connected_time":872000000000,"state":"active","ping":119},{"user_id":660,"name":"Drake from State Farm","steam_id":76561199069029812,"connected_time":434000000000,"state":"active","ping":94},{"user_id":640,"name":"EatSomeBEES","steam_id":76561198047334307,"connected_time":2492000000000,"state":"active","ping":112},{"user_id":557,"name":"small meth pouch","steam_id":76561198130412963,"connected_time":7152000000000,"state":"active","ping":70},{"user_id":663,"name":"webaline  =＾● ⋏ ●＾=","steam_id":76561199052450127,"connected_time":324000000000,"state":"active","ping":74},{"user_id":661,"name":"Sporp","steam_id":76561197987957133,"connected_time":415000000000,"state":"active","ping":102},{"user_id":625,"name":"Darling","steam_id":76561198127525888,"connected_time":3451000000000,"state":"active","ping":50},{"user_id":575,"name":"Alkimia","steam_id":76561198385763137,"connected_time":6273000000000,"state":"active","ping":129},{"user_id":634,"name":"SHAZBOT","steam_id":76561198068536790,"connected_time":2849000000000,"state":"active","ping":110},{"user_id":649,"name":"Alchemist","steam_id":76561198094238189,"connected_time":1022000000000,"state":"active","ping":69},{"user_id":635,"name":"leesh","steam_id":76561198079603938,"connected_time":2665000000000,"state":"active","ping":60},{"user_id":637,"name":"the lazy gamer","steam_id":76561199070127039,"connected_time":2635000000000,"state":"active","ping":121},{"user_id":647,"name":"banana gaming","steam_id":76561198334907218,"connected_time":2075000000000,"state":"active","ping":57},{"user_id":665,"name":"Raz","steam_id":76561198002426150,"connected_time":300000000000,"state":"active","ping":46},{"user_id":664,"name":"PegFear","steam_id":76561198048488824,"connected_time":320000000000,"state":"active","ping":72},{"user_id":645,"name":"Lock'd","steam_id":76561198170108230,"connected_time":2295000000000,"state":"active","ping":60},{"user_id":650,"name":"OwningTundra2","steam_id":76561198936893224,"connected_time":974000000000,"state":"active","ping":53},{"user_id":667,"name":"BigBubble42","steam_id":76561198136286123,"connected_time":255000000000,"state":"active","ping":31}]},{"server_id":108,"name":"Uncletopia | Dallas | 2 | All Maps","name_short":"dal-2","host":"dal-1.us.uncletopia.com","port":27025,"enabled":true,"region":"us-central","cc":"us","latitude":32.779167,"longitude":-96.80889,"reserved":0,"last_update":"0001-01-01T00:00:00Z","name_a2s":"Uncletopia | Dallas | 2 | All Maps","protocol":17,"map":"pl_goldrush","folder":"tf","game":"Team Fortress","app_id":440,"player_count":24,"max_players":24,"Bots":0,"server_type":"Dedicated","server_os":"Linux","password":true,"vac":true,"version":"7961495","steam_id":85568392924469988,"keywords":["nocrits","nodmgspread","payload","uncletopia"],"game_id":440,"stv_port":27026,"stv_name":"Uncletopia | Dallas | 2 | All Maps | STV","players":[{"user_id":166,"name":"Mr.Nostalgic","steam_id":76561198083240822,"connected_time":1602000000000,"state":"active","ping":94},{"user_id":95,"name":"TrashPanda (she/her)","steam_id":76561198447864095,"connected_time":6577000000000,"state":"active","ping":69},{"user_id":125,"name":"Orange Triangle","steam_id":76561198320498182,"connected_time":3995000000000,"state":"active","ping":71},{"user_id":143,"name":"TimmyTurbo","steam_id":76561199132621654,"connected_time":2664000000000,"state":"active","ping":50},{"user_id":173,"name":"Sax","steam_id":76561198055425123,"connected_time":725000000000,"state":"active","ping":115},{"user_id":177,"name":"Silverman_Cam","steam_id":76561198936168937,"connected_time":106000000000,"state":"active","ping":91},{"user_id":167,"name":"Venk","steam_id":76561198251131422,"connected_time":1597000000000,"state":"active","ping":85},{"user_id":98,"name":"Rally","steam_id":76561198004485218,"connected_time":6530000000000,"state":"active","ping":89},{"user_id":171,"name":"OWOverkill","steam_id":76561198120569764,"connected_time":940000000000,"state":"active","ping":108},{"user_id":150,"name":"Jonah Hill from 21 Jump Street","steam_id":76561198811130843,"connected_time":2247000000000,"state":"active","ping":100},{"user_id":175,"name":"Bacon","steam_id":76561199078407152,"connected_time":448000000000,"state":"active","ping":84},{"user_id":108,"name":"Pegway","steam_id":76561198044303814,"connected_time":5544000000000,"state":"active","ping":84},{"user_id":133,"name":"Kristen","steam_id":76561198025479618,"connected_time":3513000000000,"state":"active","ping":95},{"user_id":76,"name":"The Foolish Samurai","steam_id":76561198094494945,"connected_time":7887000000000,"state":"active","ping":90},{"user_id":169,"name":"TheGirthquake","steam_id":76561198238895056,"connected_time":1200000000000,"state":"active","ping":51},{"user_id":172,"name":"prospike","steam_id":76561199491903111,"connected_time":782000000000,"state":"active","ping":103},{"user_id":159,"name":"Ềrr∅rシ","steam_id":76561199277920604,"connected_time":1789000000000,"state":"active","ping":68},{"user_id":91,"name":"I. C. Wiener","steam_id":76561198062777610,"connected_time":6813000000000,"state":"active","ping":71},{"user_id":144,"name":"Gamzee Makara","steam_id":76561198046661611,"connected_time":2597000000000,"state":"active","ping":80},{"user_id":170,"name":"Mr. Bixby","steam_id":76561198868839264,"connected_time":1161000000000,"state":"active","ping":56},{"user_id":131,"name":"jubanya","steam_id":76561198830921046,"connected_time":3884000000000,"state":"active","ping":87},{"user_id":176,"name":"TechnoBear2099","steam_id":76561198238863596,"connected_time":127000000000,"state":"active","ping":54},{"user_id":116,"name":"That Pyro Main","steam_id":76561198010204805,"connected_time":5208000000000,"state":"active","ping":73},{"user_id":168,"name":"Brian Family","steam_id":76561199129969202,"connected_time":1211000000000,"state":"active","ping":84}]},{"server_id":404,"name":"Uncletopia | Dallas | 3 | All Maps","name_short":"dal-3","host":"dal-1.us.uncletopia.com","port":27035,"enabled":true,"region":"us-central","cc":"us","latitude":32.779167,"longitude":-96.80889,"reserved":0,"last_update":"0001-01-01T00:00:00Z","name_a2s":"Uncletopia | Dallas | 3 | All Maps","protocol":17,"map":"pl_frontier_final","folder":"tf","game":"Team Fortress","app_id":440,"player_count":23,"max_players":24,"Bots":0,"server_type":"Dedicated","server_os":"Linux","password":true,"vac":true,"version":"7961495","steam_id":85568392924515219,"keywords":["nocrits","nodmgspread","payload","uncletopia"],"game_id":440,"stv_port":27036,"stv_name":"Uncletopia | Dallas | 3 | All Maps | STV","players":[{"user_id":366,"name":"one in a krillion","steam_id":76561198121139811,"connected_time":61000000000,"state":"active","ping":105},{"user_id":354,"name":"franc | montuga;com","steam_id":76561198417807155,"connected_time":1501000000000,"state":"active","ping":77},{"user_id":361,"name":"Hans Zimmer from The Buggles","steam_id":76561198079675267,"connected_time":724000000000,"state":"active","ping":89},{"user_id":320,"name":"The Chosen One","steam_id":76561199046984627,"connected_time":2478000000000,"state":"active","ping":85},{"user_id":356,"name":"james may","steam_id":76561198043857339,"connected_time":1230000000000,"state":"active","ping":82},{"user_id":365,"name":"amonie","steam_id":76561198372368746,"connected_time":199000000000,"state":"active","ping":44},{"user_id":334,"name":"Kzjytsugn","steam_id":76561198130241974,"connected_time":2106000000000,"state":"active","ping":96},{"user_id":355,"name":"minecraft","steam_id":76561198104345201,"connected_time":1298000000000,"state":"active","ping":61},{"user_id":351,"name":"Cinnifox","steam_id":76561198068773971,"connected_time":1580000000000,"state":"active","ping":72},{"user_id":363,"name":"tres","steam_id":76561198067500833,"connected_time":383000000000,"state":"active","ping":50},{"user_id":358,"name":"Mr. Mime","steam_id":76561199197676776,"connected_time":1218000000000,"state":"active","ping":55},{"user_id":353,"name":"[ibb™]Shadow20X6-ENGI","steam_id":76561198019292755,"connected_time":1518000000000,"state":"active","ping":90},{"user_id":335,"name":"rf","steam_id":76561198195359229,"connected_time":2089000000000,"state":"active","ping":97},{"user_id":259,"name":"FaZe hyazzZzzzZzzzZ","steam_id":76561199100342013,"connected_time":4863000000000,"state":"active","ping":74},{"user_id":336,"name":"Bobby Ray","steam_id":76561198044131188,"connected_time":2087000000000,"state":"active","ping":70},{"user_id":362,"name":"Dr. W0lv","steam_id":76561198129237487,"connected_time":572000000000,"state":"active","ping":66},{"user_id":332,"name":"Fewny","steam_id":76561198225977000,"connected_time":2174000000000,"state":"active","ping":71},{"user_id":360,"name":"wheresgeorge","steam_id":76561198986281248,"connected_time":854000000000,"state":"active","ping":80},{"user_id":364,"name":"Misserette","steam_id":76561198357652902,"connected_time":268000000000,"state":"active","ping":120},{"user_id":308,"name":"Jimmy","steam_id":76561198857959855,"connected_time":2653000000000,"state":"active","ping":76},{"user_id":359,"name":"Texas guy","steam_id":76561198082315370,"connected_time":1135000000000,"state":"active","ping":84},{"user_id":350,"name":"Knavish","steam_id":76561198073434372,"connected_time":1619000000000,"state":"active","ping":89},{"user_id":291,"name":"munch","steam_id":76561198820480684,"connected_time":3016000000000,"state":"active","ping":70}]},{"server_id":405,"name":"Uncletopia | Dallas | 4 | Community","name_short":"dal-4","host":"dal-1.us.uncletopia.com","port":27045,"enabled":true,"region":"us-central","cc":"us","latitude":32.779167,"longitude":-96.80889,"reserved":0,"last_update":"0001-01-01T00:00:00Z","name_a2s":"Uncletopia | Dallas | 4 | Community","protocol":17,"map":"workshop/koth_kemptown_rc1.ugc767410655","folder":"tf","game":"Team Fortress","app_id":440,"player_count":0,"max_players":24,"Bots":0,"server_type":"Dedicated","server_os":"Linux","password":true,"vac":true,"version":"7961495","steam_id":85568392924515220,"keywords":["cp","nocrits","nodmgspread","uncletopia"],"game_id":440,"stv_port":27046,"stv_name":"Uncletopia | Dallas | 4 | Community | STV","players":null},{"server_id":5,"name":"Uncletopia | Frankfurt | 1 | All Maps","name_short":"frk-1","host":"frk-1.de.uncletopia.com","port":27015,"enabled":true,"region":"eu","cc":"de","latitude":50.110924,"longitude":8.682127,"reserved":0,"last_update":"0001-01-01T00:00:00Z","name_a2s":"Uncletopia | Frankfurt | 1 | All Maps","protocol":17,"map":"cp_dustbowl","folder":"tf","game":"Team Fortress","app_id":440,"player_count":2,"max_players":24,"Bots":0,"server_type":"Dedicated","server_os":"Linux","password":true,"vac":true,"version":"7961495","steam_id":85568392924469989,"keywords":["cp","nocrits","nodmgspread","uncletopia"],"game_id":440,"stv_port":27016,"stv_name":"Uncletopia | Frankfurt | 1 | All Maps | STV","players":[{"user_id":486,"name":"bonus ducks","steam_id":76561199133093829,"connected_time":2539000000000,"state":"active","ping":140},{"user_id":489,"name":"Frog","steam_id":76561198043981067,"connected_time":1718000000000,"state":"active","ping":70}]},{"server_id":110,"name":"Uncletopia | Frankfurt | 2 | All Maps","name_short":"frk-2","host":"frk-1.de.uncletopia.com","port":27025,"enabled":true,"region":"eu","cc":"de","latitude":50.110924,"longitude":8.682127,"reserved":0,"last_update":"0001-01-01T00:00:00Z","name_a2s":"Uncletopia | Frankfurt | 2 | All Maps","protocol":17,"map":"cp_altitude","folder":"tf","game":"Team Fortress","app_id":440,"player_count":0,"max_players":24,"Bots":0,"server_type":"Dedicated","server_os":"Linux","password":true,"vac":true,"version":"7961495","steam_id":85568392924469990,"keywords":["cp","nocrits","nodmgspread","uncletopia"],"game_id":440,"stv_port":27026,"stv_name":"Uncletopia | Frankfurt | 2 | All Maps | STV","players":null},{"server_id":308,"name":"Uncletopia | Frankfurt | 3 | All Maps","name_short":"frk-3","host":"frk-1.de.uncletopia.com","port":27035,"enabled":true,"region":"eu","cc":"de","latitude":50.110924,"longitude":8.682127,"reserved":0,"last_update":"0001-01-01T00:00:00Z","name_a2s":"Uncletopia | Frankfurt | 3 | All Maps","protocol":17,"map":"pl_upward","folder":"tf","game":"Team Fortress","app_id":440,"player_count":0,"max_players":24,"Bots":0,"server_type":"Dedicated","server_os":"Linux","password":true,"vac":true,"version":"7961495","steam_id":85568392924504274,"keywords":["nocrits","nodmgspread","payload","uncletopia"],"game_id":440,"stv_port":27036,"stv_name":"Uncletopia | Frankfurt | 3 | All Maps | STV","players":null},{"server_id":309,"name":"Uncletopia | Frankfurt | 4 | All Maps","name_short":"frk-4","host":"frk-1.de.uncletopia.com","port":27045,"enabled":true,"region":"eu","cc":"de","latitude":50.110924,"longitude":8.682127,"reserved":0,"last_update":"0001-01-01T00:00:00Z","name_a2s":"Uncletopia | Frankfurt | 4 | All Maps","protocol":17,"map":"koth_highpass","folder":"tf","game":"Team Fortress","app_id":440,"player_count":0,"max_players":24,"Bots":0,"server_type":"Dedicated","server_os":"Linux","password":true,"vac":true,"version":"7961495","steam_id":85568392924504275,"keywords":["cp","nocrits","nodmgspread","uncletopia"],"game_id":440,"stv_port":27046,"stv_name":"Uncletopia | Frankfurt | 4 | All Maps | STV","players":null},{"server_id":310,"name":"Uncletopia | Frankfurt | 5 | All Maps","name_short":"frk-5","host":"frk-1.de.uncletopia.com","port":27055,"enabled":true,"region":"eu","cc":"de","latitude":50.110924,"longitude":8.682127,"reserved":0,"last_update":"0001-01-01T00:00:00Z","name_a2s":"Uncletopia | Frankfurt | 5 | All Maps","protocol":17,"map":"cp_metalworks","folder":"tf","game":"Team Fortress","app_id":440,"player_count":0,"max_players":24,"Bots":0,"server_type":"Dedicated","server_os":"Linux","password":true,"vac":true,"version":"7961495","steam_id":85568392924504277,"keywords":["cp","nocrits","nodmgspread","uncletopia"],"game_id":440,"stv_port":27056,"stv_name":"Uncletopia | Frankfurt | 5 | All Maps | STV","players":null},{"server_id":311,"name":"Uncletopia | Frankfurt | 6 | All Maps","name_short":"frk-6","host":"frk-1.de.uncletopia.com","port":27065,"enabled":true,"region":"eu","cc":"de","latitude":50.110924,"longitude":8.682127,"reserved":0,"last_update":"0001-01-01T00:00:00Z","name_a2s":"Uncletopia | Frankfurt | 6 | All Maps","protocol":17,"map":"koth_viaduct","folder":"tf","game":"Team Fortress","app_id":440,"player_count":0,"max_players":24,"Bots":0,"server_type":"Dedicated","server_os":"Linux","password":true,"vac":true,"version":"7961495","steam_id":85568392924504278,"keywords":["cp","nocrits","nodmgspread","uncletopia"],"game_id":440,"stv_port":27066,"stv_name":"Uncletopia | Frankfurt | 6 | All Maps | STV","players":null},{"server_id":23,"name":"Uncletopia | Frankfurt | 7 | Stopwatch","name_short":"frk-7","host":"frk-1.de.uncletopia.com","port":27075,"enabled":true,"region":"eu","cc":"de","latitude":50.110924,"longitude":8.682127,"reserved":0,"last_update":"0001-01-01T00:00:00Z","name_a2s":"Uncletopia | Frankfurt | 7 | Stopwatch","protocol":17,"map":"pl_frontier_final","folder":"tf","game":"Team Fortress","app_id":440,"player_count":0,"max_players":24,"Bots":0,"server_type":"Dedicated","server_os":"Linux","password":true,"vac":true,"version":"7961495","steam_id":85568392924742827,"keywords":["nocrits","nodmgspread","payload","uncletopia"],"game_id":440,"stv_port":27076,"stv_name":"Uncletopia | Frankfurt | 7 | Stopwatch | STV","players":null},{"server_id":24,"name":"Uncletopia | Frankfurt | 8 | Community","name_short":"frk-8","host":"frk-1.de.uncletopia.com","port":27085,"enabled":true,"region":"eu","cc":"de","latitude":50.110924,"longitude":8.682127,"reserved":0,"last_update":"0001-01-01T00:00:00Z","name_a2s":"Uncletopia | Frankfurt | 8 | Community","protocol":17,"map":"workshop/koth_bagel_rc6.ugc2514036946","folder":"tf","game":"Team Fortress","app_id":440,"player_count":0,"max_players":24,"Bots":0,"server_type":"Dedicated","server_os":"Linux","password":true,"vac":true,"version":"7961495","steam_id":85568392924742828,"keywords":["cp","nocrits","nodmgspread","uncletopia"],"game_id":440,"stv_port":27086,"stv_name":"Uncletopia | Frankfurt | 8 | Community | STV","players":null},{"server_id":202,"name":"Uncletopia | Hong Kong | 1 | All Maps","name_short":"hgk-1","host":"hgk-1.hk.uncletopia.com","port":27015,"enabled":true,"region":"asia","cc":"hk","latitude":22.302711,"longitude":114.177216,"reserved":0,"last_update":"0001-01-01T00:00:00Z","name_a2s":"Uncletopia | Hong Kong | 1 | All Maps","protocol":17,"map":"pl_frontier_final","folder":"tf","game":"Team Fortress","app_id":440,"player_count":0,"max_players":24,"Bots":0,"server_type":"Dedicated","server_os":"Linux","password":true,"vac":true,"version":"7961495","steam_id":85568392924494504,"keywords":["nocrits","nodmgspread","payload","uncletopia"],"game_id":440,"stv_port":27016,"stv_name":"Uncletopia | Hong Kong | 1 | All Maps | STV","players":null},{"server_id":1,"name":"Uncletopia | Los Angeles | 1 | All Maps","name_short":"lax-1","host":"lax-1.us.uncletopia.com","port":27015,"enabled":true,"region":"us-west","cc":"us","latitude":33.94279,"longitude":-118.41004,"reserved":0,"last_update":"0001-01-01T00:00:00Z","name_a2s":"Uncletopia | Los Angeles | 1 | All Maps","protocol":17,"map":"pl_borneo","folder":"tf","game":"Team Fortress","app_id":440,"player_count":25,"max_players":24,"Bots":0,"server_type":"Dedicated","server_os":"Linux","password":true,"vac":true,"version":"7961495","steam_id":85568392924469991,"keywords":["nocrits","nodmgspread","payload","uncletopia"],"game_id":440,"stv_port":27016,"stv_name":"Uncletopia | Los Angeles | 1 | All Maps | STV","players":[{"user_id":12,"name":"werolat","steam_id":76561197960544784,"connected_time":2322000000000,"state":"active","ping":48},{"user_id":26,"name":"yowhatupitk","steam_id":76561199224530901,"connected_time":1620000000000,"state":"active","ping":80},{"user_id":14,"name":"a_lilypup","steam_id":76561198163640324,"connected_time":2227000000000,"state":"active","ping":56},{"user_id":66,"name":"Tmiracle","steam_id":76561198052375275,"connected_time":188000000000,"state":"active","ping":45},{"user_id":27,"name":"d4ngerd4n","steam_id":76561198043758735,"connected_time":1617000000000,"state":"active","ping":62},{"user_id":17,"name":"XxDragon4321xX","steam_id":76561198046705735,"connected_time":2112000000000,"state":"active","ping":70},{"user_id":18,"name":"MarcyGengar","steam_id":76561198315829482,"connected_time":2099000000000,"state":"active","ping":62},{"user_id":22,"name":"ilikehamburgers2578","steam_id":76561199231798531,"connected_time":1882000000000,"state":"active","ping":61},{"user_id":51,"name":"tobrehto","steam_id":76561198097544038,"connected_time":428000000000,"state":"active","ping":59},{"user_id":25,"name":"SnowMan114","steam_id":76561198849397590,"connected_time":1749000000000,"state":"active","ping":76},{"user_id":73,"name":"furry to spy main pipeline","steam_id":76561198065662025,"connected_time":1000000000,"state":"spawning","ping":39},{"user_id":29,"name":"That Dude","steam_id":76561198980486227,"connected_time":1543000000000,"state":"active","ping":114},{"user_id":30,"name":"Khrono691","steam_id":76561198246227600,"connected_time":1521000000000,"state":"active","ping":55},{"user_id":31,"name":"the hot dog","steam_id":76561198442125983,"connected_time":1510000000000,"state":"active","ping":55},{"user_id":33,"name":"Chirp","steam_id":76561198240780230,"connected_time":1435000000000,"state":"active","ping":45},{"user_id":43,"name":"nøbu","steam_id":76561198100614981,"connected_time":1208000000000,"state":"active","ping":85},{"user_id":44,"name":"Karg","steam_id":76561198091387866,"connected_time":642000000000,"state":"active","ping":68},{"user_id":36,"name":"BrightOrangeMango","steam_id":76561198023144607,"connected_time":1307000000000,"state":"active","ping":60},{"user_id":49,"name":"\u003c:::::::::::::::::::::::::::[==","steam_id":76561198817445242,"connected_time":435000000000,"state":"active","ping":66},{"user_id":50,"name":"alejandro","steam_id":76561198095113674,"connected_time":433000000000,"state":"active","ping":65},{"user_id":52,"name":"-=Bits=-Dinkleberg","steam_id":76561198080367616,"connected_time":424000000000,"state":"active","ping":82},{"user_id":40,"name":"artemisjackson2","steam_id":76561199094686268,"connected_time":1275000000000,"state":"active","ping":132},{"user_id":48,"name":"nym","steam_id":76561198444633925,"connected_time":443000000000,"state":"active","ping":61},{"user_id":70,"name":"Main Opp","steam_id":76561198124910662,"connected_time":159000000000,"state":"spawning","ping":109},{"user_id":47,"name":"yogi","steam_id":76561198067986753,"connected_time":444000000000,"state":"active","ping":46}]},{"server_id":112,"name":"Uncletopia | Los Angeles | 2 | All Maps","name_short":"lax-2","host":"lax-1.us.uncletopia.com","port":27025,"enabled":true,"region":"us-west","cc":"us","latitude":33.94279,"longitude":-118.41004,"reserved":0,"last_update":"0001-01-01T00:00:00Z","name_a2s":"Uncletopia | Los Angeles | 2 | All Maps","protocol":17,"map":"koth_viaduct","folder":"tf","game":"Team Fortress","app_id":440,"player_count":0,"max_players":24,"Bots":0,"server_type":"Dedicated","server_os":"Linux","password":true,"vac":true,"version":"7961495","steam_id":85568392924469992,"keywords":["cp","nocrits","nodmgspread","uncletopia"],"game_id":440,"stv_port":27026,"stv_name":"Uncletopia | Los Angeles | 2 | All Maps | STV","players":null},{"server_id":324,"name":"Uncletopia | Los Angeles | 3 | All Maps","name_short":"lax-3","host":"lax-1.us.uncletopia.com","port":27035,"enabled":true,"region":"us-west","cc":"us","latitude":33.94279,"longitude":-118.41004,"reserved":0,"last_update":"0001-01-01T00:00:00Z","name_a2s":"Uncletopia | Los Angeles | 3 | All Maps","protocol":17,"map":"pl_frontier_final","folder":"tf","game":"Team Fortress","app_id":440,"player_count":0,"max_players":24,"Bots":0,"server_type":"Dedicated","server_os":"Linux","password":true,"vac":true,"version":"7961495","steam_id":85568392924510198,"keywords":["nocrits","nodmgspread","payload","uncletopia"],"game_id":440,"stv_port":27036,"stv_name":"Uncletopia | Los Angeles | 3 | All Maps | STV","players":null},{"server_id":25,"name":"Uncletopia | Los Angeles | 4 | Stopwatch","name_short":"lax-4","host":"lax-1.us.uncletopia.com","port":27045,"enabled":true,"region":"us-west","cc":"us","latitude":33.94279,"longitude":-118.41004,"reserved":0,"last_update":"0001-01-01T00:00:00Z","name_a2s":"Uncletopia | Los Angeles | 4 | Stopwatch","protocol":17,"map":"workshop/pl_summercoast_rc8e.ugc1761528829","folder":"tf","game":"Team Fortress","app_id":440,"player_count":0,"max_players":24,"Bots":0,"server_type":"Dedicated","server_os":"Linux","password":true,"vac":true,"version":"7961495","steam_id":85568392924510199,"keywords":["nocrits","nodmgspread","payload","uncletopia"],"game_id":440,"stv_port":27046,"stv_name":"Uncletopia | Los Angeles | 4 | Stopwatch | STV","players":null},{"server_id":11,"name":"Uncletopia | London | 1 | All Maps","name_short":"lon-1","host":"lon-1.uk.uncletopia.com","port":27015,"enabled":true,"region":"eu","cc":"gb","latitude":51.509865,"longitude":-0.118092,"reserved":0,"last_update":"0001-01-01T00:00:00Z","name_a2s":"Uncletopia | London | 1 | All Maps","protocol":17,"map":"koth_viaduct","folder":"tf","game":"Team Fortress","app_id":440,"player_count":22,"max_players":24,"Bots":0,"server_type":"Dedicated","server_os":"Linux","password":true,"vac":true,"version":"7961495","steam_id":85568392924367362,"keywords":["cp","nocrits","nodmgspread","uncletopia"],"game_id":440,"stv_port":27016,"stv_name":"Uncletopia | London | 1 | All Maps | STV","players":[{"user_id":857,"name":"Slifer the Sky Dragon","steam_id":76561198062255803,"connected_time":861000000000,"state":"active","ping":75},{"user_id":839,"name":"zayd","steam_id":76561198895235231,"connected_time":1570000000000,"state":"active","ping":51},{"user_id":865,"name":"COCKTOWER","steam_id":76561197995723404,"connected_time":123000000000,"state":"active","ping":58},{"user_id":866,"name":"The Irish Eejit","steam_id":76561198027738057,"connected_time":116000000000,"state":"active","ping":66},{"user_id":817,"name":"Aeonspassed","steam_id":76561198014016451,"connected_time":3130000000000,"state":"active","ping":138},{"user_id":854,"name":"rez777ka","steam_id":76561198107605938,"connected_time":1166000000000,"state":"active","ping":98},{"user_id":826,"name":"Ritzy","steam_id":76561198381955342,"connected_time":2467000000000,"state":"active","ping":50},{"user_id":869,"name":"Duskie","steam_id":76561198036695121,"connected_time":6000000000,"state":"spawning","ping":48},{"user_id":836,"name":"heal","steam_id":76561198046754534,"connected_time":1750000000000,"state":"active","ping":89},{"user_id":868,"name":"Kratac","steam_id":76561198026239462,"connected_time":34000000000,"state":"active","ping":59},{"user_id":779,"name":"cansado","steam_id":76561198003898089,"connected_time":5809000000000,"state":"active","ping":72},{"user_id":828,"name":"stroyo","steam_id":76561198409592046,"connected_time":2341000000000,"state":"active","ping":45},{"user_id":852,"name":"eMcP","steam_id":76561198382509396,"connected_time":1271000000000,"state":"active","ping":58},{"user_id":864,"name":"TosunPasha","steam_id":76561199039584984,"connected_time":251000000000,"state":"active","ping":99},{"user_id":861,"name":"Mammut","steam_id":76561198056773933,"connected_time":705000000000,"state":"active","ping":60},{"user_id":862,"name":"thomas3003","steam_id":76561198209860039,"connected_time":306000000000,"state":"active","ping":45},{"user_id":859,"name":"Zamorocian","steam_id":76561198076604017,"connected_time":811000000000,"state":"active","ping":40},{"user_id":853,"name":"Deus_ExDee","steam_id":76561198229432088,"connected_time":1246000000000,"state":"active","ping":67},{"user_id":863,"name":"ack","steam_id":76561198139796077,"connected_time":267000000000,"state":"active","ping":51},{"user_id":824,"name":"Elon Musk's Last Braincell","steam_id":76561198846784757,"connected_time":2959000000000,"state":"active","ping":55},{"user_id":830,"name":"Purps","steam_id":76561198053886680,"connected_time":2024000000000,"state":"active","ping":37},{"user_id":835,"name":"Caramel","steam_id":76561198021214844,"connected_time":1903000000000,"state":"active","ping":47}]},{"server_id":114,"name":"Uncletopia | London | 2 | All Maps","name_short":"lon-2","host":"lon-1.uk.uncletopia.com","port":27025,"enabled":true,"region":"eu","cc":"gb","latitude":51.509865,"longitude":-0.118092,"reserved":0,"last_update":"0001-01-01T00:00:00Z","name_a2s":"Uncletopia | London | 2 | All Maps","protocol":17,"map":"pl_snowycoast","folder":"tf","game":"Team Fortress","app_id":440,"player_count":0,"max_players":24,"Bots":0,"server_type":"Dedicated","server_os":"Linux","password":true,"vac":true,"version":"7961495","steam_id":85568392924470941,"keywords":["nocrits","nodmgspread","payload","uncletopia"],"game_id":440,"stv_port":27026,"stv_name":"Uncletopia | London | 2 | All Maps | STV","players":null},{"server_id":320,"name":"Uncletopia | London | 3 | All Maps","name_short":"lon-3","host":"lon-1.uk.uncletopia.com","port":27035,"enabled":true,"region":"eu","cc":"gb","latitude":51.509865,"longitude":-0.118092,"reserved":0,"last_update":"0001-01-01T00:00:00Z","name_a2s":"Uncletopia | London | 3 | All Maps","protocol":17,"map":"koth_lakeside_final","folder":"tf","game":"Team Fortress","app_id":440,"player_count":0,"max_players":24,"Bots":0,"server_type":"Dedicated","server_os":"Linux","password":true,"vac":true,"version":"7961495","steam_id":85568392924510192,"keywords":["cp","nocrits","nodmgspread","uncletopia"],"game_id":440,"stv_port":27036,"stv_name":"Uncletopia | London | 3 | All Maps | STV","players":null},{"server_id":321,"name":"Uncletopia | London | 4 | All Maps","name_short":"lon-4","host":"lon-1.uk.uncletopia.com","port":27045,"enabled":true,"region":"eu","cc":"gb","latitude":51.509865,"longitude":-0.118092,"reserved":0,"last_update":"0001-01-01T00:00:00Z","name_a2s":"Uncletopia | London | 4 | All Maps","protocol":17,"map":"cp_dustbowl","folder":"tf","game":"Team Fortress","app_id":440,"player_count":24,"max_players":24,"Bots":0,"server_type":"Dedicated","server_os":"Linux","password":true,"vac":true,"version":"7961495","steam_id":85568392924510193,"keywords":["cp","nocrits","nodmgspread","uncletopia"],"game_id":440,"stv_port":27046,"stv_name":"Uncletopia | London | 4 | All Maps | STV","players":[{"user_id":407,"name":"ghoul type player","steam_id":76561198061233344,"connected_time":2737000000000,"state":"active","ping":44},{"user_id":426,"name":"Jouppi","steam_id":76561198063725468,"connected_time":1541000000000,"state":"active","ping":95},{"user_id":419,"name":"Houlles","steam_id":76561198095277383,"connected_time":1824000000000,"state":"active","ping":45},{"user_id":431,"name":"F2P Rights Activist","steam_id":76561199012786293,"connected_time":690000000000,"state":"active","ping":174},{"user_id":338,"name":"Dreamy Snoozer","steam_id":76561198268184742,"connected_time":5177000000000,"state":"active","ping":55},{"user_id":429,"name":"Rocade","steam_id":76561198116634856,"connected_time":1115000000000,"state":"active","ping":52},{"user_id":363,"name":"Jeryx","steam_id":76561197995602803,"connected_time":4182000000000,"state":"active","ping":209},{"user_id":430,"name":"Cherry","steam_id":76561198150841824,"connected_time":1094000000000,"state":"active","ping":66},{"user_id":352,"name":"godmodule","steam_id":76561198165995444,"connected_time":4771000000000,"state":"active","ping":70},{"user_id":432,"name":"Koo","steam_id":76561199435201488,"connected_time":511000000000,"state":"active","ping":89},{"user_id":411,"name":"flr","steam_id":76561198249327786,"connected_time":2443000000000,"state":"active","ping":74},{"user_id":438,"name":"Sputnik","steam_id":76561198138660241,"connected_time":92000000000,"state":"active","ping":61},{"user_id":427,"name":"James","steam_id":76561198138558005,"connected_time":1471000000000,"state":"active","ping":56},{"user_id":384,"name":"csg.haunts","steam_id":76561198044766573,"connected_time":3428000000000,"state":"active","ping":75},{"user_id":267,"name":"That Bussy Can Squirt","steam_id":76561199185615752,"connected_time":10968000000000,"state":"active","ping":53},{"user_id":385,"name":"General G","steam_id":76561198062075870,"connected_time":3277000000000,"state":"active","ping":72},{"user_id":418,"name":"LSKi","steam_id":76561198215470228,"connected_time":1825000000000,"state":"active","ping":56},{"user_id":437,"name":"turkish barber wallahi","steam_id":76561198111807532,"connected_time":444000000000,"state":"active","ping":56},{"user_id":362,"name":"Ley #savetf2","steam_id":76561198989206104,"connected_time":4274000000000,"state":"active","ping":115},{"user_id":423,"name":"-RAMBO-","steam_id":76561198151971823,"connected_time":1772000000000,"state":"active","ping":102},{"user_id":435,"name":"End_Captain","steam_id":76561198984965056,"connected_time":471000000000,"state":"active","ping":75},{"user_id":377,"name":"Trolling Man","steam_id":76561198044084210,"connected_time":3720000000000,"state":"active","ping":66},{"user_id":376,"name":"SpeakUpICantHearU","steam_id":76561198049312442,"connected_time":3738000000000,"state":"active","ping":49},{"user_id":378,"name":"danny","steam_id":76561198056930504,"connected_time":3689000000000,"state":"active","ping":47}]},{"server_id":21,"name":"Uncletopia | London | 5 | All Maps","name_short":"lon-5","host":"lon-1.uk.uncletopia.com","port":27055,"enabled":true,"region":"eu","cc":"gb","latitude":51.509865,"longitude":-0.118092,"reserved":0,"last_update":"0001-01-01T00:00:00Z","name_a2s":"Uncletopia | London | 5 | All Maps","protocol":17,"map":"pl_borneo","folder":"tf","game":"Team Fortress","app_id":440,"player_count":24,"max_players":24,"Bots":0,"server_type":"Dedicated","server_os":"Linux","password":true,"vac":true,"version":"7961495","steam_id":85568392924742829,"keywords":["nocrits","nodmgspread","payload","uncletopia"],"game_id":440,"stv_port":27056,"stv_name":"Uncletopia | London | 5 | All Maps | STV","players":[{"user_id":369,"name":"proph","steam_id":76561197998803950,"connected_time":3505000000000,"state":"active","ping":58},{"user_id":418,"name":"wG Domo","steam_id":76561198056790920,"connected_time":315000000000,"state":"active","ping":49},{"user_id":401,"name":"Zerfesh","steam_id":76561198117534358,"connected_time":1141000000000,"state":"active","ping":97},{"user_id":398,"name":"AsuX","steam_id":76561197990333289,"connected_time":1342000000000,"state":"active","ping":61},{"user_id":399,"name":"sirrad","steam_id":76561199403589748,"connected_time":1296000000000,"state":"active","ping":130},{"user_id":400,"name":"a regular cat","steam_id":76561198164675078,"connected_time":1239000000000,"state":"active","ping":59},{"user_id":402,"name":"güero","steam_id":76561199496006627,"connected_time":1041000000000,"state":"active","ping":162},{"user_id":403,"name":"JugoTopia","steam_id":76561197996067209,"connected_time":923000000000,"state":"active","ping":115},{"user_id":419,"name":"tired","steam_id":76561198046838168,"connected_time":315000000000,"state":"active","ping":59},{"user_id":368,"name":"Dizzy","steam_id":76561198010192462,"connected_time":3521000000000,"state":"active","ping":62},{"user_id":404,"name":"ScampSixteen","steam_id":76561198021771000,"connected_time":920000000000,"state":"active","ping":51},{"user_id":405,"name":"xTheDarkLight","steam_id":76561198239128298,"connected_time":874000000000,"state":"active","ping":62},{"user_id":365,"name":"LionKing","steam_id":76561198023399545,"connected_time":4145000000000,"state":"active","ping":61},{"user_id":393,"name":"FairwellNoob","steam_id":76561199092823096,"connected_time":1644000000000,"state":"active","ping":153},{"user_id":420,"name":"haraldＨＡＲＡＬＤ","steam_id":76561198116998970,"connected_time":248000000000,"state":"active","ping":80},{"user_id":388,"name":"angelosnik","steam_id":76561198063053942,"connected_time":2115000000000,"state":"active","ping":119},{"user_id":416,"name":"CashMoney","steam_id":76561198108389190,"connected_time":454000000000,"state":"active","ping":60},{"user_id":410,"name":"Norkkom","steam_id":76561198027073521,"connected_time":729000000000,"state":"active","ping":121},{"user_id":407,"name":"rk7","steam_id":76561197984366231,"connected_time":823000000000,"state":"active","ping":82},{"user_id":408,"name":"Blacksp00n","steam_id":76561198040454235,"connected_time":794000000000,"state":"active","ping":90},{"user_id":414,"name":"Tusho","steam_id":76561198115447383,"connected_time":492000000000,"state":"active","ping":83},{"user_id":412,"name":"Beorn","steam_id":76561198317714120,"connected_time":654000000000,"state":"active","ping":84},{"user_id":413,"name":"remi, she wrote.","steam_id":76561198044045655,"connected_time":522000000000,"state":"active","ping":74},{"user_id":415,"name":"feetlord","steam_id":76561198125119682,"connected_time":489000000000,"state":"active","ping":90}]},{"server_id":22,"name":"Uncletopia | London | 6 | All Maps","name_short":"lon-6","host":"lon-1.uk.uncletopia.com","port":27065,"enabled":true,"region":"eu","cc":"gb","latitude":51.509865,"longitude":-0.118092,"reserved":0,"last_update":"0001-01-01T00:00:00Z","name_a2s":"Uncletopia | London | 6 | All Maps","protocol":17,"map":"pl_upward","folder":"tf","game":"Team Fortress","app_id":440,"player_count":23,"max_players":24,"Bots":0,"server_type":"Dedicated","server_os":"Linux","password":true,"vac":true,"version":"7961495","steam_id":85568392924742830,"keywords":["nocrits","nodmgspread","payload","uncletopia"],"game_id":440,"stv_port":27066,"stv_name":"Uncletopia | London | 6 | All Maps | STV","players":[{"user_id":657,"name":"mohemmedmokhter2005","steam_id":76561199197650506,"connected_time":651000000000,"state":"active","ping":126},{"user_id":658,"name":"lexi ★","steam_id":76561198988695461,"connected_time":564000000000,"state":"active","ping":35},{"user_id":654,"name":"Femboy Enjoyer","steam_id":76561198389548524,"connected_time":765000000000,"state":"active","ping":65},{"user_id":668,"name":"yoko","steam_id":76561198440837262,"connected_time":265000000000,"state":"active","ping":45},{"user_id":660,"name":"⭐Wylenn⭍","steam_id":76561198024292352,"connected_time":558000000000,"state":"active","ping":65},{"user_id":656,"name":"Taste The Pain","steam_id":76561198082334165,"connected_time":715000000000,"state":"active","ping":61},{"user_id":674,"name":"habibi","steam_id":76561198376160820,"connected_time":92000000000,"state":"active","ping":89},{"user_id":661,"name":"⭐Bv","steam_id":76561198048943710,"connected_time":550000000000,"state":"active","ping":51},{"user_id":652,"name":"baby's first domination","steam_id":76561198325898181,"connected_time":878000000000,"state":"active","ping":66},{"user_id":609,"name":"ACG_Dubsy","steam_id":76561198797308565,"connected_time":3521000000000,"state":"active","ping":57},{"user_id":665,"name":"Poorly Drawn Bees","steam_id":76561197996763330,"connected_time":402000000000,"state":"active","ping":141},{"user_id":667,"name":"Anonymous_Cletus_TTV","steam_id":76561198243740340,"connected_time":351000000000,"state":"active","ping":144},{"user_id":664,"name":"Patatata","steam_id":76561198152188319,"connected_time":493000000000,"state":"active","ping":76},{"user_id":666,"name":"Evie","steam_id":76561198004001828,"connected_time":397000000000,"state":"active","ping":142},{"user_id":615,"name":"Domo","steam_id":76561199440809546,"connected_time":3318000000000,"state":"active","ping":143},{"user_id":671,"name":"Dr.Disrespect","steam_id":76561198043820228,"connected_time":192000000000,"state":"active","ping":52},{"user_id":670,"name":"Spycrab101","steam_id":76561198141836805,"connected_time":220000000000,"state":"active","ping":47},{"user_id":642,"name":"Habimbi","steam_id":76561198047271252,"connected_time":2173000000000,"state":"active","ping":59},{"user_id":672,"name":"DDGAF","steam_id":76561198257836694,"connected_time":142000000000,"state":"active","ping":42},{"user_id":673,"name":"Muiu","steam_id":76561198132723577,"connected_time":126000000000,"state":"active","ping":81},{"user_id":633,"name":"jeramy67","steam_id":76561199094824989,"connected_time":2837000000000,"state":"active","ping":135},{"user_id":634,"name":"Chiers","steam_id":76561198073461642,"connected_time":2801000000000,"state":"active","ping":61},{"user_id":649,"name":"Mr. Sandman","steam_id":76561198281209867,"connected_time":1192000000000,"state":"active","ping":62}]},{"server_id":40,"name":"Uncletopia | London | 7 | Stopwatch","name_short":"lon-7","host":"lon-1.uk.uncletopia.com","port":27075,"enabled":true,"region":"eu","cc":"gb","latitude":51.509865,"longitude":-0.118092,"reserved":0,"last_update":"0001-01-01T00:00:00Z","name_a2s":"Uncletopia | London | 7 | Stopwatch","protocol":17,"map":"pl_swiftwater_final1","folder":"tf","game":"Team Fortress","app_id":440,"player_count":0,"max_players":24,"Bots":0,"server_type":"Dedicated","server_os":"Linux","password":true,"vac":true,"version":"7961495","steam_id":85568392924964314,"keywords":["nocrits","nodmgspread","payload","uncletopia"],"game_id":440,"stv_port":27076,"stv_name":"Uncletopia | London | 7 | Stopwatch | STV","players":null},{"server_id":41,"name":"Uncletopia | London | 8 | Community","name_short":"lon-8","host":"lon-1.uk.uncletopia.com","port":27085,"enabled":true,"region":"eu","cc":"gb","latitude":51.509865,"longitude":-0.118092,"reserved":0,"last_update":"0001-01-01T00:00:00Z","name_a2s":"Uncletopia | London | 8 | Community","protocol":17,"map":"workshop/koth_bagel_rc6.ugc2514036946","folder":"tf","game":"Team Fortress","app_id":440,"player_count":0,"max_players":24,"Bots":0,"server_type":"Dedicated","server_os":"Linux","password":true,"vac":true,"version":"7961495","steam_id":85568392924964315,"keywords":["cp","nocrits","nodmgspread","uncletopia"],"game_id":440,"stv_port":27086,"stv_name":"Uncletopia | London | 8 | Community | STV","players":null},{"server_id":300,"name":"Uncletopia | Montréal | 1 | All Maps","name_short":"mtl-1","host":"mtl-1.ca.uncletopia.com","port":27015,"enabled":true,"region":"us-east","cc":"ca","latitude":45.50889,"longitude":-73.56167,"reserved":0,"last_update":"0001-01-01T00:00:00Z","name_a2s":"","protocol":0,"map":"","folder":"","game":"","app_id":0,"player_count":0,"max_players":0,"Bots":0,"server_type":"","server_os":"","password":false,"vac":false,"version":"","steam_id":0,"keywords":null,"game_id":0,"stv_port":0,"stv_name":"","players":null},{"server_id":301,"name":"Uncletopia | Montréal | 2 | ???","name_short":"mtl-2","host":"mtl-1.ca.uncletopia.com","port":27025,"enabled":true,"region":"us-east","cc":"ca","latitude":45.50889,"longitude":-73.56167,"reserved":0,"last_update":"0001-01-01T00:00:00Z","name_a2s":"","protocol":0,"map":"","folder":"","game":"","app_id":0,"player_count":1,"max_players":0,"Bots":0,"server_type":"","server_os":"","password":false,"vac":false,"version":"","steam_id":0,"keywords":null,"game_id":0,"stv_port":0,"stv_name":"","players":[{"user_id":2,"name":"ุ","steam_id":76561198084134025,"connected_time":62000000000,"state":"active","ping":85}]},{"server_id":13,"name":"Uncletopia | New York City | 1 | All Maps","name_short":"nyc-1","host":"nyc-1.us.uncletopia.com","port":27015,"enabled":true,"region":"us-east","cc":"us","latitude":40.73061,"longitude":-73.93524,"reserved":0,"last_update":"0001-01-01T00:00:00Z","name_a2s":"Uncletopia | New York City | 1 | All Maps","protocol":17,"map":"plr_bananabay","folder":"tf","game":"Team Fortress","app_id":440,"player_count":24,"max_players":24,"Bots":0,"server_type":"Dedicated","server_os":"Linux","password":true,"vac":true,"version":"7961495","steam_id":85568392924469993,"keywords":["nocrits","nodmgspread","payload","uncletopia"],"game_id":440,"stv_port":27016,"stv_name":"Uncletopia | New York City | 1 | All Maps | STV","players":[{"user_id":514,"name":"Mr.Soup7560","steam_id":76561198060401317,"connected_time":2672000000000,"state":"active","ping":85},{"user_id":541,"name":"juanjoesc","steam_id":76561198186368430,"connected_time":273000000000,"state":"active","ping":128},{"user_id":524,"name":"Operation_SeaLion","steam_id":76561198048726691,"connected_time":1956000000000,"state":"active","ping":46},{"user_id":542,"name":"nachodonut8","steam_id":76561198422167399,"connected_time":263000000000,"state":"active","ping":130},{"user_id":520,"name":"INFINITE","steam_id":76561197971285557,"connected_time":1974000000000,"state":"active","ping":54},{"user_id":454,"name":"CCPodz","steam_id":76561199143506502,"connected_time":5486000000000,"state":"active","ping":73},{"user_id":546,"name":"DevWasHere","steam_id":76561199445306527,"connected_time":245000000000,"state":"active","ping":66},{"user_id":538,"name":"ZionicZenko","steam_id":76561199164212693,"connected_time":985000000000,"state":"active","ping":69},{"user_id":552,"name":"Napalm Bear","steam_id":76561198103216209,"connected_time":177000000000,"state":"active","ping":63},{"user_id":548,"name":"Billosky Time Lord","steam_id":76561199159626560,"connected_time":227000000000,"state":"active","ping":145},{"user_id":535,"name":"that fat croc from donkey kong","steam_id":76561198159172495,"connected_time":1159000000000,"state":"active","ping":135},{"user_id":525,"name":"i remember you was cumflated","steam_id":76561198097330521,"connected_time":1951000000000,"state":"active","ping":161},{"user_id":547,"name":"Hamedius","steam_id":76561199152512027,"connected_time":242000000000,"state":"active","ping":162},{"user_id":549,"name":"Spike Bones","steam_id":76561198234926120,"connected_time":197000000000,"state":"active","ping":86},{"user_id":533,"name":"OKAY","steam_id":76561198091980659,"connected_time":1172000000000,"state":"active","ping":59},{"user_id":553,"name":"⬞","steam_id":76561199052840531,"connected_time":48000000000,"state":"active","ping":54},{"user_id":550,"name":"-Greasy Goblin-","steam_id":76561198956977812,"connected_time":196000000000,"state":"active","ping":67},{"user_id":534,"name":"spherewithahat","steam_id":76561199122192660,"connected_time":1171000000000,"state":"active","ping":55},{"user_id":536,"name":"Jesus","steam_id":76561198018890911,"connected_time":1141000000000,"state":"active","ping":80},{"user_id":551,"name":"DrainClogger","steam_id":76561198141480423,"connected_time":192000000000,"state":"active","ping":64},{"user_id":489,"name":"Knifeagent","steam_id":76561198080002386,"connected_time":4079000000000,"state":"active","ping":64},{"user_id":506,"name":"MeKaso TropStar","steam_id":76561199109895840,"connected_time":3365000000000,"state":"active","ping":55},{"user_id":527,"name":"marshmallowdragon999","steam_id":76561199129773712,"connected_time":1948000000000,"state":"active","ping":103},{"user_id":531,"name":"Baron von Whoopsie","steam_id":76561197996691013,"connected_time":1324000000000,"state":"active","ping":61}]},{"server_id":14,"name":"Uncletopia | New York City | 2 | All Maps","name_short":"nyc-2","host":"nyc-1.us.uncletopia.com","port":27025,"enabled":true,"region":"us-east","cc":"us","latitude":40.73061,"longitude":-73.93524,"reserved":0,"last_update":"0001-01-01T00:00:00Z","name_a2s":"Uncletopia | New York City | 2 | All Maps","protocol":17,"map":"pl_snowycoast","folder":"tf","game":"Team Fortress","app_id":440,"player_count":24,"max_players":24,"Bots":0,"server_type":"Dedicated","server_os":"Linux","password":true,"vac":true,"version":"7961495","steam_id":85568392924469994,"keywords":["nocrits","nodmgspread","payload","uncletopia"],"game_id":440,"stv_port":27026,"stv_name":"Uncletopia | New York City | 2 | All Maps | STV","players":[{"user_id":259,"name":"Skeleop","steam_id":76561198981106464,"connected_time":640000000000,"state":"active","ping":110},{"user_id":215,"name":"Nerrrd_","steam_id":76561198870129960,"connected_time":2534000000000,"state":"active","ping":44},{"user_id":258,"name":"Raspylightining","steam_id":76561198148343305,"connected_time":704000000000,"state":"active","ping":68},{"user_id":253,"name":"Broadway Rose","steam_id":76561198046083342,"connected_time":896000000000,"state":"active","ping":44},{"user_id":244,"name":"crsipybiscett","steam_id":76561199072993074,"connected_time":1234000000000,"state":"active","ping":120},{"user_id":257,"name":"BeerPowder","steam_id":76561198058129400,"connected_time":715000000000,"state":"active","ping":53},{"user_id":208,"name":"Erchius","steam_id":76561198256892300,"connected_time":3419000000000,"state":"active","ping":85},{"user_id":268,"name":"cat","steam_id":76561198366828434,"connected_time":459000000000,"state":"active","ping":122},{"user_id":269,"name":"Rum","steam_id":76561198067169446,"connected_time":163000000000,"state":"active","ping":42},{"user_id":212,"name":"NightEmerald","steam_id":76561198878856805,"connected_time":2780000000000,"state":"active","ping":47},{"user_id":214,"name":"Evolution","steam_id":76561198144767370,"connected_time":2744000000000,"state":"active","ping":63},{"user_id":224,"name":"Lorberry","steam_id":76561198023706058,"connected_time":1703000000000,"state":"active","ping":59},{"user_id":267,"name":"Slip","steam_id":76561199057232579,"connected_time":485000000000,"state":"active","ping":68},{"user_id":248,"name":"Jey","steam_id":76561198110957641,"connected_time":1131000000000,"state":"active","ping":80},{"user_id":221,"name":"CheeseCake488","steam_id":76561199407617942,"connected_time":2078000000000,"state":"active","ping":163},{"user_id":266,"name":"Sehr Chunky","steam_id":76561198114098718,"connected_time":496000000000,"state":"active","ping":87},{"user_id":251,"name":"Noaboa","steam_id":76561199232340071,"connected_time":923000000000,"state":"active","ping":52},{"user_id":252,"name":"Ember The Femboy","steam_id":76561198139630565,"connected_time":922000000000,"state":"active","ping":120},{"user_id":246,"name":"JobsDone2","steam_id":76561198159158870,"connected_time":1219000000000,"state":"active","ping":46},{"user_id":236,"name":"I Like Cheese","steam_id":76561198006265659,"connected_time":1460000000000,"state":"active","ping":81},{"user_id":255,"name":"Dog Goggles","steam_id":76561197995233692,"connected_time":794000000000,"state":"active","ping":69},{"user_id":238,"name":"aisu","steam_id":76561198043768507,"connected_time":1416000000000,"state":"active","ping":91},{"user_id":261,"name":"InchMan","steam_id":76561198272658825,"connected_time":618000000000,"state":"active","ping":87},{"user_id":250,"name":"Tarkan Neco Ark","steam_id":76561198208190985,"connected_time":936000000000,"state":"active","ping":159}]},{"server_id":15,"name":"Uncletopia | New York City | 3 | Stopwatch","name_short":"nyc-3","host":"nyc-1.us.uncletopia.com","port":27035,"enabled":true,"region":"us-east","cc":"us","latitude":40.73061,"longitude":-73.93524,"reserved":0,"last_update":"0001-01-01T00:00:00Z","name_a2s":"Uncletopia | New York City | 3 | Stopwatch","protocol":17,"map":"workshop/koth_clearcut_b15.ugc2107050255","folder":"tf","game":"Team Fortress","app_id":440,"player_count":0,"max_players":24,"Bots":0,"server_type":"Dedicated","server_os":"Linux","password":true,"vac":true,"version":"7961495","steam_id":85568392924742820,"keywords":["cp","nocrits","nodmgspread","uncletopia"],"game_id":440,"stv_port":27036,"stv_name":"Uncletopia | New York City | 3 | Stopwatch | STV","players":null},{"server_id":16,"name":"Uncletopia | New York City | 4 | Community","name_short":"nyc-4","host":"nyc-1.us.uncletopia.com","port":27045,"enabled":true,"region":"us-east","cc":"us","latitude":40.73061,"longitude":-73.93524,"reserved":0,"last_update":"0001-01-01T00:00:00Z","name_a2s":"Uncletopia | New York City | 4 | Community","protocol":17,"map":"workshop/pl_barnblitz_pro7.ugc582280235","folder":"tf","game":"Team Fortress","app_id":440,"player_count":24,"max_players":24,"Bots":0,"server_type":"Dedicated","server_os":"Linux","password":true,"vac":true,"version":"7961495","steam_id":85568392924742821,"keywords":["nocrits","nodmgspread","payload","uncletopia"],"game_id":440,"stv_port":27046,"stv_name":"Uncletopia | New York City | 4 | Community | STV","players":[{"user_id":53,"name":"Lemony Lilly (She/Her)","steam_id":76561198042479066,"connected_time":230000000000,"state":"active","ping":79},{"user_id":48,"name":"GreaseGuy","steam_id":76561198376469805,"connected_time":630000000000,"state":"active","ping":77},{"user_id":35,"name":"Nak","steam_id":76561198058151893,"connected_time":1708000000000,"state":"active","ping":66},{"user_id":11,"name":"JACOB","steam_id":76561198211874895,"connected_time":2329000000000,"state":"active","ping":90},{"user_id":18,"name":"truezyoungblood","steam_id":76561198044589114,"connected_time":2139000000000,"state":"active","ping":58},{"user_id":13,"name":"Un-Destroyer","steam_id":76561199441945270,"connected_time":2297000000000,"state":"active","ping":87},{"user_id":14,"name":"Jade Greenleaf","steam_id":76561198304845413,"connected_time":2266000000000,"state":"active","ping":84},{"user_id":51,"name":"0","steam_id":76561198077882008,"connected_time":332000000000,"state":"active","ping":51},{"user_id":16,"name":"sailor","steam_id":76561198091015050,"connected_time":2244000000000,"state":"active","ping":60},{"user_id":49,"name":"Seller of Waffles","steam_id":76561198296018138,"connected_time":357000000000,"state":"active","ping":98},{"user_id":42,"name":"Kratospie","steam_id":76561198019597037,"connected_time":1040000000000,"state":"active","ping":71},{"user_id":20,"name":"JsLo64V","steam_id":76561199076233876,"connected_time":2053000000000,"state":"active","ping":137},{"user_id":22,"name":"Misha","steam_id":76561198066174041,"connected_time":1970000000000,"state":"active","ping":80},{"user_id":28,"name":"Thelonious Prime, King of Jazz","steam_id":76561198077785482,"connected_time":1838000000000,"state":"active","ping":75},{"user_id":52,"name":"Demonic Cipher","steam_id":76561198066082088,"connected_time":325000000000,"state":"active","ping":65},{"user_id":25,"name":"Ginger Jesus","steam_id":76561198052386458,"connected_time":1931000000000,"state":"active","ping":49},{"user_id":54,"name":"BubbyBoy27","steam_id":76561199102009679,"connected_time":70000000000,"state":"active","ping":80},{"user_id":40,"name":"Local Skeleton Pirate Captain","steam_id":76561199387783793,"connected_time":1112000000000,"state":"active","ping":110},{"user_id":45,"name":"mindnomad","steam_id":76561198006437123,"connected_time":1009000000000,"state":"active","ping":56},{"user_id":31,"name":"songcreator","steam_id":76561198076822464,"connected_time":1772000000000,"state":"active","ping":70},{"user_id":32,"name":"ipodmini","steam_id":76561198060525089,"connected_time":1754000000000,"state":"active","ping":43},{"user_id":34,"name":"Unk","steam_id":76561198031717617,"connected_time":1717000000000,"state":"active","ping":43},{"user_id":36,"name":"guppy","steam_id":76561198041380190,"connected_time":1701000000000,"state":"active","ping":87},{"user_id":46,"name":"stay away!!!","steam_id":76561198068257774,"connected_time":1009000000000,"state":"active","ping":117}]},{"server_id":142,"name":"Uncletopia | São Paulo | 1 | All Maps","name_short":"sao-1","host":"sao-1.br.uncletopia.com","port":27015,"enabled":true,"region":"sa","cc":"br","latitude":-23.533773,"longitude":-46.62529,"reserved":0,"last_update":"0001-01-01T00:00:00Z","name_a2s":"Uncletopia | São Paulo | 1 | All Maps","protocol":17,"map":"koth_viaduct","folder":"tf","game":"Team Fortress","app_id":440,"player_count":0,"max_players":24,"Bots":0,"server_type":"Dedicated","server_os":"Linux","password":true,"vac":true,"version":"7961495","steam_id":85568392924469996,"keywords":["cp","nocrits","nodmgspread","uncletopia"],"game_id":440,"stv_port":27016,"stv_name":"Uncletopia | São Paulo | 1 | All Maps | STV","players":null},{"server_id":143,"name":"Uncletopia | São Paulo | 2 | Community","name_short":"sao-2","host":"sao-2.br.uncletopia.com","port":27015,"enabled":true,"region":"sa","cc":"br","latitude":-23.533773,"longitude":-46.62529,"reserved":0,"last_update":"0001-01-01T00:00:00Z","name_a2s":"Uncletopia | São Paulo | 2 | Community","protocol":17,"map":"workshop/cp_villa_b19.ugc2113052569","folder":"tf","game":"Team Fortress","app_id":440,"player_count":0,"max_players":24,"Bots":0,"server_type":"Dedicated","server_os":"Linux","password":true,"vac":true,"version":"7961495","steam_id":85568392924485349,"keywords":["cp","nocrits","nodmgspread","uncletopia"],"game_id":440,"stv_port":27016,"stv_name":"Uncletopia | São Paulo | 2 | Community | STV","players":null},{"server_id":7,"name":"Uncletopia | Seattle | 1 | All Maps","name_short":"sea-1","host":"sea-1.us.uncletopia.com","port":27015,"enabled":true,"region":"us-west","cc":"us","latitude":47.608013,"longitude":-122.33517,"reserved":0,"last_update":"0001-01-01T00:00:00Z","name_a2s":"Uncletopia | Seattle | 1 | All Maps","protocol":17,"map":"pl_pier","folder":"tf","game":"Team Fortress","app_id":440,"player_count":24,"max_players":24,"Bots":0,"server_type":"Dedicated","server_os":"Linux","password":true,"vac":true,"version":"7961495","steam_id":85568392924469997,"keywords":["nocrits","nodmgspread","payload","uncletopia"],"game_id":440,"stv_port":27016,"stv_name":"Uncletopia | Seattle | 1 | All Maps | STV","players":[{"user_id":3,"name":"piipy :))","steam_id":76561198450073779,"connected_time":1233000000000,"state":"active","ping":45},{"user_id":4,"name":"peachy","steam_id":76561198028721790,"connected_time":1229000000000,"state":"active","ping":60},{"user_id":5,"name":"rat who can kickflip","steam_id":76561198073620027,"connected_time":1229000000000,"state":"active","ping":40},{"user_id":6,"name":"vacachimuela","steam_id":76561198297332421,"connected_time":1227000000000,"state":"active","ping":88},{"user_id":8,"name":"Copy","steam_id":76561198025031590,"connected_time":1225000000000,"state":"active","ping":46},{"user_id":9,"name":"Dad","steam_id":76561198083941413,"connected_time":1223000000000,"state":"active","ping":55},{"user_id":10,"name":"jacix3 [silly doggie :3]","steam_id":76561198205004165,"connected_time":1218000000000,"state":"active","ping":50},{"user_id":11,"name":"Saccaed","steam_id":76561197977151640,"connected_time":1217000000000,"state":"active","ping":42},{"user_id":33,"name":"Jill","steam_id":76561198097398193,"connected_time":429000000000,"state":"active","ping":60},{"user_id":13,"name":"Merekitten","steam_id":76561198066307477,"connected_time":1207000000000,"state":"active","ping":82},{"user_id":36,"name":"Squibbzin","steam_id":76561198254519678,"connected_time":250000000000,"state":"active","ping":85},{"user_id":37,"name":"NotMicah","steam_id":76561199030712264,"connected_time":196000000000,"state":"active","ping":56},{"user_id":31,"name":"can of Heinz Beans","steam_id":76561198806423231,"connected_time":599000000000,"state":"active","ping":50},{"user_id":17,"name":"jovial","steam_id":76561198297130941,"connected_time":1170000000000,"state":"active","ping":90},{"user_id":38,"name":"2manyman","steam_id":76561198067156972,"connected_time":140000000000,"state":"active","ping":126},{"user_id":19,"name":"Tom Skirrett","steam_id":76561198014600788,"connected_time":1082000000000,"state":"active","ping":61},{"user_id":20,"name":"Aullido","steam_id":76561198199217834,"connected_time":1075000000000,"state":"active","ping":86},{"user_id":21,"name":"RexCreeper456","steam_id":76561199319578396,"connected_time":1063000000000,"state":"active","ping":105},{"user_id":22,"name":"SpükiiTV","steam_id":76561198098281824,"connected_time":1043000000000,"state":"active","ping":84},{"user_id":23,"name":"Guwop","steam_id":76561197970425737,"connected_time":1043000000000,"state":"active","ping":94},{"user_id":34,"name":"TrumpShallPurgetheAnimeScourge","steam_id":76561199128200999,"connected_time":407000000000,"state":"active","ping":59},{"user_id":25,"name":";w;","steam_id":76561199058284787,"connected_time":995000000000,"state":"active","ping":121},{"user_id":35,"name":"5kPrime","steam_id":76561198039471915,"connected_time":405000000000,"state":"active","ping":86},{"user_id":30,"name":"Jackrifleman","steam_id":76561198067764004,"connected_time":619000000000,"state":"active","ping":59}]},{"server_id":119,"name":"Uncletopia | Seattle | 2 | All Maps","name_short":"sea-2","host":"sea-1.us.uncletopia.com","port":27025,"enabled":true,"region":"us-west","cc":"us","latitude":47.608013,"longitude":-122.33517,"reserved":0,"last_update":"0001-01-01T00:00:00Z","name_a2s":"Uncletopia | Seattle | 2 | All Maps","protocol":17,"map":"cp_process_final","folder":"tf","game":"Team Fortress","app_id":440,"player_count":0,"max_players":24,"Bots":0,"server_type":"Dedicated","server_os":"Linux","password":true,"vac":true,"version":"7961495","steam_id":85568392924469998,"keywords":["cp","nocrits","nodmgspread","uncletopia"],"game_id":440,"stv_port":27026,"stv_name":"Uncletopia | Seattle | 2 | All Maps | STV","players":null},{"server_id":406,"name":"Uncletopia | Seattle | 3 | Stopwatch","name_short":"sea-3","host":"sea-1.us.uncletopia.com","port":27035,"enabled":true,"region":"us-west","cc":"us","latitude":47.608013,"longitude":-122.33517,"reserved":0,"last_update":"0001-01-01T00:00:00Z","name_a2s":"Uncletopia | Seattle | 3 | Stopwatch","protocol":17,"map":"pl_pier","folder":"tf","game":"Team Fortress","app_id":440,"player_count":0,"max_players":24,"Bots":0,"server_type":"Dedicated","server_os":"Linux","password":true,"vac":true,"version":"7961495","steam_id":85568392924515217,"keywords":["nocrits","nodmgspread","payload","uncletopia"],"game_id":440,"stv_port":27036,"stv_name":"Uncletopia | Seattle | 3 | Stopwatch | STV","players":null},{"server_id":17,"name":"Uncletopia | San Francisco | 1 | All Maps","name_short":"sfo-1","host":"sfo-1.us.uncletopia.com","port":27015,"enabled":true,"region":"us-west","cc":"us","latitude":37.77397,"longitude":-122.4313,"reserved":0,"last_update":"0001-01-01T00:00:00Z","name_a2s":"Uncletopia | San Francisco | 1 | All Maps","protocol":17,"map":"koth_cascade","folder":"tf","game":"Team Fortress","app_id":440,"player_count":0,"max_players":24,"Bots":0,"server_type":"Dedicated","server_os":"Linux","password":true,"vac":true,"version":"7961495","steam_id":85568392924469999,"keywords":["cp","nocrits","nodmgspread","uncletopia"],"game_id":440,"stv_port":27016,"stv_name":"Uncletopia | San Francisco | 1 | All Maps | STV","players":null},{"server_id":18,"name":"Uncletopia | San Francisco | 2 | All Maps","name_short":"sfo-2","host":"sfo-1.us.uncletopia.com","port":27025,"enabled":true,"region":"us-west","cc":"us","latitude":37.77397,"longitude":-122.4313,"reserved":0,"last_update":"0001-01-01T00:00:00Z","name_a2s":"Uncletopia | San Francisco | 2 | All Maps","protocol":17,"map":"pl_pier","folder":"tf","game":"Team Fortress","app_id":440,"player_count":0,"max_players":24,"Bots":0,"server_type":"Dedicated","server_os":"Linux","password":true,"vac":true,"version":"7961495","steam_id":85568392924470000,"keywords":["nocrits","nodmgspread","payload","uncletopia"],"game_id":440,"stv_port":27026,"stv_name":"Uncletopia | San Francisco | 2 | All Maps | STV","players":null},{"server_id":19,"name":"Uncletopia | San Francisco | 3 | Stopwatch","name_short":"sfo-3","host":"sfo-1.us.uncletopia.com","port":27035,"enabled":true,"region":"us-west","cc":"us","latitude":37.77397,"longitude":-122.4313,"reserved":0,"last_update":"0001-01-01T00:00:00Z","name_a2s":"Uncletopia | San Francisco | 3 | Stopwatch","protocol":17,"map":"workshop/pl_vigil_rc10.ugc1266210012","folder":"tf","game":"Team Fortress","app_id":440,"player_count":9,"max_players":24,"Bots":0,"server_type":"Dedicated","server_os":"Linux","password":true,"vac":true,"version":"7961495","steam_id":85568392924742824,"keywords":["nocrits","nodmgspread","payload","uncletopia"],"game_id":440,"stv_port":27036,"stv_name":"Uncletopia | San Francisco | 3 | Stopwatch | STV","players":[{"user_id":4,"name":"Chi of the Na's","steam_id":76561198238859416,"connected_time":1719000000000,"state":"active","ping":62},{"user_id":5,"name":"Punchy","steam_id":76561198211775985,"connected_time":1695000000000,"state":"active","ping":105},{"user_id":6,"name":"Silver","steam_id":76561198435699360,"connected_time":1689000000000,"state":"active","ping":104},{"user_id":7,"name":"The_EC","steam_id":76561198025587050,"connected_time":1680000000000,"state":"active","ping":224},{"user_id":9,"name":"Garfelf","steam_id":76561198419850129,"connected_time":526000000000,"state":"active","ping":81},{"user_id":10,"name":"Shalom","steam_id":76561198410005222,"connected_time":450000000000,"state":"active","ping":65},{"user_id":11,"name":"notLoona","steam_id":76561198861851215,"connected_time":395000000000,"state":"active","ping":101},{"user_id":14,"name":"MintyFreshMentos","steam_id":76561198839944799,"connected_time":140000000000,"state":"active","ping":55},{"user_id":15,"name":"Buswolley","steam_id":76561197995205571,"connected_time":45000000000,"state":"active","ping":41}]},{"server_id":20,"name":"Uncletopia | San Francisco | 4 | Community","name_short":"sfo-4","host":"sfo-1.us.uncletopia.com","port":27045,"enabled":true,"region":"us-west","cc":"us","latitude":37.77397,"longitude":-122.4313,"reserved":0,"last_update":"0001-01-01T00:00:00Z","name_a2s":"Uncletopia | San Francisco | 4 | Community","protocol":17,"map":"workshop/koth_synthetic_rc6a.ugc1549817316","folder":"tf","game":"Team Fortress","app_id":440,"player_count":0,"max_players":24,"Bots":0,"server_type":"Dedicated","server_os":"Linux","password":true,"vac":true,"version":"7961495","steam_id":85568392924742826,"keywords":["cp","nocrits","nodmgspread","uncletopia"],"game_id":440,"stv_port":27046,"stv_name":"Uncletopia | San Francisco | 4 | Community | STV","players":null},{"server_id":141,"name":"Uncletopia | Sydney | 1 | All Maps","name_short":"syd-1","host":"syd-1.au.uncletopia.com","port":27015,"enabled":true,"region":"au","cc":"au","latitude":-33.865143,"longitude":151.2099,"reserved":0,"last_update":"0001-01-01T00:00:00Z","name_a2s":"Uncletopia | Sydney | 1 | All Maps","protocol":17,"map":"koth_viaduct","folder":"tf","game":"Team Fortress","app_id":440,"player_count":0,"max_players":24,"Bots":0,"server_type":"Dedicated","server_os":"Linux","password":true,"vac":true,"version":"7961495","steam_id":85568392924470001,"keywords":["cp","nocrits","nodmgspread","uncletopia"],"game_id":440,"stv_port":27016,"stv_name":"Uncletopia | Sydney | 1 | All Maps | STV","players":null},{"server_id":123,"name":"Uncletopia | Sydney | 2 | All Maps","name_short":"syd-2","host":"syd-1.au.uncletopia.com","port":27025,"enabled":true,"region":"au","cc":"au","latitude":-33.865143,"longitude":151.2099,"reserved":0,"last_update":"0001-01-01T00:00:00Z","name_a2s":"Uncletopia | Sydney | 2 | All Maps","protocol":17,"map":"koth_lakeside_final","folder":"tf","game":"Team Fortress","app_id":440,"player_count":0,"max_players":24,"Bots":0,"server_type":"Dedicated","server_os":"Linux","password":true,"vac":true,"version":"7961495","steam_id":85568392924470002,"keywords":["cp","nocrits","nodmgspread","uncletopia"],"game_id":440,"stv_port":27026,"stv_name":"Uncletopia | Sydney | 2 | All Maps | STV","players":null},{"server_id":395,"name":"Uncletopia | Sydney | 3 | All Maps","name_short":"syd-3","host":"syd-1.au.uncletopia.com","port":27035,"enabled":true,"region":"au","cc":"au","latitude":-33.865143,"longitude":151.2099,"reserved":0,"last_update":"0001-01-01T00:00:00Z","name_a2s":"Uncletopia | Sydney | 3 | All Maps","protocol":17,"map":"cp_mountainlab","folder":"tf","game":"Team Fortress","app_id":440,"player_count":0,"max_players":24,"Bots":0,"server_type":"Dedicated","server_os":"Linux","password":true,"vac":true,"version":"7961495","steam_id":85568392925194467,"keywords":["cp","nocrits","nodmgspread","uncletopia"],"game_id":440,"stv_port":27036,"stv_name":"Uncletopia | Sydney | 3 | All Maps | STV","players":null},{"server_id":396,"name":"Uncletopia | Sydney | 4 | All Maps","name_short":"syd-4","host":"syd-1.au.uncletopia.com","port":27045,"enabled":true,"region":"au","cc":"au","latitude":-33.865143,"longitude":151.2099,"reserved":0,"last_update":"0001-01-01T00:00:00Z","name_a2s":"Uncletopia | Sydney | 4 | All Maps","protocol":17,"map":"cp_process_final","folder":"tf","game":"Team Fortress","app_id":440,"player_count":0,"max_players":24,"Bots":0,"server_type":"Dedicated","server_os":"Linux","password":true,"vac":true,"version":"7961495","steam_id":85568392925397958,"keywords":["cp","nocrits","nodmgspread","uncletopia"],"game_id":440,"stv_port":27046,"stv_name":"Uncletopia | Sydney | 4 | All Maps | STV","players":null},{"server_id":58,"name":"Uncletopia | Sydney | 5 | Stopwatch","name_short":"syd-5","host":"syd-1.au.uncletopia.com","port":27055,"enabled":true,"region":"au","cc":"au","latitude":-33.865143,"longitude":151.2099,"reserved":0,"last_update":"0001-01-01T00:00:00Z","name_a2s":"Uncletopia | Sydney | 5 | Stopwatch","protocol":17,"map":"workshop/koth_clearcut_b15.ugc2107050255","folder":"tf","game":"Team Fortress","app_id":440,"player_count":0,"max_players":24,"Bots":0,"server_type":"Dedicated","server_os":"Linux","password":true,"vac":true,"version":"7961495","steam_id":85568392925397959,"keywords":["cp","nocrits","nodmgspread","uncletopia"],"game_id":440,"stv_port":27056,"stv_name":"Uncletopia | Sydney | 5 | Stopwatch | STV","players":null},{"server_id":59,"name":"Uncletopia | Sydney | 6 | Community","name_short":"syd-6","host":"syd-1.au.uncletopia.com","port":27065,"enabled":true,"region":"au","cc":"au","latitude":-33.865143,"longitude":151.2099,"reserved":0,"last_update":"0001-01-01T00:00:00Z","name_a2s":"Uncletopia | Sydney | 6 | Community","protocol":17,"map":"cp_sunshine","folder":"tf","game":"Team Fortress","app_id":440,"player_count":0,"max_players":24,"Bots":0,"server_type":"Dedicated","server_os":"Linux","password":true,"vac":true,"version":"7961495","steam_id":85568392925397960,"keywords":["cp","nocrits","nodmgspread","uncletopia"],"game_id":440,"stv_port":27066,"stv_name":"Uncletopia | Sydney | 6 | Community | STV","players":null},{"server_id":49,"name":"Uncletopia | Warsaw | 1 | All Maps","name_short":"waw-1","host":"waw-1.pl.uncletopia.com","port":27015,"enabled":true,"region":"eu","cc":"pl","latitude":52.2297,"longitude":21.017532,"reserved":0,"last_update":"0001-01-01T00:00:00Z","name_a2s":"Uncletopia | Warsaw | 1 | All Maps","protocol":17,"map":"cp_altitude","folder":"tf","game":"Team Fortress","app_id":440,"player_count":0,"max_players":24,"Bots":0,"server_type":"Dedicated","server_os":"Linux","password":true,"vac":true,"version":"7961495","steam_id":85568392925397850,"keywords":["cp","nocrits","nodmgspread","uncletopia"],"game_id":440,"stv_port":27016,"stv_name":"Uncletopia | Warsaw | 1 | All Maps | STV","players":null},{"server_id":50,"name":"Uncletopia | Warsaw | 2 | All Maps","name_short":"waw-2","host":"waw-1.pl.uncletopia.com","port":27025,"enabled":true,"region":"eu","cc":"pl","latitude":52.2297,"longitude":21.017532,"reserved":0,"last_update":"0001-01-01T00:00:00Z","name_a2s":"Uncletopia | Warsaw | 2 | All Maps","protocol":17,"map":"koth_cascade","folder":"tf","game":"Team Fortress","app_id":440,"player_count":0,"max_players":24,"Bots":0,"server_type":"Dedicated","server_os":"Linux","password":true,"vac":true,"version":"7961495","steam_id":85568392925397851,"keywords":["cp","nocrits","nodmgspread","uncletopia"],"game_id":440,"stv_port":27026,"stv_name":"Uncletopia | Warsaw | 2 | All Maps | STV","players":null},{"server_id":51,"name":"Uncletopia | Warsaw | 3 | All Maps","name_short":"waw-3","host":"waw-1.pl.uncletopia.com","port":27035,"enabled":true,"region":"eu","cc":"pl","latitude":52.2297,"longitude":21.017532,"reserved":0,"last_update":"0001-01-01T00:00:00Z","name_a2s":"Uncletopia | Warsaw | 3 | All Maps","protocol":17,"map":"pl_frontier_final","folder":"tf","game":"Team Fortress","app_id":440,"player_count":0,"max_players":24,"Bots":0,"server_type":"Dedicated","server_os":"Linux","password":true,"vac":true,"version":"7961495","steam_id":85568392925397852,"keywords":["nocrits","nodmgspread","payload","uncletopia"],"game_id":440,"stv_port":27036,"stv_name":"Uncletopia | Warsaw | 3 | All Maps | STV","players":null},{"server_id":52,"name":"Uncletopia | Warsaw | 4 | All Maps","name_short":"waw-4","host":"waw-1.pl.uncletopia.com","port":27045,"enabled":true,"region":"eu","cc":"pl","latitude":52.2297,"longitude":21.017532,"reserved":0,"last_update":"0001-01-01T00:00:00Z","name_a2s":"Uncletopia | Warsaw | 4 | All Maps","protocol":17,"map":"koth_lakeside_final","folder":"tf","game":"Team Fortress","app_id":440,"player_count":0,"max_players":24,"Bots":0,"server_type":"Dedicated","server_os":"Linux","password":true,"vac":true,"version":"7961495","steam_id":85568392925397853,"keywords":["cp","nocrits","nodmgspread","uncletopia"],"game_id":440,"stv_port":27046,"stv_name":"Uncletopia | Warsaw | 4 | All Maps | STV","players":null},{"server_id":53,"name":"Uncletopia | Warsaw | 5 | Stopwatch","name_short":"waw-5","host":"waw-1.pl.uncletopia.com","port":27055,"enabled":true,"region":"eu","cc":"pl","latitude":52.2297,"longitude":21.017532,"reserved":0,"last_update":"0001-01-01T00:00:00Z","name_a2s":"Uncletopia | Warsaw | 5 | Stopwatch","protocol":17,"map":"workshop/pl_vigil_rc10.ugc1266210012","folder":"tf","game":"Team Fortress","app_id":440,"player_count":0,"max_players":24,"Bots":0,"server_type":"Dedicated","server_os":"Linux","password":true,"vac":true,"version":"7961495","steam_id":85568392925397854,"keywords":["nocrits","nodmgspread","payload","uncletopia"],"game_id":440,"stv_port":27056,"stv_name":"Uncletopia | Warsaw | 5 | Stopwatch | STV","players":null},{"server_id":54,"name":"Uncletopia | Warsaw | 6 | Community","name_short":"waw-6","host":"waw-1.pl.uncletopia.com","port":27065,"enabled":true,"region":"eu","cc":"pl","latitude":52.2297,"longitude":21.017532,"reserved":0,"last_update":"0001-01-01T00:00:00Z","name_a2s":"Uncletopia | Warsaw | 6 | Community","protocol":17,"map":"workshop/cp_mannbase_rc2a.ugc1900737467","folder":"tf","game":"Team Fortress","app_id":440,"player_count":0,"max_players":24,"Bots":0,"server_type":"Dedicated","server_os":"Linux","password":true,"vac":true,"version":"7961495","steam_id":85568392925397856,"keywords":["cp","nocrits","nodmgspread","uncletopia"],"game_id":440,"stv_port":27066,"stv_name":"Uncletopia | Warsaw | 6 | Community | STV","players":null}]}