{"status":true,"message":"","result":[{"server_id":9,"name":"Uncletopia | Atlanta | 1 | All Maps","name_short":"atl-1","host":"atl-1.us.uncletopia.com","port":27015,"enabled":true,"region":"us-east","cc":"us","latitude":33.753746,"longitude":-84.38633,"reserved":0,"last_update":"0001-01-01T00:00:00Z","name_a2s":"Uncletopia | Atlanta | 1 | All Maps","protocol":17,"map":"koth_viaduct","folder":"tf","game":"Team Fortress","app_id":440,"player_count":0,"max_players":24,"Bots":0,"server_type":"Dedicated","server_os":"Linux","password":true,"vac":true,"version":"7961495","steam_id":85568392924469982,"keywords":["cp","nocrits","nodmgspread","uncletopia"],"game_id":440,"stv_port":27016,"stv_name":"Uncletopia | Atlanta | 1 | All Maps | STV","players":null},{"server_id":104,"name":"Uncletopia | Atlanta | 2 | All Maps","name_short":"atl-2","host":"atl-1.us.uncletopia.com","port":27025,"enabled":true,"region":"us-east","cc":"us","latitude":33.753746,"longitude":-84.38633,"reserved":0,"last_update":"0001-01-01T00:00:00Z","name_a2s":"Uncletopia | Atlanta | 2 | All Maps","protocol":17,"map":"koth_cascade","folder":"tf","game":"Team Fortress","app_id":440,"player_count":0,"max_players":24,"Bots":0,"server_type":"Dedicated","server_os":"Linux","password":true,"vac":true,"version":"7961495","steam_id":85568392924469983,"keywords":["cp","nocrits","nodmgspread","uncletopia"],"game_id":440,"stv_port":27026,"stv_name":"Uncletopia | Atlanta | 2 | All Maps | STV","players":null},{"server_id":400,"name":"Uncletopia | Atlanta | 3 | Stopwatch","name_short":"atl-3","host":"atl-1.us.uncletopia.com","port":27035,"enabled":true,"region":"us-east","cc":"us","latitude":33.753746,"longitude":-84.38633,"reserved":0,"last_update":"0001-01-01T00:00:00Z","name_a2s":"Uncletopia | Atlanta | 3 | Stopwatch","protocol":17,"map":"koth_clearcut_b15","folder":"tf","game":"Team Fortress","app_id":440,"player_count":0,"max_players":24,"Bots":0,"server_type":"Dedicated","server_os":"Linux","password":true,"vac":true,"version":"7961495","steam_id":85568392924515187,"keywords":["cp","nocrits","nodmgspread","uncletopia"],"game_id":440,"stv_port":27036,"stv_name":"Uncletopia | Atlanta | 3 | Stopwatch | STV","players":null},{"server_id":401,"name":"Uncletopia | Atlanta | 4 | Community","name_short":"atl-4","host":"atl-1.us.uncletopia.com","port":27045,"enabled":true,"region":"us-east","cc":"us","latitude":33.753746,"longitude":-84.38633,"reserved":0,"last_update":"0001-01-01T00:00:00Z","name_a2s":"Uncletopia | Atlanta | 4 | Community","protocol":17,"map":"cp_sunshine","folder":"tf","game":"Team Fortress","app_id":440,"player_count":0,"max_players":24,"Bots":0,"server_type":"Dedicated","server_os":"Linux","password":true,"vac":true,"version":"7961495","steam_id":85568392924515188,"keywords":["cp","nocrits","nodmgspread","uncletopia"],"game_id":440,"stv_port":27046,"stv_name":"Uncletopia | Atlanta | 4 | Community | STV","players":null},{"server_id":2,"name":"Uncletopia | Chicago | 1 | All Maps","name_short":"chi-1","host":"chi-1.us.uncletopia.com","port":27015,"enabled":true,"region":"us-central","cc":"us","latitude":41.881832,"longitude":-87.62318,"reserved":0,"last_update":"0001-01-01T00:00:00Z","name_a2s":"Uncletopia | Chicago | 1 | All Maps","protocol":17,"map":"cp_mountainlab","folder":"tf","game":"Team Fortress","app_id":440,"player_count":4,"max_players":24,"Bots":0,"server_type":"Dedicated","server_os":"Linux","password":true,"vac":true,"version":"7961495","steam_id":85568392924469984,"keywords":["cp","nocrits","nodmgspread","uncletopia"],"game_id":440,"stv_port":27016,"stv_name":"Uncletopia | Chicago | 1 | All Maps | STV","players":[{"user_id":13,"name":"Forehead","steam_id":76561198124151399,"connected_time":283000000000,"state":"active","ping":63},{"user_id":14,"name":"Abirik","steam_id":76561198027894274,"connected_time":230000000000,"state":"active","ping":76},{"user_id":15,"name":"Ras","steam_id":76561198123546775,"connected_time":166000000000,"state":"active","ping":50},{"user_id":16,"name":"9BrightHues (It / She)","steam_id":76561199013951845,"connected_time":135000000000,"state":"active","ping":53}]},{"server_id":106,"name":"Uncletopia | Chicago | 2 | All Maps","name_short":"chi-2","host":"chi-1.us.uncletopia.com","port":27025,"enabled":true,"region":"us-central","cc":"us","latitude":41.881832,"longitude":-87.62318,"reserved":0,"last_update":"0001-01-01T00:00:00Z","name_a2s":"Uncletopia | Chicago | 2 | All Maps","protocol":17,"map":"pl_frontier_final","folder":"tf","game":"Team Fortress","app_id":440,"player_count":24,"max_players":24,"Bots":0,"server_type":"Dedicated","server_os":"Linux","password":true,"vac":true,"version":"7961495","steam_id":85568392924469985,"keywords":["nocrits","nodmgspread","payload","uncletopia"],"game_id":440,"stv_port":27026,"stv_name":"Uncletopia | Chicago | 2 | All Maps | STV","players":[{"user_id":243,"name":"Grunt420","steam_id":76561199407313140,"connected_time":1747000000000,"state":"active","ping":176},{"user_id":258,"name":"Raccoon.Of.Waffle.House","steam_id":76561199018770554,"connected_time":75000000000,"state":"active","ping":73},{"user_id":242,"name":"Head Mod Dads","steam_id":76561198443141114,"connected_time":1835000000000,"state":"active","ping":79},{"user_id":240,"name":"Draconic Ballad","steam_id":76561198027191515,"connected_time":1999000000000,"state":"active","ping":51},{"user_id":256,"name":"Atlas","steam_id":76561198127975050,"connected_time":255000000000,"state":"active","ping":78},{"user_id":244,"name":"[ミラージュ] Mirage","steam_id":76561198205500300,"connected_time":1664000000000,"state":"active","ping":60},{"user_id":223,"name":"FAKE TAXI PRANKS","steam_id":76561198136746987,"connected_time":2972000000000,"state":"active","ping":71},{"user_id":95,"name":"vv","steam_id":76561198134813102,"connected_time":8346000000000,"state":"active","ping":53},{"user_id":235,"name":"Dudley","steam_id":76561198320121171,"connected_time":2055000000000,"state":"active","ping":71},{"user_id":238,"name":"MR SKELTAL","steam_id":76561198031089598,"connected_time":2028000000000,"state":"active","ping":70},{"user_id":250,"name":"phantom","steam_id":76561197963860777,"connected_time":862000000000,"state":"active","ping":55},{"user_id":200,"name":"Cheems","steam_id":76561198269074039,"connected_time":3434000000000,"state":"active","ping":77},{"user_id":248,"name":"pelt","steam_id":76561197993593754,"connected_time":1105000000000,"state":"active","ping":47},{"user_id":135,"name":"yourcollectivemothers","steam_id":76561198875958142,"connected_time":5956000000000,"state":"active","ping":82},{"user_id":246,"name":"Foxtrot Lima Echo Xray","steam_id":76561198041427264,"connected_time":1646000000000,"state":"active","ping":72},{"user_id":232,"name":"Gibus","steam_id":76561198207246401,"connected_time":2349000000000,"state":"active","ping":61},{"user_id":249,"name":"dahperson","steam_id":76561198067207467,"connected_time":905000000000,"state":"active","ping":56},{"user_id":234,"name":"SPIRE_FAN","steam_id":76561198001486573,"connected_time":2083000000000,"state":"active","ping":69},{"user_id":98,"name":"Charlotte","steam_id":76561198194975870,"connected_time":8337000000000,"state":"active","ping":78},{"user_id":254,"name":"Marineland","steam_id":76561198081285187,"connected_time":637000000000,"state":"active","ping":74},{"user_id":241,"name":"Tommy Pickles (Very Cool)","steam_id":76561198391261463,"connected_time":1980000000000,"state":"active","ping":76},{"user_id":252,"name":"Ostrich","steam_id":76561198068553779,"connected_time":829000000000,"state":"active","ping":193},{"user_id":125,"name":"lil stinker (sniperphobic)","steam_id":76561198057076267,"connected_time":6411000000000,"state":"active","ping":67},{"user_id":162,"name":"lol boobs","steam_id":76561198249206656,"connected_time":5134000000000,"state":"active","ping":60}]},{"server_id":402,"name":"Uncletopia | Chicago | 3 | All Maps","name_short":"chi-3","host":"chi-1.us.uncletopia.com","port":27035,"enabled":true,"region":"us-central","cc":"us","latitude":41.881832,"longitude":-87.62318,"reserved":0,"last_update":"0001-01-01T00:00:00Z","name_a2s":"Uncletopia | Chicago | 3 | All Maps","protocol":17,"map":"pl_frontier_final","folder":"tf","game":"Team Fortress","app_id":440,"player_count":0,"max_players":24,"Bots":0,"server_type":"Dedicated","server_os":"Linux","password":true,"vac":true,"version":"7961495","steam_id":85568392924515191,"keywords":["nocrits","nodmgspread","payload","uncletopia"],"game_id":440,"stv_port":27036,"stv_name":"Uncletopia | Chicago | 3 | All Maps | STV","players":null},{"server_id":403,"name":"Uncletopia | Chicago | 4 | All Maps","name_short":"chi-4","host":"chi-1.us.uncletopia.com","port":27045,"enabled":true,"region":"us-central","cc":"us","latitude":41.881832,"longitude":-87.62318,"reserved":0,"last_update":"0001-01-01T00:00:00Z","name_a2s":"Uncletopia | Chicago | 4 | All Maps","protocol":17,"map":"koth_cascade","folder":"tf","game":"Team Fortress","app_id":440,"player_count":0,"max_players":24,"Bots":0,"server_type":"Dedicated","server_os":"Linux","password":true,"vac":true,"version":"7961495","steam_id":85568392924515193,"keywords":["cp","nocrits","nodmgspread","uncletopia"],"game_id":440,"stv_port":27046,"stv_name":"Uncletopia | Chicago | 4 | All Maps | STV","players":null},{"server_id":36,"name":"Uncletopia | Chicago | 5 | All Maps","name_short":"chi-5","host":"chi-2.us.uncletopia.com","port":27015,"enabled":true,"region":"us-central","cc":"us","latitude":41.881832,"longitude":-87.62318,"reserved":0,"last_update":"0001-01-01T00:00:00Z","name_a2s":"Uncletopia | Chicago | 5 | All Maps","protocol":17,"map":"koth_viaduct","folder":"tf","game":"Team Fortress","app_id":440,"player_count":0,"max_players":24,"Bots":0,"server_type":"Dedicated","server_os":"Linux","password":true,"vac":true,"version":"7961495","steam_id":85568392924866362,"keywords":["cp","nocrits","nodmgspread","uncletopia"],"game_id":440,"stv_port":27016,"stv_name":"Uncletopia | Chicago | 5 | All Maps | STV","players":null},{"server_id":37,"name":"Uncletopia | Chicago | 6 | All Maps","name_short":"chi-6","host":"chi-2.us.uncletopia.com","port":27025,"enabled":true,"region":"us-central","cc":"us","latitude":41.881832,"longitude":-87.62318,"reserved":0,"last_update":"0001-01-01T00:00:00Z","name_a2s":"Uncletopia | Chicago | 6 | All Maps","protocol":17,"map":"cp_mountainlab","folder":"tf","game":"Team Fortress","app_id":440,"player_count":0,"max_players":24,"Bots":0,"server_type":"Dedicated","server_os":"Linux","password":true,"vac":true,"version":"7961495","steam_id":85568392924866363,"keywords":["cp","nocrits","nodmgspread","uncletopia"],"game_id":440,"stv_port":27026,"stv_name":"Uncletopia | Chicago | 6 | All Maps | STV","players":null},{"server_id":38,"name":"Uncletopia | Chicago | 7 | Stopwatch","name_short":"chi-7","host":"chi-2.us.uncletopia.com","port":27035,"enabled":true,"region":"us-central","cc":"us","latitude":41.881832,"longitude":-87.62318,"reserved":0,"last_update":"0001-01-01T00:00:00Z","name_a2s":"Uncletopia | Chicago | 7 | Stopwatch","protocol":17,"map":"pl_badwater","folder":"tf","game":"Team Fortress","app_id":440,"player_count":0,"max_players":24,"Bots":0,"server_type":"Dedicated","server_os":"Linux","password":true,"vac":true,"version":"7961495","steam_id":85568392924866364,"keywords":["nocrits","nodmgspread","payload","uncletopia"],"game_id":440,"stv_port":27036,"stv_name":"Uncletopia | Chicago | 7 | Stopwatch | STV","players":null},{"server_id":39,"name":"Uncletopia | Chicago | 8 | Community","name_short":"chi-8","host":"chi-2.us.uncletopia.com","port":27045,"enabled":true,"region":"us-central","cc":"us","latitude":41.881832,"longitude":-87.62318,"reserved":0,"last_update":"0001-01-01T00:00:00Z","name_a2s":"Uncletopia | Chicago | 8 | Community","protocol":17,"map":"pl_pier","folder":"tf","game":"Team Fortress","app_id":440,"player_count":0,"max_players":24,"Bots":0,"server_type":"Dedicated","server_os":"Linux","password":true,"vac":true,"version":"7961495","steam_id":85568392924866365,"keywords":["nocrits","nodmgspread","payload","uncletopia"],"game_id":440,"stv_port":27046,"stv_name":"Uncletopia | Chicago | 8 | Community | STV","players":null},{"server_id":8,"name":"Uncletopia | Dallas | 1 | All Maps","name_short":"dal-1","host":"dal-1.us.uncletopia.com","port":27015,"enabled":true,"region":"us-central","cc":"us","latitude":32.779167,"longitude":-96.80889,"reserved":0,"last_update":"0001-01-01T00:00:00Z","name_a2s":"Uncletopia | Dallas | 1 | All Maps","protocol":17,"map":"cp_steel","folder":"tf","game":"Team Fortress","app_id":440,"player_count":24,"max_players":24,"Bots":0,"server_type":"Dedicated","server_os":"Linux","password":true,"vac":true,"version":"7961495","steam_id":85568392924469986,"keywords":["cp","nocrits","nodmgspread","uncletopia"],"game_id":440,"stv_port":27016,"stv_name":"Uncletopia | Dallas | 1 | All Maps | STV","players":[{"user_id":73,"name":"Joshy","steam_id":76561198061405421,"connected_time":889000000000,"state":"active","ping":90},{"user_id":81,"name":"Doom Cart","steam_id":76561198158543955,"connected_time":634000000000,"state":"active","ping":75},{"user_id":85,"name":"Minin","steam_id":76561198018819047,"connected_time":519000000000,"state":"active","ping":71},{"user_id":76,"name":"matthatter98","steam_id":76561198953709416,"connected_time":684000000000,"state":"active","ping":94},{"user_id":46,"name":"Bogey","steam_id":76561198096227944,"connected_time":3197000000000,"state":"active","ping":45},{"user_id":66,"name":"Gelliterate","steam_id":76561198107233070,"connected_time":1579000000000,"state":"active","ping":49},{"user_id":65,"name":"npc energy","steam_id":76561198035342207,"connected_time":1698000000000,"state":"active","ping":60},{"user_id":86,"name":"Exetior","steam_id":76561198978688451,"connected_time":496000000000,"state":"active","ping":71},{"user_id":48,"name":"the munch","steam_id":76561199164347838,"connected_time":2942000000000,"state":"active","ping":70},{"user_id":63,"name":"Defragmented","steam_id":76561198854210081,"connected_time":2085000000000,"state":"active","ping":74},{"user_id":78,"name":"MontellWilliams","steam_id":76561198172143015,"connected_time":664000000000,"state":"active","ping":83},{"user_id":19,"name":"Bippums","steam_id":76561198366406729,"connected_time":4213000000000,"state":"active","ping":86},{"user_id":82,"name":"Shitty Pilot","steam_id":76561198042723469,"connected_time":633000000000,"state":"active","ping":64},{"user_id":21,"name":"woke moralist","steam_id":76561198301021031,"connected_time":4187000000000,"state":"active","ping":87},{"user_id":22,"name":"Doctor Bear ʕ •ᴥ•ʔ","steam_id":76561197968103161,"connected_time":4178000000000,"state":"active","ping":83},{"user_id":23,"name":"Cassius","steam_id":76561199181383832,"connected_time":4164000000000,"state":"active","ping":91},{"user_id":79,"name":"Frank [LIVE ON TWITCH]","steam_id":76561198126681511,"connected_time":660000000000,"state":"active","ping":98},{"user_id":74,"name":"Toripollo","steam_id":76561198251665862,"connected_time":739000000000,"state":"active","ping":106},{"user_id":88,"name":"Nylus","steam_id":76561198026623489,"connected_time":220000000000,"state":"active","ping":177},{"user_id":90,"name":"TinnCann","steam_id":76561198370910909,"connected_time":151000000000,"state":"active","ping":96},{"user_id":91,"name":"Notayoutuber","steam_id":76561199371685870,"connected_time":144000000000,"state":"active","ping":87},{"user_id":62,"name":"Zeek","steam_id":76561197987204351,"connected_time":2305000000000,"state":"active","ping":75},{"user_id":69,"name":"HeroOfTime","steam_id":76561199096218001,"connected_time":1468000000000,"state":"active","ping":89},{"user_id":54,"name":"Jetstream Sam","steam_id":76561198842076296,"connected_time":2672000000000,"state":"active","ping":50}]},{"server_id":108,"name":"Uncletopia | Dallas | 2 | All Maps","name_short":"dal-2","host":"dal-1.us.uncletopia.com","port":27025,"enabled":true,"region":"us-central","cc":"us","latitude":32.779167,"longitude":-96.80889,"reserved":0,"last_update":"0001-01-01T00:00:00Z","name_a2s":"Uncletopia | Dallas | 2 | All Maps","protocol":17,"map":"cp_process_final","folder":"tf","game":"Team Fortress","app_id":440,"player_count":24,"max_players":24,"Bots":0,"server_type":"Dedicated","server_os":"Linux","password":true,"vac":true,"version":"7961495","steam_id":85568392924469988,"keywords":["cp","nocrits","nodmgspread","uncletopia"],"game_id":440,"stv_port":27026,"stv_name":"Uncletopia | Dallas | 2 | All Maps | STV","players":[{"user_id":282,"name":"HalfDead","steam_id":76561198049700226,"connected_time":201000000000,"state":"active","ping":104},{"user_id":231,"name":"the_spaceman","steam_id":76561197997653730,"connected_time":4002000000000,"state":"active","ping":64},{"user_id":257,"name":"Tele Co","steam_id":76561198041909269,"connected_time":2051000000000,"state":"active","ping":66},{"user_id":277,"name":"Smug Pug","steam_id":76561198059423334,"connected_time":915000000000,"state":"active","ping":74},{"user_id":249,"name":"ginosaurusx","steam_id":76561198410640142,"connected_time":2819000000000,"state":"active","ping":99},{"user_id":285,"name":"Kid named download","steam_id":76561199192074448,"connected_time":181000000000,"state":"active","ping":102},{"user_id":284,"name":"Major Woody","steam_id":76561198835541533,"connected_time":195000000000,"state":"active","ping":62},{"user_id":191,"name":"SAD PARTY CLOWN","steam_id":76561198051421643,"connected_time":7459000000000,"state":"active","ping":33},{"user_id":268,"name":"pnut","steam_id":76561198043862737,"connected_time":1750000000000,"state":"active","ping":75},{"user_id":114,"name":"Zano","steam_id":76561198066887048,"connected_time":14811000000000,"state":"active","ping":77},{"user_id":214,"name":"BatMatt","steam_id":76561198045910433,"connected_time":4837000000000,"state":"active","ping":45},{"user_id":201,"name":"DragonJimmy","steam_id":76561198272966565,"connected_time":7041000000000,"state":"active","ping":75},{"user_id":258,"name":"foghorn leghorn","steam_id":76561198202436474,"connected_time":2048000000000,"state":"active","ping":78},{"user_id":287,"name":"Medic GF","steam_id":76561198400531556,"connected_time":174000000000,"state":"active","ping":73},{"user_id":281,"name":"Mrink","steam_id":76561199027165750,"connected_time":767000000000,"state":"active","ping":121},{"user_id":289,"name":"TruffShuff","steam_id":76561198055869160,"connected_time":88000000000,"state":"active","ping":61},{"user_id":251,"name":"Mom","steam_id":76561198356812251,"connected_time":2743000000000,"state":"active","ping":83},{"user_id":262,"name":"Untermensch","steam_id":76561198149634242,"connected_time":2016000000000,"state":"active","ping":85},{"user_id":263,"name":"Rob","steam_id":76561199187786660,"connected_time":2003000000000,"state":"active","ping":56},{"user_id":265,"name":"Unusual Scout","steam_id":76561198379574232,"connected_time":1937000000000,"state":"active","ping":55},{"user_id":280,"name":"superx","steam_id":76561198044976613,"connected_time":837000000000,"state":"active","ping":93},{"user_id":290,"name":"Bobby","steam_id":76561198037803087,"connected_time":70000000000,"state":"active","ping":64},{"user_id":278,"name":"Kingmako1099","steam_id":76561199266890323,"connected_time":909000000000,"state":"active","ping":113},{"user_id":279,"name":"Geesemans","steam_id":76561199478892816,"connected_time":901000000000,"state":"active","ping":154}]},{"server_id":404,"name":"Uncletopia | Dallas | 3 | All Maps","name_short":"dal-3","host":"dal-1.us.uncletopia.com","port":27035,"enabled":true,"region":"us-central","cc":"us","latitude":32.779167,"longitude":-96.80889,"reserved":0,"last_update":"0001-01-01T00:00:00Z","name_a2s":"Uncletopia | Dallas | 3 | All Maps","protocol":17,"map":"pl_badwater","folder":"tf","game":"Team Fortress","app_id":440,"player_count":0,"max_players":24,"Bots":0,"server_type":"Dedicated","server_os":"Linux","password":true,"vac":true,"version":"7961495","steam_id":85568392924515219,"keywords":["nocrits","nodmgspread","payload","uncletopia"],"game_id":440,"stv_port":27036,"stv_name":"Uncletopia | Dallas | 3 | All Maps | STV","players":null},{"server_id":405,"name":"Uncletopia | Dallas | 4 | Community","name_short":"dal-4","host":"dal-1.us.uncletopia.com","port":27045,"enabled":true,"region":"us-central","cc":"us","latitude":32.779167,"longitude":-96.80889,"reserved":0,"last_update":"0001-01-01T00:00:00Z","name_a2s":"Uncletopia | Dallas | 4 | Community","protocol":17,"map":"pl_pier","folder":"tf","game":"Team Fortress","app_id":440,"player_count":0,"max_players":24,"Bots":0,"server_type":"Dedicated","server_os":"Linux","password":true,"vac":true,"version":"7961495","steam_id":85568392924515220,"keywords":["nocrits","nodmgspread","payload","uncletopia"],"game_id":440,"stv_port":27046,"stv_name":"Uncletopia | Dallas | 4 | Community | STV","players":null},{"server_id":5,"name":"Uncletopia | Frankfurt | 1 | All Maps","name_short":"frk-1","host":"frk-1.de.uncletopia.com","port":27015,"enabled":true,"region":"eu","cc":"de","latitude":50.110924,"longitude":8.682127,"reserved":0,"last_update":"0001-01-01T00:00:00Z","name_a2s":"Uncletopia | Frankfurt | 1 | All Maps","protocol":17,"map":"cp_dustbowl","folder":"tf","game":"Team Fortress","app_id":440,"player_count":24,"max_players":24,"Bots":0,"server_type":"Dedicated","server_os":"Linux","password":true,"vac":true,"version":"7961495","steam_id":85568392924469989,"keywords":["cp","nocrits","nodmgspread","uncletopia"],"game_id":440,"stv_port":27016,"stv_name":"Uncletopia | Frankfurt | 1 | All Maps | STV","players":[{"user_id":360,"name":"Necator","steam_id":76561198094006970,"connected_time":1481000000000,"state":"active","ping":50},{"user_id":380,"name":"BelgradePhantom","steam_id":76561198135336690,"connected_time":378000000000,"state":"active","ping":99},{"user_id":342,"name":"Maru","steam_id":76561198030931030,"connected_time":2954000000000,"state":"active","ping":62},{"user_id":378,"name":"Borazilla","steam_id":76561198083626821,"connected_time":467000000000,"state":"active","ping":100},{"user_id":296,"name":"kastanomata","steam_id":76561198271832763,"connected_time":5916000000000,"state":"active","ping":81},{"user_id":383,"name":"MrClyde","steam_id":76561198132627420,"connected_time":100000000000,"state":"active","ping":59},{"user_id":376,"name":"..","steam_id":76561198380752444,"connected_time":872000000000,"state":"active","ping":76},{"user_id":377,"name":"Creamy","steam_id":76561198063907478,"connected_time":674000000000,"state":"active","ping":72},{"user_id":382,"name":"M1rkus","steam_id":76561198171215447,"connected_time":293000000000,"state":"active","ping":65},{"user_id":381,"name":"Finkaksu :3","steam_id":76561198201389163,"connected_time":354000000000,"state":"active","ping":73},{"user_id":345,"name":"Yassine","steam_id":76561198140565712,"connected_time":2691000000000,"state":"active","ping":59},{"user_id":364,"name":"Nozzo","steam_id":76561198012367783,"connected_time":1384000000000,"state":"active","ping":75},{"user_id":371,"name":"Jamd","steam_id":76561198022943309,"connected_time":1231000000000,"state":"active","ping":43},{"user_id":336,"name":"Klaus","steam_id":76561198150394201,"connected_time":3230000000000,"state":"active","ping":85},{"user_id":367,"name":"pSy","steam_id":76561198016471415,"connected_time":1303000000000,"state":"active","ping":46},{"user_id":375,"name":"RedLion","steam_id":76561198337545798,"connected_time":1060000000000,"state":"active","ping":66},{"user_id":49,"name":"john fortress","steam_id":76561198013237629,"connected_time":18710000000000,"state":"active","ping":96},{"user_id":372,"name":"SaltGoodman","steam_id":76561198036983117,"connected_time":1112000000000,"state":"active","ping":59},{"user_id":369,"name":"snert","steam_id":76561198451550309,"connected_time":1289000000000,"state":"active","ping":48},{"user_id":340,"name":"kurage","steam_id":76561198021221288,"connected_time":3012000000000,"state":"active","ping":57},{"user_id":305,"name":"booba","steam_id":76561198158018284,"connected_time":5109000000000,"state":"active","ping":62},{"user_id":379,"name":"Urfangonultasadana","steam_id":76561199389286151,"connected_time":402000000000,"state":"active","ping":97},{"user_id":346,"name":"corralled","steam_id":76561198028648627,"connected_time":2337000000000,"state":"active","ping":64},{"user_id":130,"name":"AleXandriX","steam_id":76561198035203950,"connected_time":13008000000000,"state":"active","ping":62}]},{"server_id":110,"name":"Uncletopia | Frankfurt | 2 | All Maps","name_short":"frk-2","host":"frk-1.de.uncletopia.com","port":27025,"enabled":true,"region":"eu","cc":"de","latitude":50.110924,"longitude":8.682127,"reserved":0,"last_update":"0001-01-01T00:00:00Z","name_a2s":"Uncletopia | Frankfurt | 2 | All Maps","protocol":17,"map":"pl_frontier_final","folder":"tf","game":"Team Fortress","app_id":440,"player_count":24,"max_players":24,"Bots":0,"server_type":"Dedicated","server_os":"Linux","password":true,"vac":true,"version":"7961495","steam_id":85568392924469990,"keywords":["nocrits","nodmgspread","payload","uncletopia"],"game_id":440,"stv_port":27026,"stv_name":"Uncletopia | Frankfurt | 2 | All Maps | STV","players":[{"user_id":403,"name":"༼ ຈل͜ຈ༽","steam_id":76561198027166144,"connected_time":782000000000,"state":"active","ping":78},{"user_id":346,"name":"Ketich","steam_id":76561198021772703,"connected_time":4047000000000,"state":"active","ping":71},{"user_id":374,"name":"socaramel","steam_id":76561197984480336,"connected_time":2611000000000,"state":"active","ping":79},{"user_id":326,"name":"Zembis","steam_id":76561198008017918,"connected_time":5224000000000,"state":"active","ping":84},{"user_id":393,"name":"vekkni","steam_id":76561198214848887,"connected_time":1292000000000,"state":"active","ping":61},{"user_id":408,"name":"Keho","steam_id":76561198087962709,"connected_time":295000000000,"state":"active","ping":85},{"user_id":406,"name":"lore","steam_id":76561198120984188,"connected_time":450000000000,"state":"active","ping":67},{"user_id":392,"name":"KermSlinger","steam_id":76561198854027069,"connected_time":1608000000000,"state":"active","ping":72},{"user_id":409,"name":"failed poet","steam_id":76561198987041283,"connected_time":265000000000,"state":"active","ping":66},{"user_id":352,"name":"KaasKrans","steam_id":76561198240451972,"connected_time":3846000000000,"state":"active","ping":64},{"user_id":412,"name":"Mista Baymort","steam_id":76561198367178355,"connected_time":49000000000,"state":"active","ping":73},{"user_id":394,"name":"ToniGAM3S","steam_id":76561198128605351,"connected_time":1149000000000,"state":"active","ping":60},{"user_id":373,"name":"Pico","steam_id":76561198063552545,"connected_time":2657000000000,"state":"active","ping":93},{"user_id":399,"name":"Futatsuiwa Mamizou","steam_id":76561198799303596,"connected_time":1059000000000,"state":"active","ping":102},{"user_id":402,"name":"how use bazooka tf2","steam_id":76561198436817109,"connected_time":1032000000000,"state":"active","ping":64},{"user_id":296,"name":"Galien","steam_id":76561198833491310,"connected_time":7372000000000,"state":"active","ping":43},{"user_id":367,"name":"tired","steam_id":76561198046838168,"connected_time":3043000000000,"state":"active","ping":45},{"user_id":410,"name":"Burgoo_King","steam_id":76561198133572225,"connected_time":261000000000,"state":"active","ping":75},{"user_id":371,"name":"bowser fart gif","steam_id":76561198388750592,"connected_time":2736000000000,"state":"active","ping":53},{"user_id":413,"name":"ÃNVS DRÃNVS","steam_id":76561198138733015,"connected_time":34000000000,"state":"active","ping":112},{"user_id":407,"name":"Mischail","steam_id":76561198016127010,"connected_time":438000000000,"state":"active","ping":72},{"user_id":378,"name":"ŽgræÐek113","steam_id":76561198306883632,"connected_time":2475000000000,"state":"active","ping":60},{"user_id":411,"name":"☢Duke Nukem Facts!☢","steam_id":76561199013457963,"connected_time":259000000000,"state":"active","ping":66},{"user_id":272,"name":"TheEventGuy","steam_id":76561197972797744,"connected_time":8824000000000,"state":"active","ping":60}]},{"server_id":308,"name":"Uncletopia | Frankfurt | 3 | All Maps","name_short":"frk-3","host":"frk-1.de.uncletopia.com","port":27035,"enabled":true,"region":"eu","cc":"de","latitude":50.110924,"longitude":8.682127,"reserved":0,"last_update":"0001-01-01T00:00:00Z","name_a2s":"Uncletopia | Frankfurt | 3 | All Maps","protocol":17,"map":"pl_swiftwater_final1","folder":"tf","game":"Team Fortress","app_id":440,"player_count":24,"max_players":24,"Bots":0,"server_type":"Dedicated","server_os":"Linux","password":true,"vac":true,"version":"7961495","steam_id":85568392924504274,"keywords":["nocrits","nodmgspread","payload","uncletopia"],"game_id":440,"stv_port":27036,"stv_name":"Uncletopia | Frankfurt | 3 | All Maps | STV","players":[{"user_id":130,"name":"f2p idiot","steam_id":76561199227452462,"connected_time":74000000000,"state":"active","ping":263},{"user_id":42,"name":"WIZARD","steam_id":76561198199570742,"connected_time":4776000000000,"state":"active","ping":97},{"user_id":119,"name":"Javier dorsaless","steam_id":76561198179324075,"connected_time":664000000000,"state":"active","ping":75},{"user_id":132,"name":"Pighead_08","steam_id":76561199060466647,"connected_time":27000000000,"state":"active","ping":110},{"user_id":102,"name":"NovaByte","steam_id":76561199024222387,"connected_time":1725000000000,"state":"active","ping":70},{"user_id":105,"name":"Keken","steam_id":76561198277709456,"connected_time":1655000000000,"state":"active","ping":90},{"user_id":126,"name":"Towercat","steam_id":76561198013141793,"connected_time":296000000000,"state":"active","ping":63},{"user_id":127,"name":"bull.","steam_id":76561197965462062,"connected_time":277000000000,"state":"active","ping":62},{"user_id":78,"name":"Glitch","steam_id":76561198081895538,"connected_time":2742000000000,"state":"active","ping":73},{"user_id":128,"name":"Benrosim","steam_id":76561199258825333,"connected_time":173000000000,"state":"active","ping":67},{"user_id":95,"name":"Sugus","steam_id":76561199370736592,"connected_time":2006000000000,"state":"active","ping":81},{"user_id":46,"name":"Dang-Maggot","steam_id":76561199075532033,"connected_time":4320000000000,"state":"active","ping":75},{"user_id":100,"name":"Not A Fake Uncletopia Server","steam_id":76561198152871288,"connected_time":1768000000000,"state":"active","ping":63},{"user_id":82,"name":"Ignot","steam_id":76561198235896754,"connected_time":2457000000000,"state":"active","ping":75},{"user_id":133,"name":"Tattletails","steam_id":76561198055690341,"connected_time":3000000000,"state":"spawning","ping":79},{"user_id":109,"name":"GiappoNylon","steam_id":76561198124076397,"connected_time":1397000000000,"state":"active","ping":58},{"user_id":84,"name":"Temperance","steam_id":76561198446955878,"connected_time":2366000000000,"state":"active","ping":65},{"user_id":113,"name":"Kepucz","steam_id":76561197977634244,"connected_time":1175000000000,"state":"active","ping":60},{"user_id":81,"name":"Mr-Fluf","steam_id":76561198115101757,"connected_time":2661000000000,"state":"active","ping":93},{"user_id":91,"name":"So True!!!","steam_id":76561198253503043,"connected_time":2191000000000,"state":"active","ping":65},{"user_id":110,"name":"squillisky","steam_id":76561198083569327,"connected_time":1352000000000,"state":"active","ping":64},{"user_id":115,"name":"sand","steam_id":76561199166176718,"connected_time":1107000000000,"state":"active","ping":91},{"user_id":112,"name":"Paste","steam_id":76561198139275322,"connected_time":1211000000000,"state":"active","ping":93},{"user_id":72,"name":"elmstJP ₪ F4.exe","steam_id":76561197997909480,"connected_time":3251000000000,"state":"active","ping":70}]},{"server_id":309,"name":"Uncletopia | Frankfurt | 4 | All Maps","name_short":"frk-4","host":"frk-1.de.uncletopia.com","port":27045,"enabled":true,"region":"eu","cc":"de","latitude":50.110924,"longitude":8.682127,"reserved":0,"last_update":"0001-01-01T00:00:00Z","name_a2s":"Uncletopia | Frankfurt | 4 | All Maps","protocol":17,"map":"pl_barnblitz","folder":"tf","game":"Team Fortress","app_id":440,"player_count":24,"max_players":24,"Bots":0,"server_type":"Dedicated","server_os":"Linux","password":true,"vac":true,"version":"7961495","steam_id":85568392924504275,"keywords":["nocrits","nodmgspread","payload","uncletopia"],"game_id":440,"stv_port":27046,"stv_name":"Uncletopia | Frankfurt | 4 | All Maps | STV","players":[{"user_id":153,"name":"TylowStar","steam_id":76561198357107806,"connected_time":2179000000000,"state":"active","ping":60},{"user_id":184,"name":"AwZooom","steam_id":76561198154061149,"connected_time":433000000000,"state":"active","ping":44},{"user_id":185,"name":"I Love Filtered Water","steam_id":76561198016042113,"connected_time":432000000000,"state":"active","ping":82},{"user_id":186,"name":"IS3BITEL","steam_id":76561199178060325,"connected_time":431000000000,"state":"active","ping":72},{"user_id":166,"name":"ｄｅｓｋｒａｙ","steam_id":76561198805536170,"connected_time":1405000000000,"state":"active","ping":75},{"user_id":170,"name":"Dark","steam_id":76561199162752036,"connected_time":1211000000000,"state":"active","ping":72},{"user_id":152,"name":"SnowShot","steam_id":76561198004766638,"connected_time":2251000000000,"state":"active","ping":62},{"user_id":190,"name":"fifrok","steam_id":76561198799267621,"connected_time":378000000000,"state":"active","ping":67},{"user_id":187,"name":"stephen.2004","steam_id":76561198427311326,"connected_time":422000000000,"state":"active","ping":98},{"user_id":146,"name":"Crunchips","steam_id":76561198004336818,"connected_time":3291000000000,"state":"active","ping":93},{"user_id":156,"name":"rets_","steam_id":76561198061551392,"connected_time":2054000000000,"state":"active","ping":43},{"user_id":176,"name":"MakSok","steam_id":76561198050889367,"connected_time":765000000000,"state":"active","ping":130},{"user_id":183,"name":"B4ByBoI:D","steam_id":76561198878798417,"connected_time":463000000000,"state":"active","ping":83},{"user_id":188,"name":"i love barely filtered water","steam_id":76561199074095198,"connected_time":419000000000,"state":"active","ping":122},{"user_id":167,"name":"-daniel","steam_id":76561199146399559,"connected_time":1404000000000,"state":"active","ping":68},{"user_id":160,"name":"Maxy Luck","steam_id":76561199009583144,"connected_time":1988000000000,"state":"active","ping":100},{"user_id":182,"name":"Ross from F.R.I.E.N.D.S.","steam_id":76561198008511665,"connected_time":533000000000,"state":"active","ping":76},{"user_id":158,"name":"Qwerty","steam_id":76561198023525894,"connected_time":2023000000000,"state":"active","ping":95},{"user_id":189,"name":"The cock","steam_id":76561198197304886,"connected_time":397000000000,"state":"active","ping":107},{"user_id":172,"name":"Andrea","steam_id":76561199487380678,"connected_time":1001000000000,"state":"active","ping":123},{"user_id":178,"name":"CalzoneCarl456","steam_id":76561198846982793,"connected_time":716000000000,"state":"active","ping":57},{"user_id":181,"name":"PreviouslyFresh","steam_id":76561198133796254,"connected_time":543000000000,"state":"active","ping":68},{"user_id":191,"name":"madrassen","steam_id":76561198279855271,"connected_time":262000000000,"state":"active","ping":72},{"user_id":175,"name":"Caramel","steam_id":76561198021214844,"connected_time":947000000000,"state":"active","ping":55}]},{"server_id":310,"name":"Uncletopia | Frankfurt | 5 | All Maps","name_short":"frk-5","host":"frk-1.de.uncletopia.com","port":27055,"enabled":true,"region":"eu","cc":"de","latitude":50.110924,"longitude":8.682127,"reserved":0,"last_update":"0001-01-01T00:00:00Z","name_a2s":"Uncletopia | Frankfurt | 5 | All Maps","protocol":17,"map":"cp_sunshine","folder":"tf","game":"Team Fortress","app_id":440,"player_count":0,"max_players":24,"Bots":0,"server_type":"Dedicated","server_os":"Linux","password":true,"vac":true,"version":"7961495","steam_id":85568392924504277,"keywords":["cp","nocrits","nodmgspread","uncletopia"],"game_id":440,"stv_port":27056,"stv_name":"Uncletopia | Frankfurt | 5 | All Maps | STV","players":null},{"server_id":311,"name":"Uncletopia | Frankfurt | 6 | All Maps","name_short":"frk-6","host":"frk-1.de.uncletopia.com","port":27065,"enabled":true,"region":"eu","cc":"de","latitude":50.110924,"longitude":8.682127,"reserved":0,"last_update":"0001-01-01T00:00:00Z","name_a2s":"Uncletopia | Frankfurt | 6 | All Maps","protocol":17,"map":"pl_upward","folder":"tf","game":"Team Fortress","app_id":440,"player_count":24,"max_players":24,"Bots":0,"server_type":"Dedicated","server_os":"Linux","password":true,"vac":true,"version":"7961495","steam_id":85568392924504278,"keywords":["nocrits","nodmgspread","payload","uncletopia"],"game_id":440,"stv_port":27066,"stv_name":"Uncletopia | Frankfurt | 6 | All Maps | STV","players":[{"user_id":120,"name":"Soulman25 (FIN)","steam_id":76561198103611974,"connected_time":2513000000000,"state":"active","ping":83},{"user_id":144,"name":"GoodOldJack12","steam_id":76561198100910669,"connected_time":1523000000000,"state":"active","ping":64},{"user_id":148,"name":"Eric Catman","steam_id":76561198802117294,"connected_time":929000000000,"state":"active","ping":84},{"user_id":114,"name":"Merca #savetf2","steam_id":76561198088782472,"connected_time":2823000000000,"state":"active","ping":54},{"user_id":156,"name":"Mulle Meck","steam_id":76561198088124509,"connected_time":300000000000,"state":"active","ping":60},{"user_id":90,"name":"Daggyty","steam_id":76561198391655591,"connected_time":5349000000000,"state":"active","ping":117},{"user_id":138,"name":"Fr1Zer","steam_id":76561198357086270,"connected_time":1694000000000,"state":"active","ping":92},{"user_id":151,"name":"Hoff","steam_id":76561198138540938,"connected_time":713000000000,"state":"active","ping":87},{"user_id":98,"name":"El Gato Volador","steam_id":76561198021296882,"connected_time":4747000000000,"state":"active","ping":76},{"user_id":147,"name":"c1v","steam_id":76561199085624224,"connected_time":1039000000000,"state":"active","ping":66},{"user_id":146,"name":"Miss American PIe","steam_id":76561198867108476,"connected_time":1239000000000,"state":"active","ping":66},{"user_id":157,"name":"Stop The Violence","steam_id":76561198044876779,"connected_time":285000000000,"state":"active","ping":68},{"user_id":140,"name":"Malorn Aetherius","steam_id":76561198068257989,"connected_time":1673000000000,"state":"active","ping":57},{"user_id":118,"name":"Max","steam_id":76561198080956366,"connected_time":2722000000000,"state":"active","ping":85},{"user_id":134,"name":"\"TF2 Reference\"","steam_id":76561198867546842,"connected_time":1784000000000,"state":"active","ping":50},{"user_id":158,"name":"oriano","steam_id":76561198099916327,"connected_time":284000000000,"state":"active","ping":69},{"user_id":154,"name":"PrinzAnalFaust","steam_id":76561198136407626,"connected_time":449000000000,"state":"active","ping":59},{"user_id":150,"name":"SuntanPikachu","steam_id":76561198121242476,"connected_time":726000000000,"state":"active","ping":68},{"user_id":136,"name":"...","steam_id":76561198969234594,"connected_time":1771000000000,"state":"active","ping":73},{"user_id":145,"name":"Cypher","steam_id":76561197996967254,"connected_time":1489000000000,"state":"active","ping":53},{"user_id":101,"name":"Birch","steam_id":76561197998712822,"connected_time":4515000000000,"state":"active","ping":46},{"user_id":142,"name":"walking plane","steam_id":76561198146779559,"connected_time":1613000000000,"state":"active","ping":90},{"user_id":112,"name":"lisivi","steam_id":76561198365503306,"connected_time":3683000000000,"state":"active","ping":57},{"user_id":143,"name":"uNem0_","steam_id":76561198836442412,"connected_time":1584000000000,"state":"active","ping":94}]},{"server_id":23,"name":"Uncletopia | Frankfurt | 7 | Stopwatch","name_short":"frk-7","host":"frk-1.de.uncletopia.com","port":27075,"enabled":true,"region":"eu","cc":"de","latitude":50.110924,"longitude":8.682127,"reserved":0,"last_update":"0001-01-01T00:00:00Z","name_a2s":"Uncletopia | Frankfurt | 7 | Stopwatch","protocol":17,"map":"workshop/pl_badwater_pro_v12.ugc2142942074","folder":"tf","game":"Team Fortress","app_id":440,"player_count":0,"max_players":24,"Bots":0,"server_type":"Dedicated","server_os":"Linux","password":true,"vac":true,"version":"7961495","steam_id":85568392924742827,"keywords":["nocrits","nodmgspread","payload","uncletopia"],"game_id":440,"stv_port":27076,"stv_name":"Uncletopia | Frankfurt | 7 | Stopwatch | STV","players":null},{"server_id":24,"name":"Uncletopia | Frankfurt | 8 | Community","name_short":"frk-8","host":"frk-1.de.uncletopia.com","port":27085,"enabled":true,"region":"eu","cc":"de","latitude":50.110924,"longitude":8.682127,"reserved":0,"last_update":"0001-01-01T00:00:00Z","name_a2s":"Uncletopia | Frankfurt | 8 | Community","protocol":17,"map":"workshop/koth_ramjam_rc1.ugc459778887","folder":"tf","game":"Team Fortress","app_id":440,"player_count":0,"max_players":24,"Bots":0,"server_type":"Dedicated","server_os":"Linux","password":true,"vac":true,"version":"7961495","steam_id":85568392924742828,"keywords":["cp","nocrits","nodmgspread","uncletopia"],"game_id":440,"stv_port":27086,"stv_name":"Uncletopia | Frankfurt | 8 | Community | STV","players":null},{"server_id":202,"name":"Uncletopia | Hong Kong | 1 | All Maps","name_short":"hgk-1","host":"hgk-1.hk.uncletopia.com","port":27015,"enabled":true,"region":"asia","cc":"hk","latitude":22.302711,"longitude":114.177216,"reserved":0,"last_update":"0001-01-01T00:00:00Z","name_a2s":"Uncletopia | Hong Kong | 1 | All Maps","protocol":17,"map":"cp_steel","folder":"tf","game":"Team Fortress","app_id":440,"player_count":21,"max_players":24,"Bots":0,"server_type":"Dedicated","server_os":"Linux","password":true,"vac":true,"version":"7961495","steam_id":85568392924494504,"keywords":["cp","nocrits","nodmgspread","uncletopia"],"game_id":440,"stv_port":27016,"stv_name":"Uncletopia | Hong Kong | 1 | All Maps | STV","players":[{"user_id":457,"name":"Spookie","steam_id":76561199158560796,"connected_time":512000000000,"state":"active","ping":68},{"user_id":425,"name":"y6","steam_id":76561199126937183,"connected_time":3772000000000,"state":"active","ping":138},{"user_id":391,"name":"\"SKS\"","steam_id":76561198187995386,"connected_time":6017000000000,"state":"active","ping":87},{"user_id":422,"name":"gazlan","steam_id":76561199107596818,"connected_time":3853000000000,"state":"active","ping":117},{"user_id":454,"name":"candraluis45","steam_id":76561199336342795,"connected_time":857000000000,"state":"active","ping":124},{"user_id":463,"name":"BrassCat","steam_id":76561198245016384,"connected_time":144000000000,"state":"active","ping":96},{"user_id":458,"name":"brian","steam_id":76561198827805451,"connected_time":471000000000,"state":"active","ping":61},{"user_id":455,"name":"just_adhenz1284 #SaveTF2","steam_id":76561198293654671,"connected_time":852000000000,"state":"active","ping":150},{"user_id":461,"name":"comunistemu","steam_id":76561199097189028,"connected_time":361000000000,"state":"active","ping":86},{"user_id":464,"name":"NonoMan","steam_id":76561199108216979,"connected_time":60000000000,"state":"active","ping":392},{"user_id":465,"name":"Toxic young","steam_id":76561198161450886,"connected_time":10000000000,"state":"active","ping":108},{"user_id":453,"name":"Gab","steam_id":76561198863909723,"connected_time":887000000000,"state":"active","ping":68},{"user_id":459,"name":"[()EiCl()] RonaldMcpog","steam_id":76561198211837101,"connected_time":456000000000,"state":"active","ping":70},{"user_id":370,"name":"Jun-char","steam_id":76561198126774704,"connected_time":7615000000000,"state":"active","ping":89},{"user_id":466,"name":"Chromatic","steam_id":76561198355976286,"connected_time":1000000000,"state":"spawning","ping":228},{"user_id":442,"name":"HoàngVN","steam_id":76561198111857790,"connected_time":1746000000000,"state":"active","ping":71},{"user_id":443,"name":"Gren","steam_id":76561198043527562,"connected_time":1736000000000,"state":"active","ping":62},{"user_id":445,"name":"Mentlegen Terrorist","steam_id":76561198135458514,"connected_time":1691000000000,"state":"active","ping":113},{"user_id":456,"name":"Proxaria","steam_id":76561198119397251,"connected_time":693000000000,"state":"active","ping":96},{"user_id":448,"name":"IMPOSTOR","steam_id":76561199172116262,"connected_time":1586000000000,"state":"active","ping":135},{"user_id":336,"name":"母の肉団子@hao123.com","steam_id":76561198069561896,"connected_time":10075000000000,"state":"active","ping":43}]},{"server_id":1,"name":"Uncletopia | Los Angeles | 1 | All Maps","name_short":"lax-1","host":"lax-1.us.uncletopia.com","port":27015,"enabled":true,"region":"us-west","cc":"us","latitude":33.94279,"longitude":-118.41004,"reserved":0,"last_update":"0001-01-01T00:00:00Z","name_a2s":"Uncletopia | Los Angeles | 1 | All Maps","protocol":17,"map":"koth_cascade","folder":"tf","game":"Team Fortress","app_id":440,"player_count":1,"max_players":24,"Bots":0,"server_type":"Dedicated","server_os":"Linux","password":true,"vac":true,"version":"7961495","steam_id":85568392924469991,"keywords":["cp","nocrits","nodmgspread","uncletopia"],"game_id":440,"stv_port":27016,"stv_name":"Uncletopia | Los Angeles | 1 | All Maps | STV","players":[{"user_id":8,"name":"Monki","steam_id":76561198964210411,"connected_time":80000000000,"state":"active","ping":83}]},{"server_id":112,"name":"Uncletopia | Los Angeles | 2 | All Maps","name_short":"lax-2","host":"lax-1.us.uncletopia.com","port":27025,"enabled":true,"region":"us-west","cc":"us","latitude":33.94279,"longitude":-118.41004,"reserved":0,"last_update":"0001-01-01T00:00:00Z","name_a2s":"Uncletopia | Los Angeles | 2 | All Maps","protocol":17,"map":"koth_lakeside_final","folder":"tf","game":"Team Fortress","app_id":440,"player_count":0,"max_players":24,"Bots":0,"server_type":"Dedicated","server_os":"Linux","password":true,"vac":true,"version":"7961495","steam_id":85568392924469992,"keywords":["cp","nocrits","nodmgspread","uncletopia"],"game_id":440,"stv_port":27026,"stv_name":"Uncletopia | Los Angeles | 2 | All Maps | STV","players":null},{"server_id":324,"name":"Uncletopia | Los Angeles | 3 | All Maps","name_short":"lax-3","host":"lax-1.us.uncletopia.com","port":27035,"enabled":true,"region":"us-west","cc":"us","latitude":33.94279,"longitude":-118.41004,"reserved":0,"last_update":"0001-01-01T00:00:00Z","name_a2s":"Uncletopia | Los Angeles | 3 | All Maps","protocol":17,"map":"pl_barnblitz","folder":"tf","game":"Team Fortress","app_id":440,"player_count":0,"max_players":24,"Bots":0,"server_type":"Dedicated","server_os":"Linux","password":true,"vac":true,"version":"7961495","steam_id":85568392924510198,"keywords":["nocrits","nodmgspread","payload","uncletopia"],"game_id":440,"stv_port":27036,"stv_name":"Uncletopia | Los Angeles | 3 | All Maps | STV","players":null},{"server_id":25,"name":"Uncletopia | Los Angeles | 4 | Stopwatch","name_short":"lax-4","host":"lax-1.us.uncletopia.com","port":27045,"enabled":true,"region":"us-west","cc":"us","latitude":33.94279,"longitude":-118.41004,"reserved":0,"last_update":"0001-01-01T00:00:00Z","name_a2s":"Uncletopia | Los Angeles | 4 | Stopwatch","protocol":17,"map":"pl_barnblitz","folder":"tf","game":"Team Fortress","app_id":440,"player_count":0,"max_players":24,"Bots":0,"server_type":"Dedicated","server_os":"Linux","password":true,"vac":true,"version":"7961495","steam_id":85568392924510199,"keywords":["nocrits","nodmgspread","payload","uncletopia"],"game_id":440,"stv_port":27046,"stv_name":"Uncletopia | Los Angeles | 4 | Stopwatch | STV","players":null},{"server_id":11,"name":"Uncletopia | London | 1 | All Maps","name_short":"lon-1","host":"lon-1.uk.uncletopia.com","port":27015,"enabled":true,"region":"eu","cc":"gb","latitude":51.509865,"longitude":-0.118092,"reserved":0,"last_update":"0001-01-01T00:00:00Z","name_a2s":"Uncletopia | London | 1 | All Maps","protocol":17,"map":"pl_upward","folder":"tf","game":"Team Fortress","app_id":440,"player_count":24,"max_players":24,"Bots":0,"server_type":"Dedicated","server_os":"Linux","password":true,"vac":true,"version":"7961495","steam_id":85568392924367362,"keywords":["nocrits","nodmgspread","payload","uncletopia"],"game_id":440,"stv_port":27016,"stv_name":"Uncletopia | London | 1 | All Maps | STV","players":[{"user_id":441,"name":"hito","steam_id":76561199077022985,"connected_time":3670000000000,"state":"active","ping":48},{"user_id":432,"name":"GamerPanda","steam_id":76561198061454277,"connected_time":3821000000000,"state":"active","ping":72},{"user_id":485,"name":"Blar","steam_id":76561198042438229,"connected_time":458000000000,"state":"active","ping":51},{"user_id":463,"name":"--\u003eZaruwaa\u003c--","steam_id":76561198336924132,"connected_time":2047000000000,"state":"active","ping":84},{"user_id":482,"name":"Lurid","steam_id":76561198313976365,"connected_time":557000000000,"state":"active","ping":49},{"user_id":469,"name":"Janneke Maan","steam_id":76561198069290924,"connected_time":1529000000000,"state":"active","ping":64},{"user_id":367,"name":"I jazzed myself","steam_id":76561198203016603,"connected_time":8307000000000,"state":"active","ping":61},{"user_id":449,"name":"RIBS GROW BACK","steam_id":76561198123659806,"connected_time":3108000000000,"state":"active","ping":97},{"user_id":451,"name":"Marley","steam_id":76561198067663021,"connected_time":3083000000000,"state":"active","ping":44},{"user_id":474,"name":"jermany","steam_id":76561198126599355,"connected_time":982000000000,"state":"active","ping":53},{"user_id":459,"name":"shooer!","steam_id":76561198110531281,"connected_time":2533000000000,"state":"active","ping":73},{"user_id":476,"name":"Tri-","steam_id":76561198133524794,"connected_time":968000000000,"state":"active","ping":44},{"user_id":464,"name":"nappo","steam_id":76561198060105180,"connected_time":2041000000000,"state":"active","ping":75},{"user_id":447,"name":"The Storm That Is Approaching","steam_id":76561198982155864,"connected_time":3274000000000,"state":"active","ping":84},{"user_id":478,"name":"bean","steam_id":76561198161013815,"connected_time":945000000000,"state":"active","ping":54},{"user_id":487,"name":"Annie Wilkes","steam_id":76561198071210041,"connected_time":39000000000,"state":"active","ping":47},{"user_id":481,"name":"Ullr","steam_id":76561198140547483,"connected_time":772000000000,"state":"active","ping":42},{"user_id":465,"name":"jimmy bob","steam_id":76561198319583692,"connected_time":2028000000000,"state":"active","ping":60},{"user_id":458,"name":"Fran","steam_id":76561199070516960,"connected_time":2619000000000,"state":"active","ping":76},{"user_id":466,"name":"JustACoomer","steam_id":76561198151433181,"connected_time":1792000000000,"state":"active","ping":63},{"user_id":480,"name":"dopey","steam_id":76561198054224363,"connected_time":818000000000,"state":"active","ping":67},{"user_id":475,"name":"Nonok","steam_id":76561199480685498,"connected_time":980000000000,"state":"active","ping":62},{"user_id":439,"name":"UltimateSlayer","steam_id":76561198384109309,"connected_time":3777000000000,"state":"active","ping":56},{"user_id":484,"name":"most sane mentalist","steam_id":76561198310095220,"connected_time":508000000000,"state":"active","ping":44}]},{"server_id":114,"name":"Uncletopia | London | 2 | All Maps","name_short":"lon-2","host":"lon-1.uk.uncletopia.com","port":27025,"enabled":true,"region":"eu","cc":"gb","latitude":51.509865,"longitude":-0.118092,"reserved":0,"last_update":"0001-01-01T00:00:00Z","name_a2s":"Uncletopia | London | 2 | All Maps","protocol":17,"map":"pl_badwater","folder":"tf","game":"Team Fortress","app_id":440,"player_count":24,"max_players":24,"Bots":0,"server_type":"Dedicated","server_os":"Linux","password":true,"vac":true,"version":"7961495","steam_id":85568392924470941,"keywords":["nocrits","nodmgspread","payload","uncletopia"],"game_id":440,"stv_port":27026,"stv_name":"Uncletopia | London | 2 | All Maps | STV","players":[{"user_id":370,"name":"dongujs","steam_id":76561198042774930,"connected_time":2810000000000,"state":"active","ping":70},{"user_id":377,"name":"saywoo","steam_id":76561198904469197,"connected_time":1838000000000,"state":"active","ping":62},{"user_id":373,"name":"hauf_n_hauf","steam_id":76561199228966061,"connected_time":2689000000000,"state":"active","ping":57},{"user_id":331,"name":"confusion","steam_id":76561199199499453,"connected_time":4955000000000,"state":"active","ping":79},{"user_id":366,"name":"Deformed Gollum","steam_id":76561198155563589,"connected_time":3492000000000,"state":"active","ping":47},{"user_id":362,"name":"minecraft","steam_id":76561199218227502,"connected_time":3613000000000,"state":"active","ping":127},{"user_id":323,"name":"Birdseye","steam_id":76561198025852216,"connected_time":5054000000000,"state":"active","ping":45},{"user_id":317,"name":"bart simpson weed","steam_id":76561198014858762,"connected_time":5323000000000,"state":"active","ping":58},{"user_id":385,"name":"Ablativus","steam_id":76561198025698470,"connected_time":378000000000,"state":"active","ping":67},{"user_id":383,"name":"fiddlesticks","steam_id":76561198155229347,"connected_time":785000000000,"state":"active","ping":44},{"user_id":365,"name":"Atomix","steam_id":76561198127352880,"connected_time":3532000000000,"state":"active","ping":55},{"user_id":379,"name":"Seail_M","steam_id":76561198002405605,"connected_time":960000000000,"state":"active","ping":67},{"user_id":387,"name":"Milk","steam_id":76561198125876588,"connected_time":227000000000,"state":"active","ping":38},{"user_id":382,"name":"Gimli","steam_id":76561198004149706,"connected_time":801000000000,"state":"active","ping":62},{"user_id":327,"name":"Kibby","steam_id":76561197990056450,"connected_time":5004000000000,"state":"active","ping":51},{"user_id":283,"name":"David","steam_id":76561198017852330,"connected_time":7870000000000,"state":"active","ping":77},{"user_id":381,"name":"Vloeibaarzeep","steam_id":76561198018361028,"connected_time":802000000000,"state":"active","ping":45},{"user_id":330,"name":"🦐 Tust 🦐","steam_id":76561198045694677,"connected_time":4973000000000,"state":"active","ping":46},{"user_id":364,"name":"hey STUPID! I'm over here...","steam_id":76561198056388702,"connected_time":3598000000000,"state":"active","ping":94},{"user_id":374,"name":"ProperCroc","steam_id":76561198071187828,"connected_time":2616000000000,"state":"active","ping":45},{"user_id":369,"name":"oslninja8","steam_id":76561199407528463,"connected_time":2885000000000,"state":"active","ping":41},{"user_id":368,"name":"Curlew","steam_id":76561198075884540,"connected_time":2920000000000,"state":"active","ping":69},{"user_id":367,"name":"Level 1 Noob","steam_id":76561198088586340,"connected_time":3030000000000,"state":"active","ping":60},{"user_id":384,"name":"emily nymph","steam_id":76561199249569889,"connected_time":785000000000,"state":"active","ping":60}]},{"server_id":320,"name":"Uncletopia | London | 3 | All Maps","name_short":"lon-3","host":"lon-1.uk.uncletopia.com","port":27035,"enabled":true,"region":"eu","cc":"gb","latitude":51.509865,"longitude":-0.118092,"reserved":0,"last_update":"0001-01-01T00:00:00Z","name_a2s":"Uncletopia | London | 3 | All Maps","protocol":17,"map":"cp_dustbowl","folder":"tf","game":"Team Fortress","app_id":440,"player_count":24,"max_players":24,"Bots":0,"server_type":"Dedicated","server_os":"Linux","password":true,"vac":true,"version":"7961495","steam_id":85568392924510192,"keywords":["cp","nocrits","nodmgspread","uncletopia"],"game_id":440,"stv_port":27036,"stv_name":"Uncletopia | London | 3 | All Maps | STV","players":[{"user_id":278,"name":"cold#panda","steam_id":76561199220136710,"connected_time":333000000000,"state":"active","ping":128},{"user_id":282,"name":"mellxp","steam_id":76561198208093880,"connected_time":241000000000,"state":"active","ping":52},{"user_id":279,"name":"policepigeon01","steam_id":76561199096585900,"connected_time":316000000000,"state":"active","ping":42},{"user_id":284,"name":"TheEmeraldStar","steam_id":76561198072942529,"connected_time":179000000000,"state":"active","ping":75},{"user_id":248,"name":"Red Dynamite","steam_id":76561199073167935,"connected_time":1956000000000,"state":"active","ping":145},{"user_id":263,"name":"crazycalumrock","steam_id":76561198049890080,"connected_time":755000000000,"state":"active","ping":46},{"user_id":271,"name":"Cöffee","steam_id":76561198115131952,"connected_time":661000000000,"state":"active","ping":99},{"user_id":283,"name":"SCooler27","steam_id":76561199200454579,"connected_time":194000000000,"state":"active","ping":83},{"user_id":264,"name":"CODSWOLOP","steam_id":76561199114598660,"connected_time":754000000000,"state":"active","ping":142},{"user_id":285,"name":"society","steam_id":76561198019065232,"connected_time":173000000000,"state":"active","ping":31},{"user_id":181,"name":"SMOKIN HOT BABE POV","steam_id":76561198104896547,"connected_time":5762000000000,"state":"active","ping":75},{"user_id":260,"name":"Lola bunny","steam_id":76561198214149431,"connected_time":845000000000,"state":"active","ping":45},{"user_id":258,"name":"Zu","steam_id":76561198054192354,"connected_time":1341000000000,"state":"active","ping":48},{"user_id":265,"name":"Alexair","steam_id":76561199022206498,"connected_time":751000000000,"state":"active","ping":83},{"user_id":275,"name":"Dwayne 'The Rock' Johnson","steam_id":76561198080072997,"connected_time":456000000000,"state":"active","ping":51},{"user_id":276,"name":"RQsC FeQuR","steam_id":76561198090884017,"connected_time":448000000000,"state":"active","ping":48},{"user_id":270,"name":"LainBizkit","steam_id":76561199200708626,"connected_time":665000000000,"state":"active","ping":98},{"user_id":197,"name":"hubert","steam_id":76561198057722639,"connected_time":4714000000000,"state":"active","ping":75},{"user_id":287,"name":"Uibnui","steam_id":76561197995768571,"connected_time":154000000000,"state":"active","ping":104},{"user_id":244,"name":"FlameTheGame","steam_id":76561198841108519,"connected_time":2108000000000,"state":"active","ping":98},{"user_id":286,"name":"jill sandwich","steam_id":76561198075068529,"connected_time":169000000000,"state":"active","ping":70},{"user_id":227,"name":"Breddie Mercury","steam_id":76561198804590384,"connected_time":2749000000000,"state":"active","ping":74},{"user_id":184,"name":"Doughy","steam_id":76561198044084210,"connected_time":5595000000000,"state":"active","ping":73},{"user_id":269,"name":"Marcus","steam_id":76561198205027963,"connected_time":696000000000,"state":"active","ping":62}]},{"server_id":321,"name":"Uncletopia | London | 4 | All Maps","name_short":"lon-4","host":"lon-1.uk.uncletopia.com","port":27045,"enabled":true,"region":"eu","cc":"gb","latitude":51.509865,"longitude":-0.118092,"reserved":0,"last_update":"0001-01-01T00:00:00Z","name_a2s":"Uncletopia | London | 4 | All Maps","protocol":17,"map":"pl_frontier_final","folder":"tf","game":"Team Fortress","app_id":440,"player_count":24,"max_players":24,"Bots":0,"server_type":"Dedicated","server_os":"Linux","password":true,"vac":true,"version":"7961495","steam_id":85568392924510193,"keywords":["nocrits","nodmgspread","payload","uncletopia"],"game_id":440,"stv_port":27046,"stv_name":"Uncletopia | London | 4 | All Maps | STV","players":[{"user_id":65,"name":"taste Fanta through your balls","steam_id":76561198823497252,"connected_time":1135000000000,"state":"active","ping":62},{"user_id":53,"name":"Ricey","steam_id":76561198832961307,"connected_time":1643000000000,"state":"active","ping":47},{"user_id":47,"name":"MTGbigdog","steam_id":76561198838760637,"connected_time":2207000000000,"state":"active","ping":134},{"user_id":23,"name":"Caruzon - Obismal","steam_id":76561198036211170,"connected_time":2716000000000,"state":"active","ping":89},{"user_id":24,"name":"Macci - Obismal","steam_id":76561198050485404,"connected_time":2711000000000,"state":"active","ping":84},{"user_id":25,"name":"P̶l̸a̴y̶t̷h̷i̶n̸g̴","steam_id":76561198994236187,"connected_time":2693000000000,"state":"active","ping":102},{"user_id":26,"name":"yer_nerd","steam_id":76561199435454093,"connected_time":2630000000000,"state":"active","ping":130},{"user_id":66,"name":"R8N - Obismal","steam_id":76561198007482714,"connected_time":652000000000,"state":"active","ping":78},{"user_id":54,"name":"BigDikNRJ - Obismal","steam_id":76561198055309521,"connected_time":1615000000000,"state":"active","ping":67},{"user_id":55,"name":"Mr. Mundy","steam_id":76561198132008918,"connected_time":1552000000000,"state":"active","ping":86},{"user_id":30,"name":"Cock Man","steam_id":76561198283638723,"connected_time":2580000000000,"state":"active","ping":56},{"user_id":61,"name":"Joe12000","steam_id":76561198160817969,"connected_time":1313000000000,"state":"active","ping":75},{"user_id":49,"name":"Bird On Your Window","steam_id":76561198081933130,"connected_time":1927000000000,"state":"active","ping":65},{"user_id":64,"name":"frenchie","steam_id":76561198178298931,"connected_time":1206000000000,"state":"active","ping":40},{"user_id":70,"name":"RLCrazyCat3","steam_id":76561197983757878,"connected_time":240000000000,"state":"active","ping":68},{"user_id":37,"name":"smörgåstårta","steam_id":76561198119449463,"connected_time":2392000000000,"state":"active","ping":60},{"user_id":45,"name":"jjkun786","steam_id":76561199438517484,"connected_time":2339000000000,"state":"active","ping":38},{"user_id":39,"name":"katten","steam_id":76561198163615254,"connected_time":2384000000000,"state":"active","ping":60},{"user_id":72,"name":"outlaw","steam_id":76561198323805289,"connected_time":33000000000,"state":"active","ping":31},{"user_id":41,"name":"spinach","steam_id":76561198280507478,"connected_time":2361000000000,"state":"active","ping":63},{"user_id":42,"name":"blåhaj","steam_id":76561198094268619,"connected_time":2352000000000,"state":"active","ping":74},{"user_id":60,"name":"↯","steam_id":76561198055389492,"connected_time":1351000000000,"state":"active","ping":44},{"user_id":71,"name":"bikerkid207","steam_id":76561198390782783,"connected_time":131000000000,"state":"active","ping":116},{"user_id":69,"name":"SpinnyVinny","steam_id":76561198356116829,"connected_time":298000000000,"state":"active","ping":65}]},{"server_id":21,"name":"Uncletopia | London | 5 | All Maps","name_short":"lon-5","host":"lon-1.uk.uncletopia.com","port":27055,"enabled":true,"region":"eu","cc":"gb","latitude":51.509865,"longitude":-0.118092,"reserved":0,"last_update":"0001-01-01T00:00:00Z","name_a2s":"Uncletopia | London | 5 | All Maps","protocol":17,"map":"koth_lakeside_final","folder":"tf","game":"Team Fortress","app_id":440,"player_count":0,"max_players":24,"Bots":0,"server_type":"Dedicated","server_os":"Linux","password":true,"vac":true,"version":"7961495","steam_id":85568392924742829,"keywords":["cp","nocrits","nodmgspread","uncletopia"],"game_id":440,"stv_port":27056,"stv_name":"Uncletopia | London | 5 | All Maps | STV","players":null},{"server_id":22,"name":"Uncletopia | London | 6 | All Maps","name_short":"lon-6","host":"lon-1.uk.uncletopia.com","port":27065,"enabled":true,"region":"eu","cc":"gb","latitude":51.509865,"longitude":-0.118092,"reserved":0,"last_update":"0001-01-01T00:00:00Z","name_a2s":"Uncletopia | London | 6 | All Maps","protocol":17,"map":"pl_upward","folder":"tf","game":"Team Fortress","app_id":440,"player_count":24,"max_players":24,"Bots":0,"server_type":"Dedicated","server_os":"Linux","password":true,"vac":true,"version":"7961495","steam_id":85568392924742830,"keywords":["nocrits","nodmgspread","payload","uncletopia"],"game_id":440,"stv_port":27066,"stv_name":"Uncletopia | London | 6 | All Maps | STV","players":[{"user_id":274,"name":"generic alias","steam_id":76561198271607226,"connected_time":1092000000000,"state":"active","ping":86},{"user_id":265,"name":"Dan Dan the Furious","steam_id":76561198091032527,"connected_time":2184000000000,"state":"active","ping":53},{"user_id":262,"name":"Unreliable, funny and dangerous","steam_id":76561198050709790,"connected_time":2266000000000,"state":"active","ping":100},{"user_id":281,"name":"_DEI_","steam_id":76561199140785144,"connected_time":338000000000,"state":"active","ping":89},{"user_id":266,"name":"fénix","steam_id":76561198083199151,"connected_time":2182000000000,"state":"active","ping":55},{"user_id":239,"name":"oskaroku00","steam_id":76561199025360128,"connected_time":4059000000000,"state":"active","ping":75},{"user_id":210,"name":"bitkomet","steam_id":76561198058232147,"connected_time":6434000000000,"state":"active","ping":75},{"user_id":278,"name":"alpha","steam_id":76561198250491640,"connected_time":608000000000,"state":"active","ping":43},{"user_id":252,"name":"geo_eo112","steam_id":76561198157082747,"connected_time":3339000000000,"state":"active","ping":69},{"user_id":270,"name":"Lammet","steam_id":76561198149409729,"connected_time":1732000000000,"state":"active","ping":65},{"user_id":246,"name":"oRang3_","steam_id":76561198841009476,"connected_time":3970000000000,"state":"active","ping":70},{"user_id":268,"name":"Kali","steam_id":76561198796327257,"connected_time":1879000000000,"state":"active","ping":62},{"user_id":275,"name":"Abska","steam_id":76561198118323803,"connected_time":1038000000000,"state":"active","ping":131},{"user_id":231,"name":"Griffin","steam_id":76561198118247689,"connected_time":4662000000000,"state":"active","ping":59},{"user_id":256,"name":"JUST","steam_id":76561198069064885,"connected_time":3073000000000,"state":"active","ping":61},{"user_id":280,"name":"Estamie","steam_id":76561198058527691,"connected_time":550000000000,"state":"active","ping":74},{"user_id":222,"name":"SparteonRage","steam_id":76561197963401834,"connected_time":5303000000000,"state":"active","ping":59},{"user_id":248,"name":"Washburne","steam_id":76561198032810579,"connected_time":3954000000000,"state":"active","ping":53},{"user_id":260,"name":"Pyrolander","steam_id":76561198050785450,"connected_time":2708000000000,"state":"active","ping":46},{"user_id":279,"name":"balanced diet","steam_id":76561198240320806,"connected_time":600000000000,"state":"active","ping":72},{"user_id":261,"name":"yush","steam_id":76561198121688934,"connected_time":2389000000000,"state":"active","ping":66},{"user_id":272,"name":"Oak","steam_id":76561198067315672,"connected_time":1429000000000,"state":"active","ping":47},{"user_id":282,"name":"hasky","steam_id":76561197986052798,"connected_time":84000000000,"state":"active","ping":72},{"user_id":273,"name":"FPFP","steam_id":76561198026073059,"connected_time":1283000000000,"state":"active","ping":89}]},{"server_id":40,"name":"Uncletopia | London | 7 | Stopwatch","name_short":"lon-7","host":"lon-1.uk.uncletopia.com","port":27075,"enabled":true,"region":"eu","cc":"gb","latitude":51.509865,"longitude":-0.118092,"reserved":0,"last_update":"0001-01-01T00:00:00Z","name_a2s":"Uncletopia | London | 7 | Stopwatch","protocol":17,"map":"workshop/koth_ashville_final.ugc2130459942","folder":"tf","game":"Team Fortress","app_id":440,"player_count":0,"max_players":24,"Bots":0,"server_type":"Dedicated","server_os":"Linux","password":true,"vac":true,"version":"7961495","steam_id":85568392924964314,"keywords":["cp","nocrits","nodmgspread","uncletopia"],"game_id":440,"stv_port":27076,"stv_name":"Uncletopia | London | 7 | Stopwatch | STV","players":null},{"server_id":41,"name":"Uncletopia | London | 8 | Community","name_short":"lon-8","host":"lon-1.uk.uncletopia.com","port":27085,"enabled":true,"region":"eu","cc":"gb","latitude":51.509865,"longitude":-0.118092,"reserved":0,"last_update":"0001-01-01T00:00:00Z","name_a2s":"Uncletopia | London | 8 | Community","protocol":17,"map":"workshop/pl_cactuscanyon_redux_final2.ugc2579644293","folder":"tf","game":"Team Fortress","app_id":440,"player_count":3,"max_players":24,"Bots":0,"server_type":"Dedicated","server_os":"Linux","password":true,"vac":true,"version":"7961495","steam_id":85568392924964315,"keywords":["nocrits","nodmgspread","payload","uncletopia"],"game_id":440,"stv_port":27086,"stv_name":"Uncletopia | London | 8 | Community | STV","players":[{"user_id":10,"name":"The Butler","steam_id":76561198140130858,"connected_time":609000000000,"state":"active","ping":87},{"user_id":11,"name":"YourNansFlipFlops","steam_id":76561199363301288,"connected_time":477000000000,"state":"active","ping":105},{"user_id":12,"name":"2fort's silliest soldier","steam_id":76561198128613675,"connected_time":19000000000,"state":"spawning","ping":176}]},{"server_id":300,"name":"Uncletopia | Montréal | 1 | One Thousand Uncles","name_short":"mtl-1","host":"mtl-1.ca.uncletopia.com","port":27015,"enabled":true,"region":"us-east","cc":"ca","latitude":45.50889,"longitude":-73.56167,"reserved":0,"last_update":"0001-01-01T00:00:00Z","name_a2s":"","protocol":0,"map":"","folder":"","game":"","app_id":0,"player_count":0,"max_players":0,"Bots":0,"server_type":"","server_os":"","password":false,"vac":false,"version":"","steam_id":0,"keywords":null,"game_id":0,"stv_port":0,"stv_name":"","players":null},{"server_id":301,"name":"Uncletopia | Montréal | 2 | One Thousand Uncles","name_short":"mtl-2","host":"mtl-1.ca.uncletopia.com","port":27025,"enabled":true,"region":"us-east","cc":"ca","latitude":45.50889,"longitude":-73.56167,"reserved":0,"last_update":"0001-01-01T00:00:00Z","name_a2s":"","protocol":0,"map":"","folder":"","game":"","app_id":0,"player_count":0,"max_players":0,"Bots":0,"server_type":"","server_os":"","password":false,"vac":false,"version":"","steam_id":0,"keywords":null,"game_id":0,"stv_port":0,"stv_name":"","players":null},{"server_id":302,"name":"Uncletopia | Montréal | 3 | One Thousand Uncles","name_short":"mtl-3","host":"mtl-1.ca.uncletopia.com","port":27035,"enabled":true,"region":"us-east","cc":"ca","latitude":45.50889,"longitude":-73.56167,"reserved":0,"last_update":"0001-01-01T00:00:00Z","name_a2s":"","protocol":0,"map":"","folder":"","game":"","app_id":0,"player_count":0,"max_players":0,"Bots":0,"server_type":"","server_os":"","password":false,"vac":false,"version":"","steam_id":0,"keywords":null,"game_id":0,"stv_port":0,"stv_name":"","players":null},{"server_id":13,"name":"Uncletopia | New York City | 1 | All Maps","name_short":"nyc-1","host":"nyc-1.us.uncletopia.com","port":27015,"enabled":true,"region":"us-east","cc":"us","latitude":40.73061,"longitude":-73.93524,"reserved":0,"last_update":"0001-01-01T00:00:00Z","name_a2s":"Uncletopia | New York City | 1 | All Maps","protocol":17,"map":"pl_badwater","folder":"tf","game":"Team Fortress","app_id":440,"player_count":24,"max_players":24,"Bots":0,"server_type":"Dedicated","server_os":"Linux","password":true,"vac":true,"version":"7961495","steam_id":85568392924469993,"keywords":["nocrits","nodmgspread","payload","uncletopia"],"game_id":440,"stv_port":27016,"stv_name":"Uncletopia | New York City | 1 | All Maps | STV","players":[{"user_id":86,"name":"Sayyed Sneed","steam_id":76561198025766161,"connected_time":17000000000,"state":"spawning","ping":73},{"user_id":11,"name":"GummybearKillr","steam_id":76561198031235750,"connected_time":7196000000000,"state":"active","ping":46},{"user_id":72,"name":"pea ttv/peabeanz","steam_id":76561198119551968,"connected_time":2023000000000,"state":"active","ping":56},{"user_id":74,"name":"Swedish Crowbar","steam_id":76561199105488936,"connected_time":1532000000000,"state":"active","ping":132},{"user_id":59,"name":"Brown_Dream","steam_id":76561198975766145,"connected_time":3416000000000,"state":"active","ping":70},{"user_id":32,"name":"VioletSpecs","steam_id":76561198089366466,"connected_time":4741000000000,"state":"active","ping":58},{"user_id":77,"name":"MitcheyHD","steam_id":76561198066489645,"connected_time":1282000000000,"state":"active","ping":67},{"user_id":25,"name":"Sodemo","steam_id":76561198074987146,"connected_time":5184000000000,"state":"active","ping":65},{"user_id":85,"name":"DerpyNate","steam_id":76561198100249037,"connected_time":54000000000,"state":"active","ping":62},{"user_id":70,"name":"6t26j","steam_id":76561198278282836,"connected_time":2509000000000,"state":"active","ping":46},{"user_id":75,"name":"Rigby","steam_id":76561198258121396,"connected_time":1384000000000,"state":"active","ping":75},{"user_id":78,"name":"soty","steam_id":76561198829285363,"connected_time":1141000000000,"state":"active","ping":119},{"user_id":81,"name":"Meeeeeddddddiiiiiiccccccc","steam_id":76561198092354979,"connected_time":952000000000,"state":"active","ping":42},{"user_id":73,"name":"The Big","steam_id":76561198078572184,"connected_time":1565000000000,"state":"active","ping":75},{"user_id":87,"name":"fLock","steam_id":76561198091578187,"connected_time":14000000000,"state":"active","ping":53},{"user_id":39,"name":"stroking long","steam_id":76561198402168146,"connected_time":4665000000000,"state":"active","ping":60},{"user_id":56,"name":"Jasper™","steam_id":76561198260018463,"connected_time":3816000000000,"state":"active","ping":77},{"user_id":54,"name":"Rornir","steam_id":76561198081829615,"connected_time":4121000000000,"state":"active","ping":50},{"user_id":66,"name":"Toxic Ron","steam_id":76561198089302972,"connected_time":3203000000000,"state":"active","ping":68},{"user_id":43,"name":"sunglasses","steam_id":76561198173747227,"connected_time":4611000000000,"state":"active","ping":66},{"user_id":45,"name":"MY PINKY HURTS","steam_id":76561198207895249,"connected_time":4597000000000,"state":"active","ping":53},{"user_id":84,"name":"rudy","steam_id":76561198088712799,"connected_time":807000000000,"state":"active","ping":85},{"user_id":69,"name":"Dan","steam_id":76561199236719411,"connected_time":2957000000000,"state":"active","ping":83},{"user_id":71,"name":"Friendlyfire2112","steam_id":76561198040020643,"connected_time":2509000000000,"state":"active","ping":50}]},{"server_id":14,"name":"Uncletopia | New York City | 2 | All Maps","name_short":"nyc-2","host":"nyc-1.us.uncletopia.com","port":27025,"enabled":true,"region":"us-east","cc":"us","latitude":40.73061,"longitude":-73.93524,"reserved":0,"last_update":"0001-01-01T00:00:00Z","name_a2s":"Uncletopia | New York City | 2 | All Maps","protocol":17,"map":"cp_sunshine","folder":"tf","game":"Team Fortress","app_id":440,"player_count":24,"max_players":24,"Bots":0,"server_type":"Dedicated","server_os":"Linux","password":true,"vac":true,"version":"7961495","steam_id":85568392924469994,"keywords":["cp","nocrits","nodmgspread","uncletopia"],"game_id":440,"stv_port":27026,"stv_name":"Uncletopia | New York City | 2 | All Maps | STV","players":[{"user_id":5,"name":"Fangirl","steam_id":76561198253710690,"connected_time":2381000000000,"state":"active","ping":93},{"user_id":6,"name":"Moron","steam_id":76561198290041736,"connected_time":2361000000000,"state":"active","ping":75},{"user_id":28,"name":"mountainkug","steam_id":76561199491802535,"connected_time":1260000000000,"state":"active","ping":60},{"user_id":32,"name":"GammaTheDynamo","steam_id":76561198855140905,"connected_time":1155000000000,"state":"active","ping":85},{"user_id":38,"name":"otto","steam_id":76561198888223024,"connected_time":921000000000,"state":"active","ping":66},{"user_id":33,"name":"KZ","steam_id":76561198306669868,"connected_time":1148000000000,"state":"active","ping":40},{"user_id":16,"name":"Dr. Anonymous","steam_id":76561198061654197,"connected_time":1852000000000,"state":"active","ping":134},{"user_id":44,"name":"Þú lýsir upp allan geiminn","steam_id":76561197999657118,"connected_time":251000000000,"state":"active","ping":66},{"user_id":41,"name":"rattlin' bog","steam_id":76561198224551028,"connected_time":705000000000,"state":"active","ping":55},{"user_id":15,"name":"Havok","steam_id":76561198063455003,"connected_time":1958000000000,"state":"active","ping":57},{"user_id":17,"name":"cass","steam_id":76561198074502046,"connected_time":1825000000000,"state":"active","ping":123},{"user_id":49,"name":"All Tomorrow's Parties","steam_id":76561197995936212,"connected_time":102000000000,"state":"active","ping":74},{"user_id":43,"name":"Pox4Dinner","steam_id":76561198036958101,"connected_time":269000000000,"state":"active","ping":58},{"user_id":21,"name":"guac","steam_id":76561198407685013,"connected_time":1682000000000,"state":"active","ping":62},{"user_id":37,"name":"b-dot","steam_id":76561198160786631,"connected_time":957000000000,"state":"active","ping":72},{"user_id":23,"name":"YourFriendJessie","steam_id":76561198176883097,"connected_time":1480000000000,"state":"active","ping":48},{"user_id":42,"name":"Primal","steam_id":76561197983118203,"connected_time":594000000000,"state":"active","ping":58},{"user_id":25,"name":"Spyincorporated","steam_id":76561198080956951,"connected_time":1402000000000,"state":"active","ping":73},{"user_id":45,"name":"Broadsword #LGM","steam_id":76561198011160411,"connected_time":224000000000,"state":"active","ping":82},{"user_id":27,"name":"Captain Underbelly","steam_id":76561198811270935,"connected_time":1339000000000,"state":"active","ping":112},{"user_id":48,"name":"Window Licker #pride","steam_id":76561198386717007,"connected_time":122000000000,"state":"active","ping":68},{"user_id":46,"name":"Flower Boy","steam_id":76561199128786637,"connected_time":215000000000,"state":"active","ping":118},{"user_id":50,"name":"Rylline","steam_id":76561198040374588,"connected_time":100000000000,"state":"active","ping":61},{"user_id":40,"name":"OPEN","steam_id":76561198067994868,"connected_time":860000000000,"state":"active","ping":74}]},{"server_id":15,"name":"Uncletopia | New York City | 3 | Stopwatch","name_short":"nyc-3","host":"nyc-1.us.uncletopia.com","port":27035,"enabled":true,"region":"us-east","cc":"us","latitude":40.73061,"longitude":-73.93524,"reserved":0,"last_update":"0001-01-01T00:00:00Z","name_a2s":"Uncletopia | New York City | 3 | Stopwatch","protocol":17,"map":"workshop/koth_ramjam_rc1.ugc459778887","folder":"tf","game":"Team Fortress","app_id":440,"player_count":0,"max_players":24,"Bots":0,"server_type":"Dedicated","server_os":"Linux","password":true,"vac":true,"version":"7961495","steam_id":85568392924742820,"keywords":["cp","nocrits","nodmgspread","uncletopia"],"game_id":440,"stv_port":27036,"stv_name":"Uncletopia | New York City | 3 | Stopwatch | STV","players":null},{"server_id":16,"name":"Uncletopia | New York City | 4 | Community","name_short":"nyc-4","host":"nyc-1.us.uncletopia.com","port":27045,"enabled":true,"region":"us-east","cc":"us","latitude":40.73061,"longitude":-73.93524,"reserved":0,"last_update":"0001-01-01T00:00:00Z","name_a2s":"Uncletopia | New York City | 4 | Community","protocol":17,"map":"cp_altitude","folder":"tf","game":"Team Fortress","app_id":440,"player_count":0,"max_players":24,"Bots":0,"server_type":"Dedicated","server_os":"Linux","password":true,"vac":true,"version":"7961495","steam_id":85568392924742821,"keywords":["cp","nocrits","nodmgspread","uncletopia"],"game_id":440,"stv_port":27046,"stv_name":"Uncletopia | New York City | 4 | Community | STV","players":null},{"server_id":142,"name":"Uncletopia | São Paulo | 1 | All Maps","name_short":"sao-1","host":"sao-1.br.uncletopia.com","port":27015,"enabled":true,"region":"sa","cc":"br","latitude":-23.533773,"longitude":-46.62529,"reserved":0,"last_update":"0001-01-01T00:00:00Z","name_a2s":"Uncletopia | São Paulo | 1 | All Maps","protocol":17,"map":"pl_swiftwater_final1","folder":"tf","game":"Team Fortress","app_id":440,"player_count":0,"max_players":24,"Bots":0,"server_type":"Dedicated","server_os":"Linux","password":true,"vac":true,"version":"7961495","steam_id":85568392924469996,"keywords":["nocrits","nodmgspread","payload","uncletopia"],"game_id":440,"stv_port":27016,"stv_name":"Uncletopia | São Paulo | 1 | All Maps | STV","players":null},{"server_id":143,"name":"Uncletopia | São Paulo | 2 | Community","name_short":"sao-2","host":"sao-2.br.uncletopia.com","port":27015,"enabled":true,"region":"sa","cc":"br","latitude":-23.533773,"longitude":-46.62529,"reserved":0,"last_update":"0001-01-01T00:00:00Z","name_a2s":"Uncletopia | São Paulo | 2 | Community","protocol":17,"map":"workshop/pl_badwater_pro_v12.ugc2142942074","folder":"tf","game":"Team Fortress","app_id":440,"player_count":0,"max_players":24,"Bots":0,"server_type":"Dedicated","server_os":"Linux","password":true,"vac":true,"version":"7961495","steam_id":85568392924485349,"keywords":["nocrits","nodmgspread","payload","uncletopia"],"game_id":440,"stv_port":27016,"stv_name":"Uncletopia | São Paulo | 2 | Community | STV","players":null},{"server_id":7,"name":"Uncletopia | Seattle | 1 | All Maps","name_short":"sea-1","host":"sea-1.us.uncletopia.com","port":27015,"enabled":true,"region":"us-west","cc":"us","latitude":47.608013,"longitude":-122.33517,"reserved":0,"last_update":"0001-01-01T00:00:00Z","name_a2s":"Uncletopia | Seattle | 1 | All Maps","protocol":17,"map":"pl_swiftwater_final1","folder":"tf","game":"Team Fortress","app_id":440,"player_count":24,"max_players":24,"Bots":0,"server_type":"Dedicated","server_os":"Linux","password":true,"vac":true,"version":"7961495","steam_id":85568392924469997,"keywords":["nocrits","nodmgspread","payload","uncletopia"],"game_id":440,"stv_port":27016,"stv_name":"Uncletopia | Seattle | 1 | All Maps | STV","players":[{"user_id":118,"name":"Lemonade Juice","steam_id":76561198402892608,"connected_time":1430000000000,"state":"active","ping":71},{"user_id":128,"name":"Pneumo.","steam_id":76561197987911883,"connected_time":72000000000,"state":"active","ping":58},{"user_id":82,"name":"Booba","steam_id":76561198150959184,"connected_time":4591000000000,"state":"active","ping":79},{"user_id":110,"name":"Cursed Frog","steam_id":76561198090419068,"connected_time":2276000000000,"state":"active","ping":68},{"user_id":121,"name":"Nightshade","steam_id":76561199011017814,"connected_time":1037000000000,"state":"active","ping":65},{"user_id":12,"name":"Fujisnarky","steam_id":76561198051883972,"connected_time":9643000000000,"state":"active","ping":92},{"user_id":113,"name":"TV","steam_id":76561198177326926,"connected_time":1828000000000,"state":"active","ping":143},{"user_id":16,"name":"Bcuz","steam_id":76561197981318027,"connected_time":8919000000000,"state":"active","ping":85},{"user_id":83,"name":"Sir Loincloth","steam_id":76561198033073991,"connected_time":4568000000000,"state":"active","ping":62},{"user_id":125,"name":"Tyth","steam_id":76561198062543298,"connected_time":477000000000,"state":"active","ping":45},{"user_id":101,"name":"dust | it/she","steam_id":76561198045218909,"connected_time":3640000000000,"state":"active","ping":32},{"user_id":109,"name":"rad killl raccoon","steam_id":76561198980975595,"connected_time":2480000000000,"state":"active","ping":59},{"user_id":126,"name":"alvöru","steam_id":76561198273488925,"connected_time":356000000000,"state":"active","ping":62},{"user_id":55,"name":"my monitor is off","steam_id":76561198074499537,"connected_time":6932000000000,"state":"active","ping":62},{"user_id":124,"name":"DubiousDodo","steam_id":76561198828172686,"connected_time":701000000000,"state":"active","ping":75},{"user_id":91,"name":"sonicboom14","steam_id":76561198866558393,"connected_time":4357000000000,"state":"active","ping":80},{"user_id":115,"name":"maidman","steam_id":76561199006187909,"connected_time":1715000000000,"state":"active","ping":100},{"user_id":107,"name":"[I.R.I.S]","steam_id":76561199247095754,"connected_time":2564000000000,"state":"active","ping":88},{"user_id":120,"name":"Fluffy","steam_id":76561198115952540,"connected_time":1172000000000,"state":"active","ping":44},{"user_id":116,"name":"lavender","steam_id":76561199069518286,"connected_time":1652000000000,"state":"active","ping":76},{"user_id":94,"name":"rice white","steam_id":76561198320732910,"connected_time":4251000000000,"state":"active","ping":122},{"user_id":108,"name":"monkey squirts","steam_id":76561197983101644,"connected_time":2522000000000,"state":"active","ping":75},{"user_id":123,"name":"grape","steam_id":76561199071151136,"connected_time":953000000000,"state":"active","ping":72},{"user_id":75,"name":"Archimedes!","steam_id":76561199446023933,"connected_time":5116000000000,"state":"active","ping":74}]},{"server_id":119,"name":"Uncletopia | Seattle | 2 | All Maps","name_short":"sea-2","host":"sea-1.us.uncletopia.com","port":27025,"enabled":true,"region":"us-west","cc":"us","latitude":47.608013,"longitude":-122.33517,"reserved":0,"last_update":"0001-01-01T00:00:00Z","name_a2s":"Uncletopia | Seattle | 2 | All Maps","protocol":17,"map":"pl_pier","folder":"tf","game":"Team Fortress","app_id":440,"player_count":19,"max_players":24,"Bots":0,"server_type":"Dedicated","server_os":"Linux","password":true,"vac":true,"version":"7961495","steam_id":85568392924469998,"keywords":["nocrits","nodmgspread","payload","uncletopia"],"game_id":440,"stv_port":27026,"stv_name":"Uncletopia | Seattle | 2 | All Maps | STV","players":[{"user_id":13,"name":"Ass Blaster, Disaster Master","steam_id":76561197997774469,"connected_time":5804000000000,"state":"active","ping":67},{"user_id":75,"name":"SlpyDrgn","steam_id":76561198000079765,"connected_time":448000000000,"state":"active","ping":31},{"user_id":49,"name":"CPUnit","steam_id":76561198162881878,"connected_time":2294000000000,"state":"active","ping":88},{"user_id":74,"name":"Cleverless Biped","steam_id":76561198045984856,"connected_time":567000000000,"state":"active","ping":123},{"user_id":9,"name":"SeeNik","steam_id":76561198149499817,"connected_time":7450000000000,"state":"active","ping":82},{"user_id":80,"name":"Guwop","steam_id":76561197970425737,"connected_time":32000000000,"state":"active","ping":89},{"user_id":51,"name":"Cum King","steam_id":76561199366744222,"connected_time":2117000000000,"state":"active","ping":129},{"user_id":76,"name":"Vaccine Eater","steam_id":76561198026301425,"connected_time":428000000000,"state":"active","ping":75},{"user_id":54,"name":"Jimjonjoe","steam_id":76561199195695913,"connected_time":2007000000000,"state":"active","ping":87},{"user_id":70,"name":"ShiningForce","steam_id":76561198026039048,"connected_time":981000000000,"state":"active","ping":73},{"user_id":68,"name":"Ranch","steam_id":76561198035557013,"connected_time":1181000000000,"state":"active","ping":102},{"user_id":78,"name":"pizza","steam_id":76561198019959482,"connected_time":194000000000,"state":"active","ping":74},{"user_id":39,"name":"Season Leaf","steam_id":76561198133121805,"connected_time":2736000000000,"state":"active","ping":113},{"user_id":77,"name":"ＲＥＤ","steam_id":76561198030282308,"connected_time":347000000000,"state":"active","ping":67},{"user_id":47,"name":"Buswolley","steam_id":76561197995205571,"connected_time":2429000000000,"state":"active","ping":47},{"user_id":63,"name":"kirby7","steam_id":76561199167006749,"connected_time":1701000000000,"state":"active","ping":114},{"user_id":48,"name":"Lazy_Vex","steam_id":76561198287661985,"connected_time":2391000000000,"state":"active","ping":113},{"user_id":62,"name":"Ashes!","steam_id":76561197998475441,"connected_time":1801000000000,"state":"active","ping":113},{"user_id":64,"name":"soltuno","steam_id":76561198074430565,"connected_time":1690000000000,"state":"active","ping":81}]},{"server_id":406,"name":"Uncletopia | Seattle | 3 | Stopwatch","name_short":"sea-3","host":"sea-1.us.uncletopia.com","port":27035,"enabled":true,"region":"us-west","cc":"us","latitude":47.608013,"longitude":-122.33517,"reserved":0,"last_update":"0001-01-01T00:00:00Z","name_a2s":"Uncletopia | Seattle | 3 | Stopwatch","protocol":17,"map":"cp_granary","folder":"tf","game":"Team Fortress","app_id":440,"player_count":0,"max_players":24,"Bots":0,"server_type":"Dedicated","server_os":"Linux","password":true,"vac":true,"version":"7961495","steam_id":85568392924515217,"keywords":["cp","nocrits","nodmgspread","uncletopia"],"game_id":440,"stv_port":27036,"stv_name":"Uncletopia | Seattle | 3 | Stopwatch | STV","players":null},{"server_id":17,"name":"Uncletopia | San Francisco | 1 | All Maps","name_short":"sfo-1","host":"sfo-1.us.uncletopia.com","port":27015,"enabled":true,"region":"us-west","cc":"us","latitude":37.77397,"longitude":-122.4313,"reserved":0,"last_update":"0001-01-01T00:00:00Z","name_a2s":"Uncletopia | San Francisco | 1 | All Maps","protocol":17,"map":"koth_cascade","folder":"tf","game":"Team Fortress","app_id":440,"player_count":0,"max_players":24,"Bots":0,"server_type":"Dedicated","server_os":"Linux","password":true,"vac":true,"version":"7961495","steam_id":85568392924469999,"keywords":["cp","nocrits","nodmgspread","uncletopia"],"game_id":440,"stv_port":27016,"stv_name":"Uncletopia | San Francisco | 1 | All Maps | STV","players":null},{"server_id":18,"name":"Uncletopia | San Francisco | 2 | All Maps","name_short":"sfo-2","host":"sfo-1.us.uncletopia.com","port":27025,"enabled":true,"region":"us-west","cc":"us","latitude":37.77397,"longitude":-122.4313,"reserved":0,"last_update":"0001-01-01T00:00:00Z","name_a2s":"Uncletopia | San Francisco | 2 | All Maps","protocol":17,"map":"pl_frontier_final","folder":"tf","game":"Team Fortress","app_id":440,"player_count":0,"max_players":24,"Bots":0,"server_type":"Dedicated","server_os":"Linux","password":true,"vac":true,"version":"7961495","steam_id":85568392924470000,"keywords":["nocrits","nodmgspread","payload","uncletopia"],"game_id":440,"stv_port":27026,"stv_name":"Uncletopia | San Francisco | 2 | All Maps | STV","players":null},{"server_id":19,"name":"Uncletopia | San Francisco | 3 | Stopwatch","name_short":"sfo-3","host":"sfo-1.us.uncletopia.com","port":27035,"enabled":true,"region":"us-west","cc":"us","latitude":37.77397,"longitude":-122.4313,"reserved":0,"last_update":"0001-01-01T00:00:00Z","name_a2s":"Uncletopia | San Francisco | 3 | Stopwatch","protocol":17,"map":"pl_pier","folder":"tf","game":"Team Fortress","app_id":440,"player_count":0,"max_players":24,"Bots":0,"server_type":"Dedicated","server_os":"Linux","password":true,"vac":true,"version":"7961495","steam_id":85568392924742824,"keywords":["nocrits","nodmgspread","payload","uncletopia"],"game_id":440,"stv_port":27036,"stv_name":"Uncletopia | San Francisco | 3 | Stopwatch | STV","players":null},{"server_id":20,"name":"Uncletopia | San Francisco | 4 | Community","name_short":"sfo-4","host":"sfo-1.us.uncletopia.com","port":27045,"enabled":true,"region":"us-west","cc":"us","latitude":37.77397,"longitude":-122.4313,"reserved":0,"last_update":"0001-01-01T00:00:00Z","name_a2s":"Uncletopia | San Francisco | 4 | Community","protocol":17,"map":"pl_pier","folder":"tf","game":"Team Fortress","app_id":440,"player_count":0,"max_players":24,"Bots":0,"server_type":"Dedicated","server_os":"Linux","password":true,"vac":true,"version":"7961495","steam_id":85568392924742826,"keywords":["nocrits","nodmgspread","payload","uncletopia"],"game_id":440,"stv_port":27046,"stv_name":"Uncletopia | San Francisco | 4 | Community | STV","players":null},{"server_id":141,"name":"Uncletopia | Sydney | 1 | All Maps","name_short":"syd-1","host":"syd-1.au.uncletopia.com","port":27015,"enabled":true,"region":"au","cc":"au","latitude":-33.865143,"longitude":151.2099,"reserved":0,"last_update":"0001-01-01T00:00:00Z","name_a2s":"Uncletopia | Sydney | 1 | All Maps","protocol":17,"map":"pl_swiftwater_final1","folder":"tf","game":"Team Fortress","app_id":440,"player_count":0,"max_players":24,"Bots":0,"server_type":"Dedicated","server_os":"Linux","password":true,"vac":true,"version":"7961495","steam_id":85568392924470001,"keywords":["nocrits","nodmgspread","payload","uncletopia"],"game_id":440,"stv_port":27016,"stv_name":"Uncletopia | Sydney | 1 | All Maps | STV","players":null},{"server_id":123,"name":"Uncletopia | Sydney | 2 | All Maps","name_short":"syd-2","host":"syd-1.au.uncletopia.com","port":27025,"enabled":true,"region":"au","cc":"au","latitude":-33.865143,"longitude":151.2099,"reserved":0,"last_update":"0001-01-01T00:00:00Z","name_a2s":"Uncletopia | Sydney | 2 | All Maps","protocol":17,"map":"koth_viaduct","folder":"tf","game":"Team Fortress","app_id":440,"player_count":0,"max_players":24,"Bots":0,"server_type":"Dedicated","server_os":"Linux","password":true,"vac":true,"version":"7961495","steam_id":85568392924470002,"keywords":["cp","nocrits","nodmgspread","uncletopia"],"game_id":440,"stv_port":27026,"stv_name":"Uncletopia | Sydney | 2 | All Maps | STV","players":null},{"server_id":395,"name":"Uncletopia | Sydney | 3 | All Maps","name_short":"syd-3","host":"syd-1.au.uncletopia.com","port":27035,"enabled":true,"region":"au","cc":"au","latitude":-33.865143,"longitude":151.2099,"reserved":0,"last_update":"0001-01-01T00:00:00Z","name_a2s":"Uncletopia | Sydney | 3 | All Maps","protocol":17,"map":"pl_snowycoast","folder":"tf","game":"Team Fortress","app_id":440,"player_count":0,"max_players":24,"Bots":0,"server_type":"Dedicated","server_os":"Linux","password":true,"vac":true,"version":"7961495","steam_id":85568392925194467,"keywords":["nocrits","nodmgspread","payload","uncletopia"],"game_id":440,"stv_port":27036,"stv_name":"Uncletopia | Sydney | 3 | All Maps | STV","players":null},{"server_id":396,"name":"Uncletopia | Sydney | 4 | All Maps","name_short":"syd-4","host":"syd-1.au.uncletopia.com","port":27045,"enabled":true,"region":"au","cc":"au","latitude":-33.865143,"longitude":151.2099,"reserved":0,"last_update":"0001-01-01T00:00:00Z","name_a2s":"Uncletopia | Sydney | 4 | All Maps","protocol":17,"map":"koth_cascade","folder":"tf","game":"Team Fortress","app_id":440,"player_count":0,"max_players":24,"Bots":0,"server_type":"Dedicated","server_os":"Linux","password":true,"vac":true,"version":"7961495","steam_id":85568392925397958,"keywords":["cp","nocrits","nodmgspread","uncletopia"],"game_id":440,"stv_port":27046,"stv_name":"Uncletopia | Sydney | 4 | All Maps | STV","players":null},{"server_id":58,"name":"Uncletopia | Sydney | 5 | Stopwatch","name_short":"syd-5","host":"syd-1.au.uncletopia.com","port":27055,"enabled":true,"region":"au","cc":"au","latitude":-33.865143,"longitude":151.2099,"reserved":0,"last_update":"0001-01-01T00:00:00Z","name_a2s":"Uncletopia | Sydney | 5 | Stopwatch","protocol":17,"map":"workshop/pl_summercoast_rc8e.ugc1761528829","folder":"tf","game":"Team Fortress","app_id":440,"player_count":0,"max_players":24,"Bots":0,"server_type":"Dedicated","server_os":"Linux","password":true,"vac":true,"version":"7961495","steam_id":85568392925397959,"keywords":["nocrits","nodmgspread","payload","uncletopia"],"game_id":440,"stv_port":27056,"stv_name":"Uncletopia | Sydney | 5 | Stopwatch | STV","players":null},{"server_id":59,"name":"Uncletopia | Sydney | 6 | Community","name_short":"syd-6","host":"syd-1.au.uncletopia.com","port":27065,"enabled":true,"region":"au","cc":"au","latitude":-33.865143,"longitude":151.2099,"reserved":0,"last_update":"0001-01-01T00:00:00Z","name_a2s":"Uncletopia | Sydney | 6 | Community","protocol":17,"map":"workshop/koth_trenchfoot_b1a.ugc731436616","folder":"tf","game":"Team Fortress","app_id":440,"player_count":0,"max_players":24,"Bots":0,"server_type":"Dedicated","server_os":"Linux","password":true,"vac":true,"version":"7961495","steam_id":85568392925397960,"keywords":["cp","nocrits","nodmgspread","uncletopia"],"game_id":440,"stv_port":27066,"stv_name":"Uncletopia | Sydney | 6 | Community | STV","players":null},{"server_id":49,"name":"Uncletopia | Warsaw | 1 | One Thousand Uncles","name_short":"waw-1","host":"waw-1.pl.uncletopia.com","port":27015,"enabled":true,"region":"eu","cc":"pl","latitude":52.2297,"longitude":21.017532,"reserved":0,"last_update":"0001-01-01T00:00:00Z","name_a2s":"Uncletopia | Warsaw | 1 | One Thousand Uncles","protocol":17,"map":"pl_goldrush","folder":"tf","game":"Team Fortress","app_id":440,"player_count":31,"max_players":32,"Bots":16,"server_type":"Dedicated","server_os":"Linux","password":true,"vac":true,"version":"7961495","steam_id":85568392925397850,"keywords":["alltalk","bots","danepve","increased_maxplayers","nocrits","norespawntime","payload","uncletopia"],"game_id":440,"stv_port":0,"stv_name":"","players":[{"user_id":398,"name":"NeonNAX","steam_id":76561198294435500,"connected_time":85000000000,"state":"active","ping":60},{"user_id":343,"name":"TF2 Dev Commentary","steam_id":76561198414175953,"connected_time":2959000000000,"state":"active","ping":71},{"user_id":344,"name":"Armolitskiy","steam_id":76561198443646513,"connected_time":2869000000000,"state":"active","ping":114},{"user_id":396,"name":"ZharMeny","steam_id":76561199086841610,"connected_time":284000000000,"state":"active","ping":107},{"user_id":367,"name":"44.3Hz","steam_id":76561198313719648,"connected_time":2187000000000,"state":"active","ping":62},{"user_id":373,"name":"?TheEnd","steam_id":76561198055280327,"connected_time":1666000000000,"state":"active","ping":66},{"user_id":379,"name":"R I C E","steam_id":76561198417275461,"connected_time":1158000000000,"state":"active","ping":44},{"user_id":366,"name":"BRR","steam_id":76561198150305273,"connected_time":2278000000000,"state":"active","ping":46},{"user_id":399,"name":"ideamerit","steam_id":76561198934423030,"connected_time":69000000000,"state":"active","ping":78},{"user_id":337,"name":"xMilitmer","steam_id":76561199438393283,"connected_time":3880000000000,"state":"active","ping":42},{"user_id":377,"name":"Gabe Howard","steam_id":76561198331677788,"connected_time":1511000000000,"state":"active","ping":77},{"user_id":381,"name":"Dj_Bear","steam_id":76561198149865187,"connected_time":1098000000000,"state":"active","ping":44},{"user_id":274,"name":"Ziemniaczki z koperkiem","steam_id":76561198829123464,"connected_time":8523000000000,"state":"active","ping":46},{"user_id":392,"name":"Gibb0ne-Bri0s0","steam_id":76561199289898291,"connected_time":473000000000,"state":"active","ping":75},{"user_id":394,"name":"мастер по СПИДу","steam_id":76561199043540951,"connected_time":386000000000,"state":"active","ping":128}]},{"server_id":50,"name":"Uncletopia | Warsaw | 2 | One Thousand Uncles","name_short":"waw-2","host":"waw-1.pl.uncletopia.com","port":27025,"enabled":true,"region":"eu","cc":"pl","latitude":52.2297,"longitude":21.017532,"reserved":0,"last_update":"0001-01-01T00:00:00Z","name_a2s":"Uncletopia | Warsaw | 2 | One Thousand Uncles","protocol":17,"map":"cp_dustbowl","folder":"tf","game":"Team Fortress","app_id":440,"player_count":31,"max_players":32,"Bots":16,"server_type":"Dedicated","server_os":"Linux","password":true,"vac":true,"version":"7961495","steam_id":85568392925397851,"keywords":["alltalk","bots","cp","danepve","increased_maxplayers","nocrits","norespawntime","uncletopia"],"game_id":440,"stv_port":0,"stv_name":"","players":[{"user_id":395,"name":"Piquesque","steam_id":76561198286763046,"connected_time":3092000000000,"state":"active","ping":131},{"user_id":431,"name":"Jahusi!*","steam_id":76561197992445165,"connected_time":208000000000,"state":"active","ping":69},{"user_id":382,"name":"night.s","steam_id":76561198326287823,"connected_time":4056000000000,"state":"active","ping":98},{"user_id":433,"name":"daddy cheese","steam_id":76561199049128913,"connected_time":102000000000,"state":"active","ping":68},{"user_id":383,"name":"piping hot","steam_id":76561198011692496,"connected_time":4043000000000,"state":"active","ping":66},{"user_id":389,"name":"capslocked","steam_id":76561198095960796,"connected_time":3699000000000,"state":"active","ping":75},{"user_id":421,"name":"Dark Wizart","steam_id":76561198377689439,"connected_time":901000000000,"state":"active","ping":53},{"user_id":430,"name":"the bee shield","steam_id":76561198315405589,"connected_time":235000000000,"state":"active","ping":33},{"user_id":384,"name":"63756d","steam_id":76561198808699024,"connected_time":4024000000000,"state":"active","ping":75},{"user_id":417,"name":"titi3820","steam_id":76561199201199218,"connected_time":1844000000000,"state":"active","ping":58},{"user_id":423,"name":"donatofina","steam_id":76561198353497885,"connected_time":724000000000,"state":"active","ping":99},{"user_id":390,"name":"MegaKEKER","steam_id":76561199485792353,"connected_time":3675000000000,"state":"active","ping":94},{"user_id":435,"name":"leszek.pitera","steam_id":76561199242964980,"connected_time":12000000000,"state":"spawning","ping":59},{"user_id":425,"name":"trawis skot","steam_id":76561198322211052,"connected_time":511000000000,"state":"active","ping":43},{"user_id":436,"name":"S0rdini","steam_id":76561198986246118,"connected_time":0,"state":"spawning","ping":0}]},{"server_id":51,"name":"Uncletopia | Warsaw | 3 | All Maps","name_short":"waw-3","host":"waw-1.pl.uncletopia.com","port":27035,"enabled":true,"region":"eu","cc":"pl","latitude":52.2297,"longitude":21.017532,"reserved":0,"last_update":"0001-01-01T00:00:00Z","name_a2s":"Uncletopia | Warsaw | 3 | All Maps","protocol":17,"map":"plr_pipeline","folder":"tf","game":"Team Fortress","app_id":440,"player_count":3,"max_players":24,"Bots":0,"server_type":"Dedicated","server_os":"Linux","password":true,"vac":true,"version":"7961495","steam_id":85568392925397852,"keywords":["nocrits","nodmgspread","payload","uncletopia"],"game_id":440,"stv_port":27036,"stv_name":"Uncletopia | Warsaw | 3 | All Maps | STV","players":[{"user_id":9,"name":"Laryssa","steam_id":76561198271084076,"connected_time":414000000000,"state":"active","ping":50},{"user_id":10,"name":"Guthlaf","steam_id":76561198153564078,"connected_time":334000000000,"state":"active","ping":58},{"user_id":11,"name":"Ursyn","steam_id":76561198287800213,"connected_time":316000000000,"state":"active","ping":59}]},{"server_id":52,"name":"Uncletopia | Warsaw | 4 | All Maps","name_short":"waw-4","host":"waw-1.pl.uncletopia.com","port":27045,"enabled":true,"region":"eu","cc":"pl","latitude":52.2297,"longitude":21.017532,"reserved":0,"last_update":"0001-01-01T00:00:00Z","name_a2s":"Uncletopia | Warsaw | 4 | All Maps","protocol":17,"map":"koth_cascade","folder":"tf","game":"Team Fortress","app_id":440,"player_count":0,"max_players":24,"Bots":0,"server_type":"Dedicated","server_os":"Linux","password":true,"vac":true,"version":"7961495","steam_id":85568392925397853,"keywords":["cp","nocrits","nodmgspread","uncletopia"],"game_id":440,"stv_port":27046,"stv_name":"Uncletopia | Warsaw | 4 | All Maps | STV","players":null},{"server_id":53,"name":"Uncletopia | Warsaw | 5 | Stopwatch","name_short":"waw-5","host":"waw-1.pl.uncletopia.com","port":27055,"enabled":true,"region":"eu","cc":"pl","latitude":52.2297,"longitude":21.017532,"reserved":0,"last_update":"0001-01-01T00:00:00Z","name_a2s":"Uncletopia | Warsaw | 5 | Stopwatch","protocol":17,"map":"pl_swiftwater_final1","folder":"tf","game":"Team Fortress","app_id":440,"player_count":0,"max_players":24,"Bots":0,"server_type":"Dedicated","server_os":"Linux","password":true,"vac":true,"version":"7961495","steam_id":85568392925397854,"keywords":["nocrits","nodmgspread","payload","uncletopia"],"game_id":440,"stv_port":27056,"stv_name":"Uncletopia | Warsaw | 5 | Stopwatch | STV","players":null},{"server_id":54,"name":"Uncletopia | Warsaw | 6 | Community","name_short":"waw-6","host":"waw-1.pl.uncletopia.com","port":27065,"enabled":true,"region":"eu","cc":"pl","latitude":52.2297,"longitude":21.017532,"reserved":0,"last_update":"0001-01-01T00:00:00Z","name_a2s":"Uncletopia | Warsaw | 6 | Community","protocol":17,"map":"workshop/pl_badwater_pro_v12.ugc2142942074","folder":"tf","game":"Team Fortress","app_id":440,"player_count":0,"max_players":24,"Bots":0,"server_type":"Dedicated","server_os":"Linux","password":true,"vac":true,"version":"7961495","steam_id":85568392925397856,"keywords":["nocrits","nodmgspread","payload","uncletopia"],"game_id":440,"stv_port":27066,"stv_name":"Uncletopia | Warsaw | 6 | Community | STV","players":null}]}