{"status":true,"message":"","result":[{"server_id":9,"name":"Uncletopia | Atlanta | 1 | All Maps","name_short":"atl-1","host":"atl-1.us.uncletopia.com","port":27015,"enabled":true,"region":"us-east","cc":"us","latitude":33.753746,"longitude":-84.38633,"reserved":0,"last_update":"0001-01-01T00:00:00Z","name_a2s":"Uncletopia | Atlanta | 1 | All Maps","protocol":17,"map":"pl_badwater","folder":"tf","game":"Team Fortress","app_id":440,"player_count":24,"max_players":24,"Bots":0,"server_type":"Dedicated","server_os":"Linux","password":true,"vac":true,"version":"7961495","steam_id":85568392924469982,"keywords":["nocrits","nodmgspread","payload","uncletopia"],"game_id":440,"stv_port":27016,"stv_name":"Uncletopia | Atlanta | 1 | All Maps | STV","players":[{"user_id":695,"name":"idiot","steam_id":76561198256783165,"connected_time":1293000000000,"state":"active","ping":62},{"user_id":694,"name":"Weapons +","steam_id":76561198075349918,"connected_time":1386000000000,"state":"active","ping":48},{"user_id":699,"name":"Dullahan","steam_id":76561198119668908,"connected_time":1146000000000,"state":"active","ping":105},{"user_id":696,"name":"michael22 (2)","steam_id":76561198094320477,"connected_time":1277000000000,"state":"active","ping":80},{"user_id":693,"name":"bkiller","steam_id":76561198029265697,"connected_time":1554000000000,"state":"active","ping":81},{"user_id":697,"name":"de_pandora","steam_id":76561198075490385,"connected_time":1276000000000,"state":"active","ping":107},{"user_id":698,"name":"Tates","steam_id":76561198126049160,"connected_time":1209000000000,"state":"active","ping":122},{"user_id":700,"name":"GreenApples","steam_id":76561198120559543,"connected_time":1135000000000,"state":"active","ping":102},{"user_id":706,"name":"Sentry Food","steam_id":76561198042926224,"connected_time":763000000000,"state":"active","ping":68},{"user_id":701,"name":"FinalFlash9000","steam_id":76561199092775051,"connected_time":1079000000000,"state":"active","ping":78},{"user_id":711,"name":"CoffeeZombi","steam_id":76561198172708053,"connected_time":476000000000,"state":"active","ping":51},{"user_id":702,"name":"The Sultan of Shmeat","steam_id":76561198072500352,"connected_time":1071000000000,"state":"active","ping":77},{"user_id":704,"name":"TheArachnidGamer","steam_id":76561198304986752,"connected_time":968000000000,"state":"active","ping":78},{"user_id":705,"name":"mechiimi â˜…","steam_id":76561198321627268,"connected_time":944000000000,"state":"active","ping":117},{"user_id":712,"name":"Achilles","steam_id":76561198086037134,"connected_time":426000000000,"state":"active","ping":54},{"user_id":708,"name":"Danny Lau","steam_id":76561198171821533,"connected_time":706000000000,"state":"active","ping":53},{"user_id":709,"name":"Smooth, Refreshing Bleachâ„¢","steam_id":76561197981060504,"connected_time":534000000000,"state":"active","ping":69},{"user_id":718,"name":"Wallet","steam_id":76561198081067377,"connected_time":228000000000,"state":"active","ping":62},{"user_id":719,"name":"g_rab09","steam_id":76561198827503720,"connected_time":101000000000,"state":"active","ping":61},{"user_id":721,"name":"lionel messi","steam_id":76561198138455706,"connected_time":45000000000,"state":"spawning","ping":74},{"user_id":714,"name":"lemono","steam_id":76561198806651001,"connected_time":335000000000,"state":"active","ping":82},{"user_id":715,"name":"I Beat Up Nazis","steam_id":76561198102259054,"connected_time":328000000000,"state":"active","ping":45},{"user_id":720,"name":"Mythical Lag","steam_id":76561198347031281,"connected_time":79000000000,"state":"active","ping":81},{"user_id":722,"name":"Cirno","steam_id":76561198840984791,"connected_time":22000000000,"state":"active","ping":87}]},{"server_id":104,"name":"Uncletopia | Atlanta | 2 | All Maps","name_short":"atl-2","host":"atl-1.us.uncletopia.com","port":27025,"enabled":true,"region":"us-east","cc":"us","latitude":33.753746,"longitude":-84.38633,"reserved":0,"last_update":"0001-01-01T00:00:00Z","name_a2s":"Uncletopia | Atlanta | 2 | All Maps","protocol":17,"map":"pl_pier","folder":"tf","game":"Team Fortress","app_id":440,"player_count":24,"max_players":24,"Bots":0,"server_type":"Dedicated","server_os":"Linux","password":true,"vac":true,"version":"7961495","steam_id":85568392924469983,"keywords":["nocrits","nodmgspread","payload","uncletopia"],"game_id":440,"stv_port":27026,"stv_name":"Uncletopia | Atlanta | 2 | All Maps | STV","players":[{"user_id":581,"name":"Koishi","steam_id":76561198054541054,"connected_time":10324000000000,"state":"active","ping":61},{"user_id":712,"name":"The Final Terminus","steam_id":76561197964985183,"connected_time":288000000000,"state":"active","ping":54},{"user_id":636,"name":"Career","steam_id":76561198028542212,"connected_time":5460000000000,"state":"active","ping":58},{"user_id":688,"name":"Prism Jinn","steam_id":76561198799002893,"connected_time":2658000000000,"state":"active","ping":59},{"user_id":689,"name":"Season Leaf","steam_id":76561198133121805,"connected_time":2632000000000,"state":"active","ping":51},{"user_id":614,"name":"No, this is Patrick","steam_id":76561198058776774,"connected_time":7761000000000,"state":"active","ping":62},{"user_id":703,"name":"Captain Malarkey","steam_id":76561198869924281,"connected_time":1448000000000,"state":"active","ping":53},{"user_id":697,"name":"â˜°vil â†ƒood  â¸¸ðŸ’€â¸¸","steam_id":76561197963666090,"connected_time":1979000000000,"state":"active","ping":87},{"user_id":704,"name":"`o2","steam_id":76561197992030936,"connected_time":1447000000000,"state":"active","ping":60},{"user_id":660,"name":"sithreis","steam_id":76561198000564263,"connected_time":3557000000000,"state":"active","ping":59},{"user_id":690,"name":"on that zaza?","steam_id":76561198038713198,"connected_time":2623000000000,"state":"active","ping":75},{"user_id":710,"name":"Drapph","steam_id":76561199384213314,"connected_time":663000000000,"state":"active","ping":85},{"user_id":711,"name":"EnragedWaters","steam_id":76561198317135757,"connected_time":438000000000,"state":"active","ping":113},{"user_id":713,"name":"Andrew's Taint","steam_id":76561198131400543,"connected_time":260000000000,"state":"active","ping":91},{"user_id":661,"name":"AlecTheNefarious","steam_id":76561198035291230,"connected_time":3553000000000,"state":"active","ping":74},{"user_id":662,"name":"lanoc","steam_id":76561198055415367,"connected_time":3549000000000,"state":"active","ping":50},{"user_id":700,"name":"Azazellotl","steam_id":76561198824814392,"connected_time":1591000000000,"state":"active","ping":56},{"user_id":707,"name":"Honolulu","steam_id":76561198106381764,"connected_time":1342000000000,"state":"active","ping":35},{"user_id":593,"name":"E4Estrogen","steam_id":76561198085813708,"connected_time":9818000000000,"state":"active","ping":45},{"user_id":676,"name":"the most girldick enjoyer","steam_id":76561199328635967,"connected_time":3041000000000,"state":"active","ping":54},{"user_id":714,"name":"RectalExam","steam_id":76561197970502312,"connected_time":199000000000,"state":"active","ping":96},{"user_id":672,"name":"SD","steam_id":76561198217410988,"connected_time":3240000000000,"state":"active","ping":101},{"user_id":695,"name":"One of the Pyro of the time.","steam_id":76561199254846600,"connected_time":2134000000000,"state":"active","ping":145},{"user_id":708,"name":"Daksuki","steam_id":76561198084127751,"connected_time":1340000000000,"state":"active","ping":98}]},{"server_id":400,"name":"Uncletopia | Atlanta | 3 | Stopwatch","name_short":"atl-3","host":"atl-1.us.uncletopia.com","port":27035,"enabled":true,"region":"us-east","cc":"us","latitude":33.753746,"longitude":-84.38633,"reserved":0,"last_update":"0001-01-01T00:00:00Z","name_a2s":"Uncletopia | Atlanta | 3 | Stopwatch","protocol":17,"map":"pl_borneo","folder":"tf","game":"Team Fortress","app_id":440,"player_count":0,"max_players":24,"Bots":0,"server_type":"Dedicated","server_os":"Linux","password":true,"vac":true,"version":"7961495","steam_id":85568392924515187,"keywords":["nocrits","nodmgspread","payload","uncletopia"],"game_id":440,"stv_port":27036,"stv_name":"Uncletopia | Atlanta | 3 | Stopwatch | STV","players":null},{"server_id":401,"name":"Uncletopia | Atlanta | 4 | Community","name_short":"atl-4","host":"atl-1.us.uncletopia.com","port":27045,"enabled":true,"region":"us-east","cc":"us","latitude":33.753746,"longitude":-84.38633,"reserved":0,"last_update":"0001-01-01T00:00:00Z","name_a2s":"Uncletopia | Atlanta | 4 | Community","protocol":17,"map":"workshop/koth_product_final.ugc454272353","folder":"tf","game":"Team Fortress","app_id":440,"player_count":0,"max_players":24,"Bots":0,"server_type":"Dedicated","server_os":"Linux","password":true,"vac":true,"version":"7961495","steam_id":85568392924515188,"keywords":["cp","nocrits","nodmgspread","uncletopia"],"game_id":440,"stv_port":27046,"stv_name":"Uncletopia | Atlanta | 4 | Community | STV","players":null},{"server_id":2,"name":"Uncletopia | Chicago | 1 | All Maps","name_short":"chi-1","host":"chi-1.us.uncletopia.com","port":27015,"enabled":true,"region":"us-central","cc":"us","latitude":41.881832,"longitude":-87.62318,"reserved":0,"last_update":"0001-01-01T00:00:00Z","name_a2s":"Uncletopia | Chicago | 1 | All Maps","protocol":17,"map":"pl_upward","folder":"tf","game":"Team Fortress","app_id":440,"player_count":25,"max_players":24,"Bots":0,"server_type":"Dedicated","server_os":"Linux","password":true,"vac":true,"version":"7961495","steam_id":85568392924469984,"keywords":["nocrits","nodmgspread","payload","uncletopia"],"game_id":440,"stv_port":27016,"stv_name":"Uncletopia | Chicago | 1 | All Maps | STV","players":[{"user_id":891,"name":"CombatStraps","steam_id":76561198356280659,"connected_time":1297000000000,"state":"active","ping":68},{"user_id":896,"name":"just call me joe","steam_id":76561198043911582,"connected_time":980000000000,"state":"active","ping":66},{"user_id":914,"name":"Brotein","steam_id":76561198053743602,"connected_time":272000000000,"state":"active","ping":48},{"user_id":877,"name":"NEÐ¯O","steam_id":76561197965450216,"connected_time":1967000000000,"state":"active","ping":85},{"user_id":889,"name":"babylon","steam_id":76561198170642407,"connected_time":1461000000000,"state":"active","ping":71},{"user_id":897,"name":"MaterialNovaa","steam_id":76561198161407466,"connected_time":836000000000,"state":"active","ping":130},{"user_id":900,"name":"Bookmark","steam_id":76561198210918443,"connected_time":771000000000,"state":"active","ping":113},{"user_id":898,"name":"Satan-2","steam_id":76561199231742764,"connected_time":834000000000,"state":"active","ping":62},{"user_id":871,"name":"Joebobio","steam_id":76561198024442760,"connected_time":2561000000000,"state":"active","ping":51},{"user_id":860,"name":"Siz","steam_id":76561198072962154,"connected_time":3254000000000,"state":"active","ping":61},{"user_id":899,"name":"Yukon Cornelius","steam_id":76561198261512781,"connected_time":803000000000,"state":"active","ping":118},{"user_id":890,"name":"Omle","steam_id":76561198873603097,"connected_time":1457000000000,"state":"active","ping":87},{"user_id":901,"name":"Dax","steam_id":76561198045549713,"connected_time":708000000000,"state":"active","ping":72},{"user_id":883,"name":"weird bite","steam_id":76561198043757637,"connected_time":1814000000000,"state":"active","ping":70},{"user_id":915,"name":"crewmate456","steam_id":76561198115458307,"connected_time":255000000000,"state":"active","ping":105},{"user_id":903,"name":"TÃ–ZI","steam_id":76561198045268695,"connected_time":705000000000,"state":"active","ping":73},{"user_id":905,"name":"Eiss","steam_id":76561198343183806,"connected_time":610000000000,"state":"active","ping":64},{"user_id":875,"name":"Nobody","steam_id":76561198286486517,"connected_time":2079000000000,"state":"active","ping":63},{"user_id":895,"name":"Scout Cuomo","steam_id":76561198345950408,"connected_time":991000000000,"state":"active","ping":75},{"user_id":885,"name":"Shmashing Zilla","steam_id":76561198071829822,"connected_time":1776000000000,"state":"active","ping":61},{"user_id":919,"name":"Noobert McGlitchington the 3st","steam_id":76561198073176682,"connected_time":201000000000,"state":"active","ping":61},{"user_id":880,"name":"M","steam_id":76561198174958927,"connected_time":1894000000000,"state":"active","ping":73},{"user_id":917,"name":"KATSURB","steam_id":76561199172118456,"connected_time":239000000000,"state":"active","ping":71},{"user_id":888,"name":"Weary","steam_id":76561198145767546,"connected_time":1487000000000,"state":"active","ping":66},{"user_id":925,"name":"Veluxcion","steam_id":76561198080527107,"connected_time":50000000000,"state":"spawning","ping":72}]},{"server_id":106,"name":"Uncletopia | Chicago | 2 | All Maps","name_short":"chi-2","host":"chi-1.us.uncletopia.com","port":27025,"enabled":true,"region":"us-central","cc":"us","latitude":41.881832,"longitude":-87.62318,"reserved":0,"last_update":"0001-01-01T00:00:00Z","name_a2s":"Uncletopia | Chicago | 2 | All Maps","protocol":17,"map":"cp_sunshine","folder":"tf","game":"Team Fortress","app_id":440,"player_count":24,"max_players":24,"Bots":0,"server_type":"Dedicated","server_os":"Linux","password":true,"vac":true,"version":"7961495","steam_id":85568392924469985,"keywords":["cp","nocrits","nodmgspread","uncletopia"],"game_id":440,"stv_port":27026,"stv_name":"Uncletopia | Chicago | 2 | All Maps | STV","players":[{"user_id":740,"name":"Sprinx","steam_id":76561198112614381,"connected_time":9651000000000,"state":"active","ping":61},{"user_id":881,"name":"Zoramine Fae","steam_id":76561198346753422,"connected_time":928000000000,"state":"active","ping":41},{"user_id":871,"name":"frank","steam_id":76561198137777483,"connected_time":1276000000000,"state":"active","ping":69},{"user_id":837,"name":"strawberry milk","steam_id":76561198025514255,"connected_time":2274000000000,"state":"active","ping":74},{"user_id":874,"name":"Goober","steam_id":76561198988863807,"connected_time":1217000000000,"state":"active","ping":67},{"user_id":875,"name":"TruthHut","steam_id":76561198093452436,"connected_time":1201000000000,"state":"active","ping":76},{"user_id":876,"name":"M17","steam_id":76561198124771378,"connected_time":1177000000000,"state":"active","ping":59},{"user_id":846,"name":"Slowdive w/ EATEOF","steam_id":76561198047856328,"connected_time":2072000000000,"state":"active","ping":145},{"user_id":869,"name":"YoRHa 2B","steam_id":76561198069048384,"connected_time":1316000000000,"state":"active","ping":49},{"user_id":877,"name":"Jesse Bear","steam_id":76561198217075305,"connected_time":1168000000000,"state":"active","ping":65},{"user_id":878,"name":"girlpilled unamerican","steam_id":76561198337705174,"connected_time":1137000000000,"state":"active","ping":66},{"user_id":419,"name":"runescape legend","steam_id":76561198077791373,"connected_time":25601000000000,"state":"active","ping":47},{"user_id":882,"name":"mudreaper","steam_id":76561199481994668,"connected_time":635000000000,"state":"active","ping":45},{"user_id":836,"name":"TickTock|Mink","steam_id":76561198069809794,"connected_time":2581000000000,"state":"active","ping":45},{"user_id":858,"name":"snezhnaya","steam_id":76561198076395081,"connected_time":1796000000000,"state":"active","ping":107},{"user_id":849,"name":"Delta","steam_id":76561198158985472,"connected_time":2059000000000,"state":"active","ping":122},{"user_id":850,"name":"Volks","steam_id":76561198018552479,"connected_time":2049000000000,"state":"active","ping":70},{"user_id":854,"name":"Latina Capitalist Rich Girl Bos","steam_id":76561198049734257,"connected_time":1920000000000,"state":"active","ping":69},{"user_id":753,"name":"russames","steam_id":76561198007535911,"connected_time":9074000000000,"state":"active","ping":60},{"user_id":879,"name":"Wang of Wall St","steam_id":76561198047460598,"connected_time":1111000000000,"state":"active","ping":68},{"user_id":838,"name":"Lumi The âœ§Lesbianâœ§","steam_id":76561198089978036,"connected_time":2272000000000,"state":"active","ping":52},{"user_id":833,"name":"GoldtoothFour","steam_id":76561198055529332,"connected_time":2808000000000,"state":"active","ping":45},{"user_id":834,"name":"Nestor","steam_id":76561198070782619,"connected_time":2760000000000,"state":"active","ping":52},{"user_id":839,"name":"An Alternate","steam_id":76561198041773387,"connected_time":2272000000000,"state":"active","ping":75}]},{"server_id":402,"name":"Uncletopia | Chicago | 3 | All Maps","name_short":"chi-3","host":"chi-1.us.uncletopia.com","port":27035,"enabled":true,"region":"us-central","cc":"us","latitude":41.881832,"longitude":-87.62318,"reserved":0,"last_update":"0001-01-01T00:00:00Z","name_a2s":"Uncletopia | Chicago | 3 | All Maps","protocol":17,"map":"pl_borneo","folder":"tf","game":"Team Fortress","app_id":440,"player_count":23,"max_players":24,"Bots":0,"server_type":"Dedicated","server_os":"Linux","password":true,"vac":true,"version":"7961495","steam_id":85568392924515191,"keywords":["nocrits","nodmgspread","payload","uncletopia"],"game_id":440,"stv_port":27036,"stv_name":"Uncletopia | Chicago | 3 | All Maps | STV","players":[{"user_id":481,"name":"Sarbanes-Oxley","steam_id":76561197975898479,"connected_time":2320000000000,"state":"active","ping":75},{"user_id":493,"name":"Stev","steam_id":76561198061516631,"connected_time":1675000000000,"state":"active","ping":60},{"user_id":496,"name":"epic","steam_id":76561198097321881,"connected_time":1584000000000,"state":"active","ping":89},{"user_id":513,"name":"slowdance","steam_id":76561198097427947,"connected_time":391000000000,"state":"active","ping":146},{"user_id":480,"name":"CRABMAN","steam_id":76561198016139425,"connected_time":2423000000000,"state":"active","ping":67},{"user_id":505,"name":"Rukks","steam_id":76561197993918954,"connected_time":1295000000000,"state":"active","ping":89},{"user_id":471,"name":"Lead Licker","steam_id":76561198162668339,"connected_time":3801000000000,"state":"active","ping":58},{"user_id":512,"name":"Snowdeath","steam_id":76561198071081096,"connected_time":445000000000,"state":"active","ping":75},{"user_id":507,"name":"marlow","steam_id":76561198094408360,"connected_time":808000000000,"state":"active","ping":75},{"user_id":446,"name":"SofaKing","steam_id":76561198176691859,"connected_time":5828000000000,"state":"active","ping":90},{"user_id":495,"name":"ifuruna","steam_id":76561199506882366,"connected_time":1653000000000,"state":"active","ping":129},{"user_id":463,"name":"Im Groot","steam_id":76561198294943420,"connected_time":4084000000000,"state":"active","ping":76},{"user_id":506,"name":"Supur","steam_id":76561198051814355,"connected_time":1290000000000,"state":"active","ping":78},{"user_id":455,"name":"dirty30","steam_id":76561198021226566,"connected_time":5385000000000,"state":"active","ping":91},{"user_id":472,"name":"Lae","steam_id":76561198185527278,"connected_time":3775000000000,"state":"active","ping":74},{"user_id":504,"name":"MoonWolf","steam_id":76561198095735033,"connected_time":1306000000000,"state":"active","ping":72},{"user_id":375,"name":"Mufalito","steam_id":76561198951889482,"connected_time":11823000000000,"state":"active","ping":142},{"user_id":510,"name":"stinkcumming","steam_id":76561198797668612,"connected_time":613000000000,"state":"active","ping":89},{"user_id":428,"name":"astrobob911","steam_id":76561199099110654,"connected_time":7926000000000,"state":"active","ping":69},{"user_id":452,"name":"vareh","steam_id":76561197993190926,"connected_time":5659000000000,"state":"active","ping":108},{"user_id":359,"name":"zpalmtree","steam_id":76561198134307620,"connected_time":12801000000000,"state":"active","ping":60},{"user_id":514,"name":"Albert Whiskers","steam_id":76561198124081839,"connected_time":336000000000,"state":"active","ping":66}]},{"server_id":403,"name":"Uncletopia | Chicago | 4 | All Maps","name_short":"chi-4","host":"chi-1.us.uncletopia.com","port":27045,"enabled":true,"region":"us-central","cc":"us","latitude":41.881832,"longitude":-87.62318,"reserved":0,"last_update":"0001-01-01T00:00:00Z","name_a2s":"Uncletopia | Chicago | 4 | All Maps","protocol":17,"map":"cp_mountainlab","folder":"tf","game":"Team Fortress","app_id":440,"player_count":6,"max_players":24,"Bots":0,"server_type":"Dedicated","server_os":"Linux","password":true,"vac":true,"version":"7961495","steam_id":85568392924515193,"keywords":["cp","nocrits","nodmgspread","uncletopia"],"game_id":440,"stv_port":27046,"stv_name":"Uncletopia | Chicago | 4 | All Maps | STV","players":[{"user_id":694,"name":"Pie Eater 9000","steam_id":76561198003791564,"connected_time":1546000000000,"state":"active","ping":44},{"user_id":695,"name":"Ask Nicely For Heals","steam_id":76561198138478907,"connected_time":1170000000000,"state":"active","ping":79},{"user_id":696,"name":"Six Piece Chicken McNobody","steam_id":76561198129848222,"connected_time":872000000000,"state":"active","ping":49},{"user_id":699,"name":"IHUNTZ","steam_id":76561198390109907,"connected_time":600000000000,"state":"active","ping":115},{"user_id":679,"name":"Cactus","steam_id":76561198149762619,"connected_time":3932000000000,"state":"active","ping":102},{"user_id":681,"name":"Rusty","steam_id":76561198178868626,"connected_time":3865000000000,"state":"active","ping":88}]},{"server_id":36,"name":"Uncletopia | Chicago | 5 | All Maps","name_short":"chi-5","host":"chi-2.us.uncletopia.com","port":27015,"enabled":true,"region":"us-central","cc":"us","latitude":41.881832,"longitude":-87.62318,"reserved":0,"last_update":"0001-01-01T00:00:00Z","name_a2s":"Uncletopia | Chicago | 5 | All Maps","protocol":17,"map":"cp_sunshine","folder":"tf","game":"Team Fortress","app_id":440,"player_count":17,"max_players":24,"Bots":0,"server_type":"Dedicated","server_os":"Linux","password":true,"vac":true,"version":"7961495","steam_id":85568392924866362,"keywords":["cp","nocrits","nodmgspread","uncletopia"],"game_id":440,"stv_port":27016,"stv_name":"Uncletopia | Chicago | 5 | All Maps | STV","players":[{"user_id":629,"name":"Wine Aunt Gaming","steam_id":76561198073453978,"connected_time":1905000000000,"state":"active","ping":106},{"user_id":652,"name":"BonBonBon","steam_id":76561198016307916,"connected_time":340000000000,"state":"active","ping":94},{"user_id":630,"name":"SorinCloud","steam_id":76561198061288404,"connected_time":1794000000000,"state":"active","ping":62},{"user_id":631,"name":"thezranger","steam_id":76561198454086460,"connected_time":1633000000000,"state":"active","ping":103},{"user_id":645,"name":"IBA Chandler","steam_id":76561198403649648,"connected_time":591000000000,"state":"active","ping":52},{"user_id":646,"name":"Kepa","steam_id":76561198091975728,"connected_time":451000000000,"state":"active","ping":61},{"user_id":657,"name":"Red Velveeta Cake","steam_id":76561198073764084,"connected_time":95000000000,"state":"active","ping":60},{"user_id":586,"name":"DNA Polymerase","steam_id":76561198143738136,"connected_time":4987000000000,"state":"active","ping":80},{"user_id":655,"name":"OrangeSodaMachine","steam_id":76561198079230156,"connected_time":258000000000,"state":"active","ping":95},{"user_id":615,"name":"Soap Man","steam_id":76561198000490235,"connected_time":2601000000000,"state":"active","ping":106},{"user_id":654,"name":"Passionate Map Researcher","steam_id":76561199490508357,"connected_time":291000000000,"state":"active","ping":65},{"user_id":647,"name":"Anime Racist","steam_id":76561198100775015,"connected_time":410000000000,"state":"active","ping":107},{"user_id":644,"name":"Solan iler","steam_id":76561198809720926,"connected_time":937000000000,"state":"active","ping":88},{"user_id":638,"name":"majorbobfunction","steam_id":76561198042464632,"connected_time":1197000000000,"state":"active","ping":60},{"user_id":656,"name":"Pal The Palm","steam_id":76561198191507485,"connected_time":180000000000,"state":"active","ping":93},{"user_id":650,"name":"Trundlini","steam_id":76561198810160534,"connected_time":389000000000,"state":"active","ping":101},{"user_id":651,"name":"ZemkJval","steam_id":76561198154464008,"connected_time":377000000000,"state":"active","ping":66}]},{"server_id":37,"name":"Uncletopia | Chicago | 6 | All Maps","name_short":"chi-6","host":"chi-2.us.uncletopia.com","port":27025,"enabled":true,"region":"us-central","cc":"us","latitude":41.881832,"longitude":-87.62318,"reserved":0,"last_update":"0001-01-01T00:00:00Z","name_a2s":"Uncletopia | Chicago | 6 | All Maps","protocol":17,"map":"pl_borneo","folder":"tf","game":"Team Fortress","app_id":440,"player_count":19,"max_players":24,"Bots":0,"server_type":"Dedicated","server_os":"Linux","password":true,"vac":true,"version":"7961495","steam_id":85568392924866363,"keywords":["nocrits","nodmgspread","payload","uncletopia"],"game_id":440,"stv_port":27026,"stv_name":"Uncletopia | Chicago | 6 | All Maps | STV","players":[{"user_id":510,"name":"Methuselah Honeysuckle","steam_id":76561198057451347,"connected_time":1358000000000,"state":"active","ping":64},{"user_id":500,"name":"à¸¸","steam_id":76561198170624701,"connected_time":1758000000000,"state":"active","ping":71},{"user_id":496,"name":"baunter","steam_id":76561198024311871,"connected_time":2770000000000,"state":"active","ping":90},{"user_id":399,"name":"SiltyStar85","steam_id":76561198309175923,"connected_time":11061000000000,"state":"active","ping":86},{"user_id":515,"name":"GhstPants","steam_id":76561198864744214,"connected_time":1145000000000,"state":"active","ping":72},{"user_id":518,"name":"Retro","steam_id":76561198445362325,"connected_time":920000000000,"state":"active","ping":75},{"user_id":497,"name":"lobster","steam_id":76561198147417707,"connected_time":2759000000000,"state":"active","ping":73},{"user_id":526,"name":"Meyo","steam_id":76561198913689451,"connected_time":160000000000,"state":"active","ping":102},{"user_id":516,"name":"Papaya Messiah","steam_id":76561198098804499,"connected_time":1136000000000,"state":"active","ping":70},{"user_id":468,"name":"D(b) Hell","steam_id":76561198067869016,"connected_time":5035000000000,"state":"active","ping":42},{"user_id":429,"name":"RusticCarp42989","steam_id":76561198361151865,"connected_time":8342000000000,"state":"active","ping":113},{"user_id":520,"name":"ClownTown","steam_id":76561199350870177,"connected_time":873000000000,"state":"active","ping":60},{"user_id":521,"name":"DarthVader","steam_id":76561199061259359,"connected_time":807000000000,"state":"active","ping":87},{"user_id":522,"name":"FacelessJoker","steam_id":76561198835832351,"connected_time":780000000000,"state":"active","ping":74},{"user_id":525,"name":"MortGrim","steam_id":76561198027156235,"connected_time":476000000000,"state":"active","ping":60},{"user_id":439,"name":"Schizoid Despot","steam_id":76561198141902905,"connected_time":7155000000000,"state":"active","ping":51},{"user_id":493,"name":"Steak-Pocketer","steam_id":76561198277651410,"connected_time":3036000000000,"state":"active","ping":59},{"user_id":402,"name":"Amoxicilina","steam_id":76561198168486429,"connected_time":10833000000000,"state":"active","ping":119},{"user_id":524,"name":"Dark Knight","steam_id":76561199167544782,"connected_time":718000000000,"state":"active","ping":56}]},{"server_id":38,"name":"Uncletopia | Chicago | 7 | Stopwatch","name_short":"chi-7","host":"chi-2.us.uncletopia.com","port":27035,"enabled":true,"region":"us-central","cc":"us","latitude":41.881832,"longitude":-87.62318,"reserved":0,"last_update":"0001-01-01T00:00:00Z","name_a2s":"Uncletopia | Chicago | 7 | Stopwatch","protocol":17,"map":"cp_process_final","folder":"tf","game":"Team Fortress","app_id":440,"player_count":0,"max_players":24,"Bots":0,"server_type":"Dedicated","server_os":"Linux","password":true,"vac":true,"version":"7961495","steam_id":85568392924866364,"keywords":["cp","nocrits","nodmgspread","uncletopia"],"game_id":440,"stv_port":27036,"stv_name":"Uncletopia | Chicago | 7 | Stopwatch | STV","players":null},{"server_id":39,"name":"Uncletopia | Chicago | 8 | Community","name_short":"chi-8","host":"chi-2.us.uncletopia.com","port":27045,"enabled":true,"region":"us-central","cc":"us","latitude":41.881832,"longitude":-87.62318,"reserved":0,"last_update":"0001-01-01T00:00:00Z","name_a2s":"Uncletopia | Chicago | 8 | Community","protocol":17,"map":"workshop/pl_corrode_rc2.ugc546577989","folder":"tf","game":"Team Fortress","app_id":440,"player_count":19,"max_players":24,"Bots":0,"server_type":"Dedicated","server_os":"Linux","password":true,"vac":true,"version":"7961495","steam_id":85568392924866365,"keywords":["nocrits","nodmgspread","payload","uncletopia"],"game_id":440,"stv_port":27046,"stv_name":"Uncletopia | Chicago | 8 | Community | STV","players":[{"user_id":257,"name":"ABZ Gamer","steam_id":76561199027227636,"connected_time":174000000000,"state":"active","ping":72},{"user_id":202,"name":"Jurls","steam_id":76561198138077990,"connected_time":5103000000000,"state":"active","ping":77},{"user_id":243,"name":"GatorAIDS","steam_id":76561198043220092,"connected_time":1881000000000,"state":"active","ping":85},{"user_id":247,"name":"void","steam_id":76561198107501413,"connected_time":1536000000000,"state":"active","ping":59},{"user_id":258,"name":"Cthulhu's Malewife","steam_id":76561198085888959,"connected_time":18000000000,"state":"spawning","ping":1456},{"user_id":236,"name":"Bucky Garage","steam_id":76561197995185343,"connected_time":2583000000000,"state":"active","ping":67},{"user_id":237,"name":"Awsometod","steam_id":76561198014623297,"connected_time":2565000000000,"state":"active","ping":47},{"user_id":251,"name":"soapdrop","steam_id":76561197999627205,"connected_time":1116000000000,"state":"active","ping":100},{"user_id":241,"name":"Team Fartpiss Poo","steam_id":76561199163591880,"connected_time":2192000000000,"state":"active","ping":86},{"user_id":219,"name":"Tcmano","steam_id":76561198057233847,"connected_time":3916000000000,"state":"active","ping":101},{"user_id":215,"name":"SuperEnderGuy","steam_id":76561198352732164,"connected_time":4181000000000,"state":"active","ping":103},{"user_id":208,"name":"GoGo is a Drunk Slut","steam_id":76561198023080645,"connected_time":4652000000000,"state":"active","ping":74},{"user_id":234,"name":"brian eno","steam_id":76561198109901138,"connected_time":2657000000000,"state":"active","ping":75},{"user_id":232,"name":"Zyjem","steam_id":76561198071588380,"connected_time":2725000000000,"state":"active","ping":87},{"user_id":230,"name":"No'el","steam_id":76561198063959574,"connected_time":2927000000000,"state":"active","ping":80},{"user_id":253,"name":"Joker","steam_id":76561198077583446,"connected_time":1092000000000,"state":"active","ping":53},{"user_id":229,"name":"nufyivuyda","steam_id":76561199499476489,"connected_time":3190000000000,"state":"active","ping":97},{"user_id":95,"name":"liquid bread","steam_id":76561198012441419,"connected_time":14312000000000,"state":"active","ping":58},{"user_id":238,"name":"evdoke","steam_id":76561198044555219,"connected_time":2562000000000,"state":"active","ping":60}]},{"server_id":8,"name":"Uncletopia | Dallas | 1 | All Maps","name_short":"dal-1","host":"dal-1.us.uncletopia.com","port":27015,"enabled":true,"region":"us-central","cc":"us","latitude":32.779167,"longitude":-96.80889,"reserved":0,"last_update":"0001-01-01T00:00:00Z","name_a2s":"Uncletopia | Dallas | 1 | All Maps","protocol":17,"map":"cp_sunshine","folder":"tf","game":"Team Fortress","app_id":440,"player_count":0,"max_players":24,"Bots":0,"server_type":"Dedicated","server_os":"Linux","password":true,"vac":true,"version":"7961495","steam_id":85568392924469986,"keywords":["cp","nocrits","nodmgspread","uncletopia"],"game_id":440,"stv_port":27016,"stv_name":"Uncletopia | Dallas | 1 | All Maps | STV","players":null},{"server_id":108,"name":"Uncletopia | Dallas | 2 | All Maps","name_short":"dal-2","host":"dal-1.us.uncletopia.com","port":27025,"enabled":true,"region":"us-central","cc":"us","latitude":32.779167,"longitude":-96.80889,"reserved":0,"last_update":"0001-01-01T00:00:00Z","name_a2s":"Uncletopia | Dallas | 2 | All Maps","protocol":17,"map":"pl_pier","folder":"tf","game":"Team Fortress","app_id":440,"player_count":23,"max_players":24,"Bots":0,"server_type":"Dedicated","server_os":"Linux","password":true,"vac":true,"version":"7961495","steam_id":85568392924469988,"keywords":["nocrits","nodmgspread","payload","uncletopia"],"game_id":440,"stv_port":27026,"stv_name":"Uncletopia | Dallas | 2 | All Maps | STV","players":[{"user_id":587,"name":"Dravenation","steam_id":76561198012411483,"connected_time":889000000000,"state":"active","ping":84},{"user_id":598,"name":"THE MENACE","steam_id":76561198312055294,"connected_time":16000000000,"state":"active","ping":81},{"user_id":580,"name":"Grimm_Reaper164","steam_id":76561198848333297,"connected_time":1388000000000,"state":"active","ping":80},{"user_id":533,"name":"Certified Hood Classic","steam_id":76561199086159354,"connected_time":4464000000000,"state":"active","ping":44},{"user_id":589,"name":"Retrace","steam_id":76561198080620966,"connected_time":429000000000,"state":"active","ping":76},{"user_id":597,"name":"ectoBiologist [EB]","steam_id":76561198849405426,"connected_time":73000000000,"state":"active","ping":58},{"user_id":574,"name":"SkyKing","steam_id":76561198094038320,"connected_time":1571000000000,"state":"active","ping":64},{"user_id":590,"name":"keysopendoors","steam_id":76561198175858151,"connected_time":370000000000,"state":"active","ping":78},{"user_id":591,"name":"UnkownGamerLOL","steam_id":76561198225902368,"connected_time":301000000000,"state":"active","ping":60},{"user_id":599,"name":"cilo","steam_id":76561198046163502,"connected_time":4000000000,"state":"spawning","ping":49},{"user_id":567,"name":"37 septillion tapeworms","steam_id":76561198186128723,"connected_time":2257000000000,"state":"active","ping":48},{"user_id":562,"name":"Tea Leaf","steam_id":76561198123549027,"connected_time":2660000000000,"state":"active","ping":53},{"user_id":544,"name":"MD","steam_id":76561197976300679,"connected_time":3480000000000,"state":"active","ping":46},{"user_id":578,"name":"Grungus","steam_id":76561198149206391,"connected_time":1422000000000,"state":"active","ping":77},{"user_id":545,"name":"Juice","steam_id":76561198075111427,"connected_time":3459000000000,"state":"active","ping":84},{"user_id":534,"name":"why","steam_id":76561199059732212,"connected_time":4379000000000,"state":"active","ping":63},{"user_id":577,"name":"type \"bad med\" to kick","steam_id":76561198076402476,"connected_time":1468000000000,"state":"active","ping":91},{"user_id":535,"name":"HOG RIDER","steam_id":76561198298589502,"connected_time":4347000000000,"state":"active","ping":78},{"user_id":560,"name":"Thinking Thing","steam_id":76561198037223253,"connected_time":2766000000000,"state":"active","ping":46},{"user_id":581,"name":"Dwebus","steam_id":76561198086559045,"connected_time":1384000000000,"state":"active","ping":72},{"user_id":539,"name":"9/11 Airlines","steam_id":76561198096306325,"connected_time":3652000000000,"state":"active","ping":80},{"user_id":521,"name":"C Papi","steam_id":76561198027779564,"connected_time":5979000000000,"state":"active","ping":63},{"user_id":594,"name":"rat","steam_id":76561198130412963,"connected_time":268000000000,"state":"active","ping":67}]},{"server_id":404,"name":"Uncletopia | Dallas | 3 | All Maps","name_short":"dal-3","host":"dal-1.us.uncletopia.com","port":27035,"enabled":true,"region":"us-central","cc":"us","latitude":32.779167,"longitude":-96.80889,"reserved":0,"last_update":"0001-01-01T00:00:00Z","name_a2s":"Uncletopia | Dallas | 3 | All Maps","protocol":17,"map":"pl_borneo","folder":"tf","game":"Team Fortress","app_id":440,"player_count":22,"max_players":24,"Bots":0,"server_type":"Dedicated","server_os":"Linux","password":true,"vac":true,"version":"7961495","steam_id":85568392924515219,"keywords":["nocrits","nodmgspread","payload","uncletopia"],"game_id":440,"stv_port":27036,"stv_name":"Uncletopia | Dallas | 3 | All Maps | STV","players":[{"user_id":349,"name":"Cheese","steam_id":76561199435683727,"connected_time":2438000000000,"state":"active","ping":131},{"user_id":331,"name":"riSygneD","steam_id":76561198331618687,"connected_time":4364000000000,"state":"active","ping":70},{"user_id":350,"name":"Rin \"Hindwing\" Redtail","steam_id":76561199074865638,"connected_time":2241000000000,"state":"active","ping":48},{"user_id":364,"name":"short bus enthusiast","steam_id":76561198069380992,"connected_time":235000000000,"state":"active","ping":54},{"user_id":341,"name":"Aeon","steam_id":76561198079117315,"connected_time":2959000000000,"state":"active","ping":78},{"user_id":363,"name":"Baconator","steam_id":76561198941700660,"connected_time":254000000000,"state":"active","ping":105},{"user_id":352,"name":"Lezabel","steam_id":76561198970753261,"connected_time":2151000000000,"state":"active","ping":74},{"user_id":365,"name":"Maid 'n' China","steam_id":76561198423392976,"connected_time":83000000000,"state":"active","ping":76},{"user_id":353,"name":"guts' theme (Cut \u0026 Looped)","steam_id":76561198012829728,"connected_time":2142000000000,"state":"active","ping":57},{"user_id":362,"name":"cy","steam_id":76561198885893295,"connected_time":1223000000000,"state":"active","ping":73},{"user_id":344,"name":"Erin","steam_id":76561198040333168,"connected_time":2811000000000,"state":"active","ping":105},{"user_id":345,"name":"Padak","steam_id":76561198120852008,"connected_time":2805000000000,"state":"active","ping":79},{"user_id":366,"name":"Power","steam_id":76561197978508626,"connected_time":60000000000,"state":"active","ping":75},{"user_id":361,"name":"Cinnifox","steam_id":76561198068773971,"connected_time":1652000000000,"state":"active","ping":72},{"user_id":322,"name":"tingle shitmouth","steam_id":76561198055109192,"connected_time":4613000000000,"state":"active","ping":74},{"user_id":356,"name":"CeLeb144","steam_id":76561199089907740,"connected_time":2088000000000,"state":"active","ping":60},{"user_id":346,"name":"Spare(8)Ball","steam_id":76561197982432995,"connected_time":2789000000000,"state":"active","ping":88},{"user_id":347,"name":"Trouttopia","steam_id":76561198094623670,"connected_time":2773000000000,"state":"active","ping":79},{"user_id":357,"name":"Dakota","steam_id":76561198134092308,"connected_time":2074000000000,"state":"active","ping":51},{"user_id":293,"name":"Marzbee115","steam_id":76561198095821025,"connected_time":7123000000000,"state":"active","ping":60},{"user_id":358,"name":"Fimbulvetr","steam_id":76561198837857545,"connected_time":2065000000000,"state":"active","ping":169},{"user_id":359,"name":"Sexual Butt","steam_id":76561198102241399,"connected_time":2063000000000,"state":"active","ping":73}]},{"server_id":405,"name":"Uncletopia | Dallas | 4 | Community","name_short":"dal-4","host":"dal-1.us.uncletopia.com","port":27045,"enabled":true,"region":"us-central","cc":"us","latitude":32.779167,"longitude":-96.80889,"reserved":0,"last_update":"0001-01-01T00:00:00Z","name_a2s":"Uncletopia | Dallas | 4 | Community","protocol":17,"map":"workshop/koth_product_final.ugc454272353","folder":"tf","game":"Team Fortress","app_id":440,"player_count":0,"max_players":24,"Bots":0,"server_type":"Dedicated","server_os":"Linux","password":true,"vac":true,"version":"7961495","steam_id":85568392924515220,"keywords":["cp","nocrits","nodmgspread","uncletopia"],"game_id":440,"stv_port":27046,"stv_name":"Uncletopia | Dallas | 4 | Community | STV","players":null},{"server_id":5,"name":"Uncletopia | Frankfurt | 1 | All Maps","name_short":"frk-1","host":"frk-1.de.uncletopia.com","port":27015,"enabled":true,"region":"eu","cc":"de","latitude":50.110924,"longitude":8.682127,"reserved":0,"last_update":"0001-01-01T00:00:00Z","name_a2s":"Uncletopia | Frankfurt | 1 | All Maps","protocol":17,"map":"cp_badlands","folder":"tf","game":"Team Fortress","app_id":440,"player_count":0,"max_players":24,"Bots":0,"server_type":"Dedicated","server_os":"Linux","password":true,"vac":true,"version":"7961495","steam_id":85568392924469989,"keywords":["cp","nocrits","nodmgspread","uncletopia"],"game_id":440,"stv_port":27016,"stv_name":"Uncletopia | Frankfurt | 1 | All Maps | STV","players":null},{"server_id":110,"name":"Uncletopia | Frankfurt | 2 | All Maps","name_short":"frk-2","host":"frk-1.de.uncletopia.com","port":27025,"enabled":true,"region":"eu","cc":"de","latitude":50.110924,"longitude":8.682127,"reserved":0,"last_update":"0001-01-01T00:00:00Z","name_a2s":"Uncletopia | Frankfurt | 2 | All Maps","protocol":17,"map":"plr_hightower","folder":"tf","game":"Team Fortress","app_id":440,"player_count":0,"max_players":24,"Bots":0,"server_type":"Dedicated","server_os":"Linux","password":true,"vac":true,"version":"7961495","steam_id":85568392924469990,"keywords":["nocrits","nodmgspread","payload","uncletopia"],"game_id":440,"stv_port":27026,"stv_name":"Uncletopia | Frankfurt | 2 | All Maps | STV","players":null},{"server_id":308,"name":"Uncletopia | Frankfurt | 3 | All Maps","name_short":"frk-3","host":"frk-1.de.uncletopia.com","port":27035,"enabled":true,"region":"eu","cc":"de","latitude":50.110924,"longitude":8.682127,"reserved":0,"last_update":"0001-01-01T00:00:00Z","name_a2s":"Uncletopia | Frankfurt | 3 | All Maps","protocol":17,"map":"cp_metalworks","folder":"tf","game":"Team Fortress","app_id":440,"player_count":0,"max_players":24,"Bots":0,"server_type":"Dedicated","server_os":"Linux","password":true,"vac":true,"version":"7961495","steam_id":85568392924504274,"keywords":["cp","nocrits","nodmgspread","uncletopia"],"game_id":440,"stv_port":27036,"stv_name":"Uncletopia | Frankfurt | 3 | All Maps | STV","players":null},{"server_id":309,"name":"Uncletopia | Frankfurt | 4 | All Maps","name_short":"frk-4","host":"frk-1.de.uncletopia.com","port":27045,"enabled":true,"region":"eu","cc":"de","latitude":50.110924,"longitude":8.682127,"reserved":0,"last_update":"0001-01-01T00:00:00Z","name_a2s":"Uncletopia | Frankfurt | 4 | All Maps","protocol":17,"map":"cp_gorge","folder":"tf","game":"Team Fortress","app_id":440,"player_count":0,"max_players":24,"Bots":0,"server_type":"Dedicated","server_os":"Linux","password":true,"vac":true,"version":"7961495","steam_id":85568392924504275,"keywords":["cp","nocrits","nodmgspread","uncletopia"],"game_id":440,"stv_port":27046,"stv_name":"Uncletopia | Frankfurt | 4 | All Maps | STV","players":null},{"server_id":310,"name":"Uncletopia | Frankfurt | 5 | All Maps","name_short":"frk-5","host":"frk-1.de.uncletopia.com","port":27055,"enabled":true,"region":"eu","cc":"de","latitude":50.110924,"longitude":8.682127,"reserved":0,"last_update":"0001-01-01T00:00:00Z","name_a2s":"Uncletopia | Frankfurt | 5 | All Maps","protocol":17,"map":"cp_mountainlab","folder":"tf","game":"Team Fortress","app_id":440,"player_count":0,"max_players":24,"Bots":0,"server_type":"Dedicated","server_os":"Linux","password":true,"vac":true,"version":"7961495","steam_id":85568392924504277,"keywords":["cp","nocrits","nodmgspread","uncletopia"],"game_id":440,"stv_port":27056,"stv_name":"Uncletopia | Frankfurt | 5 | All Maps | STV","players":null},{"server_id":311,"name":"Uncletopia | Frankfurt | 6 | All Maps","name_short":"frk-6","host":"frk-1.de.uncletopia.com","port":27065,"enabled":true,"region":"eu","cc":"de","latitude":50.110924,"longitude":8.682127,"reserved":0,"last_update":"0001-01-01T00:00:00Z","name_a2s":"Uncletopia | Frankfurt | 6 | All Maps","protocol":17,"map":"cp_coldfront","folder":"tf","game":"Team Fortress","app_id":440,"player_count":0,"max_players":24,"Bots":0,"server_type":"Dedicated","server_os":"Linux","password":true,"vac":true,"version":"7961495","steam_id":85568392924504278,"keywords":["cp","nocrits","nodmgspread","uncletopia"],"game_id":440,"stv_port":27066,"stv_name":"Uncletopia | Frankfurt | 6 | All Maps | STV","players":null},{"server_id":23,"name":"Uncletopia | Frankfurt | 7 | Stopwatch","name_short":"frk-7","host":"frk-1.de.uncletopia.com","port":27075,"enabled":true,"region":"eu","cc":"de","latitude":50.110924,"longitude":8.682127,"reserved":0,"last_update":"0001-01-01T00:00:00Z","name_a2s":"Uncletopia | Frankfurt | 7 | Stopwatch","protocol":17,"map":"cp_sunshine","folder":"tf","game":"Team Fortress","app_id":440,"player_count":0,"max_players":24,"Bots":0,"server_type":"Dedicated","server_os":"Linux","password":true,"vac":true,"version":"7961495","steam_id":85568392924742827,"keywords":["cp","nocrits","nodmgspread","uncletopia"],"game_id":440,"stv_port":27076,"stv_name":"Uncletopia | Frankfurt | 7 | Stopwatch | STV","players":null},{"server_id":24,"name":"Uncletopia | Frankfurt | 8 | Community","name_short":"frk-8","host":"frk-1.de.uncletopia.com","port":27085,"enabled":true,"region":"eu","cc":"de","latitude":50.110924,"longitude":8.682127,"reserved":0,"last_update":"0001-01-01T00:00:00Z","name_a2s":"Uncletopia | Frankfurt | 8 | Community","protocol":17,"map":"workshop/pl_boundary_final1.ugc456799153","folder":"tf","game":"Team Fortress","app_id":440,"player_count":0,"max_players":24,"Bots":0,"server_type":"Dedicated","server_os":"Linux","password":true,"vac":true,"version":"7961495","steam_id":85568392924742828,"keywords":["nocrits","nodmgspread","payload","uncletopia"],"game_id":440,"stv_port":27086,"stv_name":"Uncletopia | Frankfurt | 8 | Community | STV","players":null},{"server_id":202,"name":"Uncletopia | Hong Kong | 1 | All Maps","name_short":"hgk-1","host":"hgk-1.hk.uncletopia.com","port":27015,"enabled":true,"region":"asia","cc":"hk","latitude":22.302711,"longitude":114.177216,"reserved":0,"last_update":"0001-01-01T00:00:00Z","name_a2s":"Uncletopia | Hong Kong | 1 | All Maps","protocol":17,"map":"cp_process_final","folder":"tf","game":"Team Fortress","app_id":440,"player_count":1,"max_players":24,"Bots":0,"server_type":"Dedicated","server_os":"Linux","password":true,"vac":true,"version":"7961495","steam_id":85568392924494504,"keywords":["cp","nocrits","nodmgspread","uncletopia"],"game_id":440,"stv_port":27016,"stv_name":"Uncletopia | Hong Kong | 1 | All Maps | STV","players":[{"user_id":22,"name":"sentry from wish","steam_id":76561199481967063,"connected_time":458000000000,"state":"active","ping":76}]},{"server_id":1,"name":"Uncletopia | Los Angeles | 1 | All Maps","name_short":"lax-1","host":"lax-1.us.uncletopia.com","port":27015,"enabled":true,"region":"us-west","cc":"us","latitude":33.94279,"longitude":-118.41004,"reserved":0,"last_update":"0001-01-01T00:00:00Z","name_a2s":"Uncletopia | Los Angeles | 1 | All Maps","protocol":17,"map":"pl_upward","folder":"tf","game":"Team Fortress","app_id":440,"player_count":0,"max_players":24,"Bots":0,"server_type":"Dedicated","server_os":"Linux","password":true,"vac":true,"version":"7961495","steam_id":85568392924469991,"keywords":["nocrits","nodmgspread","payload","uncletopia"],"game_id":440,"stv_port":27016,"stv_name":"Uncletopia | Los Angeles | 1 | All Maps | STV","players":null},{"server_id":112,"name":"Uncletopia | Los Angeles | 2 | All Maps","name_short":"lax-2","host":"lax-1.us.uncletopia.com","port":27025,"enabled":true,"region":"us-west","cc":"us","latitude":33.94279,"longitude":-118.41004,"reserved":0,"last_update":"0001-01-01T00:00:00Z","name_a2s":"Uncletopia | Los Angeles | 2 | All Maps","protocol":17,"map":"koth_cascade","folder":"tf","game":"Team Fortress","app_id":440,"player_count":11,"max_players":24,"Bots":0,"server_type":"Dedicated","server_os":"Linux","password":true,"vac":true,"version":"7961495","steam_id":85568392924469992,"keywords":["cp","nocrits","nodmgspread","uncletopia"],"game_id":440,"stv_port":27026,"stv_name":"Uncletopia | Los Angeles | 2 | All Maps | STV","players":[{"user_id":10,"name":"Synthena","steam_id":76561198199137138,"connected_time":905000000000,"state":"active","ping":122},{"user_id":11,"name":"Orion 1 | Glitch","steam_id":76561198101234226,"connected_time":818000000000,"state":"active","ping":102},{"user_id":12,"name":"RockiMtnOystr","steam_id":76561198106915405,"connected_time":809000000000,"state":"active","ping":54},{"user_id":13,"name":"butterbean","steam_id":76561198311553512,"connected_time":709000000000,"state":"active","ping":50},{"user_id":14,"name":"when?","steam_id":76561199379152580,"connected_time":366000000000,"state":"active","ping":105},{"user_id":15,"name":"Lorelei","steam_id":76561198095778842,"connected_time":271000000000,"state":"active","ping":70},{"user_id":16,"name":"milk","steam_id":76561198053410877,"connected_time":193000000000,"state":"active","ping":44},{"user_id":17,"name":"Soggy Zogg","steam_id":76561198836316052,"connected_time":77000000000,"state":"active","ping":43},{"user_id":18,"name":"goth witch","steam_id":76561198069605283,"connected_time":73000000000,"state":"active","ping":46},{"user_id":19,"name":"Soda","steam_id":76561198108363656,"connected_time":70000000000,"state":"active","ping":47},{"user_id":20,"name":"Shazzy","steam_id":76561198145460523,"connected_time":37000000000,"state":"active","ping":60}]},{"server_id":324,"name":"Uncletopia | Los Angeles | 3 | All Maps","name_short":"lax-3","host":"lax-1.us.uncletopia.com","port":27035,"enabled":true,"region":"us-west","cc":"us","latitude":33.94279,"longitude":-118.41004,"reserved":0,"last_update":"0001-01-01T00:00:00Z","name_a2s":"Uncletopia | Los Angeles | 3 | All Maps","protocol":17,"map":"koth_lakeside_final","folder":"tf","game":"Team Fortress","app_id":440,"player_count":24,"max_players":24,"Bots":0,"server_type":"Dedicated","server_os":"Linux","password":true,"vac":true,"version":"7961495","steam_id":85568392924510198,"keywords":["cp","nocrits","nodmgspread","uncletopia"],"game_id":440,"stv_port":27036,"stv_name":"Uncletopia | Los Angeles | 3 | All Maps | STV","players":[{"user_id":334,"name":"monsterkill4567","steam_id":76561198272986367,"connected_time":3187000000000,"state":"active","ping":47},{"user_id":342,"name":"marie","steam_id":76561198265633146,"connected_time":2094000000000,"state":"active","ping":57},{"user_id":345,"name":"warzonego55","steam_id":76561198062747788,"connected_time":1760000000000,"state":"active","ping":49},{"user_id":353,"name":"Mr. Noodle","steam_id":76561198025280658,"connected_time":1096000000000,"state":"active","ping":53},{"user_id":288,"name":"ShadowZiki","steam_id":76561198145930013,"connected_time":5818000000000,"state":"active","ping":51},{"user_id":354,"name":"Seshreb","steam_id":76561198846614634,"connected_time":489000000000,"state":"active","ping":61},{"user_id":312,"name":"no vc no c","steam_id":76561197989503095,"connected_time":4256000000000,"state":"active","ping":160},{"user_id":346,"name":"thastephen","steam_id":76561198080289775,"connected_time":1734000000000,"state":"active","ping":41},{"user_id":329,"name":"Hydroxianchaos","steam_id":76561198043786828,"connected_time":3434000000000,"state":"active","ping":109},{"user_id":302,"name":"usedhalfcart","steam_id":76561198072621852,"connected_time":5161000000000,"state":"active","ping":68},{"user_id":344,"name":"Jerry","steam_id":76561198044717045,"connected_time":1793000000000,"state":"active","ping":45},{"user_id":355,"name":"Jimmy","steam_id":76561198857959855,"connected_time":269000000000,"state":"active","ping":47},{"user_id":347,"name":"filtered by cp_steel","steam_id":76561198031409921,"connected_time":1704000000000,"state":"active","ping":55},{"user_id":333,"name":"FROYO b4nny","steam_id":76561197970669109,"connected_time":3285000000000,"state":"active","ping":54},{"user_id":350,"name":"eryn ðŸ—º","steam_id":76561198004433070,"connected_time":1512000000000,"state":"active","ping":89},{"user_id":343,"name":"moewa","steam_id":76561198338739253,"connected_time":1910000000000,"state":"active","ping":53},{"user_id":352,"name":"fortzei","steam_id":76561198210920541,"connected_time":1232000000000,"state":"active","ping":59},{"user_id":317,"name":"ChoccyMiltank","steam_id":76561198981474284,"connected_time":4121000000000,"state":"active","ping":44},{"user_id":341,"name":"Irony is pretty cringy","steam_id":76561198120391460,"connected_time":2164000000000,"state":"active","ping":42},{"user_id":310,"name":"Drake from State Farm","steam_id":76561199069029812,"connected_time":4412000000000,"state":"active","ping":74},{"user_id":330,"name":"Korn Dawg graduated!","steam_id":76561198026941076,"connected_time":3411000000000,"state":"active","ping":61},{"user_id":340,"name":"Jest","steam_id":76561198170173062,"connected_time":2341000000000,"state":"active","ping":61},{"user_id":331,"name":"Daazed","steam_id":76561199174930132,"connected_time":3378000000000,"state":"active","ping":55},{"user_id":335,"name":"Evil Sayori","steam_id":76561198957479336,"connected_time":3104000000000,"state":"active","ping":101}]},{"server_id":25,"name":"Uncletopia | Los Angeles | 4 | Stopwatch","name_short":"lax-4","host":"lax-1.us.uncletopia.com","port":27045,"enabled":true,"region":"us-west","cc":"us","latitude":33.94279,"longitude":-118.41004,"reserved":0,"last_update":"0001-01-01T00:00:00Z","name_a2s":"Uncletopia | Los Angeles | 4 | Stopwatch","protocol":17,"map":"koth_highpass","folder":"tf","game":"Team Fortress","app_id":440,"player_count":0,"max_players":24,"Bots":0,"server_type":"Dedicated","server_os":"Linux","password":true,"vac":true,"version":"7961495","steam_id":85568392924510199,"keywords":["cp","nocrits","nodmgspread","uncletopia"],"game_id":440,"stv_port":27046,"stv_name":"Uncletopia | Los Angeles | 4 | Stopwatch | STV","players":null},{"server_id":11,"name":"Uncletopia | London | 1 | All Maps","name_short":"lon-1","host":"lon-1.uk.uncletopia.com","port":27015,"enabled":true,"region":"eu","cc":"gb","latitude":51.509865,"longitude":-0.118092,"reserved":0,"last_update":"0001-01-01T00:00:00Z","name_a2s":"Uncletopia | London | 1 | All Maps","protocol":17,"map":"cp_powerhouse","folder":"tf","game":"Team Fortress","app_id":440,"player_count":0,"max_players":24,"Bots":0,"server_type":"Dedicated","server_os":"Linux","password":true,"vac":true,"version":"7961495","steam_id":85568392924367362,"keywords":["cp","nocrits","nodmgspread","uncletopia"],"game_id":440,"stv_port":27016,"stv_name":"Uncletopia | London | 1 | All Maps | STV","players":null},{"server_id":114,"name":"Uncletopia | London | 2 | All Maps","name_short":"lon-2","host":"lon-1.uk.uncletopia.com","port":27025,"enabled":true,"region":"eu","cc":"gb","latitude":51.509865,"longitude":-0.118092,"reserved":0,"last_update":"0001-01-01T00:00:00Z","name_a2s":"Uncletopia | London | 2 | All Maps","protocol":17,"map":"pl_snowycoast","folder":"tf","game":"Team Fortress","app_id":440,"player_count":0,"max_players":24,"Bots":0,"server_type":"Dedicated","server_os":"Linux","password":true,"vac":true,"version":"7961495","steam_id":85568392924470941,"keywords":["nocrits","nodmgspread","payload","uncletopia"],"game_id":440,"stv_port":27026,"stv_name":"Uncletopia | London | 2 | All Maps | STV","players":null},{"server_id":320,"name":"Uncletopia | London | 3 | All Maps","name_short":"lon-3","host":"lon-1.uk.uncletopia.com","port":27035,"enabled":true,"region":"eu","cc":"gb","latitude":51.509865,"longitude":-0.118092,"reserved":0,"last_update":"0001-01-01T00:00:00Z","name_a2s":"Uncletopia | London | 3 | All Maps","protocol":17,"map":"koth_lakeside_final","folder":"tf","game":"Team Fortress","app_id":440,"player_count":0,"max_players":24,"Bots":0,"server_type":"Dedicated","server_os":"Linux","password":true,"vac":true,"version":"7961495","steam_id":85568392924510192,"keywords":["cp","nocrits","nodmgspread","uncletopia"],"game_id":440,"stv_port":27036,"stv_name":"Uncletopia | London | 3 | All Maps | STV","players":null},{"server_id":321,"name":"Uncletopia | London | 4 | All Maps","name_short":"lon-4","host":"lon-1.uk.uncletopia.com","port":27045,"enabled":true,"region":"eu","cc":"gb","latitude":51.509865,"longitude":-0.118092,"reserved":0,"last_update":"0001-01-01T00:00:00Z","name_a2s":"Uncletopia | London | 4 | All Maps","protocol":17,"map":"pl_badwater","folder":"tf","game":"Team Fortress","app_id":440,"player_count":0,"max_players":24,"Bots":0,"server_type":"Dedicated","server_os":"Linux","password":true,"vac":true,"version":"7961495","steam_id":85568392924510193,"keywords":["nocrits","nodmgspread","payload","uncletopia"],"game_id":440,"stv_port":27046,"stv_name":"Uncletopia | London | 4 | All Maps | STV","players":null},{"server_id":21,"name":"Uncletopia | London | 5 | All Maps","name_short":"lon-5","host":"lon-1.uk.uncletopia.com","port":27055,"enabled":true,"region":"eu","cc":"gb","latitude":51.509865,"longitude":-0.118092,"reserved":0,"last_update":"0001-01-01T00:00:00Z","name_a2s":"Uncletopia | London | 5 | All Maps","protocol":17,"map":"koth_lazarus","folder":"tf","game":"Team Fortress","app_id":440,"player_count":0,"max_players":24,"Bots":0,"server_type":"Dedicated","server_os":"Linux","password":true,"vac":true,"version":"7961495","steam_id":85568392924742829,"keywords":["cp","nocrits","nodmgspread","uncletopia"],"game_id":440,"stv_port":27056,"stv_name":"Uncletopia | London | 5 | All Maps | STV","players":null},{"server_id":22,"name":"Uncletopia | London | 6 | All Maps","name_short":"lon-6","host":"lon-1.uk.uncletopia.com","port":27065,"enabled":true,"region":"eu","cc":"gb","latitude":51.509865,"longitude":-0.118092,"reserved":0,"last_update":"0001-01-01T00:00:00Z","name_a2s":"Uncletopia | London | 6 | All Maps","protocol":17,"map":"cp_snakewater_final1","folder":"tf","game":"Team Fortress","app_id":440,"player_count":0,"max_players":24,"Bots":0,"server_type":"Dedicated","server_os":"Linux","password":true,"vac":true,"version":"7961495","steam_id":85568392924742830,"keywords":["cp","nocrits","nodmgspread","uncletopia"],"game_id":440,"stv_port":27066,"stv_name":"Uncletopia | London | 6 | All Maps | STV","players":null},{"server_id":40,"name":"Uncletopia | London | 7 | Stopwatch","name_short":"lon-7","host":"lon-1.uk.uncletopia.com","port":27075,"enabled":true,"region":"eu","cc":"gb","latitude":51.509865,"longitude":-0.118092,"reserved":0,"last_update":"0001-01-01T00:00:00Z","name_a2s":"Uncletopia | London | 7 | Stopwatch","protocol":17,"map":"workshop/pl_badwater_pro_v12.ugc2142942074","folder":"tf","game":"Team Fortress","app_id":440,"player_count":0,"max_players":24,"Bots":0,"server_type":"Dedicated","server_os":"Linux","password":true,"vac":true,"version":"7961495","steam_id":85568392924964314,"keywords":["nocrits","nodmgspread","payload","uncletopia"],"game_id":440,"stv_port":27076,"stv_name":"Uncletopia | London | 7 | Stopwatch | STV","players":null},{"server_id":41,"name":"Uncletopia | London | 8 | Community","name_short":"lon-8","host":"lon-1.uk.uncletopia.com","port":27085,"enabled":true,"region":"eu","cc":"gb","latitude":51.509865,"longitude":-0.118092,"reserved":0,"last_update":"0001-01-01T00:00:00Z","name_a2s":"Uncletopia | London | 8 | Community","protocol":17,"map":"workshop/cp_villa_b19.ugc2113052569","folder":"tf","game":"Team Fortress","app_id":440,"player_count":0,"max_players":24,"Bots":0,"server_type":"Dedicated","server_os":"Linux","password":true,"vac":true,"version":"7961495","steam_id":85568392924964315,"keywords":["cp","nocrits","nodmgspread","uncletopia"],"game_id":440,"stv_port":27086,"stv_name":"Uncletopia | London | 8 | Community | STV","players":null},{"server_id":300,"name":"Uncletopia | MontrÃ©al | 1 | One Thousand Uncles","name_short":"mtl-1","host":"mtl-1.ca.uncletopia.com","port":27015,"enabled":true,"region":"us-east","cc":"ca","latitude":45.50889,"longitude":-73.56167,"reserved":0,"last_update":"0001-01-01T00:00:00Z","name_a2s":"Uncletopia | MontrÃ©al | 1 | One Thousand Uncles","protocol":17,"map":"pl_badwater","folder":"tf","game":"Team Fortress","app_id":440,"player_count":0,"max_players":32,"Bots":0,"server_type":"Dedicated","server_os":"Linux","password":true,"vac":true,"version":"7961495","steam_id":85568392924500087,"keywords":["alltalk","danepve","increased_maxplayers","norespawntime","payload","uncletopia"],"game_id":440,"stv_port":0,"stv_name":"","players":null},{"server_id":301,"name":"Uncletopia | MontrÃ©al | 2 | One Thousand Uncles","name_short":"mtl-2","host":"mtl-1.ca.uncletopia.com","port":27025,"enabled":true,"region":"us-east","cc":"ca","latitude":45.50889,"longitude":-73.56167,"reserved":0,"last_update":"0001-01-01T00:00:00Z","name_a2s":"Uncletopia | MontrÃ©al | 2 | One Thousand Uncles","protocol":17,"map":"pl_chilly","folder":"tf","game":"Team Fortress","app_id":440,"player_count":0,"max_players":32,"Bots":0,"server_type":"Dedicated","server_os":"Linux","password":true,"vac":true,"version":"7961495","steam_id":85568392924500088,"keywords":["alltalk","danepve","increased_maxplayers","norespawntime","payload","uncletopia"],"game_id":440,"stv_port":0,"stv_name":"","players":null},{"server_id":302,"name":"Uncletopia | MontrÃ©al | 3 | One Thousand Uncles","name_short":"mtl-3","host":"mtl-1.ca.uncletopia.com","port":27035,"enabled":true,"region":"us-east","cc":"ca","latitude":45.50889,"longitude":-73.56167,"reserved":0,"last_update":"0001-01-01T00:00:00Z","name_a2s":"Uncletopia | MontrÃ©al | 3 | One Thousand Uncles","protocol":17,"map":"cp_mossrock","folder":"tf","game":"Team Fortress","app_id":440,"player_count":0,"max_players":32,"Bots":0,"server_type":"Dedicated","server_os":"Linux","password":true,"vac":true,"version":"7961495","steam_id":85568392924500089,"keywords":["alltalk","cp","danepve","increased_maxplayers","norespawntime","uncletopia"],"game_id":440,"stv_port":0,"stv_name":"","players":null},{"server_id":13,"name":"Uncletopia | New York City | 1 | All Maps","name_short":"nyc-1","host":"nyc-1.us.uncletopia.com","port":27015,"enabled":true,"region":"us-east","cc":"us","latitude":40.73061,"longitude":-73.93524,"reserved":0,"last_update":"0001-01-01T00:00:00Z","name_a2s":"Uncletopia | New York City | 1 | All Maps","protocol":17,"map":"cp_sunshine","folder":"tf","game":"Team Fortress","app_id":440,"player_count":22,"max_players":24,"Bots":0,"server_type":"Dedicated","server_os":"Linux","password":true,"vac":true,"version":"7961495","steam_id":85568392924469993,"keywords":["cp","nocrits","nodmgspread","uncletopia"],"game_id":440,"stv_port":27016,"stv_name":"Uncletopia | New York City | 1 | All Maps | STV","players":[{"user_id":263,"name":"BLÃ˜RG","steam_id":76561198036126673,"connected_time":1581000000000,"state":"active","ping":97},{"user_id":225,"name":"True Love Makin' \u003c3","steam_id":76561198131796104,"connected_time":4722000000000,"state":"active","ping":70},{"user_id":259,"name":"Buck","steam_id":76561198064244796,"connected_time":1855000000000,"state":"active","ping":58},{"user_id":273,"name":"King Kalo","steam_id":76561198387671992,"connected_time":402000000000,"state":"active","ping":64},{"user_id":256,"name":"sloth (lawful good)","steam_id":76561198047098172,"connected_time":2062000000000,"state":"active","ping":65},{"user_id":205,"name":"GuyGoom","steam_id":76561198254522178,"connected_time":6334000000000,"state":"active","ping":85},{"user_id":206,"name":"the.land.of.avalon","steam_id":76561198245431668,"connected_time":6322000000000,"state":"active","ping":89},{"user_id":233,"name":"Menachem","steam_id":76561198041226420,"connected_time":3783000000000,"state":"active","ping":65},{"user_id":239,"name":"Banana connoisseur","steam_id":76561199156630225,"connected_time":3552000000000,"state":"active","ping":53},{"user_id":248,"name":"Reisen","steam_id":76561197968832019,"connected_time":3083000000000,"state":"active","ping":46},{"user_id":272,"name":"OiledAssShaker","steam_id":76561198132068284,"connected_time":580000000000,"state":"active","ping":49},{"user_id":274,"name":"Happy Bucket","steam_id":76561198066053527,"connected_time":305000000000,"state":"active","ping":95},{"user_id":276,"name":"RubMahJibblies","steam_id":76561198072827760,"connected_time":185000000000,"state":"active","ping":121},{"user_id":92,"name":"googa","steam_id":76561198133130452,"connected_time":16397000000000,"state":"active","ping":45},{"user_id":277,"name":"á—œË¬á—œ","steam_id":76561198049076233,"connected_time":166000000000,"state":"active","ping":41},{"user_id":241,"name":"james_bondage","steam_id":76561199476062624,"connected_time":3478000000000,"state":"active","ping":61},{"user_id":264,"name":"Gary Budussy","steam_id":76561197969793969,"connected_time":1386000000000,"state":"active","ping":75},{"user_id":278,"name":"Hannya Man","steam_id":76561198029782780,"connected_time":151000000000,"state":"active","ping":68},{"user_id":266,"name":"Stick","steam_id":76561198001509374,"connected_time":1340000000000,"state":"active","ping":82},{"user_id":254,"name":"Matlock","steam_id":76561198012092071,"connected_time":2209000000000,"state":"active","ping":49},{"user_id":267,"name":"Genderneutron","steam_id":76561199022773775,"connected_time":1062000000000,"state":"active","ping":97},{"user_id":244,"name":"Verily","steam_id":76561198200558318,"connected_time":3424000000000,"state":"active","ping":74}]},{"server_id":14,"name":"Uncletopia | New York City | 2 | All Maps","name_short":"nyc-2","host":"nyc-1.us.uncletopia.com","port":27025,"enabled":true,"region":"us-east","cc":"us","latitude":40.73061,"longitude":-73.93524,"reserved":0,"last_update":"0001-01-01T00:00:00Z","name_a2s":"Uncletopia | New York City | 2 | All Maps","protocol":17,"map":"pl_borneo","folder":"tf","game":"Team Fortress","app_id":440,"player_count":23,"max_players":24,"Bots":0,"server_type":"Dedicated","server_os":"Linux","password":true,"vac":true,"version":"7961495","steam_id":85568392924469994,"keywords":["nocrits","nodmgspread","payload","uncletopia"],"game_id":440,"stv_port":27026,"stv_name":"Uncletopia | New York City | 2 | All Maps | STV","players":[{"user_id":414,"name":"Vincent Van Ghoul","steam_id":76561198271907916,"connected_time":1133000000000,"state":"active","ping":48},{"user_id":397,"name":"SleepyTrout (Charging My PsP)","steam_id":76561198118082897,"connected_time":1752000000000,"state":"active","ping":119},{"user_id":392,"name":"jr933368","steam_id":76561199507931052,"connected_time":2556000000000,"state":"active","ping":122},{"user_id":398,"name":"AstralLucario","steam_id":76561198075427665,"connected_time":1747000000000,"state":"active","ping":59},{"user_id":420,"name":"mark!","steam_id":76561198184639801,"connected_time":208000000000,"state":"active","ping":118},{"user_id":422,"name":"adil","steam_id":76561198197047443,"connected_time":58000000000,"state":"active","ping":78},{"user_id":419,"name":"Mr. Squirt","steam_id":76561198174755679,"connected_time":568000000000,"state":"active","ping":44},{"user_id":399,"name":"chill stoner guy w cool stories","steam_id":76561198120973162,"connected_time":1717000000000,"state":"active","ping":81},{"user_id":400,"name":"baby trump vs baby joe biden","steam_id":76561198051310816,"connected_time":1712000000000,"state":"active","ping":82},{"user_id":417,"name":"bomba","steam_id":76561198301585642,"connected_time":803000000000,"state":"active","ping":51},{"user_id":401,"name":"kaputon","steam_id":76561198146299782,"connected_time":1707000000000,"state":"active","ping":79},{"user_id":423,"name":"Bunni","steam_id":76561198065169997,"connected_time":49000000000,"state":"active","ping":91},{"user_id":402,"name":"ryler","steam_id":76561198087876394,"connected_time":1696000000000,"state":"active","ping":57},{"user_id":403,"name":"Nickson1","steam_id":76561198175839309,"connected_time":1694000000000,"state":"active","ping":60},{"user_id":342,"name":"Bacchus","steam_id":76561198113244990,"connected_time":5045000000000,"state":"active","ping":57},{"user_id":415,"name":"Fever Dreams","steam_id":76561198116614620,"connected_time":1114000000000,"state":"active","ping":65},{"user_id":404,"name":"Jay","steam_id":76561198084129048,"connected_time":1694000000000,"state":"active","ping":75},{"user_id":424,"name":"there is cum in my ramen","steam_id":76561198059815894,"connected_time":33000000000,"state":"active","ping":59},{"user_id":416,"name":"cute anime girl","steam_id":76561198313129977,"connected_time":1071000000000,"state":"active","ping":119},{"user_id":407,"name":"Gram Tokers Count Doinkula","steam_id":76561198112811565,"connected_time":1604000000000,"state":"active","ping":56},{"user_id":344,"name":"Edsuedi","steam_id":76561198074722832,"connected_time":5019000000000,"state":"active","ping":122},{"user_id":409,"name":"DethSQRL","steam_id":76561199149628610,"connected_time":1439000000000,"state":"active","ping":75},{"user_id":421,"name":"Equinox","steam_id":76561198274279754,"connected_time":185000000000,"state":"active","ping":74}]},{"server_id":15,"name":"Uncletopia | New York City | 3 | Stopwatch","name_short":"nyc-3","host":"nyc-1.us.uncletopia.com","port":27035,"enabled":true,"region":"us-east","cc":"us","latitude":40.73061,"longitude":-73.93524,"reserved":0,"last_update":"0001-01-01T00:00:00Z","name_a2s":"Uncletopia | New York City | 3 | Stopwatch","protocol":17,"map":"workshop/pl_summercoast_rc8e.ugc1761528829","folder":"tf","game":"Team Fortress","app_id":440,"player_count":1,"max_players":24,"Bots":0,"server_type":"Dedicated","server_os":"Linux","password":true,"vac":true,"version":"7961495","steam_id":85568392924742820,"keywords":["nocrits","nodmgspread","payload","uncletopia"],"game_id":440,"stv_port":27036,"stv_name":"Uncletopia | New York City | 3 | Stopwatch | STV","players":[{"user_id":13,"name":"krtxzena","steam_id":76561199078490321,"connected_time":737000000000,"state":"active","ping":103}]},{"server_id":16,"name":"Uncletopia | New York City | 4 | Community","name_short":"nyc-4","host":"nyc-1.us.uncletopia.com","port":27045,"enabled":true,"region":"us-east","cc":"us","latitude":40.73061,"longitude":-73.93524,"reserved":0,"last_update":"0001-01-01T00:00:00Z","name_a2s":"Uncletopia | New York City | 4 | Community","protocol":17,"map":"workshop/cp_propaganda_b18.ugc1603743849","folder":"tf","game":"Team Fortress","app_id":440,"player_count":0,"max_players":24,"Bots":0,"server_type":"Dedicated","server_os":"Linux","password":true,"vac":true,"version":"7961495","steam_id":85568392924742821,"keywords":["cp","nocrits","nodmgspread","uncletopia"],"game_id":440,"stv_port":27046,"stv_name":"Uncletopia | New York City | 4 | Community | STV","players":null},{"server_id":142,"name":"Uncletopia | SÃ£o Paulo | 1 | All Maps","name_short":"sao-1","host":"sao-1.br.uncletopia.com","port":27015,"enabled":true,"region":"sa","cc":"br","latitude":-23.533773,"longitude":-46.62529,"reserved":0,"last_update":"0001-01-01T00:00:00Z","name_a2s":"Uncletopia | SÃ£o Paulo | 1 | All Maps","protocol":17,"map":"koth_cascade","folder":"tf","game":"Team Fortress","app_id":440,"player_count":0,"max_players":24,"Bots":0,"server_type":"Dedicated","server_os":"Linux","password":true,"vac":true,"version":"7961495","steam_id":85568392924469996,"keywords":["cp","nocrits","nodmgspread","uncletopia"],"game_id":440,"stv_port":27016,"stv_name":"Uncletopia | SÃ£o Paulo | 1 | All Maps | STV","players":null},{"server_id":143,"name":"Uncletopia | SÃ£o Paulo | 2 | Community","name_short":"sao-2","host":"sao-2.br.uncletopia.com","port":27015,"enabled":true,"region":"sa","cc":"br","latitude":-23.533773,"longitude":-46.62529,"reserved":0,"last_update":"0001-01-01T00:00:00Z","name_a2s":"Uncletopia | SÃ£o Paulo | 2 | Community","protocol":17,"map":"workshop/koth_product_final.ugc454272353","folder":"tf","game":"Team Fortress","app_id":440,"player_count":0,"max_players":24,"Bots":0,"server_type":"Dedicated","server_os":"Linux","password":true,"vac":true,"version":"7961495","steam_id":85568392924485349,"keywords":["cp","nocrits","nodmgspread","uncletopia"],"game_id":440,"stv_port":27016,"stv_name":"Uncletopia | SÃ£o Paulo | 2 | Community | STV","players":null},{"server_id":7,"name":"Uncletopia | Seattle | 1 | All Maps","name_short":"sea-1","host":"sea-1.us.uncletopia.com","port":27015,"enabled":true,"region":"us-west","cc":"us","latitude":47.608013,"longitude":-122.33517,"reserved":0,"last_update":"0001-01-01T00:00:00Z","name_a2s":"Uncletopia | Seattle | 1 | All Maps","protocol":17,"map":"pl_enclosure_final","folder":"tf","game":"Team Fortress","app_id":440,"player_count":25,"max_players":24,"Bots":0,"server_type":"Dedicated","server_os":"Linux","password":true,"vac":true,"version":"7961495","steam_id":85568392924469997,"keywords":["nocrits","nodmgspread","payload","uncletopia"],"game_id":440,"stv_port":27016,"stv_name":"Uncletopia | Seattle | 1 | All Maps | STV","players":[{"user_id":773,"name":"mega","steam_id":76561198089520959,"connected_time":250000000000,"state":"active","ping":109},{"user_id":690,"name":"The King of Piss World","steam_id":76561198082806956,"connected_time":8427000000000,"state":"active","ping":105},{"user_id":770,"name":"Lunch Enjoyer","steam_id":76561198037361116,"connected_time":542000000000,"state":"active","ping":56},{"user_id":756,"name":"Grassman (Cc)","steam_id":76561198026488532,"connected_time":2141000000000,"state":"active","ping":61},{"user_id":735,"name":"Luca","steam_id":76561198125087140,"connected_time":3702000000000,"state":"active","ping":46},{"user_id":768,"name":"fungi@bowie.gg","steam_id":76561198169755734,"connected_time":636000000000,"state":"active","ping":72},{"user_id":739,"name":"squash","steam_id":76561198150281353,"connected_time":3460000000000,"state":"active","ping":58},{"user_id":721,"name":"severe fjord withdrawals","steam_id":76561198131166135,"connected_time":4297000000000,"state":"active","ping":40},{"user_id":741,"name":"Nom Skirrett","steam_id":76561198014600788,"connected_time":3238000000000,"state":"active","ping":67},{"user_id":765,"name":"Mango","steam_id":76561198266322471,"connected_time":893000000000,"state":"active","ping":46},{"user_id":752,"name":"Brathic","steam_id":76561198966232163,"connected_time":2288000000000,"state":"active","ping":95},{"user_id":732,"name":"TROY","steam_id":76561197983852176,"connected_time":4043000000000,"state":"active","ping":83},{"user_id":700,"name":"Loading...","steam_id":76561198075555396,"connected_time":7091000000000,"state":"active","ping":42},{"user_id":719,"name":"rat gets the cheese","steam_id":76561198031234032,"connected_time":4726000000000,"state":"active","ping":103},{"user_id":771,"name":"Sniff","steam_id":76561198010270922,"connected_time":481000000000,"state":"active","ping":48},{"user_id":769,"name":"strawberry","steam_id":76561198101926397,"connected_time":636000000000,"state":"active","ping":57},{"user_id":736,"name":"NEBULA","steam_id":76561198086878595,"connected_time":3586000000000,"state":"active","ping":76},{"user_id":707,"name":"gordonz88","steam_id":76561198020241395,"connected_time":6634000000000,"state":"active","ping":45},{"user_id":761,"name":"hatred","steam_id":76561198904209270,"connected_time":1348000000000,"state":"active","ping":59},{"user_id":755,"name":"allahsdroptop (Bag/Chaser)","steam_id":76561198133195238,"connected_time":2197000000000,"state":"active","ping":72},{"user_id":772,"name":"Daz","steam_id":76561198041431938,"connected_time":380000000000,"state":"active","ping":56},{"user_id":706,"name":"HotHead","steam_id":76561198138468982,"connected_time":6798000000000,"state":"active","ping":59},{"user_id":764,"name":"Squigzy_","steam_id":76561198061696667,"connected_time":973000000000,"state":"active","ping":80},{"user_id":774,"name":"Dog","steam_id":76561198041841128,"connected_time":88000000000,"state":"active","ping":87},{"user_id":759,"name":"Lonestar827","steam_id":76561198035533639,"connected_time":1720000000000,"state":"active","ping":46}]},{"server_id":119,"name":"Uncletopia | Seattle | 2 | All Maps","name_short":"sea-2","host":"sea-1.us.uncletopia.com","port":27025,"enabled":true,"region":"us-west","cc":"us","latitude":47.608013,"longitude":-122.33517,"reserved":0,"last_update":"0001-01-01T00:00:00Z","name_a2s":"Uncletopia | Seattle | 2 | All Maps","protocol":17,"map":"cp_steel","folder":"tf","game":"Team Fortress","app_id":440,"player_count":24,"max_players":24,"Bots":0,"server_type":"Dedicated","server_os":"Linux","password":true,"vac":true,"version":"7961495","steam_id":85568392924469998,"keywords":["cp","nocrits","nodmgspread","uncletopia"],"game_id":440,"stv_port":27026,"stv_name":"Uncletopia | Seattle | 2 | All Maps | STV","players":[{"user_id":113,"name":"HappyLizard","steam_id":76561198014721507,"connected_time":5794000000000,"state":"active","ping":77},{"user_id":168,"name":"Grill Skills","steam_id":76561198053575147,"connected_time":1129000000000,"state":"active","ping":50},{"user_id":121,"name":"Lily Thorn","steam_id":76561198305488625,"connected_time":4495000000000,"state":"active","ping":53},{"user_id":161,"name":"Mocha Josie","steam_id":76561198066452726,"connected_time":1381000000000,"state":"active","ping":70},{"user_id":166,"name":"Gojira19","steam_id":76561198206384351,"connected_time":1287000000000,"state":"active","ping":87},{"user_id":175,"name":"video games","steam_id":76561198334059206,"connected_time":278000000000,"state":"active","ping":71},{"user_id":114,"name":"R5-D4","steam_id":76561198025196439,"connected_time":5660000000000,"state":"active","ping":49},{"user_id":174,"name":"dodecadron","steam_id":76561198027397222,"connected_time":383000000000,"state":"active","ping":62},{"user_id":147,"name":"Batso","steam_id":76561198106589452,"connected_time":1957000000000,"state":"active","ping":83},{"user_id":170,"name":"áµáµ‰áµ’Ê·","steam_id":76561199200969139,"connected_time":864000000000,"state":"active","ping":134},{"user_id":66,"name":"Katie XXII","steam_id":76561198135534297,"connected_time":8842000000000,"state":"active","ping":48},{"user_id":176,"name":"Warhawk","steam_id":76561198008892743,"connected_time":218000000000,"state":"active","ping":52},{"user_id":154,"name":"Obersteuermann","steam_id":76561198044468707,"connected_time":1534000000000,"state":"active","ping":52},{"user_id":178,"name":"the pizza","steam_id":76561198221331476,"connected_time":31000000000,"state":"spawning","ping":52},{"user_id":74,"name":"Preston","steam_id":76561198255721392,"connected_time":8456000000000,"state":"active","ping":119},{"user_id":141,"name":"UV","steam_id":76561198083936918,"connected_time":2256000000000,"state":"active","ping":55},{"user_id":103,"name":"F I S H","steam_id":76561198282522963,"connected_time":6474000000000,"state":"active","ping":90},{"user_id":140,"name":"Houdini Cache","steam_id":76561198045506970,"connected_time":2270000000000,"state":"active","ping":42},{"user_id":136,"name":"Geesemans","steam_id":76561199478892816,"connected_time":3143000000000,"state":"active","ping":91},{"user_id":139,"name":"squart guy","steam_id":76561199411560141,"connected_time":2471000000000,"state":"active","ping":48},{"user_id":116,"name":"\u003c blank \u003e","steam_id":76561198097188001,"connected_time":5570000000000,"state":"active","ping":45},{"user_id":173,"name":"ballmuncher29","steam_id":76561199122915452,"connected_time":506000000000,"state":"active","ping":55},{"user_id":177,"name":"sobaka","steam_id":76561198116008934,"connected_time":123000000000,"state":"spawning","ping":51},{"user_id":160,"name":"Amateur Glaswegian","steam_id":76561198030851956,"connected_time":1449000000000,"state":"active","ping":54}]},{"server_id":406,"name":"Uncletopia | Seattle | 3 | Stopwatch","name_short":"sea-3","host":"sea-1.us.uncletopia.com","port":27035,"enabled":true,"region":"us-west","cc":"us","latitude":47.608013,"longitude":-122.33517,"reserved":0,"last_update":"0001-01-01T00:00:00Z","name_a2s":"Uncletopia | Seattle | 3 | Stopwatch","protocol":17,"map":"workshop/koth_product_final.ugc454272353","folder":"tf","game":"Team Fortress","app_id":440,"player_count":0,"max_players":24,"Bots":0,"server_type":"Dedicated","server_os":"Linux","password":true,"vac":true,"version":"7961495","steam_id":85568392924515217,"keywords":["cp","nocrits","nodmgspread","uncletopia"],"game_id":440,"stv_port":27036,"stv_name":"Uncletopia | Seattle | 3 | Stopwatch | STV","players":null},{"server_id":17,"name":"Uncletopia | San Francisco | 1 | All Maps","name_short":"sfo-1","host":"sfo-1.us.uncletopia.com","port":27015,"enabled":true,"region":"us-west","cc":"us","latitude":37.77397,"longitude":-122.4313,"reserved":0,"last_update":"0001-01-01T00:00:00Z","name_a2s":"Uncletopia | San Francisco | 1 | All Maps","protocol":17,"map":"pl_frontier_final","folder":"tf","game":"Team Fortress","app_id":440,"player_count":24,"max_players":24,"Bots":0,"server_type":"Dedicated","server_os":"Linux","password":true,"vac":true,"version":"7961495","steam_id":85568392924469999,"keywords":["nocrits","nodmgspread","payload","uncletopia"],"game_id":440,"stv_port":27016,"stv_name":"Uncletopia | San Francisco | 1 | All Maps | STV","players":[{"user_id":238,"name":"[Ã˜WQJÃ˜]chubacaalatake","steam_id":76561198136201697,"connected_time":5143000000000,"state":"active","ping":97},{"user_id":296,"name":"Wild Meep","steam_id":76561198199271438,"connected_time":1053000000000,"state":"active","ping":136},{"user_id":286,"name":"kaede","steam_id":76561198345528370,"connected_time":2374000000000,"state":"active","ping":40},{"user_id":294,"name":"MechanizedContortion","steam_id":76561199146092247,"connected_time":1073000000000,"state":"active","ping":74},{"user_id":298,"name":"Excalibrine","steam_id":76561198129312118,"connected_time":1028000000000,"state":"active","ping":59},{"user_id":248,"name":"SolarusD","steam_id":76561198029279861,"connected_time":4480000000000,"state":"active","ping":52},{"user_id":299,"name":"Poppet","steam_id":76561198012301951,"connected_time":980000000000,"state":"active","ping":119},{"user_id":284,"name":"SkadooshPlayz","steam_id":76561198310986662,"connected_time":2382000000000,"state":"active","ping":53},{"user_id":300,"name":"NÃ¼Ã¾","steam_id":76561198043956703,"connected_time":972000000000,"state":"active","ping":59},{"user_id":292,"name":"wistful autumn","steam_id":76561198045810207,"connected_time":2186000000000,"state":"active","ping":57},{"user_id":134,"name":"Lambchop","steam_id":76561198043900363,"connected_time":13509000000000,"state":"active","ping":60},{"user_id":287,"name":"Keamy","steam_id":76561199471434875,"connected_time":2330000000000,"state":"active","ping":60},{"user_id":307,"name":"Travorski","steam_id":76561198072493142,"connected_time":44000000000,"state":"active","ping":92},{"user_id":288,"name":"boobalover77","steam_id":76561198237474278,"connected_time":2284000000000,"state":"active","ping":43},{"user_id":208,"name":"ChimpusGaming","steam_id":76561198060954715,"connected_time":8994000000000,"state":"active","ping":101},{"user_id":301,"name":"Mapachito Lindo","steam_id":76561198031359995,"connected_time":932000000000,"state":"active","ping":64},{"user_id":261,"name":"The Grungler","steam_id":76561198126561438,"connected_time":3433000000000,"state":"active","ping":59},{"user_id":295,"name":"AtomSQRRL","steam_id":76561199151951364,"connected_time":1059000000000,"state":"active","ping":61},{"user_id":306,"name":"Churro Chewer","steam_id":76561198170253694,"connected_time":240000000000,"state":"active","ping":85},{"user_id":291,"name":"PTR","steam_id":76561198237253772,"connected_time":2251000000000,"state":"active","ping":88},{"user_id":269,"name":"Creamy","steam_id":76561197994828098,"connected_time":3118000000000,"state":"active","ping":61},{"user_id":297,"name":"thnx","steam_id":76561198107219183,"connected_time":1050000000000,"state":"active","ping":63},{"user_id":281,"name":"Lemonade Juice","steam_id":76561198402892608,"connected_time":2648000000000,"state":"active","ping":57},{"user_id":303,"name":"SunkenSole9132","steam_id":76561198359562446,"connected_time":861000000000,"state":"active","ping":72}]},{"server_id":18,"name":"Uncletopia | San Francisco | 2 | All Maps","name_short":"sfo-2","host":"sfo-1.us.uncletopia.com","port":27025,"enabled":true,"region":"us-west","cc":"us","latitude":37.77397,"longitude":-122.4313,"reserved":0,"last_update":"0001-01-01T00:00:00Z","name_a2s":"Uncletopia | San Francisco | 2 | All Maps","protocol":17,"map":"pl_borneo","folder":"tf","game":"Team Fortress","app_id":440,"player_count":23,"max_players":24,"Bots":0,"server_type":"Dedicated","server_os":"Linux","password":true,"vac":true,"version":"7961495","steam_id":85568392924470000,"keywords":["nocrits","nodmgspread","payload","uncletopia"],"game_id":440,"stv_port":27026,"stv_name":"Uncletopia | San Francisco | 2 | All Maps | STV","players":[{"user_id":18,"name":"duddlee","steam_id":76561198030052564,"connected_time":4717000000000,"state":"active","ping":79},{"user_id":19,"name":"weebee","steam_id":76561198313610950,"connected_time":4682000000000,"state":"active","ping":74},{"user_id":20,"name":"roody","steam_id":76561198066260405,"connected_time":4650000000000,"state":"active","ping":71},{"user_id":21,"name":"JacobOneHundredPercentWholeWhea","steam_id":76561198045992418,"connected_time":4634000000000,"state":"active","ping":76},{"user_id":22,"name":"GalaxyDoug32","steam_id":76561197997126305,"connected_time":4626000000000,"state":"active","ping":76},{"user_id":43,"name":"IfOnlyBiggieCheese","steam_id":76561199207813582,"connected_time":3102000000000,"state":"active","ping":74},{"user_id":70,"name":"[TRR/IO] Tangerine Baker","steam_id":76561199004774964,"connected_time":502000000000,"state":"active","ping":60},{"user_id":25,"name":"Ass Clown","steam_id":76561198108838905,"connected_time":4027000000000,"state":"active","ping":117},{"user_id":57,"name":"Lickity Split","steam_id":76561198132051047,"connected_time":2054000000000,"state":"active","ping":87},{"user_id":53,"name":"Human Resources Manager","steam_id":76561198066386411,"connected_time":2629000000000,"state":"active","ping":55},{"user_id":59,"name":"HappilyDisturbed","steam_id":76561198156158743,"connected_time":2023000000000,"state":"active","ping":104},{"user_id":66,"name":"Fercho Mo","steam_id":76561198168935077,"connected_time":812000000000,"state":"active","ping":102},{"user_id":71,"name":"Queue","steam_id":76561198034312329,"connected_time":235000000000,"state":"active","ping":58},{"user_id":60,"name":"Cat on the Moon","steam_id":76561198272661627,"connected_time":2009000000000,"state":"active","ping":59},{"user_id":69,"name":"ebes","steam_id":76561198143028254,"connected_time":648000000000,"state":"active","ping":34},{"user_id":64,"name":"supcupman","steam_id":76561198051513866,"connected_time":1064000000000,"state":"active","ping":51},{"user_id":35,"name":"ronald_stackerusa55","steam_id":76561198150406851,"connected_time":3641000000000,"state":"active","ping":57},{"user_id":36,"name":"USP Victorville","steam_id":76561198117025741,"connected_time":3434000000000,"state":"active","ping":47},{"user_id":48,"name":"don","steam_id":76561198204410892,"connected_time":3009000000000,"state":"active","ping":99},{"user_id":40,"name":"Ziodyne__","steam_id":76561198313689097,"connected_time":3285000000000,"state":"active","ping":122},{"user_id":72,"name":"Daddy Topps","steam_id":76561198203594332,"connected_time":211000000000,"state":"active","ping":72},{"user_id":63,"name":"dudeguypersonmanhombre","steam_id":76561198052016845,"connected_time":1078000000000,"state":"active","ping":76},{"user_id":42,"name":"Lancerland","steam_id":76561198130497320,"connected_time":3205000000000,"state":"active","ping":60}]},{"server_id":19,"name":"Uncletopia | San Francisco | 3 | Stopwatch","name_short":"sfo-3","host":"sfo-1.us.uncletopia.com","port":27035,"enabled":true,"region":"us-west","cc":"us","latitude":37.77397,"longitude":-122.4313,"reserved":0,"last_update":"0001-01-01T00:00:00Z","name_a2s":"Uncletopia | San Francisco | 3 | Stopwatch","protocol":17,"map":"pl_swiftwater_final1","folder":"tf","game":"Team Fortress","app_id":440,"player_count":0,"max_players":24,"Bots":0,"server_type":"Dedicated","server_os":"Linux","password":true,"vac":true,"version":"7961495","steam_id":85568392924742824,"keywords":["nocrits","nodmgspread","payload","uncletopia"],"game_id":440,"stv_port":27036,"stv_name":"Uncletopia | San Francisco | 3 | Stopwatch | STV","players":null},{"server_id":20,"name":"Uncletopia | San Francisco | 4 | Community","name_short":"sfo-4","host":"sfo-1.us.uncletopia.com","port":27045,"enabled":true,"region":"us-west","cc":"us","latitude":37.77397,"longitude":-122.4313,"reserved":0,"last_update":"0001-01-01T00:00:00Z","name_a2s":"Uncletopia | San Francisco | 4 | Community","protocol":17,"map":"workshop/pl_shoreleave_rc2.ugc1238849347","folder":"tf","game":"Team Fortress","app_id":440,"player_count":0,"max_players":24,"Bots":0,"server_type":"Dedicated","server_os":"Linux","password":true,"vac":true,"version":"7961495","steam_id":85568392924742826,"keywords":["nocrits","nodmgspread","payload","uncletopia"],"game_id":440,"stv_port":27046,"stv_name":"Uncletopia | San Francisco | 4 | Community | STV","players":null},{"server_id":141,"name":"Uncletopia | Sydney | 1 | All Maps","name_short":"syd-1","host":"syd-1.au.uncletopia.com","port":27015,"enabled":true,"region":"au","cc":"au","latitude":-33.865143,"longitude":151.2099,"reserved":0,"last_update":"0001-01-01T00:00:00Z","name_a2s":"Uncletopia | Sydney | 1 | All Maps","protocol":17,"map":"koth_nucleus","folder":"tf","game":"Team Fortress","app_id":440,"player_count":0,"max_players":24,"Bots":0,"server_type":"Dedicated","server_os":"Linux","password":true,"vac":true,"version":"7961495","steam_id":85568392924470001,"keywords":["cp","nocrits","nodmgspread","uncletopia"],"game_id":440,"stv_port":27016,"stv_name":"Uncletopia | Sydney | 1 | All Maps | STV","players":null},{"server_id":123,"name":"Uncletopia | Sydney | 2 | All Maps","name_short":"syd-2","host":"syd-1.au.uncletopia.com","port":27025,"enabled":true,"region":"au","cc":"au","latitude":-33.865143,"longitude":151.2099,"reserved":0,"last_update":"0001-01-01T00:00:00Z","name_a2s":"Uncletopia | Sydney | 2 | All Maps","protocol":17,"map":"cp_fastlane","folder":"tf","game":"Team Fortress","app_id":440,"player_count":0,"max_players":24,"Bots":0,"server_type":"Dedicated","server_os":"Linux","password":true,"vac":true,"version":"7961495","steam_id":85568392924470002,"keywords":["cp","nocrits","nodmgspread","uncletopia"],"game_id":440,"stv_port":27026,"stv_name":"Uncletopia | Sydney | 2 | All Maps | STV","players":null},{"server_id":395,"name":"Uncletopia | Sydney | 3 | All Maps","name_short":"syd-3","host":"syd-1.au.uncletopia.com","port":27035,"enabled":true,"region":"au","cc":"au","latitude":-33.865143,"longitude":151.2099,"reserved":0,"last_update":"0001-01-01T00:00:00Z","name_a2s":"Uncletopia | Sydney | 3 | All Maps","protocol":17,"map":"cp_metalworks","folder":"tf","game":"Team Fortress","app_id":440,"player_count":0,"max_players":24,"Bots":0,"server_type":"Dedicated","server_os":"Linux","password":true,"vac":true,"version":"7961495","steam_id":85568392925194467,"keywords":["cp","nocrits","nodmgspread","uncletopia"],"game_id":440,"stv_port":27036,"stv_name":"Uncletopia | Sydney | 3 | All Maps | STV","players":null},{"server_id":396,"name":"Uncletopia | Sydney | 4 | All Maps","name_short":"syd-4","host":"syd-1.au.uncletopia.com","port":27045,"enabled":true,"region":"au","cc":"au","latitude":-33.865143,"longitude":151.2099,"reserved":0,"last_update":"0001-01-01T00:00:00Z","name_a2s":"Uncletopia | Sydney | 4 | All Maps","protocol":17,"map":"koth_cascade","folder":"tf","game":"Team Fortress","app_id":440,"player_count":0,"max_players":24,"Bots":0,"server_type":"Dedicated","server_os":"Linux","password":true,"vac":true,"version":"7961495","steam_id":85568392925397958,"keywords":["cp","nocrits","nodmgspread","uncletopia"],"game_id":440,"stv_port":27046,"stv_name":"Uncletopia | Sydney | 4 | All Maps | STV","players":null},{"server_id":58,"name":"Uncletopia | Sydney | 5 | Stopwatch","name_short":"syd-5","host":"syd-1.au.uncletopia.com","port":27055,"enabled":true,"region":"au","cc":"au","latitude":-33.865143,"longitude":151.2099,"reserved":0,"last_update":"0001-01-01T00:00:00Z","name_a2s":"Uncletopia | Sydney | 5 | Stopwatch","protocol":17,"map":"workshop/koth_product_final.ugc454272353","folder":"tf","game":"Team Fortress","app_id":440,"player_count":0,"max_players":24,"Bots":0,"server_type":"Dedicated","server_os":"Linux","password":true,"vac":true,"version":"7961495","steam_id":85568392925397959,"keywords":["cp","nocrits","nodmgspread","uncletopia"],"game_id":440,"stv_port":27056,"stv_name":"Uncletopia | Sydney | 5 | Stopwatch | STV","players":null},{"server_id":59,"name":"Uncletopia | Sydney | 6 | Community","name_short":"syd-6","host":"syd-1.au.uncletopia.com","port":27065,"enabled":true,"region":"au","cc":"au","latitude":-33.865143,"longitude":151.2099,"reserved":0,"last_update":"0001-01-01T00:00:00Z","name_a2s":"Uncletopia | Sydney | 6 | Community","protocol":17,"map":"workshop/koth_trenchfoot_ab1.ugc731436616","folder":"tf","game":"Team Fortress","app_id":440,"player_count":0,"max_players":24,"Bots":0,"server_type":"Dedicated","server_os":"Linux","password":true,"vac":true,"version":"7961495","steam_id":85568392925397960,"keywords":["cp","nocrits","nodmgspread","uncletopia"],"game_id":440,"stv_port":27066,"stv_name":"Uncletopia | Sydney | 6 | Community | STV","players":null},{"server_id":49,"name":"Uncletopia | Warsaw | 1 | One Thousand Uncles","name_short":"waw-1","host":"waw-1.pl.uncletopia.com","port":27015,"enabled":true,"region":"eu","cc":"pl","latitude":52.2297,"longitude":21.017532,"reserved":0,"last_update":"0001-01-01T00:00:00Z","name_a2s":"Uncletopia | Warsaw | 1 | One Thousand Uncles","protocol":17,"map":"cp_mercenarypark","folder":"tf","game":"Team Fortress","app_id":440,"player_count":0,"max_players":32,"Bots":0,"server_type":"Dedicated","server_os":"Linux","password":true,"vac":true,"version":"7961495","steam_id":85568392925397850,"keywords":["alltalk","cp","danepve","increased_maxplayers","norespawntime","uncletopia"],"game_id":440,"stv_port":0,"stv_name":"","players":null},{"server_id":50,"name":"Uncletopia | Warsaw | 2 | One Thousand Uncles","name_short":"waw-2","host":"waw-1.pl.uncletopia.com","port":27025,"enabled":true,"region":"eu","cc":"pl","latitude":52.2297,"longitude":21.017532,"reserved":0,"last_update":"0001-01-01T00:00:00Z","name_a2s":"Uncletopia | Warsaw | 2 | One Thousand Uncles","protocol":17,"map":"cp_egypt_final","folder":"tf","game":"Team Fortress","app_id":440,"player_count":0,"max_players":32,"Bots":0,"server_type":"Dedicated","server_os":"Linux","password":true,"vac":true,"version":"7961495","steam_id":85568392925397851,"keywords":["alltalk","cp","danepve","increased_maxplayers","norespawntime","uncletopia"],"game_id":440,"stv_port":0,"stv_name":"","players":null},{"server_id":51,"name":"Uncletopia | Warsaw | 3 | All Maps","name_short":"waw-3","host":"waw-1.pl.uncletopia.com","port":27035,"enabled":true,"region":"eu","cc":"pl","latitude":52.2297,"longitude":21.017532,"reserved":0,"last_update":"0001-01-01T00:00:00Z","name_a2s":"Uncletopia | Warsaw | 3 | All Maps","protocol":17,"map":"pl_snowycoast","folder":"tf","game":"Team Fortress","app_id":440,"player_count":0,"max_players":24,"Bots":0,"server_type":"Dedicated","server_os":"Linux","password":true,"vac":true,"version":"7961495","steam_id":85568392925397852,"keywords":["nocrits","nodmgspread","payload","uncletopia"],"game_id":440,"stv_port":27036,"stv_name":"Uncletopia | Warsaw | 3 | All Maps | STV","players":null},{"server_id":52,"name":"Uncletopia | Warsaw | 4 | All Maps","name_short":"waw-4","host":"waw-1.pl.uncletopia.com","port":27045,"enabled":true,"region":"eu","cc":"pl","latitude":52.2297,"longitude":21.017532,"reserved":0,"last_update":"0001-01-01T00:00:00Z","name_a2s":"Uncletopia | Warsaw | 4 | All Maps","protocol":17,"map":"cp_fastlane","folder":"tf","game":"Team Fortress","app_id":440,"player_count":0,"max_players":24,"Bots":0,"server_type":"Dedicated","server_os":"Linux","password":true,"vac":true,"version":"7961495","steam_id":85568392925397853,"keywords":["cp","nocrits","nodmgspread","uncletopia"],"game_id":440,"stv_port":27046,"stv_name":"Uncletopia | Warsaw | 4 | All Maps | STV","players":null},{"server_id":53,"name":"Uncletopia | Warsaw | 5 | Stopwatch","name_short":"waw-5","host":"waw-1.pl.uncletopia.com","port":27055,"enabled":true,"region":"eu","cc":"pl","latitude":52.2297,"longitude":21.017532,"reserved":0,"last_update":"0001-01-01T00:00:00Z","name_a2s":"Uncletopia | Warsaw | 5 | Stopwatch","protocol":17,"map":"cp_gullywash_final1","folder":"tf","game":"Team Fortress","app_id":440,"player_count":0,"max_players":24,"Bots":0,"server_type":"Dedicated","server_os":"Linux","password":true,"vac":true,"version":"7961495","steam_id":85568392925397854,"keywords":["cp","nocrits","nodmgspread","uncletopia"],"game_id":440,"stv_port":27056,"stv_name":"Uncletopia | Warsaw | 5 | Stopwatch | STV","players":null},{"server_id":54,"name":"Uncletopia | Warsaw | 6 | Community","name_short":"waw-6","host":"waw-1.pl.uncletopia.com","port":27065,"enabled":true,"region":"eu","cc":"pl","latitude":52.2297,"longitude":21.017532,"reserved":0,"last_update":"0001-01-01T00:00:00Z","name_a2s":"Uncletopia | Warsaw | 6 | Community","protocol":17,"map":"workshop/cp_fulgur_rc2a.ugc2068252300","folder":"tf","game":"Team Fortress","app_id":440,"player_count":0,"max_players":24,"Bots":0,"server_type":"Dedicated","server_os":"Linux","password":true,"vac":true,"version":"7961495","steam_id":85568392925397856,"keywords":["cp","nocrits","nodmgspread","uncletopia"],"game_id":440,"stv_port":27066,"stv_name":"Uncletopia | Warsaw | 6 | Community | STV","players":null}]}