{"status":true,"message":"","result":[{"server_id":9,"name":"Uncletopia | Atlanta | 1 | All Maps","name_short":"atl-1","host":"atl-1.us.uncletopia.com","port":27015,"enabled":true,"region":"us-east","cc":"us","latitude":33.753746,"longitude":-84.38633,"reserved":0,"last_update":"0001-01-01T00:00:00Z","name_a2s":"Uncletopia | Atlanta | 1 | All Maps","protocol":17,"map":"pl_pier","folder":"tf","game":"Team Fortress","app_id":440,"player_count":24,"max_players":24,"Bots":0,"server_type":"Dedicated","server_os":"Linux","password":true,"vac":true,"version":"7961495","steam_id":85568392924469982,"keywords":["nocrits","nodmgspread","payload","uncletopia"],"game_id":440,"stv_port":27016,"stv_name":"Uncletopia | Atlanta | 1 | All Maps | STV","players":[{"user_id":113,"name":"mid shitter 27","steam_id":76561199128531654,"connected_time":2707000000000,"state":"active","ping":59},{"user_id":125,"name":"Tyvek homewrap [NGW]","steam_id":76561198979625736,"connected_time":1583000000000,"state":"active","ping":55},{"user_id":130,"name":"Gary Budussy","steam_id":76561197969793969,"connected_time":779000000000,"state":"active","ping":83},{"user_id":108,"name":"Dreszerg","steam_id":76561198838757422,"connected_time":2880000000000,"state":"active","ping":82},{"user_id":121,"name":"Oxygen User","steam_id":76561199111975528,"connected_time":1878000000000,"state":"active","ping":66},{"user_id":87,"name":"Gaio","steam_id":76561198136293406,"connected_time":4626000000000,"state":"active","ping":74},{"user_id":128,"name":"nefarious criminal","steam_id":76561198077506415,"connected_time":1488000000000,"state":"active","ping":58},{"user_id":126,"name":"Hertz","steam_id":76561198310927351,"connected_time":1568000000000,"state":"active","ping":132},{"user_id":118,"name":"Zeelidox","steam_id":76561198110613375,"connected_time":2225000000000,"state":"active","ping":70},{"user_id":127,"name":"Your Local Subway Employee","steam_id":76561198811130843,"connected_time":1505000000000,"state":"active","ping":100},{"user_id":81,"name":"sansa musa","steam_id":76561198163723555,"connected_time":5139000000000,"state":"active","ping":76},{"user_id":131,"name":"Lennu","steam_id":76561198060730154,"connected_time":606000000000,"state":"active","ping":63},{"user_id":129,"name":"ATL1 | cola","steam_id":76561198374390458,"connected_time":980000000000,"state":"active","ping":69},{"user_id":83,"name":"Heathcliff","steam_id":76561198044288534,"connected_time":5122000000000,"state":"active","ping":77},{"user_id":133,"name":"markiplier onlyfans enjoyer","steam_id":76561199478496904,"connected_time":590000000000,"state":"active","ping":54},{"user_id":122,"name":"1920","steam_id":76561198111669774,"connected_time":1594000000000,"state":"active","ping":73},{"user_id":137,"name":"ATL1 | Uganda (Steel enjoyer)","steam_id":76561199121276474,"connected_time":78000000000,"state":"active","ping":74},{"user_id":98,"name":"Sex Midfielder","steam_id":76561198048918192,"connected_time":4011000000000,"state":"active","ping":47},{"user_id":136,"name":"NON","steam_id":76561198066397754,"connected_time":190000000000,"state":"active","ping":49},{"user_id":103,"name":"freyja","steam_id":76561198249206656,"connected_time":3734000000000,"state":"active","ping":89},{"user_id":134,"name":"Jesus Burgess","steam_id":76561199343316814,"connected_time":589000000000,"state":"active","ping":47},{"user_id":123,"name":"why","steam_id":76561199059732212,"connected_time":1594000000000,"state":"active","ping":56},{"user_id":86,"name":"Stacks63bs","steam_id":76561198067797130,"connected_time":4639000000000,"state":"active","ping":68},{"user_id":124,"name":"november","steam_id":76561198042748172,"connected_time":1594000000000,"state":"active","ping":62}]},{"server_id":104,"name":"Uncletopia | Atlanta | 2 | All Maps","name_short":"atl-2","host":"atl-1.us.uncletopia.com","port":27025,"enabled":true,"region":"us-east","cc":"us","latitude":33.753746,"longitude":-84.38633,"reserved":0,"last_update":"0001-01-01T00:00:00Z","name_a2s":"Uncletopia | Atlanta | 2 | All Maps","protocol":17,"map":"pl_swiftwater_final1","folder":"tf","game":"Team Fortress","app_id":440,"player_count":23,"max_players":24,"Bots":0,"server_type":"Dedicated","server_os":"Linux","password":true,"vac":true,"version":"7961495","steam_id":85568392924469983,"keywords":["nocrits","nodmgspread","payload","uncletopia"],"game_id":440,"stv_port":27026,"stv_name":"Uncletopia | Atlanta | 2 | All Maps | STV","players":[{"user_id":320,"name":"Legit_Jaxer","steam_id":76561198172234053,"connected_time":477000000000,"state":"active","ping":107},{"user_id":316,"name":"dantheman","steam_id":76561199486390813,"connected_time":862000000000,"state":"active","ping":59},{"user_id":298,"name":"GRUG","steam_id":76561198143800300,"connected_time":2125000000000,"state":"active","ping":98},{"user_id":328,"name":"O bez","steam_id":76561198841579939,"connected_time":94000000000,"state":"active","ping":117},{"user_id":321,"name":"Admiral Angry","steam_id":76561198058199206,"connected_time":323000000000,"state":"active","ping":73},{"user_id":317,"name":"The Notorious C.H.E.F","steam_id":76561198310658990,"connected_time":850000000000,"state":"active","ping":88},{"user_id":259,"name":"·πΩ‚ßâ cookie","steam_id":76561197998884823,"connected_time":4272000000000,"state":"active","ping":90},{"user_id":312,"name":"Fredorando","steam_id":76561198242546842,"connected_time":1051000000000,"state":"active","ping":76},{"user_id":322,"name":"cutiepikachu132","steam_id":76561198081220016,"connected_time":266000000000,"state":"active","ping":67},{"user_id":324,"name":"DungeonBee","steam_id":76561199110404572,"connected_time":183000000000,"state":"active","ping":82},{"user_id":325,"name":"fully vacced, fully autistic","steam_id":76561198968058652,"connected_time":128000000000,"state":"active","ping":114},{"user_id":329,"name":"somewhat silly","steam_id":76561198010269150,"connected_time":84000000000,"state":"spawning","ping":92},{"user_id":278,"name":"Allen Poe","steam_id":76561198115937355,"connected_time":3130000000000,"state":"active","ping":40},{"user_id":326,"name":"Wang of Wall St","steam_id":76561198047460598,"connected_time":126000000000,"state":"active","ping":73},{"user_id":327,"name":"Drilly22","steam_id":76561198068838338,"connected_time":118000000000,"state":"active","ping":73},{"user_id":284,"name":"Drygongames","steam_id":76561198250418424,"connected_time":2837000000000,"state":"active","ping":80},{"user_id":306,"name":"lego star wars on the psp","steam_id":76561198148014773,"connected_time":2000000000000,"state":"active","ping":94},{"user_id":314,"name":"CyMeryy/TTV","steam_id":76561197984986540,"connected_time":992000000000,"state":"active","ping":66},{"user_id":263,"name":"‚Ä¢PixelGhost25‚Ä¢","steam_id":76561197998922428,"connected_time":3518000000000,"state":"active","ping":76},{"user_id":279,"name":"Kaiju","steam_id":76561198243774754,"connected_time":3095000000000,"state":"active","ping":71},{"user_id":280,"name":"‚ôÇ I R O N ‚ôÇ M I K E ‚ôÇ","steam_id":76561199405378993,"connected_time":3063000000000,"state":"active","ping":88},{"user_id":330,"name":"Tomoko2001","steam_id":76561198047117990,"connected_time":59000000000,"state":"active","ping":84},{"user_id":319,"name":"one in a krillion","steam_id":76561198823526581,"connected_time":605000000000,"state":"active","ping":76}]},{"server_id":400,"name":"Uncletopia | Atlanta | 3 | Stopwatch","name_short":"atl-3","host":"atl-1.us.uncletopia.com","port":27035,"enabled":true,"region":"us-east","cc":"us","latitude":33.753746,"longitude":-84.38633,"reserved":0,"last_update":"0001-01-01T00:00:00Z","name_a2s":"Uncletopia | Atlanta | 3 | Stopwatch","protocol":17,"map":"workshop/pl_badwater_pro_v12.ugc2142942074","folder":"tf","game":"Team Fortress","app_id":440,"player_count":0,"max_players":24,"Bots":0,"server_type":"Dedicated","server_os":"Linux","password":true,"vac":true,"version":"7961495","steam_id":85568392924515187,"keywords":["nocrits","nodmgspread","payload","uncletopia"],"game_id":440,"stv_port":27036,"stv_name":"Uncletopia | Atlanta | 3 | Stopwatch | STV","players":null},{"server_id":401,"name":"Uncletopia | Atlanta | 4 | Community","name_short":"atl-4","host":"atl-1.us.uncletopia.com","port":27045,"enabled":true,"region":"us-east","cc":"us","latitude":33.753746,"longitude":-84.38633,"reserved":0,"last_update":"0001-01-01T00:00:00Z","name_a2s":"Uncletopia | Atlanta | 4 | Community","protocol":17,"map":"workshop/pl_phoenix_b4a.ugc2969509359","folder":"tf","game":"Team Fortress","app_id":440,"player_count":0,"max_players":24,"Bots":0,"server_type":"Dedicated","server_os":"Linux","password":true,"vac":true,"version":"7961495","steam_id":85568392924515188,"keywords":["nocrits","nodmgspread","payload","uncletopia"],"game_id":440,"stv_port":27046,"stv_name":"Uncletopia | Atlanta | 4 | Community | STV","players":null},{"server_id":2,"name":"Uncletopia | Chicago | 1 | All Maps","name_short":"chi-1","host":"chi-1.us.uncletopia.com","port":27015,"enabled":true,"region":"us-central","cc":"us","latitude":41.881832,"longitude":-87.62318,"reserved":0,"last_update":"0001-01-01T00:00:00Z","name_a2s":"Uncletopia | Chicago | 1 | All Maps","protocol":17,"map":"cp_altitude","folder":"tf","game":"Team Fortress","app_id":440,"player_count":24,"max_players":24,"Bots":0,"server_type":"Dedicated","server_os":"Linux","password":true,"vac":true,"version":"7961495","steam_id":85568392924469984,"keywords":["cp","nocrits","nodmgspread","uncletopia"],"game_id":440,"stv_port":27016,"stv_name":"Uncletopia | Chicago | 1 | All Maps | STV","players":[{"user_id":144,"name":"dentally ill","steam_id":76561198882758067,"connected_time":1231000000000,"state":"active","ping":74},{"user_id":150,"name":"Blaze","steam_id":76561198043797702,"connected_time":1102000000000,"state":"active","ping":61},{"user_id":145,"name":"wizorb","steam_id":76561198002172674,"connected_time":1228000000000,"state":"active","ping":79},{"user_id":157,"name":"blob","steam_id":76561198122375328,"connected_time":149000000000,"state":"active","ping":59},{"user_id":137,"name":"PANNED RAT","steam_id":76561198328829278,"connected_time":1753000000000,"state":"active","ping":56},{"user_id":142,"name":"ÂèñÂêçÂè´ÂÅöÂøç","steam_id":76561198278282836,"connected_time":1281000000000,"state":"active","ping":57},{"user_id":138,"name":"dunk","steam_id":76561198132476501,"connected_time":1524000000000,"state":"active","ping":47},{"user_id":151,"name":"mr. slippery","steam_id":76561198057076267,"connected_time":1088000000000,"state":"active","ping":77},{"user_id":155,"name":"Cocksneed Fartin","steam_id":76561198126675787,"connected_time":310000000000,"state":"active","ping":86},{"user_id":139,"name":"unidentified little fucker","steam_id":76561198058998371,"connected_time":1511000000000,"state":"active","ping":56},{"user_id":148,"name":"BingoDingo","steam_id":76561198068692880,"connected_time":1208000000000,"state":"active","ping":78},{"user_id":141,"name":"tydogzilla","steam_id":76561198054254518,"connected_time":1418000000000,"state":"active","ping":63},{"user_id":149,"name":"Passionate Map Researcher","steam_id":76561199490508357,"connected_time":1208000000000,"state":"active","ping":68},{"user_id":98,"name":"Jason","steam_id":76561198107058140,"connected_time":4575000000000,"state":"active","ping":64},{"user_id":132,"name":"Swedish Crowbar","steam_id":76561199105488936,"connected_time":2001000000000,"state":"active","ping":171},{"user_id":128,"name":"Milkmur","steam_id":76561198210043821,"connected_time":2659000000000,"state":"active","ping":64},{"user_id":76,"name":"Heroofchaos","steam_id":76561199106660090,"connected_time":6415000000000,"state":"active","ping":116},{"user_id":129,"name":"Rornir","steam_id":76561198081829615,"connected_time":2494000000000,"state":"active","ping":42},{"user_id":73,"name":"The Jar","steam_id":76561198146013385,"connected_time":6595000000000,"state":"active","ping":68},{"user_id":135,"name":"KingPin","steam_id":76561198087366176,"connected_time":1908000000000,"state":"active","ping":60},{"user_id":154,"name":"Ziath","steam_id":76561198094009164,"connected_time":322000000000,"state":"active","ping":60},{"user_id":134,"name":"Chadmander","steam_id":76561197974136337,"connected_time":1957000000000,"state":"active","ping":41},{"user_id":153,"name":"padrooga","steam_id":76561198335292512,"connected_time":958000000000,"state":"active","ping":62},{"user_id":156,"name":"Rein","steam_id":76561198300340427,"connected_time":310000000000,"state":"active","ping":62}]},{"server_id":106,"name":"Uncletopia | Chicago | 2 | All Maps","name_short":"chi-2","host":"chi-1.us.uncletopia.com","port":27025,"enabled":true,"region":"us-central","cc":"us","latitude":41.881832,"longitude":-87.62318,"reserved":0,"last_update":"0001-01-01T00:00:00Z","name_a2s":"Uncletopia | Chicago | 2 | All Maps","protocol":17,"map":"koth_harvest_final","folder":"tf","game":"Team Fortress","app_id":440,"player_count":2,"max_players":24,"Bots":0,"server_type":"Dedicated","server_os":"Linux","password":true,"vac":true,"version":"7961495","steam_id":85568392924469985,"keywords":["cp","nocrits","nodmgspread","uncletopia"],"game_id":440,"stv_port":27026,"stv_name":"Uncletopia | Chicago | 2 | All Maps | STV","players":[{"user_id":25,"name":"ball'd-out fist [NGW]","steam_id":76561199071209640,"connected_time":2041000000000,"state":"active","ping":98},{"user_id":38,"name":"boneboy88","steam_id":76561199231079499,"connected_time":110000000000,"state":"active","ping":75}]},{"server_id":402,"name":"Uncletopia | Chicago | 3 | All Maps","name_short":"chi-3","host":"chi-1.us.uncletopia.com","port":27035,"enabled":true,"region":"us-central","cc":"us","latitude":41.881832,"longitude":-87.62318,"reserved":0,"last_update":"0001-01-01T00:00:00Z","name_a2s":"Uncletopia | Chicago | 3 | All Maps","protocol":17,"map":"pl_snowycoast","folder":"tf","game":"Team Fortress","app_id":440,"player_count":24,"max_players":24,"Bots":0,"server_type":"Dedicated","server_os":"Linux","password":true,"vac":true,"version":"7961495","steam_id":85568392924515191,"keywords":["nocrits","nodmgspread","payload","uncletopia"],"game_id":440,"stv_port":27036,"stv_name":"Uncletopia | Chicago | 3 | All Maps | STV","players":[{"user_id":208,"name":"botato","steam_id":76561198079925551,"connected_time":564000000000,"state":"active","ping":62},{"user_id":200,"name":"Prsm","steam_id":76561198053344995,"connected_time":792000000000,"state":"active","ping":54},{"user_id":202,"name":"Preston","steam_id":76561199130754110,"connected_time":614000000000,"state":"active","ping":91},{"user_id":201,"name":"Zolo","steam_id":76561198088444038,"connected_time":640000000000,"state":"active","ping":51},{"user_id":194,"name":"GuyGoom","steam_id":76561198254522178,"connected_time":1052000000000,"state":"active","ping":53},{"user_id":203,"name":"Xorr-Cathuul","steam_id":76561198072761099,"connected_time":610000000000,"state":"active","ping":61},{"user_id":56,"name":"zoey","steam_id":76561198084679526,"connected_time":12499000000000,"state":"active","ping":57},{"user_id":204,"name":"Mamas Texas Chicken","steam_id":76561199156409732,"connected_time":610000000000,"state":"active","ping":72},{"user_id":195,"name":"Mr. Noodle","steam_id":76561198037803087,"connected_time":1045000000000,"state":"active","ping":69},{"user_id":213,"name":"Aureolin","steam_id":76561198210274835,"connected_time":364000000000,"state":"active","ping":83},{"user_id":199,"name":"doop","steam_id":76561198370487545,"connected_time":885000000000,"state":"active","ping":83},{"user_id":205,"name":"DualiTea","steam_id":76561198081733870,"connected_time":608000000000,"state":"active","ping":49},{"user_id":174,"name":"Scarceblue","steam_id":76561198107882998,"connected_time":1893000000000,"state":"active","ping":60},{"user_id":138,"name":"Bottom Trans Cowgirl","steam_id":76561198304239680,"connected_time":4488000000000,"state":"active","ping":76},{"user_id":206,"name":"doog","steam_id":76561198136444198,"connected_time":599000000000,"state":"active","ping":72},{"user_id":207,"name":"Bomby","steam_id":76561199331515174,"connected_time":578000000000,"state":"active","ping":80},{"user_id":126,"name":"DysfunctionJunction","steam_id":76561198051815183,"connected_time":5752000000000,"state":"active","ping":47},{"user_id":210,"name":"itsPanzerPanda","steam_id":76561199441946346,"connected_time":514000000000,"state":"active","ping":51},{"user_id":150,"name":"That_MF","steam_id":76561198077553888,"connected_time":3535000000000,"state":"active","ping":77},{"user_id":157,"name":"litroolay","steam_id":76561197995226856,"connected_time":2996000000000,"state":"active","ping":90},{"user_id":211,"name":"alphe","steam_id":76561198039346340,"connected_time":477000000000,"state":"active","ping":75},{"user_id":158,"name":"Doctor Bear  ï ‚Ä¢·¥•‚Ä¢ î","steam_id":76561197968103161,"connected_time":2986000000000,"state":"active","ping":69},{"user_id":215,"name":"money getting 1 percenter","steam_id":76561198012796388,"connected_time":116000000000,"state":"active","ping":45},{"user_id":214,"name":"him/her","steam_id":76561198122238340,"connected_time":347000000000,"state":"active","ping":91}]},{"server_id":403,"name":"Uncletopia | Chicago | 4 | All Maps","name_short":"chi-4","host":"chi-1.us.uncletopia.com","port":27045,"enabled":true,"region":"us-central","cc":"us","latitude":41.881832,"longitude":-87.62318,"reserved":0,"last_update":"0001-01-01T00:00:00Z","name_a2s":"Uncletopia | Chicago | 4 | All Maps","protocol":17,"map":"koth_viaduct","folder":"tf","game":"Team Fortress","app_id":440,"player_count":1,"max_players":24,"Bots":0,"server_type":"Dedicated","server_os":"Linux","password":true,"vac":true,"version":"7961495","steam_id":85568392924515193,"keywords":["cp","nocrits","nodmgspread","uncletopia"],"game_id":440,"stv_port":27046,"stv_name":"Uncletopia | Chicago | 4 | All Maps | STV","players":[{"user_id":9,"name":"iUseDvorak","steam_id":76561198064439037,"connected_time":77000000000,"state":"active","ping":65}]},{"server_id":36,"name":"Uncletopia | Chicago | 5 | All Maps","name_short":"chi-5","host":"chi-2.us.uncletopia.com","port":27015,"enabled":true,"region":"us-central","cc":"us","latitude":41.881832,"longitude":-87.62318,"reserved":0,"last_update":"0001-01-01T00:00:00Z","name_a2s":"Uncletopia | Chicago | 5 | All Maps","protocol":17,"map":"pl_swiftwater_final1","folder":"tf","game":"Team Fortress","app_id":440,"player_count":0,"max_players":24,"Bots":0,"server_type":"Dedicated","server_os":"Linux","password":true,"vac":true,"version":"7961495","steam_id":85568392924866362,"keywords":["nocrits","nodmgspread","payload","uncletopia"],"game_id":440,"stv_port":27016,"stv_name":"Uncletopia | Chicago | 5 | All Maps | STV","players":null},{"server_id":37,"name":"Uncletopia | Chicago | 6 | All Maps","name_short":"chi-6","host":"chi-2.us.uncletopia.com","port":27025,"enabled":true,"region":"us-central","cc":"us","latitude":41.881832,"longitude":-87.62318,"reserved":0,"last_update":"0001-01-01T00:00:00Z","name_a2s":"Uncletopia | Chicago | 6 | All Maps","protocol":17,"map":"cp_sunshine","folder":"tf","game":"Team Fortress","app_id":440,"player_count":0,"max_players":24,"Bots":0,"server_type":"Dedicated","server_os":"Linux","password":true,"vac":true,"version":"7961495","steam_id":85568392924866363,"keywords":["cp","nocrits","nodmgspread","uncletopia"],"game_id":440,"stv_port":27026,"stv_name":"Uncletopia | Chicago | 6 | All Maps | STV","players":null},{"server_id":38,"name":"Uncletopia | Chicago | 7 | Stopwatch","name_short":"chi-7","host":"chi-2.us.uncletopia.com","port":27035,"enabled":true,"region":"us-central","cc":"us","latitude":41.881832,"longitude":-87.62318,"reserved":0,"last_update":"0001-01-01T00:00:00Z","name_a2s":"Uncletopia | Chicago | 7 | Stopwatch","protocol":17,"map":"workshop/koth_clearcut_b15.ugc2107050255","folder":"tf","game":"Team Fortress","app_id":440,"player_count":2,"max_players":24,"Bots":0,"server_type":"Dedicated","server_os":"Linux","password":true,"vac":true,"version":"7961495","steam_id":85568392924866364,"keywords":["cp","nocrits","nodmgspread","uncletopia"],"game_id":440,"stv_port":27036,"stv_name":"Uncletopia | Chicago | 7 | Stopwatch | STV","players":[{"user_id":6,"name":"spiderfat","steam_id":76561198957917221,"connected_time":3885000000000,"state":"active","ping":86},{"user_id":7,"name":"RoboticPyroRobo","steam_id":76561198355732200,"connected_time":3858000000000,"state":"active","ping":74}]},{"server_id":39,"name":"Uncletopia | Chicago | 8 | Community","name_short":"chi-8","host":"chi-2.us.uncletopia.com","port":27045,"enabled":true,"region":"us-central","cc":"us","latitude":41.881832,"longitude":-87.62318,"reserved":0,"last_update":"0001-01-01T00:00:00Z","name_a2s":"Uncletopia | Chicago | 8 | Community","protocol":17,"map":"workshop/cp_caldera_rc3.ugc2834196889","folder":"tf","game":"Team Fortress","app_id":440,"player_count":0,"max_players":24,"Bots":0,"server_type":"Dedicated","server_os":"Linux","password":true,"vac":true,"version":"7961495","steam_id":85568392924866365,"keywords":["cp","nocrits","nodmgspread","uncletopia"],"game_id":440,"stv_port":27046,"stv_name":"Uncletopia | Chicago | 8 | Community | STV","players":null},{"server_id":8,"name":"Uncletopia | Dallas | 1 | All Maps","name_short":"dal-1","host":"dal-1.us.uncletopia.com","port":27015,"enabled":true,"region":"us-central","cc":"us","latitude":32.779167,"longitude":-96.80889,"reserved":0,"last_update":"0001-01-01T00:00:00Z","name_a2s":"Uncletopia | Dallas | 1 | All Maps","protocol":17,"map":"pl_upward","folder":"tf","game":"Team Fortress","app_id":440,"player_count":24,"max_players":24,"Bots":0,"server_type":"Dedicated","server_os":"Linux","password":true,"vac":true,"version":"7961495","steam_id":85568392924469986,"keywords":["nocrits","nodmgspread","payload","uncletopia"],"game_id":440,"stv_port":27016,"stv_name":"Uncletopia | Dallas | 1 | All Maps | STV","players":[{"user_id":346,"name":"that wasnt funny pal","steam_id":76561198837926595,"connected_time":391000000000,"state":"active","ping":95},{"user_id":329,"name":"Genderneutron","steam_id":76561199022773775,"connected_time":1199000000000,"state":"active","ping":71},{"user_id":287,"name":"Sweet Tooth","steam_id":76561198830158092,"connected_time":4413000000000,"state":"active","ping":78},{"user_id":297,"name":"jojo","steam_id":76561199509297015,"connected_time":4088000000000,"state":"active","ping":92},{"user_id":330,"name":"MidSobbes08","steam_id":76561199013101925,"connected_time":1104000000000,"state":"active","ping":115},{"user_id":335,"name":"delta","steam_id":76561198288966901,"connected_time":821000000000,"state":"active","ping":174},{"user_id":314,"name":"Sad Sapling","steam_id":76561198075612150,"connected_time":2446000000000,"state":"active","ping":77},{"user_id":349,"name":"YOU WHAT?!","steam_id":76561198418679471,"connected_time":353000000000,"state":"active","ping":60},{"user_id":332,"name":"el panadero con el pan","steam_id":76561198320078733,"connected_time":899000000000,"state":"active","ping":80},{"user_id":268,"name":"MrHappyMAg","steam_id":76561198060359133,"connected_time":6251000000000,"state":"active","ping":45},{"user_id":315,"name":"Morrui","steam_id":76561198354436221,"connected_time":2443000000000,"state":"active","ping":72},{"user_id":230,"name":"Boxxed","steam_id":76561198255787237,"connected_time":9649000000000,"state":"active","ping":46},{"user_id":350,"name":"bottom pride burger","steam_id":76561198322247602,"connected_time":340000000000,"state":"active","ping":93},{"user_id":327,"name":"RAWRWAFL","steam_id":76561198032118386,"connected_time":1652000000000,"state":"active","ping":73},{"user_id":344,"name":"mkl","steam_id":76561197986401685,"connected_time":401000000000,"state":"active","ping":58},{"user_id":312,"name":"squarg","steam_id":76561198857911015,"connected_time":2513000000000,"state":"active","ping":65},{"user_id":280,"name":"Rin \"Hindwing\" Redtail","steam_id":76561199074865638,"connected_time":5543000000000,"state":"active","ping":54},{"user_id":347,"name":"You Don't Nomi.","steam_id":76561197969137836,"connected_time":390000000000,"state":"active","ping":84},{"user_id":321,"name":"Mellou","steam_id":76561198212048740,"connected_time":2140000000000,"state":"active","ping":43},{"user_id":323,"name":"Japan_Got_Boba","steam_id":76561198861813336,"connected_time":1868000000000,"state":"active","ping":95},{"user_id":320,"name":"Bubby Koromon the 4rd","steam_id":76561198398729993,"connected_time":2229000000000,"state":"active","ping":88},{"user_id":336,"name":"snowcap","steam_id":76561198344164944,"connected_time":804000000000,"state":"active","ping":106},{"user_id":303,"name":"smartest living creature","steam_id":76561198392069179,"connected_time":3097000000000,"state":"active","ping":69},{"user_id":337,"name":"START PRAYIN BOY","steam_id":76561198089173996,"connected_time":684000000000,"state":"active","ping":98}]},{"server_id":108,"name":"Uncletopia | Dallas | 2 | All Maps","name_short":"dal-2","host":"dal-1.us.uncletopia.com","port":27025,"enabled":true,"region":"us-central","cc":"us","latitude":32.779167,"longitude":-96.80889,"reserved":0,"last_update":"0001-01-01T00:00:00Z","name_a2s":"Uncletopia | Dallas | 2 | All Maps","protocol":17,"map":"pl_swiftwater_final1","folder":"tf","game":"Team Fortress","app_id":440,"player_count":24,"max_players":24,"Bots":0,"server_type":"Dedicated","server_os":"Linux","password":true,"vac":true,"version":"7961495","steam_id":85568392924469988,"keywords":["nocrits","nodmgspread","payload","uncletopia"],"game_id":440,"stv_port":27026,"stv_name":"Uncletopia | Dallas | 2 | All Maps | STV","players":[{"user_id":17,"name":"BeyondEffect","steam_id":76561198061017324,"connected_time":3911000000000,"state":"active","ping":78},{"user_id":95,"name":"Joan The Kisaragi Cat","steam_id":76561199370650064,"connected_time":531000000000,"state":"active","ping":69},{"user_id":84,"name":"yomo","steam_id":76561198063175935,"connected_time":1398000000000,"state":"active","ping":75},{"user_id":87,"name":"iCarly Lore Expert","steam_id":76561198111902910,"connected_time":1191000000000,"state":"active","ping":61},{"user_id":53,"name":"TF2C | fac","steam_id":76561198009818412,"connected_time":3165000000000,"state":"active","ping":53},{"user_id":13,"name":"Prof. Eggnog","steam_id":76561198193389166,"connected_time":4462000000000,"state":"active","ping":87},{"user_id":76,"name":"Eden","steam_id":76561198081284664,"connected_time":2221000000000,"state":"active","ping":84},{"user_id":15,"name":"Dr. W0lv","steam_id":76561198129237487,"connected_time":4402000000000,"state":"active","ping":64},{"user_id":81,"name":"O'brien","steam_id":76561198289339403,"connected_time":1490000000000,"state":"active","ping":94},{"user_id":63,"name":"High Tier Mortal","steam_id":76561198138347045,"connected_time":2983000000000,"state":"active","ping":76},{"user_id":79,"name":"dudeguypersonmanhombre","steam_id":76561198052016845,"connected_time":1683000000000,"state":"active","ping":81},{"user_id":88,"name":"TheTalentlessChicken","steam_id":76561198148390834,"connected_time":1097000000000,"state":"active","ping":103},{"user_id":78,"name":"Boring","steam_id":76561198827219701,"connected_time":2016000000000,"state":"active","ping":186},{"user_id":65,"name":"ultrapuffs","steam_id":76561198023463293,"connected_time":2860000000000,"state":"active","ping":68},{"user_id":93,"name":"Perfume Department","steam_id":76561198128299594,"connected_time":565000000000,"state":"active","ping":86},{"user_id":29,"name":"finmin","steam_id":76561198127639913,"connected_time":3721000000000,"state":"active","ping":80},{"user_id":94,"name":"SkadooshPlayz","steam_id":76561198310986662,"connected_time":562000000000,"state":"active","ping":94},{"user_id":98,"name":"LizardGames","steam_id":76561199147525483,"connected_time":19000000000,"state":"spawning","ping":90},{"user_id":96,"name":"2 Point Tom","steam_id":76561198087617008,"connected_time":511000000000,"state":"active","ping":106},{"user_id":97,"name":"TOTALLY HARDCORE","steam_id":76561198842311643,"connected_time":505000000000,"state":"active","ping":50},{"user_id":75,"name":"Tax","steam_id":76561198335683534,"connected_time":2240000000000,"state":"active","ping":92},{"user_id":42,"name":"Hamlindigo Blue‚Ñ¢","steam_id":76561198116337540,"connected_time":3402000000000,"state":"active","ping":85},{"user_id":43,"name":"Username","steam_id":76561198198918781,"connected_time":3387000000000,"state":"active","ping":103},{"user_id":92,"name":"Jandrix","steam_id":76561198065511083,"connected_time":618000000000,"state":"active","ping":54}]},{"server_id":404,"name":"Uncletopia | Dallas | 3 | All Maps","name_short":"dal-3","host":"dal-1.us.uncletopia.com","port":27035,"enabled":true,"region":"us-central","cc":"us","latitude":32.779167,"longitude":-96.80889,"reserved":0,"last_update":"0001-01-01T00:00:00Z","name_a2s":"Uncletopia | Dallas | 3 | All Maps","protocol":17,"map":"cp_yukon_final","folder":"tf","game":"Team Fortress","app_id":440,"player_count":0,"max_players":24,"Bots":0,"server_type":"Dedicated","server_os":"Linux","password":true,"vac":true,"version":"7961495","steam_id":85568392924515219,"keywords":["cp","nocrits","nodmgspread","uncletopia"],"game_id":440,"stv_port":27036,"stv_name":"Uncletopia | Dallas | 3 | All Maps | STV","players":null},{"server_id":405,"name":"Uncletopia | Dallas | 4 | Community","name_short":"dal-4","host":"dal-1.us.uncletopia.com","port":27045,"enabled":true,"region":"us-central","cc":"us","latitude":32.779167,"longitude":-96.80889,"reserved":0,"last_update":"0001-01-01T00:00:00Z","name_a2s":"Uncletopia | Dallas | 4 | Community","protocol":17,"map":"workshop/cp_croissant_final.ugc458840209","folder":"tf","game":"Team Fortress","app_id":440,"player_count":0,"max_players":24,"Bots":0,"server_type":"Dedicated","server_os":"Linux","password":true,"vac":true,"version":"7961495","steam_id":85568392924515220,"keywords":["cp","nocrits","nodmgspread","uncletopia"],"game_id":440,"stv_port":27046,"stv_name":"Uncletopia | Dallas | 4 | Community | STV","players":null},{"server_id":5,"name":"Uncletopia | Frankfurt | 1 | All Maps","name_short":"frk-1","host":"frk-1.de.uncletopia.com","port":27015,"enabled":true,"region":"eu","cc":"de","latitude":50.110924,"longitude":8.682127,"reserved":0,"last_update":"0001-01-01T00:00:00Z","name_a2s":"Uncletopia | Frankfurt | 1 | All Maps","protocol":17,"map":"pl_swiftwater_final1","folder":"tf","game":"Team Fortress","app_id":440,"player_count":24,"max_players":24,"Bots":0,"server_type":"Dedicated","server_os":"Linux","password":true,"vac":true,"version":"7961495","steam_id":85568392924469989,"keywords":["nocrits","nodmgspread","payload","uncletopia"],"game_id":440,"stv_port":27016,"stv_name":"Uncletopia | Frankfurt | 1 | All Maps | STV","players":[{"user_id":328,"name":"Modmelon","steam_id":76561198813630650,"connected_time":519000000000,"state":"active","ping":64},{"user_id":329,"name":"cwas√≤n the croissant","steam_id":76561198317643652,"connected_time":515000000000,"state":"active","ping":67},{"user_id":338,"name":"Dictatorial Karelian","steam_id":76561198196736457,"connected_time":299000000000,"state":"active","ping":75},{"user_id":317,"name":"slogar","steam_id":76561198046191991,"connected_time":1155000000000,"state":"active","ping":52},{"user_id":314,"name":"rockBustaz","steam_id":76561198088290698,"connected_time":1203000000000,"state":"active","ping":65},{"user_id":337,"name":"gouskan","steam_id":76561199024949558,"connected_time":308000000000,"state":"active","ping":142},{"user_id":311,"name":"Gamer Potato","steam_id":76561199160156334,"connected_time":1270000000000,"state":"active","ping":46},{"user_id":301,"name":"Siegmeyer","steam_id":76561198328543549,"connected_time":1742000000000,"state":"active","ping":87},{"user_id":243,"name":"Ozzie","steam_id":76561197992915315,"connected_time":3794000000000,"state":"active","ping":60},{"user_id":303,"name":"Skyrider of Spaceways","steam_id":76561197991678236,"connected_time":1695000000000,"state":"active","ping":135},{"user_id":310,"name":"Battersüå∏","steam_id":76561198927992205,"connected_time":1292000000000,"state":"active","ping":61},{"user_id":315,"name":"–î—Ä–∏—Å—Ç–æ–º—ã—Å–ª","steam_id":76561198951268072,"connected_time":1185000000000,"state":"active","ping":90},{"user_id":335,"name":"Emperor Mateus","steam_id":76561198263503740,"connected_time":387000000000,"state":"active","ping":71},{"user_id":308,"name":"pip","steam_id":76561198074275684,"connected_time":1489000000000,"state":"active","ping":60},{"user_id":323,"name":"Oxxo","steam_id":76561199109194825,"connected_time":844000000000,"state":"active","ping":90},{"user_id":339,"name":"rhm","steam_id":76561199438126261,"connected_time":76000000000,"state":"active","ping":89},{"user_id":334,"name":"AneveX","steam_id":76561198111905804,"connected_time":393000000000,"state":"active","ping":66},{"user_id":325,"name":"kaa","steam_id":76561198044061430,"connected_time":579000000000,"state":"active","ping":57},{"user_id":340,"name":"Gorgeous George","steam_id":76561198144256544,"connected_time":52000000000,"state":"active","ping":50},{"user_id":336,"name":"kavun","steam_id":76561198023461869,"connected_time":331000000000,"state":"active","ping":80},{"user_id":319,"name":"Uncle Moomin","steam_id":76561198011628656,"connected_time":1064000000000,"state":"active","ping":79},{"user_id":236,"name":"Carry Krypl","steam_id":76561198136938121,"connected_time":3945000000000,"state":"active","ping":50},{"user_id":320,"name":"bassax01","steam_id":76561198299900228,"connected_time":1036000000000,"state":"active","ping":66},{"user_id":333,"name":"Hundehunde (137)","steam_id":76561198028683991,"connected_time":454000000000,"state":"active","ping":45}]},{"server_id":110,"name":"Uncletopia | Frankfurt | 2 | All Maps","name_short":"frk-2","host":"frk-1.de.uncletopia.com","port":27025,"enabled":true,"region":"eu","cc":"de","latitude":50.110924,"longitude":8.682127,"reserved":0,"last_update":"0001-01-01T00:00:00Z","name_a2s":"Uncletopia | Frankfurt | 2 | All Maps","protocol":17,"map":"pl_snowycoast","folder":"tf","game":"Team Fortress","app_id":440,"player_count":24,"max_players":24,"Bots":0,"server_type":"Dedicated","server_os":"Linux","password":true,"vac":true,"version":"7961495","steam_id":85568392924469990,"keywords":["nocrits","nodmgspread","payload","uncletopia"],"game_id":440,"stv_port":27026,"stv_name":"Uncletopia | Frankfurt | 2 | All Maps | STV","players":[{"user_id":729,"name":"Maxy Luck","steam_id":76561199009583144,"connected_time":4547000000000,"state":"active","ping":99},{"user_id":782,"name":"Pico","steam_id":76561198063552545,"connected_time":1042000000000,"state":"active","ping":91},{"user_id":786,"name":"jmp","steam_id":76561198168283286,"connected_time":832000000000,"state":"active","ping":72},{"user_id":724,"name":"Kyjara","steam_id":76561198048600523,"connected_time":4596000000000,"state":"active","ping":67},{"user_id":749,"name":"gagalak","steam_id":76561198089979108,"connected_time":3121000000000,"state":"active","ping":129},{"user_id":783,"name":"warforge3","steam_id":76561199276024310,"connected_time":853000000000,"state":"active","ping":99},{"user_id":754,"name":"rekatama","steam_id":76561199096691729,"connected_time":3001000000000,"state":"active","ping":104},{"user_id":793,"name":"nyanezt","steam_id":76561198253734265,"connected_time":532000000000,"state":"active","ping":105},{"user_id":794,"name":"tone","steam_id":76561197975301462,"connected_time":294000000000,"state":"active","ping":60},{"user_id":785,"name":"·¥é…ím…ø…òm…ò·ó°","steam_id":76561198826005248,"connected_time":841000000000,"state":"active","ping":54},{"user_id":791,"name":"„Åà„Å™„Å™„Çì","steam_id":76561199427679148,"connected_time":589000000000,"state":"active","ping":61},{"user_id":778,"name":"Dave-it","steam_id":76561198286717874,"connected_time":2254000000000,"state":"active","ping":73},{"user_id":757,"name":"Not A Fake Uncletopia Server","steam_id":76561198152871288,"connected_time":2979000000000,"state":"active","ping":68},{"user_id":720,"name":"Lunara","steam_id":76561198123141355,"connected_time":5197000000000,"state":"active","ping":59},{"user_id":781,"name":"Deadlycow","steam_id":76561197980761347,"connected_time":1272000000000,"state":"active","ping":61},{"user_id":451,"name":"0iO","steam_id":76561198093526408,"connected_time":16609000000000,"state":"active","ping":64},{"user_id":765,"name":"GogsCrunchyNuts","steam_id":76561198150599213,"connected_time":2767000000000,"state":"active","ping":92},{"user_id":780,"name":"—Ç—É–∫–∫—É –∏—Ä–º–∞","steam_id":76561197998715016,"connected_time":1960000000000,"state":"active","ping":62},{"user_id":741,"name":"not a nihilist","steam_id":76561198004340466,"connected_time":3677000000000,"state":"active","ping":49},{"user_id":775,"name":"Pabs :D","steam_id":76561198000016962,"connected_time":2299000000000,"state":"active","ping":53},{"user_id":792,"name":"Bulkis","steam_id":76561199099870196,"connected_time":561000000000,"state":"active","ping":108},{"user_id":789,"name":"i do hard drugs on the regular","steam_id":76561198263228457,"connected_time":688000000000,"state":"active","ping":90},{"user_id":795,"name":"Eggman From sonic adventure 2","steam_id":76561199043933182,"connected_time":275000000000,"state":"active","ping":158},{"user_id":711,"name":"Zulik92","steam_id":76561198152442373,"connected_time":5760000000000,"state":"active","ping":65}]},{"server_id":308,"name":"Uncletopia | Frankfurt | 3 | All Maps","name_short":"frk-3","host":"frk-1.de.uncletopia.com","port":27035,"enabled":true,"region":"eu","cc":"de","latitude":50.110924,"longitude":8.682127,"reserved":0,"last_update":"0001-01-01T00:00:00Z","name_a2s":"Uncletopia | Frankfurt | 3 | All Maps","protocol":17,"map":"pl_barnblitz","folder":"tf","game":"Team Fortress","app_id":440,"player_count":24,"max_players":24,"Bots":0,"server_type":"Dedicated","server_os":"Linux","password":true,"vac":true,"version":"7961495","steam_id":85568392924504274,"keywords":["nocrits","nodmgspread","payload","uncletopia"],"game_id":440,"stv_port":27036,"stv_name":"Uncletopia | Frankfurt | 3 | All Maps | STV","players":[{"user_id":77,"name":"waluigi","steam_id":76561198215809251,"connected_time":3295000000000,"state":"active","ping":53},{"user_id":84,"name":"NALA","steam_id":76561198039806469,"connected_time":2624000000000,"state":"active","ping":69},{"user_id":116,"name":"Cencut","steam_id":76561198989449047,"connected_time":209000000000,"state":"active","ping":119},{"user_id":99,"name":"tired","steam_id":76561198046838168,"connected_time":1954000000000,"state":"active","ping":45},{"user_id":103,"name":"SUMMER!!!!!!1!","steam_id":76561198970762992,"connected_time":1131000000000,"state":"active","ping":72},{"user_id":30,"name":"Pepe the Frog","steam_id":76561199500477314,"connected_time":5971000000000,"state":"active","ping":114},{"user_id":111,"name":"[MNI]Dazed\u0026Confused666","steam_id":76561198015151235,"connected_time":736000000000,"state":"active","ping":71},{"user_id":79,"name":"kingdead4","steam_id":76561198079576655,"connected_time":2911000000000,"state":"active","ping":64},{"user_id":114,"name":"Caliban","steam_id":76561197999696839,"connected_time":462000000000,"state":"active","ping":106},{"user_id":83,"name":"=OKB= P4NTH3R","steam_id":76561197999204603,"connected_time":2658000000000,"state":"active","ping":61},{"user_id":100,"name":"Josh","steam_id":76561198274546904,"connected_time":1918000000000,"state":"active","ping":137},{"user_id":104,"name":"Warrior555MainsGanon","steam_id":76561198388627786,"connected_time":1038000000000,"state":"active","ping":67},{"user_id":105,"name":"jovi_","steam_id":76561198449280552,"connected_time":999000000000,"state":"active","ping":60},{"user_id":39,"name":"DevFish","steam_id":76561199010456751,"connected_time":5537000000000,"state":"active","ping":52},{"user_id":106,"name":"practicing","steam_id":76561198176202865,"connected_time":968000000000,"state":"active","ping":94},{"user_id":115,"name":"???","steam_id":76561198173022385,"connected_time":441000000000,"state":"active","ping":61},{"user_id":102,"name":"Zoro (Hun)","steam_id":76561199367182571,"connected_time":1651000000000,"state":"active","ping":59},{"user_id":101,"name":"‚ô° Cursed ‚ô°","steam_id":76561199161458959,"connected_time":1906000000000,"state":"active","ping":172},{"user_id":113,"name":"fish","steam_id":76561198205475839,"connected_time":579000000000,"state":"active","ping":232},{"user_id":109,"name":"ZID","steam_id":76561198214099068,"connected_time":942000000000,"state":"active","ping":99},{"user_id":46,"name":"W","steam_id":76561198273623211,"connected_time":5485000000000,"state":"active","ping":84},{"user_id":117,"name":"BadAimBen","steam_id":76561198127639973,"connected_time":203000000000,"state":"active","ping":52},{"user_id":48,"name":"de6s","steam_id":76561199223240505,"connected_time":5475000000000,"state":"active","ping":117},{"user_id":97,"name":"lugi","steam_id":76561198026903673,"connected_time":2292000000000,"state":"active","ping":59}]},{"server_id":309,"name":"Uncletopia | Frankfurt | 4 | All Maps","name_short":"frk-4","host":"frk-1.de.uncletopia.com","port":27045,"enabled":true,"region":"eu","cc":"de","latitude":50.110924,"longitude":8.682127,"reserved":0,"last_update":"0001-01-01T00:00:00Z","name_a2s":"Uncletopia | Frankfurt | 4 | All Maps","protocol":17,"map":"cp_process_final","folder":"tf","game":"Team Fortress","app_id":440,"player_count":22,"max_players":24,"Bots":0,"server_type":"Dedicated","server_os":"Linux","password":true,"vac":true,"version":"7961495","steam_id":85568392924504275,"keywords":["cp","nocrits","nodmgspread","uncletopia"],"game_id":440,"stv_port":27046,"stv_name":"Uncletopia | Frankfurt | 4 | All Maps | STV","players":[{"user_id":195,"name":"The Bamboozler","steam_id":76561199286764992,"connected_time":1170000000000,"state":"active","ping":74},{"user_id":153,"name":"Heavy Duty","steam_id":76561198219594541,"connected_time":4490000000000,"state":"active","ping":104},{"user_id":141,"name":"pKaskar","steam_id":76561198046248945,"connected_time":4814000000000,"state":"active","ping":91},{"user_id":210,"name":"JC","steam_id":76561198029213352,"connected_time":594000000000,"state":"active","ping":60},{"user_id":212,"name":"apple","steam_id":76561198350676879,"connected_time":201000000000,"state":"active","ping":104},{"user_id":213,"name":"Rembo","steam_id":76561198406769841,"connected_time":136000000000,"state":"active","ping":124},{"user_id":214,"name":"Acheo","steam_id":76561198068228498,"connected_time":128000000000,"state":"active","ping":135},{"user_id":196,"name":"Bone Bozo","steam_id":76561197998823560,"connected_time":1155000000000,"state":"active","ping":74},{"user_id":197,"name":"Andr√°s","steam_id":76561198096947288,"connected_time":1136000000000,"state":"active","ping":60},{"user_id":198,"name":"Umbro","steam_id":76561198087930438,"connected_time":1083000000000,"state":"active","ping":71},{"user_id":188,"name":"ToniGAM3S","steam_id":76561198128605351,"connected_time":2057000000000,"state":"active","ping":57},{"user_id":181,"name":"Udinese Dion","steam_id":76561198067931573,"connected_time":2809000000000,"state":"active","ping":59},{"user_id":190,"name":"Abunchoftrash","steam_id":76561198984368148,"connected_time":1997000000000,"state":"active","ping":59},{"user_id":200,"name":"Falco","steam_id":76561199061187430,"connected_time":1039000000000,"state":"active","ping":46},{"user_id":201,"name":"DrBigSmack","steam_id":76561198072810046,"connected_time":1036000000000,"state":"active","ping":67},{"user_id":192,"name":"Solymr ibn Wali Barad","steam_id":76561198044008976,"connected_time":1987000000000,"state":"active","ping":67},{"user_id":202,"name":"Lord Raptor the 3rd","steam_id":76561198158027459,"connected_time":1018000000000,"state":"active","ping":57},{"user_id":211,"name":"SendBob","steam_id":76561198151981614,"connected_time":516000000000,"state":"active","ping":88},{"user_id":193,"name":"smiley","steam_id":76561198042245117,"connected_time":1975000000000,"state":"active","ping":88},{"user_id":149,"name":"LuckyHappyGuy","steam_id":76561198353023996,"connected_time":4707000000000,"state":"active","ping":83},{"user_id":205,"name":"washed up town","steam_id":76561198095560087,"connected_time":869000000000,"state":"active","ping":63},{"user_id":207,"name":"S.Scary","steam_id":76561198248602386,"connected_time":779000000000,"state":"active","ping":65}]},{"server_id":310,"name":"Uncletopia | Frankfurt | 5 | All Maps","name_short":"frk-5","host":"frk-1.de.uncletopia.com","port":27055,"enabled":true,"region":"eu","cc":"de","latitude":50.110924,"longitude":8.682127,"reserved":0,"last_update":"0001-01-01T00:00:00Z","name_a2s":"Uncletopia | Frankfurt | 5 | All Maps","protocol":17,"map":"koth_viaduct","folder":"tf","game":"Team Fortress","app_id":440,"player_count":9,"max_players":24,"Bots":0,"server_type":"Dedicated","server_os":"Linux","password":true,"vac":true,"version":"7961495","steam_id":85568392924504277,"keywords":["cp","nocrits","nodmgspread","uncletopia"],"game_id":440,"stv_port":27056,"stv_name":"Uncletopia | Frankfurt | 5 | All Maps | STV","players":[{"user_id":302,"name":"Woad Raider","steam_id":76561198215485788,"connected_time":413000000000,"state":"active","ping":75},{"user_id":303,"name":"archimedes_the_crow","steam_id":76561199201085996,"connected_time":289000000000,"state":"active","ping":56},{"user_id":301,"name":"im getting me mallet","steam_id":76561198389556655,"connected_time":470000000000,"state":"active","ping":74},{"user_id":294,"name":"Kebab","steam_id":76561198194449091,"connected_time":1153000000000,"state":"active","ping":150},{"user_id":295,"name":"K.V. #RemoveRandomCrits","steam_id":76561197994832993,"connected_time":1044000000000,"state":"active","ping":68},{"user_id":296,"name":"unded","steam_id":76561198122952830,"connected_time":1035000000000,"state":"active","ping":92},{"user_id":304,"name":"BallisticAutistic1984","steam_id":76561198931301674,"connected_time":160000000000,"state":"active","ping":153},{"user_id":291,"name":"shapeshifter","steam_id":76561198052898368,"connected_time":1267000000000,"state":"active","ping":67},{"user_id":298,"name":"Mr. Culture","steam_id":76561199073315428,"connected_time":941000000000,"state":"active","ping":78}]},{"server_id":311,"name":"Uncletopia | Frankfurt | 6 | All Maps","name_short":"frk-6","host":"frk-1.de.uncletopia.com","port":27065,"enabled":true,"region":"eu","cc":"de","latitude":50.110924,"longitude":8.682127,"reserved":0,"last_update":"0001-01-01T00:00:00Z","name_a2s":"Uncletopia | Frankfurt | 6 | All Maps","protocol":17,"map":"pl_borneo","folder":"tf","game":"Team Fortress","app_id":440,"player_count":0,"max_players":24,"Bots":0,"server_type":"Dedicated","server_os":"Linux","password":true,"vac":true,"version":"7961495","steam_id":85568392924504278,"keywords":["nocrits","nodmgspread","payload","uncletopia"],"game_id":440,"stv_port":27066,"stv_name":"Uncletopia | Frankfurt | 6 | All Maps | STV","players":null},{"server_id":23,"name":"Uncletopia | Frankfurt | 7 | Stopwatch","name_short":"frk-7","host":"frk-1.de.uncletopia.com","port":27075,"enabled":true,"region":"eu","cc":"de","latitude":50.110924,"longitude":8.682127,"reserved":0,"last_update":"0001-01-01T00:00:00Z","name_a2s":"Uncletopia | Frankfurt | 7 | Stopwatch","protocol":17,"map":"workshop/pl_badwater_pro_v12.ugc2142942074","folder":"tf","game":"Team Fortress","app_id":440,"player_count":2,"max_players":24,"Bots":0,"server_type":"Dedicated","server_os":"Linux","password":true,"vac":true,"version":"7961495","steam_id":85568392924742827,"keywords":["nocrits","nodmgspread","payload","uncletopia"],"game_id":440,"stv_port":27076,"stv_name":"Uncletopia | Frankfurt | 7 | Stopwatch | STV","players":[{"user_id":25,"name":"Brikermaster564","steam_id":76561199059400393,"connected_time":797000000000,"state":"active","ping":75},{"user_id":26,"name":"Slap Triumph","steam_id":76561198815127418,"connected_time":759000000000,"state":"active","ping":74}]},{"server_id":24,"name":"Uncletopia | Frankfurt | 8 | Community","name_short":"frk-8","host":"frk-1.de.uncletopia.com","port":27085,"enabled":true,"region":"eu","cc":"de","latitude":50.110924,"longitude":8.682127,"reserved":0,"last_update":"0001-01-01T00:00:00Z","name_a2s":"Uncletopia | Frankfurt | 8 | Community","protocol":17,"map":"workshop/cp_croissant_final.ugc458840209","folder":"tf","game":"Team Fortress","app_id":440,"player_count":0,"max_players":24,"Bots":0,"server_type":"Dedicated","server_os":"Linux","password":true,"vac":true,"version":"7961495","steam_id":85568392924742828,"keywords":["cp","nocrits","nodmgspread","uncletopia"],"game_id":440,"stv_port":27086,"stv_name":"Uncletopia | Frankfurt | 8 | Community | STV","players":null},{"server_id":202,"name":"Uncletopia | Hong Kong | 1 | All Maps","name_short":"hgk-1","host":"hgk-1.hk.uncletopia.com","port":27015,"enabled":true,"region":"asia","cc":"hk","latitude":22.302711,"longitude":114.177216,"reserved":0,"last_update":"0001-01-01T00:00:00Z","name_a2s":"Uncletopia | Hong Kong | 1 | All Maps","protocol":17,"map":"koth_lakeside_final","folder":"tf","game":"Team Fortress","app_id":440,"player_count":0,"max_players":24,"Bots":0,"server_type":"Dedicated","server_os":"Linux","password":true,"vac":true,"version":"7961495","steam_id":85568392924494504,"keywords":["cp","nocrits","nodmgspread","uncletopia"],"game_id":440,"stv_port":27016,"stv_name":"Uncletopia | Hong Kong | 1 | All Maps | STV","players":null},{"server_id":1,"name":"Uncletopia | Los Angeles | 1 | All Maps","name_short":"lax-1","host":"lax-1.us.uncletopia.com","port":27015,"enabled":true,"region":"us-west","cc":"us","latitude":33.94279,"longitude":-118.41004,"reserved":0,"last_update":"0001-01-01T00:00:00Z","name_a2s":"Uncletopia | Los Angeles | 1 | All Maps","protocol":17,"map":"pl_badwater","folder":"tf","game":"Team Fortress","app_id":440,"player_count":4,"max_players":24,"Bots":0,"server_type":"Dedicated","server_os":"Linux","password":true,"vac":true,"version":"7961495","steam_id":85568392924469991,"keywords":["nocrits","nodmgspread","payload","uncletopia"],"game_id":440,"stv_port":27016,"stv_name":"Uncletopia | Los Angeles | 1 | All Maps | STV","players":[{"user_id":6,"name":"Nibotshooter","steam_id":76561199284825579,"connected_time":2194000000000,"state":"active","ping":66},{"user_id":7,"name":"Noxus","steam_id":76561199009820852,"connected_time":2192000000000,"state":"active","ping":77},{"user_id":9,"name":"Sex Monster","steam_id":76561199426920744,"connected_time":122000000000,"state":"active","ping":215},{"user_id":10,"name":"CelTiC","steam_id":76561198043216522,"connected_time":56000000000,"state":"active","ping":47}]},{"server_id":112,"name":"Uncletopia | Los Angeles | 2 | All Maps","name_short":"lax-2","host":"lax-1.us.uncletopia.com","port":27025,"enabled":true,"region":"us-west","cc":"us","latitude":33.94279,"longitude":-118.41004,"reserved":0,"last_update":"0001-01-01T00:00:00Z","name_a2s":"Uncletopia | Los Angeles | 2 | All Maps","protocol":17,"map":"koth_lazarus","folder":"tf","game":"Team Fortress","app_id":440,"player_count":0,"max_players":24,"Bots":0,"server_type":"Dedicated","server_os":"Linux","password":true,"vac":true,"version":"7961495","steam_id":85568392924469992,"keywords":["cp","nocrits","nodmgspread","uncletopia"],"game_id":440,"stv_port":27026,"stv_name":"Uncletopia | Los Angeles | 2 | All Maps | STV","players":null},{"server_id":324,"name":"Uncletopia | Los Angeles | 3 | All Maps","name_short":"lax-3","host":"lax-1.us.uncletopia.com","port":27035,"enabled":true,"region":"us-west","cc":"us","latitude":33.94279,"longitude":-118.41004,"reserved":0,"last_update":"0001-01-01T00:00:00Z","name_a2s":"Uncletopia | Los Angeles | 3 | All Maps","protocol":17,"map":"pl_frontier_final","folder":"tf","game":"Team Fortress","app_id":440,"player_count":0,"max_players":24,"Bots":0,"server_type":"Dedicated","server_os":"Linux","password":true,"vac":true,"version":"7961495","steam_id":85568392924510198,"keywords":["nocrits","nodmgspread","payload","uncletopia"],"game_id":440,"stv_port":27036,"stv_name":"Uncletopia | Los Angeles | 3 | All Maps | STV","players":null},{"server_id":25,"name":"Uncletopia | Los Angeles | 4 | Stopwatch","name_short":"lax-4","host":"lax-1.us.uncletopia.com","port":27045,"enabled":true,"region":"us-west","cc":"us","latitude":33.94279,"longitude":-118.41004,"reserved":0,"last_update":"0001-01-01T00:00:00Z","name_a2s":"Uncletopia | Los Angeles | 4 | Stopwatch","protocol":17,"map":"pl_upward","folder":"tf","game":"Team Fortress","app_id":440,"player_count":0,"max_players":24,"Bots":0,"server_type":"Dedicated","server_os":"Linux","password":true,"vac":true,"version":"7961495","steam_id":85568392924510199,"keywords":["nocrits","nodmgspread","payload","uncletopia"],"game_id":440,"stv_port":27046,"stv_name":"Uncletopia | Los Angeles | 4 | Stopwatch | STV","players":null},{"server_id":11,"name":"Uncletopia | London | 1 | All Maps","name_short":"lon-1","host":"lon-1.uk.uncletopia.com","port":27015,"enabled":true,"region":"eu","cc":"gb","latitude":51.509865,"longitude":-0.118092,"reserved":0,"last_update":"0001-01-01T00:00:00Z","name_a2s":"Uncletopia | London | 1 | All Maps","protocol":17,"map":"koth_harvest_final","folder":"tf","game":"Team Fortress","app_id":440,"player_count":22,"max_players":24,"Bots":0,"server_type":"Dedicated","server_os":"Linux","password":true,"vac":true,"version":"7961495","steam_id":85568392924367362,"keywords":["cp","nocrits","nodmgspread","uncletopia"],"game_id":440,"stv_port":27016,"stv_name":"Uncletopia | London | 1 | All Maps | STV","players":[{"user_id":383,"name":"gr3821","steam_id":76561198091531010,"connected_time":2938000000000,"state":"active","ping":44},{"user_id":432,"name":"hasky","steam_id":76561197986052798,"connected_time":186000000000,"state":"active","ping":71},{"user_id":413,"name":"No Status","steam_id":76561198119526557,"connected_time":1952000000000,"state":"active","ping":31},{"user_id":374,"name":"Miku.Hatsune.2007","steam_id":76561198199687607,"connected_time":3211000000000,"state":"active","ping":53},{"user_id":415,"name":"Laru","steam_id":76561197998838438,"connected_time":1886000000000,"state":"active","ping":80},{"user_id":417,"name":"naah you off the Google+ perc","steam_id":76561198190583242,"connected_time":1805000000000,"state":"active","ping":73},{"user_id":419,"name":"Allochtoon","steam_id":76561198205021293,"connected_time":1654000000000,"state":"active","ping":63},{"user_id":386,"name":"Lyra","steam_id":76561198043601838,"connected_time":2843000000000,"state":"active","ping":75},{"user_id":349,"name":"mertefe","steam_id":76561199237126613,"connected_time":5739000000000,"state":"active","ping":101},{"user_id":435,"name":"EmperorHaddad","steam_id":76561198308853672,"connected_time":7000000000,"state":"spawning","ping":35},{"user_id":335,"name":"$H4D0W W1Z4RD M0N3Y G4NG","steam_id":76561199195985387,"connected_time":6674000000000,"state":"active","ping":93},{"user_id":433,"name":"Bagingi","steam_id":76561198052197810,"connected_time":170000000000,"state":"active","ping":101},{"user_id":434,"name":"LEGEND FUMO.","steam_id":76561198061033903,"connected_time":124000000000,"state":"active","ping":47},{"user_id":414,"name":"unconditional love","steam_id":76561199026097466,"connected_time":1949000000000,"state":"active","ping":73},{"user_id":426,"name":"Esquiloz","steam_id":76561198075645336,"connected_time":1186000000000,"state":"active","ping":66},{"user_id":430,"name":"‚ô•SOFIA‚ô•","steam_id":76561199153232734,"connected_time":460000000000,"state":"active","ping":87},{"user_id":431,"name":"0peMs","steam_id":76561198346277211,"connected_time":305000000000,"state":"active","ping":58},{"user_id":418,"name":"tj","steam_id":76561198160466307,"connected_time":1803000000000,"state":"active","ping":71},{"user_id":428,"name":"rigel_","steam_id":76561198148640847,"connected_time":928000000000,"state":"active","ping":75},{"user_id":389,"name":"meirfa","steam_id":76561198157193506,"connected_time":2819000000000,"state":"active","ping":128},{"user_id":402,"name":"silicon based life form","steam_id":76561199127121346,"connected_time":2283000000000,"state":"active","ping":50},{"user_id":327,"name":"sareena","steam_id":76561198810194062,"connected_time":7326000000000,"state":"active","ping":70}]},{"server_id":114,"name":"Uncletopia | London | 2 | All Maps","name_short":"lon-2","host":"lon-1.uk.uncletopia.com","port":27025,"enabled":true,"region":"eu","cc":"gb","latitude":51.509865,"longitude":-0.118092,"reserved":0,"last_update":"0001-01-01T00:00:00Z","name_a2s":"Uncletopia | London | 2 | All Maps","protocol":17,"map":"pl_pier","folder":"tf","game":"Team Fortress","app_id":440,"player_count":18,"max_players":24,"Bots":0,"server_type":"Dedicated","server_os":"Linux","password":true,"vac":true,"version":"7961495","steam_id":85568392924470941,"keywords":["nocrits","nodmgspread","payload","uncletopia"],"game_id":440,"stv_port":27026,"stv_name":"Uncletopia | London | 2 | All Maps | STV","players":[{"user_id":380,"name":"Sir Cauterize","steam_id":76561198047079422,"connected_time":64000000000,"state":"active","ping":50},{"user_id":378,"name":"Billo","steam_id":76561198081957107,"connected_time":235000000000,"state":"active","ping":88},{"user_id":381,"name":"Oak","steam_id":76561198067315672,"connected_time":15000000000,"state":"active","ping":45},{"user_id":365,"name":"ThatTFguy","steam_id":76561198056794321,"connected_time":748000000000,"state":"active","ping":57},{"user_id":382,"name":"Qdarks","steam_id":76561198013391340,"connected_time":14000000000,"state":"active","ping":138},{"user_id":362,"name":"ABSOLUTE UNIT","steam_id":76561197972287320,"connected_time":948000000000,"state":"active","ping":210},{"user_id":361,"name":"Random","steam_id":76561199116602799,"connected_time":976000000000,"state":"active","ping":35},{"user_id":379,"name":"starke le beau","steam_id":76561199375305230,"connected_time":171000000000,"state":"active","ping":59},{"user_id":338,"name":"Hey, I¬¥m Andy!","steam_id":76561198060337777,"connected_time":2047000000000,"state":"active","ping":78},{"user_id":358,"name":"Bob D","steam_id":76561198026375630,"connected_time":1057000000000,"state":"active","ping":56},{"user_id":369,"name":"sarcasticsatan69","steam_id":76561198407566842,"connected_time":577000000000,"state":"active","ping":50},{"user_id":351,"name":"bigdirtybogman","steam_id":76561198364649987,"connected_time":1508000000000,"state":"active","ping":61},{"user_id":370,"name":"After8","steam_id":76561198090750865,"connected_time":575000000000,"state":"active","ping":74},{"user_id":349,"name":"DocThengineer","steam_id":76561199389114520,"connected_time":1527000000000,"state":"active","ping":141},{"user_id":372,"name":"MeBandae","steam_id":76561198910770432,"connected_time":480000000000,"state":"active","ping":51},{"user_id":377,"name":"WrytXander","steam_id":76561198067856323,"connected_time":303000000000,"state":"active","ping":91},{"user_id":375,"name":"Laysketchup","steam_id":76561198798891390,"connected_time":440000000000,"state":"active","ping":47},{"user_id":360,"name":"Mig_Chungus","steam_id":76561198053410265,"connected_time":1043000000000,"state":"active","ping":60}]},{"server_id":320,"name":"Uncletopia | London | 3 | All Maps","name_short":"lon-3","host":"lon-1.uk.uncletopia.com","port":27035,"enabled":true,"region":"eu","cc":"gb","latitude":51.509865,"longitude":-0.118092,"reserved":0,"last_update":"0001-01-01T00:00:00Z","name_a2s":"Uncletopia | London | 3 | All Maps","protocol":17,"map":"pl_snowycoast","folder":"tf","game":"Team Fortress","app_id":440,"player_count":24,"max_players":24,"Bots":0,"server_type":"Dedicated","server_os":"Linux","password":true,"vac":true,"version":"7961495","steam_id":85568392924510192,"keywords":["nocrits","nodmgspread","payload","uncletopia"],"game_id":440,"stv_port":27036,"stv_name":"Uncletopia | London | 3 | All Maps | STV","players":[{"user_id":99,"name":"Mr. Mundy","steam_id":76561198132008918,"connected_time":561000000000,"state":"active","ping":85},{"user_id":26,"name":"didi_gaga","steam_id":76561198797688627,"connected_time":4694000000000,"state":"active","ping":86},{"user_id":29,"name":"glue eating champion","steam_id":76561198100963738,"connected_time":4284000000000,"state":"active","ping":45},{"user_id":86,"name":"LOBZIK","steam_id":76561198114830120,"connected_time":1867000000000,"state":"active","ping":82},{"user_id":105,"name":"Striker25","steam_id":76561197975265634,"connected_time":189000000000,"state":"active","ping":68},{"user_id":65,"name":"jonh","steam_id":76561198261853441,"connected_time":2710000000000,"state":"active","ping":75},{"user_id":36,"name":"dools18","steam_id":76561198880768062,"connected_time":3963000000000,"state":"active","ping":62},{"user_id":98,"name":"dog?","steam_id":76561199232839385,"connected_time":672000000000,"state":"active","ping":100},{"user_id":104,"name":"HANoi","steam_id":76561198144300192,"connected_time":284000000000,"state":"active","ping":89},{"user_id":68,"name":"Wh√§t","steam_id":76561197999285844,"connected_time":2442000000000,"state":"active","ping":65},{"user_id":101,"name":"ORTEGA","steam_id":76561198105721091,"connected_time":413000000000,"state":"active","ping":47},{"user_id":106,"name":"METhOphetamine","steam_id":76561198068216224,"connected_time":138000000000,"state":"active","ping":65},{"user_id":95,"name":"Tupac alive in serbia","steam_id":76561198010978989,"connected_time":898000000000,"state":"active","ping":67},{"user_id":103,"name":"purpul bastard","steam_id":76561198214429607,"connected_time":324000000000,"state":"active","ping":98},{"user_id":107,"name":"stonebum","steam_id":76561198057004606,"connected_time":118000000000,"state":"active","ping":58},{"user_id":108,"name":"General Petrov","steam_id":76561198027204104,"connected_time":109000000000,"state":"active","ping":85},{"user_id":109,"name":"FOONSH","steam_id":76561199013239517,"connected_time":94000000000,"state":"active","ping":44},{"user_id":84,"name":"ender45","steam_id":76561198840955715,"connected_time":2097000000000,"state":"active","ping":37},{"user_id":53,"name":"Dishhhh","steam_id":76561197992816831,"connected_time":3285000000000,"state":"active","ping":70},{"user_id":110,"name":"Gubbly Bubbins","steam_id":76561198101451654,"connected_time":92000000000,"state":"active","ping":72},{"user_id":111,"name":"Flank","steam_id":76561198098731156,"connected_time":79000000000,"state":"active","ping":65},{"user_id":57,"name":"nug","steam_id":76561198055396568,"connected_time":3198000000000,"state":"active","ping":82},{"user_id":112,"name":"Flare","steam_id":76561198039098320,"connected_time":41000000000,"state":"active","ping":55},{"user_id":81,"name":"Snd","steam_id":76561198010816408,"connected_time":2235000000000,"state":"active","ping":120}]},{"server_id":321,"name":"Uncletopia | London | 4 | All Maps","name_short":"lon-4","host":"lon-1.uk.uncletopia.com","port":27045,"enabled":true,"region":"eu","cc":"gb","latitude":51.509865,"longitude":-0.118092,"reserved":0,"last_update":"0001-01-01T00:00:00Z","name_a2s":"Uncletopia | London | 4 | All Maps","protocol":17,"map":"pl_goldrush","folder":"tf","game":"Team Fortress","app_id":440,"player_count":24,"max_players":24,"Bots":0,"server_type":"Dedicated","server_os":"Linux","password":true,"vac":true,"version":"7961495","steam_id":85568392924510193,"keywords":["nocrits","nodmgspread","payload","uncletopia"],"game_id":440,"stv_port":27046,"stv_name":"Uncletopia | London | 4 | All Maps | STV","players":[{"user_id":140,"name":"Mr.E","steam_id":76561198306480726,"connected_time":973000000000,"state":"active","ping":94},{"user_id":125,"name":"AI | Davidoscki","steam_id":76561198129166046,"connected_time":1681000000000,"state":"active","ping":101},{"user_id":151,"name":"lvl. 50 honkler","steam_id":76561198061688660,"connected_time":741000000000,"state":"active","ping":106},{"user_id":122,"name":"NESS","steam_id":76561197995225318,"connected_time":1815000000000,"state":"active","ping":45},{"user_id":90,"name":"Freshxy","steam_id":76561198250232194,"connected_time":4454000000000,"state":"active","ping":55},{"user_id":154,"name":"Jerma985","steam_id":76561199121872349,"connected_time":640000000000,"state":"active","ping":57},{"user_id":139,"name":"Monke","steam_id":76561198138073646,"connected_time":1013000000000,"state":"active","ping":46},{"user_id":156,"name":"finbar","steam_id":76561198056812396,"connected_time":508000000000,"state":"active","ping":80},{"user_id":159,"name":"Pimpin' \u0026 Blimpin'","steam_id":76561198326776107,"connected_time":333000000000,"state":"active","ping":100},{"user_id":142,"name":"Legend Bob","steam_id":76561198796283608,"connected_time":945000000000,"state":"active","ping":114},{"user_id":111,"name":"Amazar","steam_id":76561198841664939,"connected_time":2548000000000,"state":"active","ping":60},{"user_id":143,"name":"small","steam_id":76561197985281321,"connected_time":938000000000,"state":"active","ping":96},{"user_id":108,"name":"mac donalds delivery guy","steam_id":76561198932426600,"connected_time":2662000000000,"state":"active","ping":75},{"user_id":157,"name":"Ghost staring in car","steam_id":76561198231934444,"connected_time":455000000000,"state":"active","ping":70},{"user_id":144,"name":"i carry like mariah","steam_id":76561198046873337,"connected_time":935000000000,"state":"active","ping":50},{"user_id":163,"name":"Tyren","steam_id":76561198993747516,"connected_time":5000000000,"state":"spawning","ping":55},{"user_id":153,"name":"Nhippo","steam_id":76561198048152419,"connected_time":647000000000,"state":"active","ping":68},{"user_id":146,"name":"Soerlssoelss√∂en","steam_id":76561197993060585,"connected_time":923000000000,"state":"active","ping":78},{"user_id":147,"name":"coolbutter","steam_id":76561198400056903,"connected_time":923000000000,"state":"active","ping":131},{"user_id":148,"name":"chick-fil-a delivery guy","steam_id":76561198076219289,"connected_time":909000000000,"state":"active","ping":49},{"user_id":149,"name":"Five Finger Discount","steam_id":76561197994556857,"connected_time":901000000000,"state":"active","ping":69},{"user_id":135,"name":"XxBenShapiro420xX","steam_id":76561199229373972,"connected_time":1281000000000,"state":"active","ping":59},{"user_id":150,"name":"ULTRAGURKATTV","steam_id":76561198113657772,"connected_time":866000000000,"state":"active","ping":59},{"user_id":160,"name":"t.tv/soarfps","steam_id":76561198010662796,"connected_time":267000000000,"state":"active","ping":67}]},{"server_id":21,"name":"Uncletopia | London | 5 | All Maps","name_short":"lon-5","host":"lon-1.uk.uncletopia.com","port":27055,"enabled":true,"region":"eu","cc":"gb","latitude":51.509865,"longitude":-0.118092,"reserved":0,"last_update":"0001-01-01T00:00:00Z","name_a2s":"Uncletopia | London | 5 | All Maps","protocol":17,"map":"koth_suijin","folder":"tf","game":"Team Fortress","app_id":440,"player_count":0,"max_players":24,"Bots":0,"server_type":"Dedicated","server_os":"Linux","password":true,"vac":true,"version":"7961495","steam_id":85568392924742829,"keywords":["cp","nocrits","nodmgspread","uncletopia"],"game_id":440,"stv_port":27056,"stv_name":"Uncletopia | London | 5 | All Maps | STV","players":null},{"server_id":22,"name":"Uncletopia | London | 6 | All Maps","name_short":"lon-6","host":"lon-1.uk.uncletopia.com","port":27065,"enabled":true,"region":"eu","cc":"gb","latitude":51.509865,"longitude":-0.118092,"reserved":0,"last_update":"0001-01-01T00:00:00Z","name_a2s":"Uncletopia | London | 6 | All Maps","protocol":17,"map":"koth_viaduct","folder":"tf","game":"Team Fortress","app_id":440,"player_count":4,"max_players":24,"Bots":0,"server_type":"Dedicated","server_os":"Linux","password":true,"vac":true,"version":"7961495","steam_id":85568392924742830,"keywords":["cp","nocrits","nodmgspread","uncletopia"],"game_id":440,"stv_port":27066,"stv_name":"Uncletopia | London | 6 | All Maps | STV","players":[{"user_id":8,"name":"blue robot with a shotgun","steam_id":76561198038597831,"connected_time":2961000000000,"state":"active","ping":81},{"user_id":9,"name":"stsst09","steam_id":76561199012451512,"connected_time":2924000000000,"state":"active","ping":90},{"user_id":10,"name":"wqmuus","steam_id":76561199141369391,"connected_time":2897000000000,"state":"active","ping":89},{"user_id":12,"name":"999eng","steam_id":76561198062856371,"connected_time":21000000000,"state":"active","ping":120}]},{"server_id":40,"name":"Uncletopia | London | 7 | Stopwatch","name_short":"lon-7","host":"lon-1.uk.uncletopia.com","port":27075,"enabled":true,"region":"eu","cc":"gb","latitude":51.509865,"longitude":-0.118092,"reserved":0,"last_update":"0001-01-01T00:00:00Z","name_a2s":"Uncletopia | London | 7 | Stopwatch","protocol":17,"map":"pl_swiftwater_final1","folder":"tf","game":"Team Fortress","app_id":440,"player_count":0,"max_players":24,"Bots":0,"server_type":"Dedicated","server_os":"Linux","password":true,"vac":true,"version":"7961495","steam_id":85568392924964314,"keywords":["nocrits","nodmgspread","payload","uncletopia"],"game_id":440,"stv_port":27076,"stv_name":"Uncletopia | London | 7 | Stopwatch | STV","players":null},{"server_id":41,"name":"Uncletopia | London | 8 | Community","name_short":"lon-8","host":"lon-1.uk.uncletopia.com","port":27085,"enabled":true,"region":"eu","cc":"gb","latitude":51.509865,"longitude":-0.118092,"reserved":0,"last_update":"0001-01-01T00:00:00Z","name_a2s":"Uncletopia | London | 8 | Community","protocol":17,"map":"workshop/cp_propaganda_b18.ugc1603743849","folder":"tf","game":"Team Fortress","app_id":440,"player_count":0,"max_players":24,"Bots":0,"server_type":"Dedicated","server_os":"Linux","password":true,"vac":true,"version":"7961495","steam_id":85568392924964315,"keywords":["cp","nocrits","nodmgspread","uncletopia"],"game_id":440,"stv_port":27086,"stv_name":"Uncletopia | London | 8 | Community | STV","players":null},{"server_id":300,"name":"Uncletopia | Montr√©al | 1 | One Thousand Uncles","name_short":"mtl-1","host":"mtl-1.ca.uncletopia.com","port":27015,"enabled":true,"region":"us-east","cc":"ca","latitude":45.50889,"longitude":-73.56167,"reserved":0,"last_update":"0001-01-01T00:00:00Z","name_a2s":"Uncletopia | Montr√©al | 1 | One Thousand Uncles","protocol":17,"map":"pl_barnblitz","folder":"tf","game":"Team Fortress","app_id":440,"player_count":0,"max_players":32,"Bots":0,"server_type":"Dedicated","server_os":"Linux","password":true,"vac":true,"version":"7961495","steam_id":85568392924500087,"keywords":["alltalk","danepve","increased_maxplayers","norespawntime","payload","uncletopia"],"game_id":440,"stv_port":0,"stv_name":"","players":null},{"server_id":301,"name":"Uncletopia | Montr√©al | 2 | One Thousand Uncles","name_short":"mtl-2","host":"mtl-1.ca.uncletopia.com","port":27025,"enabled":true,"region":"us-east","cc":"ca","latitude":45.50889,"longitude":-73.56167,"reserved":0,"last_update":"0001-01-01T00:00:00Z","name_a2s":"Uncletopia | Montr√©al | 2 | One Thousand Uncles","protocol":17,"map":"pl_pier","folder":"tf","game":"Team Fortress","app_id":440,"player_count":0,"max_players":32,"Bots":0,"server_type":"Dedicated","server_os":"Linux","password":true,"vac":true,"version":"7961495","steam_id":85568392924500088,"keywords":["alltalk","danepve","increased_maxplayers","norespawntime","payload","uncletopia"],"game_id":440,"stv_port":0,"stv_name":"","players":null},{"server_id":302,"name":"Uncletopia | Montr√©al | 3 | One Thousand Uncles","name_short":"mtl-3","host":"mtl-1.ca.uncletopia.com","port":27035,"enabled":true,"region":"us-east","cc":"ca","latitude":45.50889,"longitude":-73.56167,"reserved":0,"last_update":"0001-01-01T00:00:00Z","name_a2s":"Uncletopia | Montr√©al | 3 | One Thousand Uncles","protocol":17,"map":"pl_upward","folder":"tf","game":"Team Fortress","app_id":440,"player_count":0,"max_players":32,"Bots":0,"server_type":"Dedicated","server_os":"Linux","password":true,"vac":true,"version":"7961495","steam_id":85568392924500089,"keywords":["alltalk","danepve","increased_maxplayers","norespawntime","payload","uncletopia"],"game_id":440,"stv_port":0,"stv_name":"","players":null},{"server_id":13,"name":"Uncletopia | New York City | 1 | All Maps","name_short":"nyc-1","host":"nyc-1.us.uncletopia.com","port":27015,"enabled":true,"region":"us-east","cc":"us","latitude":40.73061,"longitude":-73.93524,"reserved":0,"last_update":"0001-01-01T00:00:00Z","name_a2s":"Uncletopia | New York City | 1 | All Maps","protocol":17,"map":"cp_snakewater_final1","folder":"tf","game":"Team Fortress","app_id":440,"player_count":0,"max_players":24,"Bots":0,"server_type":"Dedicated","server_os":"Linux","password":true,"vac":true,"version":"7961495","steam_id":85568392924469993,"keywords":["cp","nocrits","nodmgspread","uncletopia"],"game_id":440,"stv_port":27016,"stv_name":"Uncletopia | New York City | 1 | All Maps | STV","players":null},{"server_id":14,"name":"Uncletopia | New York City | 2 | All Maps","name_short":"nyc-2","host":"nyc-1.us.uncletopia.com","port":27025,"enabled":true,"region":"us-east","cc":"us","latitude":40.73061,"longitude":-73.93524,"reserved":0,"last_update":"0001-01-01T00:00:00Z","name_a2s":"Uncletopia | New York City | 2 | All Maps","protocol":17,"map":"koth_suijin","folder":"tf","game":"Team Fortress","app_id":440,"player_count":0,"max_players":24,"Bots":0,"server_type":"Dedicated","server_os":"Linux","password":true,"vac":true,"version":"7961495","steam_id":85568392924469994,"keywords":["cp","nocrits","nodmgspread","uncletopia"],"game_id":440,"stv_port":27026,"stv_name":"Uncletopia | New York City | 2 | All Maps | STV","players":null},{"server_id":15,"name":"Uncletopia | New York City | 3 | Stopwatch","name_short":"nyc-3","host":"nyc-1.us.uncletopia.com","port":27035,"enabled":true,"region":"us-east","cc":"us","latitude":40.73061,"longitude":-73.93524,"reserved":0,"last_update":"0001-01-01T00:00:00Z","name_a2s":"Uncletopia | New York City | 3 | Stopwatch","protocol":17,"map":"workshop/cp_reckoner_rc6.ugc674719999","folder":"tf","game":"Team Fortress","app_id":440,"player_count":0,"max_players":24,"Bots":0,"server_type":"Dedicated","server_os":"Linux","password":true,"vac":true,"version":"7961495","steam_id":85568392924742820,"keywords":["cp","nocrits","nodmgspread","uncletopia"],"game_id":440,"stv_port":27036,"stv_name":"Uncletopia | New York City | 3 | Stopwatch | STV","players":null},{"server_id":16,"name":"Uncletopia | New York City | 4 | Community","name_short":"nyc-4","host":"nyc-1.us.uncletopia.com","port":27045,"enabled":true,"region":"us-east","cc":"us","latitude":40.73061,"longitude":-73.93524,"reserved":0,"last_update":"0001-01-01T00:00:00Z","name_a2s":"Uncletopia | New York City | 4 | Community","protocol":17,"map":"workshop/pl_extinction_rc1.ugc2961457712","folder":"tf","game":"Team Fortress","app_id":440,"player_count":22,"max_players":24,"Bots":0,"server_type":"Dedicated","server_os":"Linux","password":true,"vac":true,"version":"7961495","steam_id":85568392924742821,"keywords":["nocrits","nodmgspread","payload","uncletopia"],"game_id":440,"stv_port":27046,"stv_name":"Uncletopia | New York City | 4 | Community | STV","players":[{"user_id":142,"name":"Vil","steam_id":76561198376994681,"connected_time":566000000000,"state":"active","ping":60},{"user_id":143,"name":"Spooky_cone_game","steam_id":76561198999458789,"connected_time":423000000000,"state":"active","ping":68},{"user_id":139,"name":"Marix","steam_id":76561198022933572,"connected_time":781000000000,"state":"active","ping":135},{"user_id":149,"name":"Ammo","steam_id":76561199365904488,"connected_time":47000000000,"state":"active","ping":64},{"user_id":114,"name":"S5lty","steam_id":76561199077992604,"connected_time":1858000000000,"state":"active","ping":115},{"user_id":140,"name":"Nails","steam_id":76561198399261089,"connected_time":610000000000,"state":"active","ping":98},{"user_id":100,"name":"Lifial","steam_id":76561198271885819,"connected_time":2656000000000,"state":"active","ping":48},{"user_id":150,"name":"Lost CS2 player","steam_id":76561198892387723,"connected_time":42000000000,"state":"active","ping":51},{"user_id":145,"name":"neet","steam_id":76561197968115168,"connected_time":332000000000,"state":"active","ping":48},{"user_id":55,"name":"hooley","steam_id":76561198041923067,"connected_time":7123000000000,"state":"active","ping":46},{"user_id":146,"name":"Herman Bavinck","steam_id":76561197993190216,"connected_time":293000000000,"state":"active","ping":54},{"user_id":151,"name":"Goat","steam_id":76561198068447650,"connected_time":19000000000,"state":"spawning","ping":448},{"user_id":152,"name":"Lemon","steam_id":76561198118904509,"connected_time":16000000000,"state":"spawning","ping":162},{"user_id":131,"name":"duke of penis","steam_id":76561198313148513,"connected_time":1495000000000,"state":"active","ping":46},{"user_id":135,"name":"Egg","steam_id":76561199089647090,"connected_time":1237000000000,"state":"active","ping":110},{"user_id":148,"name":"ItsAChadKing","steam_id":76561199499464350,"connected_time":149000000000,"state":"active","ping":122},{"user_id":88,"name":"sfm soldier if he was grotesque","steam_id":76561198353962640,"connected_time":4171000000000,"state":"active","ping":58},{"user_id":95,"name":"John Fortnite","steam_id":76561198076608253,"connected_time":3639000000000,"state":"active","ping":64},{"user_id":136,"name":"Smooth - Santana ft. Rob Thomas","steam_id":76561198145283389,"connected_time":1196000000000,"state":"active","ping":57},{"user_id":153,"name":"Sergeant Snowflake","steam_id":76561198041474489,"connected_time":10000000000,"state":"spawning","ping":142},{"user_id":104,"name":"ToTenLis","steam_id":76561198168581334,"connected_time":2455000000000,"state":"active","ping":159},{"user_id":97,"name":"Shuko","steam_id":76561197995563378,"connected_time":3486000000000,"state":"active","ping":55}]},{"server_id":142,"name":"Uncletopia | S√£o Paulo | 1 | All Maps","name_short":"sao-1","host":"sao-1.br.uncletopia.com","port":27015,"enabled":true,"region":"sa","cc":"br","latitude":-23.533773,"longitude":-46.62529,"reserved":0,"last_update":"0001-01-01T00:00:00Z","name_a2s":"Uncletopia | S√£o Paulo | 1 | All Maps","protocol":17,"map":"cp_mountainlab","folder":"tf","game":"Team Fortress","app_id":440,"player_count":0,"max_players":24,"Bots":0,"server_type":"Dedicated","server_os":"Linux","password":true,"vac":true,"version":"7961495","steam_id":85568392924469996,"keywords":["cp","nocrits","nodmgspread","uncletopia"],"game_id":440,"stv_port":27016,"stv_name":"Uncletopia | S√£o Paulo | 1 | All Maps | STV","players":null},{"server_id":143,"name":"Uncletopia | S√£o Paulo | 2 | Community","name_short":"sao-2","host":"sao-2.br.uncletopia.com","port":27015,"enabled":true,"region":"sa","cc":"br","latitude":-23.533773,"longitude":-46.62529,"reserved":0,"last_update":"0001-01-01T00:00:00Z","name_a2s":"Uncletopia | S√£o Paulo | 2 | Community","protocol":17,"map":"workshop/koth_slaughter_rc1.ugc1712845210","folder":"tf","game":"Team Fortress","app_id":440,"player_count":0,"max_players":24,"Bots":0,"server_type":"Dedicated","server_os":"Linux","password":true,"vac":true,"version":"7961495","steam_id":85568392924485349,"keywords":["cp","nocrits","nodmgspread","uncletopia"],"game_id":440,"stv_port":27016,"stv_name":"Uncletopia | S√£o Paulo | 2 | Community | STV","players":null},{"server_id":7,"name":"Uncletopia | Seattle | 1 | All Maps","name_short":"sea-1","host":"sea-1.us.uncletopia.com","port":27015,"enabled":true,"region":"us-west","cc":"us","latitude":47.608013,"longitude":-122.33517,"reserved":0,"last_update":"0001-01-01T00:00:00Z","name_a2s":"Uncletopia | Seattle | 1 | All Maps","protocol":17,"map":"pl_barnblitz","folder":"tf","game":"Team Fortress","app_id":440,"player_count":24,"max_players":24,"Bots":0,"server_type":"Dedicated","server_os":"Linux","password":true,"vac":true,"version":"7961495","steam_id":85568392924469997,"keywords":["nocrits","nodmgspread","payload","uncletopia"],"game_id":440,"stv_port":27016,"stv_name":"Uncletopia | Seattle | 1 | All Maps | STV","players":[{"user_id":105,"name":"Imitation Caucasian","steam_id":76561198320536166,"connected_time":833000000000,"state":"active","ping":94},{"user_id":106,"name":"grape juice -rng","steam_id":76561198093829623,"connected_time":802000000000,"state":"active","ping":45},{"user_id":87,"name":"no vc no c","steam_id":76561197989503095,"connected_time":2529000000000,"state":"active","ping":152},{"user_id":95,"name":"countstinkdevil666","steam_id":76561198073914311,"connected_time":1560000000000,"state":"active","ping":73},{"user_id":107,"name":"BRONY POWER","steam_id":76561198075510786,"connected_time":770000000000,"state":"active","ping":88},{"user_id":115,"name":"Sailor","steam_id":76561199081983517,"connected_time":281000000000,"state":"active","ping":101},{"user_id":109,"name":"plastiquemonk","steam_id":76561198126035719,"connected_time":743000000000,"state":"active","ping":88},{"user_id":110,"name":"ruyon","steam_id":76561198376916657,"connected_time":654000000000,"state":"active","ping":168},{"user_id":81,"name":"o o o o o o o o o","steam_id":76561197993757506,"connected_time":3422000000000,"state":"active","ping":78},{"user_id":92,"name":"99dentay","steam_id":76561198135771720,"connected_time":1894000000000,"state":"active","ping":53},{"user_id":58,"name":"AWGER","steam_id":76561198284683624,"connected_time":4194000000000,"state":"active","ping":76},{"user_id":111,"name":"elephant thumb","steam_id":76561198118859752,"connected_time":606000000000,"state":"active","ping":73},{"user_id":117,"name":"jello","steam_id":76561199274158922,"connected_time":90000000000,"state":"active","ping":57},{"user_id":112,"name":"Captain Underbelly","steam_id":76561198811270935,"connected_time":589000000000,"state":"active","ping":77},{"user_id":114,"name":"DaddyGalaxy","steam_id":76561198139697796,"connected_time":351000000000,"state":"active","ping":58},{"user_id":102,"name":"Robert E.T.","steam_id":76561197986439371,"connected_time":1184000000000,"state":"active","ping":52},{"user_id":65,"name":"Grimprr","steam_id":76561198275816797,"connected_time":3862000000000,"state":"active","ping":120},{"user_id":113,"name":"Renota","steam_id":76561198058224488,"connected_time":548000000000,"state":"active","ping":115},{"user_id":97,"name":"cat","steam_id":76561198366828434,"connected_time":1551000000000,"state":"active","ping":95},{"user_id":79,"name":"Penis Man","steam_id":76561198947885613,"connected_time":3647000000000,"state":"active","ping":80},{"user_id":69,"name":"KlassicLoL","steam_id":76561198081815303,"connected_time":3801000000000,"state":"active","ping":75},{"user_id":100,"name":"Preston","steam_id":76561198255721392,"connected_time":1330000000000,"state":"active","ping":120},{"user_id":75,"name":"NE–ØO","steam_id":76561197965450216,"connected_time":3730000000000,"state":"active","ping":57},{"user_id":82,"name":"da pwo","steam_id":76561198963115673,"connected_time":3367000000000,"state":"active","ping":103}]},{"server_id":119,"name":"Uncletopia | Seattle | 2 | All Maps","name_short":"sea-2","host":"sea-1.us.uncletopia.com","port":27025,"enabled":true,"region":"us-west","cc":"us","latitude":47.608013,"longitude":-122.33517,"reserved":0,"last_update":"0001-01-01T00:00:00Z","name_a2s":"Uncletopia | Seattle | 2 | All Maps","protocol":17,"map":"cp_mountainlab","folder":"tf","game":"Team Fortress","app_id":440,"player_count":0,"max_players":24,"Bots":0,"server_type":"Dedicated","server_os":"Linux","password":true,"vac":true,"version":"7961495","steam_id":85568392924469998,"keywords":["cp","nocrits","nodmgspread","uncletopia"],"game_id":440,"stv_port":27026,"stv_name":"Uncletopia | Seattle | 2 | All Maps | STV","players":null},{"server_id":406,"name":"Uncletopia | Seattle | 3 | Stopwatch","name_short":"sea-3","host":"sea-1.us.uncletopia.com","port":27035,"enabled":true,"region":"us-west","cc":"us","latitude":47.608013,"longitude":-122.33517,"reserved":0,"last_update":"0001-01-01T00:00:00Z","name_a2s":"Uncletopia | Seattle | 3 | Stopwatch","protocol":17,"map":"cp_gullywash_final1","folder":"tf","game":"Team Fortress","app_id":440,"player_count":0,"max_players":24,"Bots":0,"server_type":"Dedicated","server_os":"Linux","password":true,"vac":true,"version":"7961495","steam_id":85568392924515217,"keywords":["cp","nocrits","nodmgspread","uncletopia"],"game_id":440,"stv_port":27036,"stv_name":"Uncletopia | Seattle | 3 | Stopwatch | STV","players":null},{"server_id":17,"name":"Uncletopia | San Francisco | 1 | All Maps","name_short":"sfo-1","host":"sfo-1.us.uncletopia.com","port":27015,"enabled":true,"region":"us-west","cc":"us","latitude":37.77397,"longitude":-122.4313,"reserved":0,"last_update":"0001-01-01T00:00:00Z","name_a2s":"Uncletopia | San Francisco | 1 | All Maps","protocol":17,"map":"cp_gullywash_final1","folder":"tf","game":"Team Fortress","app_id":440,"player_count":0,"max_players":24,"Bots":0,"server_type":"Dedicated","server_os":"Linux","password":true,"vac":true,"version":"7961495","steam_id":85568392924469999,"keywords":["cp","nocrits","nodmgspread","uncletopia"],"game_id":440,"stv_port":27016,"stv_name":"Uncletopia | San Francisco | 1 | All Maps | STV","players":null},{"server_id":18,"name":"Uncletopia | San Francisco | 2 | All Maps","name_short":"sfo-2","host":"sfo-1.us.uncletopia.com","port":27025,"enabled":true,"region":"us-west","cc":"us","latitude":37.77397,"longitude":-122.4313,"reserved":0,"last_update":"0001-01-01T00:00:00Z","name_a2s":"Uncletopia | San Francisco | 2 | All Maps","protocol":17,"map":"pl_hoodoo_final","folder":"tf","game":"Team Fortress","app_id":440,"player_count":0,"max_players":24,"Bots":0,"server_type":"Dedicated","server_os":"Linux","password":true,"vac":true,"version":"7961495","steam_id":85568392924470000,"keywords":["nocrits","nodmgspread","payload","uncletopia"],"game_id":440,"stv_port":27026,"stv_name":"Uncletopia | San Francisco | 2 | All Maps | STV","players":null},{"server_id":19,"name":"Uncletopia | San Francisco | 3 | Stopwatch","name_short":"sfo-3","host":"sfo-1.us.uncletopia.com","port":27035,"enabled":true,"region":"us-west","cc":"us","latitude":37.77397,"longitude":-122.4313,"reserved":0,"last_update":"0001-01-01T00:00:00Z","name_a2s":"Uncletopia | San Francisco | 3 | Stopwatch","protocol":17,"map":"workshop/koth_clearcut_b15.ugc2107050255","folder":"tf","game":"Team Fortress","app_id":440,"player_count":0,"max_players":24,"Bots":0,"server_type":"Dedicated","server_os":"Linux","password":true,"vac":true,"version":"7961495","steam_id":85568392924742824,"keywords":["cp","nocrits","nodmgspread","uncletopia"],"game_id":440,"stv_port":27036,"stv_name":"Uncletopia | San Francisco | 3 | Stopwatch | STV","players":null},{"server_id":20,"name":"Uncletopia | San Francisco | 4 | Community","name_short":"sfo-4","host":"sfo-1.us.uncletopia.com","port":27045,"enabled":true,"region":"us-west","cc":"us","latitude":37.77397,"longitude":-122.4313,"reserved":0,"last_update":"0001-01-01T00:00:00Z","name_a2s":"Uncletopia | San Francisco | 4 | Community","protocol":17,"map":"workshop/cp_reckoner_rc6.ugc674719999","folder":"tf","game":"Team Fortress","app_id":440,"player_count":0,"max_players":24,"Bots":0,"server_type":"Dedicated","server_os":"Linux","password":true,"vac":true,"version":"7961495","steam_id":85568392924742826,"keywords":["cp","nocrits","nodmgspread","uncletopia"],"game_id":440,"stv_port":27046,"stv_name":"Uncletopia | San Francisco | 4 | Community | STV","players":null},{"server_id":141,"name":"Uncletopia | Sydney | 1 | All Maps","name_short":"syd-1","host":"syd-1.au.uncletopia.com","port":27015,"enabled":true,"region":"au","cc":"au","latitude":-33.865143,"longitude":151.2099,"reserved":0,"last_update":"0001-01-01T00:00:00Z","name_a2s":"Uncletopia | Sydney | 1 | All Maps","protocol":17,"map":"koth_highpass","folder":"tf","game":"Team Fortress","app_id":440,"player_count":0,"max_players":24,"Bots":0,"server_type":"Dedicated","server_os":"Linux","password":true,"vac":true,"version":"7961495","steam_id":85568392924470001,"keywords":["cp","nocrits","nodmgspread","uncletopia"],"game_id":440,"stv_port":27016,"stv_name":"Uncletopia | Sydney | 1 | All Maps | STV","players":null},{"server_id":123,"name":"Uncletopia | Sydney | 2 | All Maps","name_short":"syd-2","host":"syd-1.au.uncletopia.com","port":27025,"enabled":true,"region":"au","cc":"au","latitude":-33.865143,"longitude":151.2099,"reserved":0,"last_update":"0001-01-01T00:00:00Z","name_a2s":"Uncletopia | Sydney | 2 | All Maps","protocol":17,"map":"pl_barnblitz","folder":"tf","game":"Team Fortress","app_id":440,"player_count":0,"max_players":24,"Bots":0,"server_type":"Dedicated","server_os":"Linux","password":true,"vac":true,"version":"7961495","steam_id":85568392924470002,"keywords":["nocrits","nodmgspread","payload","uncletopia"],"game_id":440,"stv_port":27026,"stv_name":"Uncletopia | Sydney | 2 | All Maps | STV","players":null},{"server_id":395,"name":"Uncletopia | Sydney | 3 | All Maps","name_short":"syd-3","host":"syd-1.au.uncletopia.com","port":27035,"enabled":true,"region":"au","cc":"au","latitude":-33.865143,"longitude":151.2099,"reserved":0,"last_update":"0001-01-01T00:00:00Z","name_a2s":"Uncletopia | Sydney | 3 | All Maps","protocol":17,"map":"cp_snakewater_final1","folder":"tf","game":"Team Fortress","app_id":440,"player_count":0,"max_players":24,"Bots":0,"server_type":"Dedicated","server_os":"Linux","password":true,"vac":true,"version":"7961495","steam_id":85568392925194467,"keywords":["cp","nocrits","nodmgspread","uncletopia"],"game_id":440,"stv_port":27036,"stv_name":"Uncletopia | Sydney | 3 | All Maps | STV","players":null},{"server_id":396,"name":"Uncletopia | Sydney | 4 | All Maps","name_short":"syd-4","host":"syd-1.au.uncletopia.com","port":27045,"enabled":true,"region":"au","cc":"au","latitude":-33.865143,"longitude":151.2099,"reserved":0,"last_update":"0001-01-01T00:00:00Z","name_a2s":"Uncletopia | Sydney | 4 | All Maps","protocol":17,"map":"koth_highpass","folder":"tf","game":"Team Fortress","app_id":440,"player_count":0,"max_players":24,"Bots":0,"server_type":"Dedicated","server_os":"Linux","password":true,"vac":true,"version":"7961495","steam_id":85568392925397958,"keywords":["cp","nocrits","nodmgspread","uncletopia"],"game_id":440,"stv_port":27046,"stv_name":"Uncletopia | Sydney | 4 | All Maps | STV","players":null},{"server_id":58,"name":"Uncletopia | Sydney | 5 | Stopwatch","name_short":"syd-5","host":"syd-1.au.uncletopia.com","port":27055,"enabled":true,"region":"au","cc":"au","latitude":-33.865143,"longitude":151.2099,"reserved":0,"last_update":"0001-01-01T00:00:00Z","name_a2s":"Uncletopia | Sydney | 5 | Stopwatch","protocol":17,"map":"koth_lakeside_final","folder":"tf","game":"Team Fortress","app_id":440,"player_count":0,"max_players":24,"Bots":0,"server_type":"Dedicated","server_os":"Linux","password":true,"vac":true,"version":"7961495","steam_id":85568392925397959,"keywords":["cp","nocrits","nodmgspread","uncletopia"],"game_id":440,"stv_port":27056,"stv_name":"Uncletopia | Sydney | 5 | Stopwatch | STV","players":null},{"server_id":59,"name":"Uncletopia | Sydney | 6 | Community","name_short":"syd-6","host":"syd-1.au.uncletopia.com","port":27065,"enabled":true,"region":"au","cc":"au","latitude":-33.865143,"longitude":151.2099,"reserved":0,"last_update":"0001-01-01T00:00:00Z","name_a2s":"Uncletopia | Sydney | 6 | Community","protocol":17,"map":"workshop/koth_soot_final1.ugc2969540689","folder":"tf","game":"Team Fortress","app_id":440,"player_count":0,"max_players":24,"Bots":0,"server_type":"Dedicated","server_os":"Linux","password":true,"vac":true,"version":"7961495","steam_id":85568392925397960,"keywords":["cp","nocrits","nodmgspread","uncletopia"],"game_id":440,"stv_port":27066,"stv_name":"Uncletopia | Sydney | 6 | Community | STV","players":null},{"server_id":49,"name":"Uncletopia | Warsaw | 1 | One Thousand Uncles","name_short":"waw-1","host":"waw-1.pl.uncletopia.com","port":27015,"enabled":true,"region":"eu","cc":"pl","latitude":52.2297,"longitude":21.017532,"reserved":0,"last_update":"0001-01-01T00:00:00Z","name_a2s":"Uncletopia | Warsaw | 1 | One Thousand Uncles","protocol":17,"map":"pl_badwater","folder":"tf","game":"Team Fortress","app_id":440,"player_count":32,"max_players":32,"Bots":20,"server_type":"Dedicated","server_os":"Linux","password":true,"vac":true,"version":"7961495","steam_id":85568392925397850,"keywords":["alltalk","bots","danepve","increased_maxplayers","norespawntime","payload","uncletopia"],"game_id":440,"stv_port":0,"stv_name":"","players":[{"user_id":365,"name":"Valoxi","steam_id":76561197995042938,"connected_time":723000000000,"state":"active","ping":69},{"user_id":390,"name":"Doods","steam_id":76561199172809660,"connected_time":44000000000,"state":"active","ping":105},{"user_id":368,"name":"chomik17","steam_id":76561199476685290,"connected_time":247000000000,"state":"active","ping":75},{"user_id":350,"name":"Hungeryan","steam_id":76561198887299930,"connected_time":3297000000000,"state":"active","ping":72},{"user_id":359,"name":"facetious dog","steam_id":76561198095289436,"connected_time":1716000000000,"state":"active","ping":60},{"user_id":367,"name":"aberrato","steam_id":76561198047206994,"connected_time":268000000000,"state":"active","ping":112},{"user_id":366,"name":"–±–æ–º–∂","steam_id":76561199220465863,"connected_time":534000000000,"state":"active","ping":54},{"user_id":356,"name":"puffy","steam_id":76561198411347037,"connected_time":2352000000000,"state":"active","ping":158},{"user_id":358,"name":"The Fire Pyro","steam_id":76561198300296457,"connected_time":1786000000000,"state":"active","ping":76},{"user_id":361,"name":"sokoltd31","steam_id":76561199481892547,"connected_time":1583000000000,"state":"active","ping":104},{"user_id":364,"name":"child labour","steam_id":76561198260930245,"connected_time":1083000000000,"state":"active","ping":83},{"user_id":389,"name":"Dell \"Vermineer\" LaFontant","steam_id":76561198371872022,"connected_time":233000000000,"state":"active","ping":102}]},{"server_id":50,"name":"Uncletopia | Warsaw | 2 | One Thousand Uncles","name_short":"waw-2","host":"waw-1.pl.uncletopia.com","port":27025,"enabled":true,"region":"eu","cc":"pl","latitude":52.2297,"longitude":21.017532,"reserved":0,"last_update":"0001-01-01T00:00:00Z","name_a2s":"Uncletopia | Warsaw | 2 | One Thousand Uncles","protocol":17,"map":"pl_thundermountain","folder":"tf","game":"Team Fortress","app_id":440,"player_count":1,"max_players":32,"Bots":0,"server_type":"Dedicated","server_os":"Linux","password":true,"vac":true,"version":"7961495","steam_id":85568392925397851,"keywords":["alltalk","danepve","increased_maxplayers","norespawntime","payload","uncletopia"],"game_id":440,"stv_port":0,"stv_name":"","players":[{"user_id":250,"name":"Senpai„ÉÑ","steam_id":76561198857611627,"connected_time":7000000000,"state":"spawning","ping":74}]},{"server_id":51,"name":"Uncletopia | Warsaw | 3 | All Maps","name_short":"waw-3","host":"waw-1.pl.uncletopia.com","port":27035,"enabled":true,"region":"eu","cc":"pl","latitude":52.2297,"longitude":21.017532,"reserved":0,"last_update":"0001-01-01T00:00:00Z","name_a2s":"Uncletopia | Warsaw | 3 | All Maps","protocol":17,"map":"pl_pier","folder":"tf","game":"Team Fortress","app_id":440,"player_count":7,"max_players":24,"Bots":0,"server_type":"Dedicated","server_os":"Linux","password":true,"vac":true,"version":"7961495","steam_id":85568392925397852,"keywords":["nocrits","nodmgspread","payload","uncletopia"],"game_id":440,"stv_port":27036,"stv_name":"Uncletopia | Warsaw | 3 | All Maps | STV","players":[{"user_id":17,"name":"KBG","steam_id":76561198002214466,"connected_time":2212000000000,"state":"active","ping":84},{"user_id":18,"name":"chefens-penis","steam_id":76561198002168289,"connected_time":2208000000000,"state":"active","ping":99},{"user_id":19,"name":"Zabuza","steam_id":76561198002168225,"connected_time":2193000000000,"state":"active","ping":90},{"user_id":20,"name":"Mr Magoo","steam_id":76561198002168293,"connected_time":2156000000000,"state":"active","ping":92},{"user_id":22,"name":"CH1NASKEE","steam_id":76561198021531683,"connected_time":625000000000,"state":"active","ping":91},{"user_id":23,"name":"breadbear \u003c3","steam_id":76561198036895007,"connected_time":431000000000,"state":"active","ping":50},{"user_id":24,"name":"69 ME 2NITE","steam_id":76561199124261801,"connected_time":36000000000,"state":"active","ping":60}]},{"server_id":52,"name":"Uncletopia | Warsaw | 4 | All Maps","name_short":"waw-4","host":"waw-1.pl.uncletopia.com","port":27045,"enabled":true,"region":"eu","cc":"pl","latitude":52.2297,"longitude":21.017532,"reserved":0,"last_update":"0001-01-01T00:00:00Z","name_a2s":"Uncletopia | Warsaw | 4 | All Maps","protocol":17,"map":"cp_snakewater_final1","folder":"tf","game":"Team Fortress","app_id":440,"player_count":0,"max_players":24,"Bots":0,"server_type":"Dedicated","server_os":"Linux","password":true,"vac":true,"version":"7961495","steam_id":85568392925397853,"keywords":["cp","nocrits","nodmgspread","uncletopia"],"game_id":440,"stv_port":27046,"stv_name":"Uncletopia | Warsaw | 4 | All Maps | STV","players":null},{"server_id":53,"name":"Uncletopia | Warsaw | 5 | Stopwatch","name_short":"waw-5","host":"waw-1.pl.uncletopia.com","port":27055,"enabled":true,"region":"eu","cc":"pl","latitude":52.2297,"longitude":21.017532,"reserved":0,"last_update":"0001-01-01T00:00:00Z","name_a2s":"Uncletopia | Warsaw | 5 | Stopwatch","protocol":17,"map":"workshop/koth_ashville_final.ugc2130459942","folder":"tf","game":"Team Fortress","app_id":440,"player_count":2,"max_players":24,"Bots":0,"server_type":"Dedicated","server_os":"Linux","password":true,"vac":true,"version":"7961495","steam_id":85568392925397854,"keywords":["cp","nocrits","nodmgspread","uncletopia"],"game_id":440,"stv_port":27056,"stv_name":"Uncletopia | Warsaw | 5 | Stopwatch | STV","players":[{"user_id":6,"name":"Walter Heartwell White","steam_id":76561199438915375,"connected_time":359000000000,"state":"active","ping":30},{"user_id":7,"name":"Ramenix69","steam_id":76561199436748559,"connected_time":325000000000,"state":"active","ping":97}]},{"server_id":54,"name":"Uncletopia | Warsaw | 6 | Community","name_short":"waw-6","host":"waw-1.pl.uncletopia.com","port":27065,"enabled":true,"region":"eu","cc":"pl","latitude":52.2297,"longitude":21.017532,"reserved":0,"last_update":"0001-01-01T00:00:00Z","name_a2s":"Uncletopia | Warsaw | 6 | Community","protocol":17,"map":"workshop/pl_highwood_b19.ugc1769496557","folder":"tf","game":"Team Fortress","app_id":440,"player_count":0,"max_players":24,"Bots":0,"server_type":"Dedicated","server_os":"Linux","password":true,"vac":true,"version":"7961495","steam_id":85568392925397856,"keywords":["nocrits","nodmgspread","payload","uncletopia"],"game_id":440,"stv_port":27066,"stv_name":"Uncletopia | Warsaw | 6 | Community | STV","players":null}]}