{"status":true,"message":"","result":[{"server_id":9,"name":"Uncletopia | Atlanta | 1 | All Maps","name_short":"atl-1","host":"atl-1.us.uncletopia.com","port":27015,"enabled":true,"region":"us-east","cc":"us","latitude":33.753746,"longitude":-84.38633,"reserved":0,"last_update":"0001-01-01T00:00:00Z","name_a2s":"Uncletopia | Atlanta | 1 | All Maps","protocol":17,"map":"pl_barnblitz","folder":"tf","game":"Team Fortress","app_id":440,"player_count":1,"max_players":24,"Bots":0,"server_type":"Dedicated","server_os":"Linux","password":true,"vac":true,"version":"7932396","steam_id":85568392924469982,"keywords":["nocrits","nodmgspread","payload","uncletopia"],"game_id":440,"stv_port":27016,"stv_name":"Uncletopia | Atlanta | 1 | All Maps | STV","players":[{"user_id":41,"name":"iclark5","steam_id":76561199256588354,"connected_time":1908000000000,"state":"active","ping":89}]},{"server_id":104,"name":"Uncletopia | Atlanta | 2 | All Maps","name_short":"atl-2","host":"atl-1.us.uncletopia.com","port":27025,"enabled":true,"region":"us-east","cc":"us","latitude":33.753746,"longitude":-84.38633,"reserved":0,"last_update":"0001-01-01T00:00:00Z","name_a2s":"Uncletopia | Atlanta | 2 | All Maps","protocol":17,"map":"koth_viaduct","folder":"tf","game":"Team Fortress","app_id":440,"player_count":0,"max_players":24,"Bots":0,"server_type":"Dedicated","server_os":"Linux","password":true,"vac":true,"version":"7932396","steam_id":85568392924469983,"keywords":["cp","nocrits","nodmgspread","uncletopia"],"game_id":440,"stv_port":27026,"stv_name":"Uncletopia | Atlanta | 2 | All Maps | STV","players":null},{"server_id":400,"name":"Uncletopia | Atlanta | 3 | Community","name_short":"atl-3","host":"atl-1.us.uncletopia.com","port":27035,"enabled":true,"region":"us-east","cc":"us","latitude":33.753746,"longitude":-84.38633,"reserved":0,"last_update":"0001-01-01T00:00:00Z","name_a2s":"Uncletopia | Atlanta | 3 | Community","protocol":17,"map":"workshop/cp_logjam_rc12.ugc454812035","folder":"tf","game":"Team Fortress","app_id":440,"player_count":0,"max_players":24,"Bots":0,"server_type":"Dedicated","server_os":"Linux","password":true,"vac":true,"version":"7932396","steam_id":85568392924515187,"keywords":["cp","nocrits","nodmgspread","uncletopia"],"game_id":440,"stv_port":27036,"stv_name":"Uncletopia | Atlanta | 3 | Community | STV","players":null},{"server_id":401,"name":"Uncletopia | Atlanta | 4 | No Payload","name_short":"atl-4","host":"atl-1.us.uncletopia.com","port":27045,"enabled":true,"region":"us-east","cc":"us","latitude":33.753746,"longitude":-84.38633,"reserved":0,"last_update":"0001-01-01T00:00:00Z","name_a2s":"","protocol":0,"map":"","folder":"","game":"","app_id":0,"player_count":0,"max_players":0,"Bots":0,"server_type":"","server_os":"","password":false,"vac":false,"version":"","steam_id":0,"keywords":null,"game_id":0,"stv_port":0,"stv_name":"","players":null},{"server_id":2,"name":"Uncletopia | Chicago | 1 | All Maps","name_short":"chi-1","host":"chi-1.us.uncletopia.com","port":27015,"enabled":true,"region":"us-central","cc":"us","latitude":41.881832,"longitude":-87.62318,"reserved":0,"last_update":"0001-01-01T00:00:00Z","name_a2s":"Uncletopia | Chicago | 1 | All Maps","protocol":17,"map":"cp_powerhouse","folder":"tf","game":"Team Fortress","app_id":440,"player_count":24,"max_players":24,"Bots":0,"server_type":"Dedicated","server_os":"Linux","password":true,"vac":true,"version":"7932396","steam_id":85568392924469984,"keywords":["cp","nocrits","nodmgspread","uncletopia"],"game_id":440,"stv_port":27016,"stv_name":"Uncletopia | Chicago | 1 | All Maps | STV","players":[{"user_id":308,"name":"Undertime Slopper","steam_id":76561198396789061,"connected_time":3185000000000,"state":"active","ping":81},{"user_id":320,"name":"I shovel mayonnaise in mouth","steam_id":76561199123118241,"connected_time":910000000000,"state":"active","ping":106},{"user_id":322,"name":"professional bodyshooter","steam_id":76561199200442395,"connected_time":893000000000,"state":"active","ping":170},{"user_id":328,"name":"Ejaculation Zach","steam_id":76561198203765200,"connected_time":505000000000,"state":"active","ping":59},{"user_id":278,"name":"Scum Knight | T.I.D.K.","steam_id":76561198282444763,"connected_time":3975000000000,"state":"active","ping":59},{"user_id":329,"name":"Broadsword","steam_id":76561198011160411,"connected_time":495000000000,"state":"active","ping":86},{"user_id":120,"name":"dirty tuna","steam_id":76561198021535785,"connected_time":17238000000000,"state":"active","ping":74},{"user_id":316,"name":"DFR oak","steam_id":76561198092135570,"connected_time":1913000000000,"state":"active","ping":60},{"user_id":310,"name":"basil","steam_id":76561198075758026,"connected_time":2873000000000,"state":"active","ping":81},{"user_id":326,"name":"RaddahRaddah","steam_id":76561198194462829,"connected_time":823000000000,"state":"active","ping":60},{"user_id":312,"name":"Ras","steam_id":76561198123546775,"connected_time":2749000000000,"state":"active","ping":76},{"user_id":287,"name":"roman numeral thirteen","steam_id":76561198079416036,"connected_time":3551000000000,"state":"active","ping":42},{"user_id":281,"name":"eat Pant","steam_id":76561197974965536,"connected_time":3920000000000,"state":"active","ping":67},{"user_id":283,"name":"eish","steam_id":76561198089463603,"connected_time":3838000000000,"state":"active","ping":129},{"user_id":323,"name":"TallBit","steam_id":76561199059748976,"connected_time":879000000000,"state":"active","ping":67},{"user_id":324,"name":"MattJettskie","steam_id":76561199229493583,"connected_time":847000000000,"state":"active","ping":99},{"user_id":314,"name":"kite","steam_id":76561198346516392,"connected_time":2530000000000,"state":"active","ping":71},{"user_id":313,"name":"sumireko kinnie","steam_id":76561198061868020,"connected_time":2580000000000,"state":"active","ping":150},{"user_id":286,"name":"Zoot","steam_id":76561198121944243,"connected_time":3705000000000,"state":"active","ping":89},{"user_id":319,"name":"ungr8t","steam_id":76561198063521721,"connected_time":1172000000000,"state":"active","ping":74},{"user_id":253,"name":"viego","steam_id":76561198273568117,"connected_time":6557000000000,"state":"active","ping":69},{"user_id":325,"name":"notweN giF","steam_id":76561198064255155,"connected_time":843000000000,"state":"active","ping":69},{"user_id":232,"name":"blob","steam_id":76561198122375328,"connected_time":8621000000000,"state":"active","ping":60},{"user_id":332,"name":"Rodrick Knee","steam_id":76561198283021062,"connected_time":145000000000,"state":"active","ping":85}]},{"server_id":106,"name":"Uncletopia | Chicago | 2 | All Maps","name_short":"chi-2","host":"chi-1.us.uncletopia.com","port":27025,"enabled":true,"region":"us-central","cc":"us","latitude":41.881832,"longitude":-87.62318,"reserved":0,"last_update":"0001-01-01T00:00:00Z","name_a2s":"Uncletopia | Chicago | 2 | All Maps","protocol":17,"map":"pl_badwater","folder":"tf","game":"Team Fortress","app_id":440,"player_count":24,"max_players":24,"Bots":0,"server_type":"Dedicated","server_os":"Linux","password":true,"vac":true,"version":"7932396","steam_id":85568392924469985,"keywords":["nocrits","nodmgspread","payload","uncletopia"],"game_id":440,"stv_port":27026,"stv_name":"Uncletopia | Chicago | 2 | All Maps | STV","players":[{"user_id":485,"name":"native sugondese speaker","steam_id":76561198043862737,"connected_time":466000000000,"state":"active","ping":56},{"user_id":493,"name":"GoatsonBoats","steam_id":76561198087708042,"connected_time":278000000000,"state":"active","ping":98},{"user_id":500,"name":"shmoney maker","steam_id":76561198241948526,"connected_time":199000000000,"state":"active","ping":60},{"user_id":444,"name":"Andale","steam_id":76561198326236983,"connected_time":4930000000000,"state":"active","ping":146},{"user_id":456,"name":"AnonymousCritter","steam_id":76561198864475187,"connected_time":3269000000000,"state":"active","ping":54},{"user_id":470,"name":"69weenies","steam_id":76561199217012206,"connected_time":2113000000000,"state":"active","ping":39},{"user_id":486,"name":"Jean Deere","steam_id":76561198105101309,"connected_time":425000000000,"state":"active","ping":76},{"user_id":464,"name":"TechnoBear2099","steam_id":76561198238863596,"connected_time":2921000000000,"state":"active","ping":68},{"user_id":479,"name":"Wulfston","steam_id":76561198287897256,"connected_time":1053000000000,"state":"active","ping":90},{"user_id":501,"name":"flameboy50","steam_id":76561198258638052,"connected_time":102000000000,"state":"active","ping":129},{"user_id":457,"name":"Dietrich","steam_id":76561198028163840,"connected_time":3260000000000,"state":"active","ping":86},{"user_id":425,"name":"Rukks","steam_id":76561197993918954,"connected_time":6647000000000,"state":"active","ping":91},{"user_id":467,"name":"Feared Gamer","steam_id":76561198350127514,"connected_time":2172000000000,"state":"active","ping":62},{"user_id":453,"name":"LerN","steam_id":76561198083463877,"connected_time":3298000000000,"state":"active","ping":56},{"user_id":476,"name":"EngarDew","steam_id":76561198052648471,"connected_time":1245000000000,"state":"active","ping":82},{"user_id":502,"name":"Young Sanity","steam_id":76561198395766307,"connected_time":44000000000,"state":"active","ping":49},{"user_id":473,"name":"Michaelpc1","steam_id":76561198088365519,"connected_time":1580000000000,"state":"active","ping":88},{"user_id":460,"name":"incredirocks","steam_id":76561198061079993,"connected_time":3199000000000,"state":"active","ping":45},{"user_id":474,"name":"Alfonso Molestro","steam_id":76561197998677099,"connected_time":1412000000000,"state":"active","ping":76},{"user_id":438,"name":"GamingGeneral","steam_id":76561198872339275,"connected_time":5512000000000,"state":"active","ping":68},{"user_id":482,"name":"phantom","steam_id":76561197963860777,"connected_time":543000000000,"state":"active","ping":91},{"user_id":477,"name":"malon milk","steam_id":76561198042558913,"connected_time":1220000000000,"state":"active","ping":84},{"user_id":490,"name":"lcy13vv","steam_id":76561197995997446,"connected_time":330000000000,"state":"active","ping":59},{"user_id":496,"name":"BLUE POKEMON","steam_id":76561199227158472,"connected_time":262000000000,"state":"active","ping":85}]},{"server_id":402,"name":"Uncletopia | Chicago | 3 | All Maps","name_short":"chi-3","host":"chi-1.us.uncletopia.com","port":27035,"enabled":true,"region":"us-central","cc":"us","latitude":41.881832,"longitude":-87.62318,"reserved":0,"last_update":"0001-01-01T00:00:00Z","name_a2s":"Uncletopia | Chicago | 3 | All Maps","protocol":17,"map":"pl_upward","folder":"tf","game":"Team Fortress","app_id":440,"player_count":24,"max_players":24,"Bots":0,"server_type":"Dedicated","server_os":"Linux","password":true,"vac":true,"version":"7932396","steam_id":85568392924515191,"keywords":["nocrits","nodmgspread","payload","uncletopia"],"game_id":440,"stv_port":27036,"stv_name":"Uncletopia | Chicago | 3 | All Maps | STV","players":[{"user_id":298,"name":"Bread Baker","steam_id":76561198185335103,"connected_time":503000000000,"state":"active","ping":52},{"user_id":289,"name":"OlympicChamp_12","steam_id":76561198830574526,"connected_time":870000000000,"state":"active","ping":98},{"user_id":290,"name":"Waddlehi","steam_id":76561198072553840,"connected_time":841000000000,"state":"active","ping":58},{"user_id":281,"name":"Jabawakai","steam_id":76561198088881254,"connected_time":1331000000000,"state":"active","ping":57},{"user_id":291,"name":"Transbian mommy GF","steam_id":76561198153233822,"connected_time":786000000000,"state":"active","ping":64},{"user_id":273,"name":"jeremy elbertson","steam_id":76561198044420428,"connected_time":2069000000000,"state":"active","ping":61},{"user_id":293,"name":"ZeN","steam_id":76561199098746585,"connected_time":709000000000,"state":"active","ping":51},{"user_id":194,"name":"GreekGoat_Coffee","steam_id":76561198129331088,"connected_time":10421000000000,"state":"active","ping":44},{"user_id":294,"name":"dr spwewps","steam_id":76561198144784420,"connected_time":683000000000,"state":"active","ping":61},{"user_id":295,"name":"totoro","steam_id":76561198210420871,"connected_time":672000000000,"state":"active","ping":45},{"user_id":300,"name":"dj magdogrozen","steam_id":76561198984131011,"connected_time":483000000000,"state":"active","ping":73},{"user_id":296,"name":"Arsonist","steam_id":76561198277989140,"connected_time":658000000000,"state":"active","ping":89},{"user_id":257,"name":"Skendiesel","steam_id":76561198015497676,"connected_time":3832000000000,"state":"active","ping":52},{"user_id":297,"name":"MacchuPeachu","steam_id":76561199093242587,"connected_time":547000000000,"state":"active","ping":75},{"user_id":299,"name":"Leifvs","steam_id":76561198255946142,"connected_time":494000000000,"state":"active","ping":91},{"user_id":277,"name":"styles","steam_id":76561198149443710,"connected_time":1941000000000,"state":"active","ping":94},{"user_id":301,"name":"LOWRY","steam_id":76561198004623459,"connected_time":466000000000,"state":"active","ping":101},{"user_id":278,"name":"goliath birdeater","steam_id":76561198089852954,"connected_time":1929000000000,"state":"active","ping":80},{"user_id":302,"name":"TheChickenChuck","steam_id":76561199192686708,"connected_time":423000000000,"state":"active","ping":110},{"user_id":270,"name":"Pika","steam_id":76561198068063436,"connected_time":2401000000000,"state":"active","ping":51},{"user_id":288,"name":"Voyager","steam_id":76561199128786637,"connected_time":1044000000000,"state":"active","ping":99},{"user_id":304,"name":"ATL1 | TheRealMud","steam_id":76561198138312993,"connected_time":370000000000,"state":"active","ping":71},{"user_id":308,"name":"zl","steam_id":76561198374406575,"connected_time":267000000000,"state":"active","ping":120},{"user_id":306,"name":"Donk","steam_id":76561198803472441,"connected_time":321000000000,"state":"active","ping":69}]},{"server_id":403,"name":"Uncletopia | Chicago | 4 | All Maps","name_short":"chi-4","host":"chi-1.us.uncletopia.com","port":27045,"enabled":true,"region":"us-central","cc":"us","latitude":41.881832,"longitude":-87.62318,"reserved":0,"last_update":"0001-01-01T00:00:00Z","name_a2s":"Uncletopia | Chicago | 4 | All Maps","protocol":17,"map":"pl_upward","folder":"tf","game":"Team Fortress","app_id":440,"player_count":24,"max_players":24,"Bots":0,"server_type":"Dedicated","server_os":"Linux","password":true,"vac":true,"version":"7932396","steam_id":85568392924515193,"keywords":["nocrits","nodmgspread","payload","uncletopia"],"game_id":440,"stv_port":27046,"stv_name":"Uncletopia | Chicago | 4 | All Maps | STV","players":[{"user_id":504,"name":"viagra addict","steam_id":76561198017705248,"connected_time":1045000000000,"state":"active","ping":48},{"user_id":494,"name":"yateyayüòàüòà","steam_id":76561198311004039,"connected_time":1872000000000,"state":"active","ping":90},{"user_id":503,"name":"Cherry Bomb!","steam_id":76561198017947020,"connected_time":1081000000000,"state":"active","ping":61},{"user_id":516,"name":"elyina","steam_id":76561198035310295,"connected_time":188000000000,"state":"active","ping":98},{"user_id":495,"name":"LuckiFan69","steam_id":76561198449527009,"connected_time":1847000000000,"state":"active","ping":90},{"user_id":464,"name":"Mindstrain","steam_id":76561199274044215,"connected_time":4928000000000,"state":"active","ping":99},{"user_id":496,"name":"Evil little man","steam_id":76561198311053471,"connected_time":1834000000000,"state":"active","ping":80},{"user_id":478,"name":"A Can of AriZona Green Tea","steam_id":76561198062481133,"connected_time":3579000000000,"state":"active","ping":79},{"user_id":484,"name":"AreYouMyMummy?","steam_id":76561197995101745,"connected_time":2837000000000,"state":"active","ping":62},{"user_id":514,"name":"Festive Conch Shell","steam_id":76561198042072993,"connected_time":282000000000,"state":"active","ping":73},{"user_id":515,"name":"*","steam_id":76561198173047169,"connected_time":199000000000,"state":"active","ping":60},{"user_id":497,"name":"Engideer","steam_id":76561198145733164,"connected_time":1814000000000,"state":"active","ping":73},{"user_id":507,"name":"ON KING DAVID","steam_id":76561198071260549,"connected_time":997000000000,"state":"active","ping":61},{"user_id":485,"name":"Owl Pacino","steam_id":76561197979970666,"connected_time":2823000000000,"state":"active","ping":53},{"user_id":502,"name":"-Õú -","steam_id":76561198082295223,"connected_time":1129000000000,"state":"active","ping":79},{"user_id":499,"name":"IVV4","steam_id":76561198194356583,"connected_time":1782000000000,"state":"active","ping":85},{"user_id":487,"name":"kent C Straight","steam_id":76561198056190259,"connected_time":2631000000000,"state":"active","ping":64},{"user_id":489,"name":"bluebird","steam_id":76561198065219155,"connected_time":2331000000000,"state":"active","ping":45},{"user_id":446,"name":"nori_420","steam_id":76561199117134203,"connected_time":6171000000000,"state":"active","ping":111},{"user_id":472,"name":"5mech","steam_id":76561198979167520,"connected_time":3786000000000,"state":"active","ping":58},{"user_id":500,"name":"Cliff Uppercut","steam_id":76561197999439391,"connected_time":1741000000000,"state":"active","ping":78},{"user_id":481,"name":"aiming with drawing tablet","steam_id":76561198397662124,"connected_time":2993000000000,"state":"active","ping":88},{"user_id":501,"name":"Kasodani Kyouko","steam_id":76561198023178589,"connected_time":1712000000000,"state":"active","ping":88},{"user_id":461,"name":"FallingShells","steam_id":76561198132956977,"connected_time":5347000000000,"state":"active","ping":67}]},{"server_id":36,"name":"Uncletopia | Chicago | 5 | All Maps","name_short":"chi-5","host":"chi-2.us.uncletopia.com","port":27015,"enabled":true,"region":"us-central","cc":"us","latitude":41.881832,"longitude":-87.62318,"reserved":0,"last_update":"0001-01-01T00:00:00Z","name_a2s":"Uncletopia | Chicago | 5 | All Maps","protocol":17,"map":"pl_borneo","folder":"tf","game":"Team Fortress","app_id":440,"player_count":24,"max_players":24,"Bots":0,"server_type":"Dedicated","server_os":"Linux","password":true,"vac":true,"version":"7932396","steam_id":85568392924866362,"keywords":["nocrits","nodmgspread","payload","uncletopia"],"game_id":440,"stv_port":27016,"stv_name":"Uncletopia | Chicago | 5 | All Maps | STV","players":[{"user_id":188,"name":"RedSock","steam_id":76561198161243404,"connected_time":1542000000000,"state":"active","ping":41},{"user_id":189,"name":"10KO!","steam_id":76561199134895220,"connected_time":1540000000000,"state":"active","ping":75},{"user_id":207,"name":"CRISPR","steam_id":76561198326220798,"connected_time":234000000000,"state":"active","ping":66},{"user_id":157,"name":"blobb","steam_id":76561198950448488,"connected_time":3891000000000,"state":"active","ping":49},{"user_id":182,"name":"MCRacer25","steam_id":76561199384433454,"connected_time":2312000000000,"state":"active","ping":62},{"user_id":203,"name":"Female Gamer","steam_id":76561199366482682,"connected_time":826000000000,"state":"active","ping":105},{"user_id":202,"name":"[DEEP] Fitts1099","steam_id":76561198044986906,"connected_time":959000000000,"state":"active","ping":90},{"user_id":172,"name":"nut.","steam_id":76561198313363097,"connected_time":2778000000000,"state":"active","ping":94},{"user_id":137,"name":"Voids","steam_id":76561198128386726,"connected_time":6001000000000,"state":"active","ping":75},{"user_id":194,"name":"Bunnyboy","steam_id":76561198298416058,"connected_time":1153000000000,"state":"active","ping":68},{"user_id":197,"name":"ThatGamingKiwi","steam_id":76561199170522237,"connected_time":1137000000000,"state":"active","ping":81},{"user_id":136,"name":"J The Jounin","steam_id":76561198034583622,"connected_time":6084000000000,"state":"active","ping":76},{"user_id":186,"name":"[DOOR] Jacob","steam_id":76561198004630011,"connected_time":1579000000000,"state":"active","ping":47},{"user_id":199,"name":"quacks","steam_id":76561198077934343,"connected_time":1120000000000,"state":"active","ping":70},{"user_id":179,"name":"Clear Sky Soldier","steam_id":76561199234350287,"connected_time":2523000000000,"state":"active","ping":60},{"user_id":200,"name":"SlimelordMD","steam_id":76561198194766247,"connected_time":1120000000000,"state":"active","ping":74},{"user_id":125,"name":"Illusionism","steam_id":76561198167878499,"connected_time":6395000000000,"state":"active","ping":86},{"user_id":183,"name":"Quibbli","steam_id":76561199214866732,"connected_time":2291000000000,"state":"active","ping":71},{"user_id":206,"name":"tinkercrab11","steam_id":76561198881792140,"connected_time":283000000000,"state":"active","ping":84},{"user_id":208,"name":"coolplums","steam_id":76561198072154720,"connected_time":18000000000,"state":"active","ping":55},{"user_id":205,"name":"Riboflavin","steam_id":76561198077328593,"connected_time":318000000000,"state":"active","ping":88},{"user_id":185,"name":"Melon","steam_id":76561198041266286,"connected_time":2253000000000,"state":"active","ping":94},{"user_id":175,"name":"ChozoChorizo","steam_id":76561198272609196,"connected_time":2694000000000,"state":"active","ping":69},{"user_id":187,"name":"blank","steam_id":76561198105529673,"connected_time":1579000000000,"state":"active","ping":99}]},{"server_id":37,"name":"Uncletopia | Chicago | 6 | All Maps","name_short":"chi-6","host":"chi-2.us.uncletopia.com","port":27025,"enabled":true,"region":"us-central","cc":"us","latitude":41.881832,"longitude":-87.62318,"reserved":0,"last_update":"0001-01-01T00:00:00Z","name_a2s":"Uncletopia | Chicago | 6 | All Maps","protocol":17,"map":"pl_barnblitz","folder":"tf","game":"Team Fortress","app_id":440,"player_count":24,"max_players":24,"Bots":0,"server_type":"Dedicated","server_os":"Linux","password":true,"vac":true,"version":"7932396","steam_id":85568392924866363,"keywords":["nocrits","nodmgspread","payload","uncletopia"],"game_id":440,"stv_port":27026,"stv_name":"Uncletopia | Chicago | 6 | All Maps | STV","players":[{"user_id":179,"name":"Schmingus","steam_id":76561199476148332,"connected_time":584000000000,"state":"active","ping":105},{"user_id":169,"name":"Anderred","steam_id":76561198149983847,"connected_time":1188000000000,"state":"active","ping":83},{"user_id":156,"name":"The Nikocado Enjoyer","steam_id":76561198263154374,"connected_time":2691000000000,"state":"active","ping":73},{"user_id":99,"name":"Jesus used Dead Ringer","steam_id":76561198268991349,"connected_time":5471000000000,"state":"active","ping":66},{"user_id":174,"name":"DukeofWutang","steam_id":76561198010246343,"connected_time":1049000000000,"state":"active","ping":102},{"user_id":149,"name":"EvilsConscience","steam_id":76561198073451760,"connected_time":2990000000000,"state":"active","ping":58},{"user_id":168,"name":"Heck Engine","steam_id":76561198055759310,"connected_time":1307000000000,"state":"active","ping":79},{"user_id":181,"name":"Zeph The Chef","steam_id":76561198153281761,"connected_time":313000000000,"state":"active","ping":56},{"user_id":182,"name":"pandora","steam_id":76561198347366984,"connected_time":48000000000,"state":"active","ping":90},{"user_id":134,"name":"Mecha","steam_id":76561198014927379,"connected_time":3866000000000,"state":"active","ping":69},{"user_id":162,"name":"leonardo doujinshi","steam_id":76561198025810326,"connected_time":2057000000000,"state":"active","ping":75},{"user_id":170,"name":"K. O. E.","steam_id":76561198025188490,"connected_time":1138000000000,"state":"active","ping":85},{"user_id":119,"name":"cringeass nae-nae girl","steam_id":76561198108753857,"connected_time":4298000000000,"state":"active","ping":76},{"user_id":148,"name":"Crabo Stabbo","steam_id":76561198061227228,"connected_time":3016000000000,"state":"active","ping":55},{"user_id":163,"name":"Mega","steam_id":76561198067217593,"connected_time":2044000000000,"state":"active","ping":63},{"user_id":176,"name":"Cluth","steam_id":76561198318179594,"connected_time":1008000000000,"state":"active","ping":47},{"user_id":157,"name":"|WS| Don't_Taze_Me_Bro","steam_id":76561198043289495,"connected_time":2567000000000,"state":"active","ping":74},{"user_id":164,"name":"anonion","steam_id":76561198056477584,"connected_time":2043000000000,"state":"active","ping":85},{"user_id":127,"name":"CHAIRMAN MAO GAMING","steam_id":76561198066018972,"connected_time":4135000000000,"state":"active","ping":80},{"user_id":173,"name":"Protato","steam_id":76561198061182563,"connected_time":1083000000000,"state":"active","ping":72},{"user_id":166,"name":"Athelas","steam_id":76561198066842406,"connected_time":1925000000000,"state":"active","ping":58},{"user_id":177,"name":"nav","steam_id":76561198872608266,"connected_time":830000000000,"state":"active","ping":76},{"user_id":172,"name":"brolio","steam_id":76561199189416201,"connected_time":1103000000000,"state":"active","ping":61},{"user_id":171,"name":"Twin","steam_id":76561199480718983,"connected_time":1128000000000,"state":"active","ping":104}]},{"server_id":38,"name":"Uncletopia | Chicago | 7 | Stopwatch Beta","name_short":"chi-7","host":"chi-2.us.uncletopia.com","port":27035,"enabled":true,"region":"us-central","cc":"us","latitude":41.881832,"longitude":-87.62318,"reserved":0,"last_update":"0001-01-01T00:00:00Z","name_a2s":"Uncletopia | Chicago | 7 | Stopwatch Beta","protocol":17,"map":"workshop/pl_barnblitz_pro7.ugc582280235","folder":"tf","game":"Team Fortress","app_id":440,"player_count":0,"max_players":24,"Bots":0,"server_type":"Dedicated","server_os":"Linux","password":true,"vac":true,"version":"7932396","steam_id":85568392924866364,"keywords":["nocrits","nodmgspread","payload","uncletopia"],"game_id":440,"stv_port":27036,"stv_name":"Uncletopia | Chicago | 7 | Stopwatch Beta | STV","players":null},{"server_id":39,"name":"Uncletopia | Chicago | 8 | Community","name_short":"chi-8","host":"chi-2.us.uncletopia.com","port":27045,"enabled":true,"region":"us-central","cc":"us","latitude":41.881832,"longitude":-87.62318,"reserved":0,"last_update":"0001-01-01T00:00:00Z","name_a2s":"Uncletopia | Chicago | 8 | Community","protocol":17,"map":"workshop/koth_trenchfoot_b1a.ugc731436616","folder":"tf","game":"Team Fortress","app_id":440,"player_count":7,"max_players":24,"Bots":0,"server_type":"Dedicated","server_os":"Linux","password":true,"vac":true,"version":"7932396","steam_id":85568392924866365,"keywords":["cp","nocrits","nodmgspread","uncletopia"],"game_id":440,"stv_port":27046,"stv_name":"Uncletopia | Chicago | 8 | Community | STV","players":[{"user_id":92,"name":"Node‚ãÑ","steam_id":76561198219359475,"connected_time":1282000000000,"state":"active","ping":65},{"user_id":96,"name":"Skiddy","steam_id":76561198125942665,"connected_time":425000000000,"state":"active","ping":64},{"user_id":94,"name":"justNO11","steam_id":76561198915411375,"connected_time":884000000000,"state":"active","ping":72},{"user_id":99,"name":"Captain Coochie","steam_id":76561198441729702,"connected_time":38000000000,"state":"active","ping":98},{"user_id":98,"name":"gideon nav my beloved","steam_id":76561198259092181,"connected_time":400000000000,"state":"active","ping":60},{"user_id":100,"name":"TEXAN DREAM","steam_id":76561198119067958,"connected_time":30000000000,"state":"active","ping":107},{"user_id":47,"name":"WalrusIncarnate","steam_id":76561198059867060,"connected_time":3850000000000,"state":"active","ping":108}]},{"server_id":8,"name":"Uncletopia | Dallas | 1 | All Maps","name_short":"dal-1","host":"dal-1.us.uncletopia.com","port":27015,"enabled":true,"region":"us-central","cc":"us","latitude":32.779167,"longitude":-96.80889,"reserved":0,"last_update":"0001-01-01T00:00:00Z","name_a2s":"Uncletopia | Dallas | 1 | All Maps","protocol":17,"map":"koth_harvest_final","folder":"tf","game":"Team Fortress","app_id":440,"player_count":24,"max_players":24,"Bots":0,"server_type":"Dedicated","server_os":"Linux","password":true,"vac":true,"version":"7932396","steam_id":85568392924469986,"keywords":["cp","nocrits","nodmgspread","uncletopia"],"game_id":440,"stv_port":27016,"stv_name":"Uncletopia | Dallas | 1 | All Maps | STV","players":[{"user_id":358,"name":"A Straw","steam_id":76561199367935846,"connected_time":2893000000000,"state":"active","ping":72},{"user_id":397,"name":"Jatt","steam_id":76561198822011219,"connected_time":380000000000,"state":"active","ping":94},{"user_id":402,"name":"Jennifer Aniston's Nipples","steam_id":76561198086107548,"connected_time":181000000000,"state":"active","ping":54},{"user_id":383,"name":"Fox","steam_id":76561198210081927,"connected_time":1683000000000,"state":"active","ping":70},{"user_id":262,"name":"Spazz","steam_id":76561198036167494,"connected_time":9268000000000,"state":"active","ping":55},{"user_id":399,"name":"t2h","steam_id":76561198057944303,"connected_time":357000000000,"state":"active","ping":90},{"user_id":348,"name":"SoldMyKidneyForCollege","steam_id":76561198096329559,"connected_time":3807000000000,"state":"active","ping":86},{"user_id":261,"name":"CHIEF","steam_id":76561198011209422,"connected_time":9278000000000,"state":"active","ping":45},{"user_id":389,"name":"Kid B8","steam_id":76561198086764710,"connected_time":987000000000,"state":"active","ping":76},{"user_id":263,"name":"Proud Swift City Resident","steam_id":76561198036283992,"connected_time":9262000000000,"state":"active","ping":84},{"user_id":317,"name":"Skooli","steam_id":76561198038519759,"connected_time":6312000000000,"state":"active","ping":72},{"user_id":400,"name":"MR_KRABS_SOCCER","steam_id":76561199364746412,"connected_time":327000000000,"state":"active","ping":74},{"user_id":377,"name":"Ligmus Sigmus","steam_id":76561198168946002,"connected_time":1931000000000,"state":"active","ping":66},{"user_id":337,"name":"TheGFG","steam_id":76561198166150556,"connected_time":4572000000000,"state":"active","ping":70},{"user_id":401,"name":"FishGod","steam_id":76561198056156434,"connected_time":285000000000,"state":"active","ping":44},{"user_id":380,"name":"Plutaya","steam_id":76561198054538385,"connected_time":1816000000000,"state":"active","ping":58},{"user_id":356,"name":"Phosu","steam_id":76561198180162801,"connected_time":2917000000000,"state":"active","ping":80},{"user_id":387,"name":"80 Lean 20 Fat","steam_id":76561198450684758,"connected_time":1401000000000,"state":"active","ping":96},{"user_id":338,"name":"MyTeamIsAzz","steam_id":76561198241921220,"connected_time":4571000000000,"state":"active","ping":96},{"user_id":390,"name":"Bolbi Stroganovsky","steam_id":76561198069816955,"connected_time":985000000000,"state":"active","ping":76},{"user_id":394,"name":"Antwan","steam_id":76561198246200638,"connected_time":600000000000,"state":"active","ping":47},{"user_id":361,"name":"Da Baby","steam_id":76561199025980167,"connected_time":2854000000000,"state":"active","ping":73},{"user_id":362,"name":"Snoopy","steam_id":76561198273735974,"connected_time":2854000000000,"state":"active","ping":74},{"user_id":391,"name":"gundog","steam_id":76561198063240044,"connected_time":922000000000,"state":"active","ping":60}]},{"server_id":108,"name":"Uncletopia | Dallas | 2 | All Maps","name_short":"dal-2","host":"dal-1.us.uncletopia.com","port":27025,"enabled":true,"region":"us-central","cc":"us","latitude":32.779167,"longitude":-96.80889,"reserved":0,"last_update":"0001-01-01T00:00:00Z","name_a2s":"Uncletopia | Dallas | 2 | All Maps","protocol":17,"map":"pl_upward","folder":"tf","game":"Team Fortress","app_id":440,"player_count":24,"max_players":24,"Bots":0,"server_type":"Dedicated","server_os":"Linux","password":true,"vac":true,"version":"7932396","steam_id":85568392924469988,"keywords":["nocrits","nodmgspread","payload","uncletopia"],"game_id":440,"stv_port":27026,"stv_name":"Uncletopia | Dallas | 2 | All Maps | STV","players":[{"user_id":380,"name":"IanFishooks","steam_id":76561199403427527,"connected_time":1371000000000,"state":"active","ping":95},{"user_id":400,"name":"npc energy","steam_id":76561198035342207,"connected_time":248000000000,"state":"active","ping":50},{"user_id":369,"name":"Moonman327","steam_id":76561197992616059,"connected_time":1975000000000,"state":"active","ping":76},{"user_id":373,"name":"I'm Playing Yu-Gi-Oh Master Due","steam_id":76561198070800159,"connected_time":1836000000000,"state":"active","ping":74},{"user_id":349,"name":"Guess I'm just popo","steam_id":76561197966419253,"connected_time":3444000000000,"state":"active","ping":86},{"user_id":397,"name":"john_minecraft05","steam_id":76561198354026474,"connected_time":371000000000,"state":"active","ping":77},{"user_id":393,"name":"‚ô¶‚ô£Quadric‚ô•‚ô†","steam_id":76561198061003853,"connected_time":1212000000000,"state":"active","ping":87},{"user_id":395,"name":"The Patriot Goose","steam_id":76561198970595756,"connected_time":937000000000,"state":"active","ping":68},{"user_id":381,"name":"SizableChap","steam_id":76561199148162904,"connected_time":1366000000000,"state":"active","ping":68},{"user_id":382,"name":"CCtv","steam_id":76561198253054325,"connected_time":1365000000000,"state":"active","ping":42},{"user_id":401,"name":"pookie","steam_id":76561199024464321,"connected_time":203000000000,"state":"active","ping":99},{"user_id":377,"name":"Crippling Debt","steam_id":76561198850664215,"connected_time":1441000000000,"state":"active","ping":131},{"user_id":273,"name":"Smug","steam_id":76561198448205229,"connected_time":8791000000000,"state":"active","ping":74},{"user_id":270,"name":"cypherzero","steam_id":76561199182960322,"connected_time":8877000000000,"state":"active","ping":52},{"user_id":387,"name":"LittleFieryOne","steam_id":76561198107463724,"connected_time":1318000000000,"state":"active","ping":79},{"user_id":390,"name":"Jimbo99","steam_id":76561198225114256,"connected_time":1287000000000,"state":"active","ping":53},{"user_id":323,"name":"Elias","steam_id":76561198106431732,"connected_time":4868000000000,"state":"active","ping":68},{"user_id":398,"name":"MayKaye","steam_id":76561199016092265,"connected_time":344000000000,"state":"active","ping":78},{"user_id":388,"name":"B·µ¢g B‚Çí‚Çõ‚Çõ","steam_id":76561198090271815,"connected_time":1313000000000,"state":"active","ping":127},{"user_id":399,"name":"bladees saddest, realest verse","steam_id":76561198098099826,"connected_time":323000000000,"state":"active","ping":62},{"user_id":353,"name":"King Cotton","steam_id":76561198292444376,"connected_time":3417000000000,"state":"active","ping":72},{"user_id":396,"name":"Neophyte","steam_id":76561198027183394,"connected_time":506000000000,"state":"active","ping":87},{"user_id":361,"name":"KeithStone","steam_id":76561197986083582,"connected_time":3097000000000,"state":"active","ping":105},{"user_id":378,"name":"younggflylyfe","steam_id":76561199477357832,"connected_time":1438000000000,"state":"active","ping":41}]},{"server_id":5,"name":"Uncletopia | Frankfurt | 1 | All Maps","name_short":"frk-1","host":"frk-1.de.uncletopia.com","port":27015,"enabled":true,"region":"eu","cc":"de","latitude":50.110924,"longitude":8.682127,"reserved":0,"last_update":"0001-01-01T00:00:00Z","name_a2s":"Uncletopia | Frankfurt | 1 | All Maps","protocol":17,"map":"koth_highpass","folder":"tf","game":"Team Fortress","app_id":440,"player_count":0,"max_players":24,"Bots":0,"server_type":"Dedicated","server_os":"Linux","password":true,"vac":true,"version":"7932396","steam_id":85568392924469989,"keywords":["cp","nocrits","nodmgspread","uncletopia"],"game_id":440,"stv_port":27016,"stv_name":"Uncletopia | Frankfurt | 1 | All Maps | STV","players":null},{"server_id":110,"name":"Uncletopia | Frankfurt | 2 | All Maps","name_short":"frk-2","host":"frk-1.de.uncletopia.com","port":27025,"enabled":true,"region":"eu","cc":"de","latitude":50.110924,"longitude":8.682127,"reserved":0,"last_update":"0001-01-01T00:00:00Z","name_a2s":"Uncletopia | Frankfurt | 2 | All Maps","protocol":17,"map":"cp_dustbowl","folder":"tf","game":"Team Fortress","app_id":440,"player_count":24,"max_players":24,"Bots":0,"server_type":"Dedicated","server_os":"Linux","password":true,"vac":true,"version":"7932396","steam_id":85568392924469990,"keywords":["cp","nocrits","nodmgspread","uncletopia"],"game_id":440,"stv_port":27026,"stv_name":"Uncletopia | Frankfurt | 2 | All Maps | STV","players":[{"user_id":675,"name":"Uselss Joe","steam_id":76561198275853629,"connected_time":318000000000,"state":"active","ping":45},{"user_id":669,"name":"hananamanna","steam_id":76561198006570285,"connected_time":983000000000,"state":"active","ping":119},{"user_id":643,"name":"Lewylow","steam_id":76561198005425686,"connected_time":2097000000000,"state":"active","ping":68},{"user_id":666,"name":"Opti","steam_id":76561197968902518,"connected_time":1442000000000,"state":"active","ping":60},{"user_id":676,"name":"mp1mp2mp3","steam_id":76561198088967665,"connected_time":149000000000,"state":"active","ping":96},{"user_id":667,"name":"MeoW Ku$h","steam_id":76561198037237664,"connected_time":1313000000000,"state":"active","ping":70},{"user_id":661,"name":"Cat Knight","steam_id":76561198039030709,"connected_time":1745000000000,"state":"active","ping":55},{"user_id":671,"name":"Potat Master |Potato Industries","steam_id":76561199112380553,"connected_time":895000000000,"state":"active","ping":88},{"user_id":634,"name":"frosty","steam_id":76561198094560834,"connected_time":2239000000000,"state":"active","ping":59},{"user_id":635,"name":"meow :3","steam_id":76561199380849468,"connected_time":2236000000000,"state":"active","ping":62},{"user_id":636,"name":"Spurt","steam_id":76561198078523852,"connected_time":2234000000000,"state":"active","ping":50},{"user_id":644,"name":"Worcestershire","steam_id":76561197982352114,"connected_time":2086000000000,"state":"active","ping":53},{"user_id":638,"name":"Aleknat","steam_id":76561198055379857,"connected_time":2189000000000,"state":"active","ping":70},{"user_id":674,"name":"meow (they/them)","steam_id":76561198416657815,"connected_time":809000000000,"state":"active","ping":81},{"user_id":677,"name":"magras","steam_id":76561198972671525,"connected_time":139000000000,"state":"active","ping":123},{"user_id":670,"name":"Ecton","steam_id":76561198025103720,"connected_time":952000000000,"state":"active","ping":62},{"user_id":657,"name":"I pocat u for 10 ref/hour","steam_id":76561198126179060,"connected_time":1917000000000,"state":"active","ping":81},{"user_id":647,"name":"please do not the cat","steam_id":76561198089003514,"connected_time":2068000000000,"state":"active","ping":45},{"user_id":664,"name":"KnusprigeKloake","steam_id":76561198051422734,"connected_time":1654000000000,"state":"active","ping":45},{"user_id":649,"name":"cat","steam_id":76561198832231975,"connected_time":2047000000000,"state":"active","ping":90},{"user_id":672,"name":"Isuurn","steam_id":76561198150201094,"connected_time":872000000000,"state":"active","ping":85},{"user_id":673,"name":"VeliIlves","steam_id":76561198038731353,"connected_time":868000000000,"state":"active","ping":100},{"user_id":659,"name":"Alice can't hit pipes","steam_id":76561198052410860,"connected_time":1903000000000,"state":"active","ping":142},{"user_id":660,"name":"Simelis","steam_id":76561198034976400,"connected_time":1832000000000,"state":"active","ping":90}]},{"server_id":308,"name":"Uncletopia | Frankfurt | 3 | All Maps","name_short":"frk-3","host":"frk-1.de.uncletopia.com","port":27035,"enabled":true,"region":"eu","cc":"de","latitude":50.110924,"longitude":8.682127,"reserved":0,"last_update":"0001-01-01T00:00:00Z","name_a2s":"Uncletopia | Frankfurt | 3 | All Maps","protocol":17,"map":"pl_barnblitz","folder":"tf","game":"Team Fortress","app_id":440,"player_count":24,"max_players":24,"Bots":0,"server_type":"Dedicated","server_os":"Linux","password":true,"vac":true,"version":"7932396","steam_id":85568392924504274,"keywords":["nocrits","nodmgspread","payload","uncletopia"],"game_id":440,"stv_port":27036,"stv_name":"Uncletopia | Frankfurt | 3 | All Maps | STV","players":[{"user_id":515,"name":"Wondering Robot","steam_id":76561198197266063,"connected_time":1751000000000,"state":"active","ping":61},{"user_id":516,"name":"Cath","steam_id":76561197999662866,"connected_time":1746000000000,"state":"active","ping":136},{"user_id":522,"name":"jerry (:","steam_id":76561198205668108,"connected_time":1226000000000,"state":"active","ping":47},{"user_id":518,"name":"Nils","steam_id":76561198254882979,"connected_time":1442000000000,"state":"active","ping":62},{"user_id":519,"name":"Cosmic Yoshi","steam_id":76561199195528497,"connected_time":1419000000000,"state":"active","ping":172},{"user_id":520,"name":"Pink ‚ùÄ","steam_id":76561198972047944,"connected_time":1389000000000,"state":"active","ping":65},{"user_id":547,"name":"TJ1212","steam_id":76561199013575313,"connected_time":127000000000,"state":"active","ping":63},{"user_id":523,"name":"leloraps","steam_id":76561199434036706,"connected_time":1089000000000,"state":"active","ping":188},{"user_id":525,"name":"Œ†Œ±œÉœÑŒøœÖœÅŒºŒ±Œ¥œåœÄŒπœÑŒ±","steam_id":76561198306191855,"connected_time":1078000000000,"state":"active","ping":73},{"user_id":526,"name":"Lopat","steam_id":76561198820264239,"connected_time":1033000000000,"state":"active","ping":81},{"user_id":531,"name":"CBG","steam_id":76561198256559318,"connected_time":822000000000,"state":"active","ping":61},{"user_id":528,"name":"/hm/","steam_id":76561199213268288,"connected_time":997000000000,"state":"active","ping":60},{"user_id":529,"name":"Playad","steam_id":76561198977412147,"connected_time":954000000000,"state":"active","ping":58},{"user_id":546,"name":"Virgil","steam_id":76561198248786778,"connected_time":329000000000,"state":"active","ping":119},{"user_id":533,"name":"Eno","steam_id":76561198387892963,"connected_time":661000000000,"state":"active","ping":66},{"user_id":534,"name":"georg1e","steam_id":76561199032591040,"connected_time":655000000000,"state":"active","ping":74},{"user_id":535,"name":"Ryter","steam_id":76561198396279597,"connected_time":630000000000,"state":"active","ping":82},{"user_id":536,"name":"Balcer","steam_id":76561198273667210,"connected_time":620000000000,"state":"active","ping":79},{"user_id":537,"name":"Zina Tv","steam_id":76561198116530769,"connected_time":574000000000,"state":"active","ping":93},{"user_id":538,"name":"Turtle","steam_id":76561198053254139,"connected_time":548000000000,"state":"active","ping":43},{"user_id":539,"name":"Dor_atar","steam_id":76561198973980542,"connected_time":515000000000,"state":"active","ping":69},{"user_id":540,"name":"Oliver","steam_id":76561198063523419,"connected_time":490000000000,"state":"active","ping":64},{"user_id":541,"name":"ackermann","steam_id":76561199129801006,"connected_time":463000000000,"state":"active","ping":45},{"user_id":544,"name":"Clipsy","steam_id":76561199141525902,"connected_time":413000000000,"state":"active","ping":56}]},{"server_id":309,"name":"Uncletopia | Frankfurt | 4 | All Maps","name_short":"frk-4","host":"frk-1.de.uncletopia.com","port":27045,"enabled":true,"region":"eu","cc":"de","latitude":50.110924,"longitude":8.682127,"reserved":0,"last_update":"0001-01-01T00:00:00Z","name_a2s":"Uncletopia | Frankfurt | 4 | All Maps","protocol":17,"map":"pl_upward","folder":"tf","game":"Team Fortress","app_id":440,"player_count":24,"max_players":24,"Bots":0,"server_type":"Dedicated","server_os":"Linux","password":true,"vac":true,"version":"7932396","steam_id":85568392924504275,"keywords":["nocrits","nodmgspread","payload","uncletopia"],"game_id":440,"stv_port":27046,"stv_name":"Uncletopia | Frankfurt | 4 | All Maps | STV","players":[{"user_id":511,"name":"Dkz","steam_id":76561197970673402,"connected_time":425000000000,"state":"active","ping":56},{"user_id":486,"name":"Maru","steam_id":76561198030931030,"connected_time":3652000000000,"state":"active","ping":68},{"user_id":491,"name":"Jordi.B","steam_id":76561198015233614,"connected_time":2940000000000,"state":"active","ping":64},{"user_id":487,"name":"Kurage","steam_id":76561198021221288,"connected_time":3504000000000,"state":"active","ping":59},{"user_id":510,"name":"Dyfed","steam_id":76561198055389492,"connected_time":436000000000,"state":"active","ping":60},{"user_id":466,"name":"Jack_26","steam_id":76561198034566531,"connected_time":5460000000000,"state":"active","ping":96},{"user_id":516,"name":"I.C. Wiener","steam_id":76561197999912254,"connected_time":207000000000,"state":"active","ping":91},{"user_id":512,"name":"Kaishakunin","steam_id":76561198028123874,"connected_time":387000000000,"state":"active","ping":87},{"user_id":462,"name":"Covetousix","steam_id":76561198293936824,"connected_time":5929000000000,"state":"active","ping":73},{"user_id":503,"name":"ercument","steam_id":76561198130337810,"connected_time":2030000000000,"state":"active","ping":107},{"user_id":361,"name":"Biggus Dickus","steam_id":76561198018358868,"connected_time":10044000000000,"state":"active","ping":62},{"user_id":473,"name":"D√•vid","steam_id":76561198184135755,"connected_time":5001000000000,"state":"active","ping":61},{"user_id":513,"name":"cuddles \u003c3","steam_id":76561198805181599,"connected_time":360000000000,"state":"active","ping":66},{"user_id":494,"name":"Pain in a Box","steam_id":76561197990777173,"connected_time":2567000000000,"state":"active","ping":104},{"user_id":509,"name":"TheEventGuy","steam_id":76561197972797744,"connected_time":856000000000,"state":"active","ping":64},{"user_id":506,"name":"KNNTX","steam_id":76561198161313074,"connected_time":1503000000000,"state":"active","ping":113},{"user_id":479,"name":"onuralp_tf2","steam_id":76561198133321967,"connected_time":4738000000000,"state":"active","ping":105},{"user_id":459,"name":"BALLS ITCH","steam_id":76561199078330622,"connected_time":6277000000000,"state":"active","ping":91},{"user_id":381,"name":"Toasty5050","steam_id":76561198073540881,"connected_time":9343000000000,"state":"active","ping":46},{"user_id":515,"name":"susie","steam_id":76561198998384817,"connected_time":223000000000,"state":"active","ping":67},{"user_id":514,"name":"garry","steam_id":76561198019078145,"connected_time":338000000000,"state":"active","ping":75},{"user_id":492,"name":"YOU ARE SHITTING YOUR SELF","steam_id":76561198371719058,"connected_time":2867000000000,"state":"active","ping":67},{"user_id":508,"name":"Snowmotion","steam_id":76561198075022454,"connected_time":1270000000000,"state":"active","ping":62},{"user_id":384,"name":"Rimx","steam_id":76561198053034840,"connected_time":9245000000000,"state":"active","ping":93}]},{"server_id":310,"name":"Uncletopia | Frankfurt | 5 | All Maps","name_short":"frk-5","host":"frk-1.de.uncletopia.com","port":27055,"enabled":true,"region":"eu","cc":"de","latitude":50.110924,"longitude":8.682127,"reserved":0,"last_update":"0001-01-01T00:00:00Z","name_a2s":"Uncletopia | Frankfurt | 5 | All Maps","protocol":17,"map":"cp_dustbowl","folder":"tf","game":"Team Fortress","app_id":440,"player_count":24,"max_players":24,"Bots":0,"server_type":"Dedicated","server_os":"Linux","password":true,"vac":true,"version":"7932396","steam_id":85568392924504277,"keywords":["cp","nocrits","nodmgspread","uncletopia"],"game_id":440,"stv_port":27056,"stv_name":"Uncletopia | Frankfurt | 5 | All Maps | STV","players":[{"user_id":687,"name":"Mr.O #deletesniper","steam_id":76561198039567498,"connected_time":299000000000,"state":"active","ping":61},{"user_id":672,"name":"‚ô•Medical student‚ô•","steam_id":76561199119401415,"connected_time":1471000000000,"state":"active","ping":128},{"user_id":673,"name":"ArcX","steam_id":76561198805049375,"connected_time":1435000000000,"state":"active","ping":58},{"user_id":634,"name":"Doomsday","steam_id":76561198210559757,"connected_time":2670000000000,"state":"active","ping":66},{"user_id":684,"name":"Lucker","steam_id":76561198079469430,"connected_time":609000000000,"state":"active","ping":68},{"user_id":617,"name":"0","steam_id":76561199084809092,"connected_time":3364000000000,"state":"active","ping":98},{"user_id":626,"name":"Daan77","steam_id":76561198129940468,"connected_time":3090000000000,"state":"active","ping":72},{"user_id":619,"name":"CouT1nho","steam_id":76561198203926376,"connected_time":3239000000000,"state":"active","ping":46},{"user_id":677,"name":"NotChloe","steam_id":76561198080658092,"connected_time":1299000000000,"state":"active","ping":73},{"user_id":640,"name":"Vallet","steam_id":76561198327333965,"connected_time":2564000000000,"state":"active","ping":66},{"user_id":624,"name":"Yobopan","steam_id":76561198088064860,"connected_time":3113000000000,"state":"active","ping":71},{"user_id":678,"name":"Dr.Nefario","steam_id":76561198874586020,"connected_time":1264000000000,"state":"active","ping":62},{"user_id":636,"name":"redcoat","steam_id":76561199017322894,"connected_time":2659000000000,"state":"active","ping":67},{"user_id":655,"name":"mitical uknown","steam_id":76561198844852761,"connected_time":2189000000000,"state":"active","ping":67},{"user_id":685,"name":"O B S E R V E R","steam_id":76561198397143311,"connected_time":386000000000,"state":"active","ping":53},{"user_id":688,"name":"AHKrzych","steam_id":76561198012688555,"connected_time":216000000000,"state":"active","ping":86},{"user_id":681,"name":"MrBanana","steam_id":76561198116021623,"connected_time":1073000000000,"state":"active","ping":47},{"user_id":642,"name":"daj mi","steam_id":76561198179392402,"connected_time":2555000000000,"state":"active","ping":55},{"user_id":686,"name":"Miss American PIe","steam_id":76561198867108476,"connected_time":316000000000,"state":"active","ping":63},{"user_id":682,"name":"Cooler Daenny","steam_id":76561198053088822,"connected_time":850000000000,"state":"active","ping":45},{"user_id":645,"name":"roblan11","steam_id":76561198066839258,"connected_time":2542000000000,"state":"active","ping":45},{"user_id":646,"name":"DiaperChangingStation","steam_id":76561198189553021,"connected_time":2542000000000,"state":"active","ping":62},{"user_id":651,"name":"Wriggles","steam_id":76561198863416998,"connected_time":2459000000000,"state":"active","ping":80},{"user_id":665,"name":"lurid","steam_id":76561198063159528,"connected_time":1829000000000,"state":"active","ping":59}]},{"server_id":311,"name":"Uncletopia | Frankfurt | 6 | All Maps","name_short":"frk-6","host":"frk-1.de.uncletopia.com","port":27065,"enabled":true,"region":"eu","cc":"de","latitude":50.110924,"longitude":8.682127,"reserved":0,"last_update":"0001-01-01T00:00:00Z","name_a2s":"Uncletopia | Frankfurt | 6 | All Maps","protocol":17,"map":"pl_barnblitz","folder":"tf","game":"Team Fortress","app_id":440,"player_count":21,"max_players":24,"Bots":0,"server_type":"Dedicated","server_os":"Linux","password":true,"vac":true,"version":"7932396","steam_id":85568392924504278,"keywords":["nocrits","nodmgspread","payload","uncletopia"],"game_id":440,"stv_port":27066,"stv_name":"Uncletopia | Frankfurt | 6 | All Maps | STV","players":[{"user_id":36,"name":"Ink in veins","steam_id":76561199082262091,"connected_time":5749000000000,"state":"active","ping":70},{"user_id":39,"name":"georgeiscool3","steam_id":76561199116151412,"connected_time":4809000000000,"state":"active","ping":83},{"user_id":83,"name":"r06u3","steam_id":76561198254099253,"connected_time":1518000000000,"state":"active","ping":177},{"user_id":54,"name":"SeaKane","steam_id":76561198165453318,"connected_time":3572000000000,"state":"active","ping":59},{"user_id":43,"name":"ran is running","steam_id":76561199443185667,"connected_time":3913000000000,"state":"active","ping":140},{"user_id":75,"name":"Francis","steam_id":76561198987134265,"connected_time":2184000000000,"state":"active","ping":73},{"user_id":45,"name":"_420_StopItDudeCmon","steam_id":76561197997146481,"connected_time":3828000000000,"state":"active","ping":50},{"user_id":92,"name":"Azctec","steam_id":76561198047265514,"connected_time":643000000000,"state":"active","ping":80},{"user_id":89,"name":"avenje","steam_id":76561198155824845,"connected_time":1028000000000,"state":"active","ping":60},{"user_id":98,"name":"Nao","steam_id":76561199001979254,"connected_time":7000000000,"state":"spawning","ping":83},{"user_id":85,"name":"vadr","steam_id":76561198334528186,"connected_time":1463000000000,"state":"active","ping":53},{"user_id":56,"name":"Troop","steam_id":76561198031303282,"connected_time":3568000000000,"state":"active","ping":43},{"user_id":94,"name":"smell_my_cheese","steam_id":76561198008517427,"connected_time":558000000000,"state":"active","ping":70},{"user_id":57,"name":"BELADIT","steam_id":76561198011911501,"connected_time":3555000000000,"state":"active","ping":74},{"user_id":90,"name":"Fran","steam_id":76561199070516960,"connected_time":1015000000000,"state":"active","ping":61},{"user_id":86,"name":"Cherry","steam_id":76561198150841824,"connected_time":1452000000000,"state":"active","ping":52},{"user_id":88,"name":"ducksattack","steam_id":76561198074706076,"connected_time":1392000000000,"state":"active","ping":80},{"user_id":95,"name":"Remizer","steam_id":76561198799755616,"connected_time":523000000000,"state":"active","ping":61},{"user_id":96,"name":"Acbh","steam_id":76561198158271672,"connected_time":514000000000,"state":"active","ping":65},{"user_id":97,"name":"yush","steam_id":76561198121688934,"connected_time":324000000000,"state":"active","ping":75},{"user_id":65,"name":"Nobody","steam_id":76561198151116796,"connected_time":3465000000000,"state":"active","ping":83}]},{"server_id":23,"name":"Uncletopia | Frankfurt | 7 | Stopwatch Beta","name_short":"frk-7","host":"frk-1.de.uncletopia.com","port":27075,"enabled":true,"region":"eu","cc":"de","latitude":50.110924,"longitude":8.682127,"reserved":0,"last_update":"0001-01-01T00:00:00Z","name_a2s":"Uncletopia | Frankfurt | 7 | Stopwatch Beta","protocol":17,"map":"workshop/cp_process_f12.ugc2302948105","folder":"tf","game":"Team Fortress","app_id":440,"player_count":0,"max_players":24,"Bots":0,"server_type":"Dedicated","server_os":"Linux","password":true,"vac":true,"version":"7932396","steam_id":85568392924742827,"keywords":["cp","nocrits","nodmgspread","uncletopia"],"game_id":440,"stv_port":27076,"stv_name":"Uncletopia | Frankfurt | 7 | Stopwatch Beta | STV","players":null},{"server_id":24,"name":"Uncletopia | Frankfurt | 8 | Community","name_short":"frk-8","host":"frk-1.de.uncletopia.com","port":27085,"enabled":true,"region":"eu","cc":"de","latitude":50.110924,"longitude":8.682127,"reserved":0,"last_update":"0001-01-01T00:00:00Z","name_a2s":"Uncletopia | Frankfurt | 8 | Community","protocol":17,"map":"workshop/koth_ramjam_rc1.ugc459778887","folder":"tf","game":"Team Fortress","app_id":440,"player_count":0,"max_players":24,"Bots":0,"server_type":"Dedicated","server_os":"Linux","password":true,"vac":true,"version":"7932396","steam_id":85568392924742828,"keywords":["cp","nocrits","nodmgspread","uncletopia"],"game_id":440,"stv_port":27086,"stv_name":"Uncletopia | Frankfurt | 8 | Community | STV","players":null},{"server_id":202,"name":"Uncletopia | Hong Kong | 1 | All Maps","name_short":"hgk-1","host":"hgk-1.hk.uncletopia.com","port":27015,"enabled":true,"region":"asia","cc":"hk","latitude":22.302711,"longitude":114.177216,"reserved":0,"last_update":"0001-01-01T00:00:00Z","name_a2s":"Uncletopia | Hong Kong | 1 | All Maps","protocol":17,"map":"pl_swiftwater_final1","folder":"tf","game":"Team Fortress","app_id":440,"player_count":0,"max_players":24,"Bots":0,"server_type":"Dedicated","server_os":"Linux","password":true,"vac":true,"version":"7932396","steam_id":85568392924494504,"keywords":["nocrits","nodmgspread","payload","uncletopia"],"game_id":440,"stv_port":27016,"stv_name":"Uncletopia | Hong Kong | 1 | All Maps | STV","players":null},{"server_id":1,"name":"Uncletopia | Los Angeles | 1 | All Maps","name_short":"lax-1","host":"lax-1.us.uncletopia.com","port":27015,"enabled":true,"region":"us-west","cc":"us","latitude":33.94279,"longitude":-118.41004,"reserved":0,"last_update":"0001-01-01T00:00:00Z","name_a2s":"Uncletopia | Los Angeles | 1 | All Maps","protocol":17,"map":"cp_process_final","folder":"tf","game":"Team Fortress","app_id":440,"player_count":24,"max_players":24,"Bots":0,"server_type":"Dedicated","server_os":"Linux","password":true,"vac":true,"version":"7932396","steam_id":85568392924469991,"keywords":["cp","nocrits","nodmgspread","uncletopia"],"game_id":440,"stv_port":27016,"stv_name":"Uncletopia | Los Angeles | 1 | All Maps | STV","players":[{"user_id":279,"name":"Brain damage squirrel","steam_id":76561198846344452,"connected_time":2499000000000,"state":"active","ping":49},{"user_id":194,"name":"ena - d","steam_id":76561198072329335,"connected_time":9488000000000,"state":"active","ping":105},{"user_id":320,"name":"doughboy","steam_id":76561198219012928,"connected_time":171000000000,"state":"active","ping":49},{"user_id":302,"name":"Lickybunghol","steam_id":76561198052696183,"connected_time":1143000000000,"state":"active","ping":46},{"user_id":307,"name":"no vc no c","steam_id":76561197989503095,"connected_time":977000000000,"state":"active","ping":165},{"user_id":286,"name":"Cob","steam_id":76561198042518365,"connected_time":2300000000000,"state":"active","ping":60},{"user_id":303,"name":"Asteri","steam_id":76561198044393092,"connected_time":1096000000000,"state":"active","ping":114},{"user_id":273,"name":"mr. nine","steam_id":76561198097599414,"connected_time":2739000000000,"state":"active","ping":57},{"user_id":304,"name":"The Rivet Smasher","steam_id":76561198083502963,"connected_time":1076000000000,"state":"active","ping":135},{"user_id":282,"name":"Sax","steam_id":76561198055425123,"connected_time":2412000000000,"state":"active","ping":85},{"user_id":310,"name":"porkchop","steam_id":76561199095534396,"connected_time":793000000000,"state":"active","ping":95},{"user_id":311,"name":"Guywhocantread","steam_id":76561198861513548,"connected_time":791000000000,"state":"active","ping":89},{"user_id":305,"name":"goopgrabber","steam_id":76561199029951083,"connected_time":1050000000000,"state":"active","ping":51},{"user_id":309,"name":"ConnorBruh","steam_id":76561198869159718,"connected_time":910000000000,"state":"active","ping":98},{"user_id":292,"name":"Unknowname","steam_id":76561198132253342,"connected_time":1950000000000,"state":"active","ping":53},{"user_id":277,"name":"minimalpair","steam_id":76561198071788709,"connected_time":2606000000000,"state":"active","ping":91},{"user_id":321,"name":"Skagerecked","steam_id":76561198006578524,"connected_time":122000000000,"state":"active","ping":85},{"user_id":293,"name":"Ïó¨Ïûê Í∞ôÏùÄ rE_d0","steam_id":76561198975450630,"connected_time":1901000000000,"state":"active","ping":76},{"user_id":298,"name":"sora","steam_id":76561198094256973,"connected_time":1608000000000,"state":"active","ping":60},{"user_id":313,"name":"pissacrash","steam_id":76561198110723576,"connected_time":662000000000,"state":"active","ping":31},{"user_id":315,"name":"eekgadz","steam_id":76561198010249230,"connected_time":607000000000,"state":"active","ping":46},{"user_id":318,"name":"MouxeWare","steam_id":76561199339512223,"connected_time":472000000000,"state":"active","ping":93},{"user_id":317,"name":"Gooper","steam_id":76561198324431783,"connected_time":551000000000,"state":"active","ping":58},{"user_id":164,"name":"HAT-WEARING‚Ñ¢ Maggot Gamer Cat","steam_id":76561197973992705,"connected_time":11322000000000,"state":"active","ping":67}]},{"server_id":112,"name":"Uncletopia | Los Angeles | 2 | All Maps","name_short":"lax-2","host":"lax-1.us.uncletopia.com","port":27025,"enabled":true,"region":"us-west","cc":"us","latitude":33.94279,"longitude":-118.41004,"reserved":0,"last_update":"0001-01-01T00:00:00Z","name_a2s":"Uncletopia | Los Angeles | 2 | All Maps","protocol":17,"map":"pl_upward","folder":"tf","game":"Team Fortress","app_id":440,"player_count":24,"max_players":24,"Bots":0,"server_type":"Dedicated","server_os":"Linux","password":true,"vac":true,"version":"7932396","steam_id":85568392924469992,"keywords":["nocrits","nodmgspread","payload","uncletopia"],"game_id":440,"stv_port":27026,"stv_name":"Uncletopia | Los Angeles | 2 | All Maps | STV","players":[{"user_id":119,"name":"selvhat","steam_id":76561198114225509,"connected_time":1196000000000,"state":"active","ping":46},{"user_id":106,"name":"Rockcock McBonestone","steam_id":76561198093353303,"connected_time":2504000000000,"state":"active","ping":30},{"user_id":115,"name":"Sm0keytheKlown","steam_id":76561199024915838,"connected_time":1289000000000,"state":"active","ping":88},{"user_id":126,"name":"wib","steam_id":76561197993341557,"connected_time":880000000000,"state":"active","ping":46},{"user_id":141,"name":"Loashes","steam_id":76561198119608299,"connected_time":28000000000,"state":"active","ping":191},{"user_id":120,"name":"Petrivus","steam_id":76561198202152453,"connected_time":1181000000000,"state":"active","ping":83},{"user_id":107,"name":"johnnajojonna","steam_id":76561199488883432,"connected_time":2205000000000,"state":"active","ping":108},{"user_id":132,"name":"antrobot","steam_id":76561198281039672,"connected_time":547000000000,"state":"active","ping":90},{"user_id":122,"name":"Faraday","steam_id":76561198089928357,"connected_time":1120000000000,"state":"active","ping":85},{"user_id":105,"name":"choodle","steam_id":76561198930608649,"connected_time":2577000000000,"state":"active","ping":30},{"user_id":129,"name":"flo rida","steam_id":76561198226169704,"connected_time":723000000000,"state":"active","ping":58},{"user_id":85,"name":"Jones","steam_id":76561198046037216,"connected_time":3396000000000,"state":"active","ping":117},{"user_id":131,"name":"autumnal.messenger","steam_id":76561199345816635,"connected_time":549000000000,"state":"active","ping":85},{"user_id":112,"name":"flame","steam_id":76561198079321914,"connected_time":1542000000000,"state":"active","ping":69},{"user_id":87,"name":"havarti gaming","steam_id":76561198069895678,"connected_time":3386000000000,"state":"active","ping":95},{"user_id":81,"name":"HTML","steam_id":76561198099061153,"connected_time":3676000000000,"state":"active","ping":37},{"user_id":135,"name":"Krabs","steam_id":76561198126190606,"connected_time":394000000000,"state":"active","ping":88},{"user_id":136,"name":"Dav","steam_id":76561198116862395,"connected_time":375000000000,"state":"active","ping":84},{"user_id":116,"name":"Sky","steam_id":76561198097549374,"connected_time":1283000000000,"state":"active","ping":86},{"user_id":137,"name":"Adalbern","steam_id":76561197991785034,"connected_time":351000000000,"state":"active","ping":75},{"user_id":140,"name":"Cerabond","steam_id":76561199230915333,"connected_time":247000000000,"state":"active","ping":114},{"user_id":138,"name":"aeon","steam_id":76561198436496102,"connected_time":342000000000,"state":"active","ping":167},{"user_id":125,"name":"Green Bastard","steam_id":76561198033885983,"connected_time":1113000000000,"state":"active","ping":58},{"user_id":139,"name":"I'mFromSpace","steam_id":76561198808969653,"connected_time":335000000000,"state":"active","ping":77}]},{"server_id":324,"name":"Uncletopia | Los Angeles | 3 | All Maps","name_short":"lax-3","host":"lax-1.us.uncletopia.com","port":27035,"enabled":true,"region":"us-west","cc":"us","latitude":33.94279,"longitude":-118.41004,"reserved":0,"last_update":"0001-01-01T00:00:00Z","name_a2s":"Uncletopia | Los Angeles | 3 | All Maps","protocol":17,"map":"koth_brazil","folder":"tf","game":"Team Fortress","app_id":440,"player_count":0,"max_players":24,"Bots":0,"server_type":"Dedicated","server_os":"Linux","password":true,"vac":true,"version":"7932396","steam_id":85568392924510198,"keywords":["cp","nocrits","nodmgspread","uncletopia"],"game_id":440,"stv_port":27036,"stv_name":"Uncletopia | Los Angeles | 3 | All Maps | STV","players":null},{"server_id":25,"name":"Uncletopia | Los Angeles | 4 | Stopwatch Beta","name_short":"lax-4","host":"lax-1.us.uncletopia.com","port":27045,"enabled":true,"region":"us-west","cc":"us","latitude":33.94279,"longitude":-118.41004,"reserved":0,"last_update":"0001-01-01T00:00:00Z","name_a2s":"Uncletopia | Los Angeles | 4 | Stopwatch Beta","protocol":17,"map":"pl_swiftwater_final1","folder":"tf","game":"Team Fortress","app_id":440,"player_count":0,"max_players":24,"Bots":0,"server_type":"Dedicated","server_os":"Linux","password":true,"vac":true,"version":"7932396","steam_id":85568392924510199,"keywords":["nocrits","nodmgspread","payload","uncletopia"],"game_id":440,"stv_port":27046,"stv_name":"Uncletopia | Los Angeles | 4 | Stopwatch Beta | STV","players":null},{"server_id":11,"name":"Uncletopia | London | 1 | All Maps","name_short":"lon-1","host":"lon-1.uk.uncletopia.com","port":27015,"enabled":true,"region":"eu","cc":"gb","latitude":51.509865,"longitude":-0.118092,"reserved":0,"last_update":"0001-01-01T00:00:00Z","name_a2s":"Uncletopia | London | 1 | All Maps","protocol":17,"map":"cp_steel","folder":"tf","game":"Team Fortress","app_id":440,"player_count":24,"max_players":24,"Bots":0,"server_type":"Dedicated","server_os":"Linux","password":true,"vac":true,"version":"7932396","steam_id":85568392924367362,"keywords":["cp","nocrits","nodmgspread","uncletopia"],"game_id":440,"stv_port":27016,"stv_name":"Uncletopia | London | 1 | All Maps | STV","players":[{"user_id":704,"name":"Borat","steam_id":76561198122226417,"connected_time":4243000000000,"state":"active","ping":44},{"user_id":692,"name":"FoOzTV","steam_id":76561197998636728,"connected_time":6493000000000,"state":"active","ping":65},{"user_id":738,"name":"JUST","steam_id":76561198069064885,"connected_time":324000000000,"state":"active","ping":59},{"user_id":695,"name":"VideoJames","steam_id":76561197970114051,"connected_time":5443000000000,"state":"active","ping":46},{"user_id":742,"name":"Lil Top","steam_id":76561198168740408,"connected_time":89000000000,"state":"active","ping":44},{"user_id":737,"name":"shooer!","steam_id":76561198110531281,"connected_time":351000000000,"state":"active","ping":67},{"user_id":709,"name":"j√ºrgen.2008","steam_id":76561198107460765,"connected_time":3996000000000,"state":"active","ping":48},{"user_id":699,"name":"chess milk","steam_id":76561198122814249,"connected_time":5062000000000,"state":"active","ping":45},{"user_id":743,"name":"etc","steam_id":76561197998394797,"connected_time":86000000000,"state":"active","ping":58},{"user_id":710,"name":"poika^_^","steam_id":76561199057953617,"connected_time":3647000000000,"state":"active","ping":60},{"user_id":744,"name":"StingyLettuce","steam_id":76561199010337406,"connected_time":75000000000,"state":"active","ping":122},{"user_id":734,"name":"rigel_","steam_id":76561198148640847,"connected_time":390000000000,"state":"active","ping":89},{"user_id":707,"name":"G.R.E","steam_id":76561197979806514,"connected_time":4229000000000,"state":"active","ping":50},{"user_id":719,"name":"slippin jimmy","steam_id":76561198090788590,"connected_time":3063000000000,"state":"active","ping":43},{"user_id":739,"name":"ghost of london 1","steam_id":76561198970587989,"connected_time":317000000000,"state":"active","ping":87},{"user_id":733,"name":"GEN 1 SYNTH","steam_id":76561198003193507,"connected_time":745000000000,"state":"active","ping":70},{"user_id":741,"name":"ack","steam_id":76561198139796077,"connected_time":272000000000,"state":"active","ping":55},{"user_id":687,"name":"„É†GeRmAn |√óUA√ó„É†","steam_id":76561199044754898,"connected_time":6825000000000,"state":"active","ping":83},{"user_id":745,"name":"snowycaost","steam_id":76561198346638308,"connected_time":54000000000,"state":"active","ping":57},{"user_id":718,"name":"XNorec","steam_id":76561198015778815,"connected_time":3095000000000,"state":"active","ping":77},{"user_id":730,"name":"Mr. Heavy Div3W=LFT Premiership","steam_id":76561198080912087,"connected_time":2258000000000,"state":"active","ping":73},{"user_id":724,"name":"killer of noob, winner of game","steam_id":76561198190583242,"connected_time":2600000000000,"state":"active","ping":88},{"user_id":674,"name":"Popop","steam_id":76561198004793795,"connected_time":7818000000000,"state":"active","ping":45},{"user_id":736,"name":"Puss in Boots","steam_id":76561198211599767,"connected_time":375000000000,"state":"active","ping":55}]},{"server_id":114,"name":"Uncletopia | London | 2 | All Maps","name_short":"lon-2","host":"lon-1.uk.uncletopia.com","port":27025,"enabled":true,"region":"eu","cc":"gb","latitude":51.509865,"longitude":-0.118092,"reserved":0,"last_update":"0001-01-01T00:00:00Z","name_a2s":"Uncletopia | London | 2 | All Maps","protocol":17,"map":"pl_pier","folder":"tf","game":"Team Fortress","app_id":440,"player_count":23,"max_players":24,"Bots":0,"server_type":"Dedicated","server_os":"Linux","password":true,"vac":true,"version":"7932396","steam_id":85568392924470941,"keywords":["nocrits","nodmgspread","payload","uncletopia"],"game_id":440,"stv_port":27026,"stv_name":"Uncletopia | London | 2 | All Maps | STV","players":[{"user_id":600,"name":"dunduu","steam_id":76561198875240717,"connected_time":957000000000,"state":"active","ping":79},{"user_id":602,"name":"Alforholig","steam_id":76561198115546320,"connected_time":575000000000,"state":"active","ping":97},{"user_id":556,"name":"cister0","steam_id":76561198130195469,"connected_time":4014000000000,"state":"active","ping":84},{"user_id":576,"name":"Thing","steam_id":76561197997904403,"connected_time":2556000000000,"state":"active","ping":106},{"user_id":564,"name":"seigfried","steam_id":76561198047260133,"connected_time":3222000000000,"state":"active","ping":78},{"user_id":605,"name":"≈†tƒõp√°n","steam_id":76561198275742101,"connected_time":404000000000,"state":"active","ping":72},{"user_id":593,"name":"ABbott_","steam_id":76561198030528873,"connected_time":1221000000000,"state":"active","ping":57},{"user_id":603,"name":"Udinese Dion","steam_id":76561198067931573,"connected_time":459000000000,"state":"active","ping":61},{"user_id":493,"name":"Pierdu","steam_id":76561198028705770,"connected_time":8107000000000,"state":"active","ping":46},{"user_id":601,"name":"breezingthrough","steam_id":76561198032582116,"connected_time":927000000000,"state":"active","ping":51},{"user_id":599,"name":"Hildreth","steam_id":76561197995254867,"connected_time":976000000000,"state":"active","ping":45},{"user_id":607,"name":"Ozy","steam_id":76561198257359584,"connected_time":265000000000,"state":"active","ping":51},{"user_id":539,"name":"Kahvi","steam_id":76561198723244199,"connected_time":5006000000000,"state":"active","ping":75},{"user_id":517,"name":"finbar","steam_id":76561198056812396,"connected_time":7479000000000,"state":"active","ping":84},{"user_id":598,"name":"Mi Manchi","steam_id":76561198171573129,"connected_time":1037000000000,"state":"active","ping":59},{"user_id":567,"name":"vanillabarrel","steam_id":76561199242251815,"connected_time":2971000000000,"state":"active","ping":62},{"user_id":592,"name":"[√âire] Hype!","steam_id":76561198061449287,"connected_time":1267000000000,"state":"active","ping":56},{"user_id":604,"name":"lulu","steam_id":76561199147764133,"connected_time":431000000000,"state":"active","ping":68},{"user_id":586,"name":"Snake-chan","steam_id":76561199044755854,"connected_time":1852000000000,"state":"active","ping":78},{"user_id":590,"name":"RedFog","steam_id":76561198284713081,"connected_time":1271000000000,"state":"active","ping":53},{"user_id":608,"name":"Vershal Smershal","steam_id":76561198116223995,"connected_time":98000000000,"state":"active","ping":58},{"user_id":591,"name":"heatburn","steam_id":76561198019001992,"connected_time":1269000000000,"state":"active","ping":104},{"user_id":580,"name":"‚ô•","steam_id":76561198162858633,"connected_time":2268000000000,"state":"active","ping":77}]},{"server_id":320,"name":"Uncletopia | London | 3 | All Maps","name_short":"lon-3","host":"lon-1.uk.uncletopia.com","port":27035,"enabled":true,"region":"eu","cc":"gb","latitude":51.509865,"longitude":-0.118092,"reserved":0,"last_update":"0001-01-01T00:00:00Z","name_a2s":"Uncletopia | London | 3 | All Maps","protocol":17,"map":"pl_goldrush","folder":"tf","game":"Team Fortress","app_id":440,"player_count":23,"max_players":24,"Bots":0,"server_type":"Dedicated","server_os":"Linux","password":true,"vac":true,"version":"7932396","steam_id":85568392924510192,"keywords":["nocrits","nodmgspread","payload","uncletopia"],"game_id":440,"stv_port":27036,"stv_name":"Uncletopia | London | 3 | All Maps | STV","players":[{"user_id":530,"name":"·πöik·∫°","steam_id":76561199085478311,"connected_time":2239000000000,"state":"active","ping":83},{"user_id":514,"name":"Fallen_Scholar","steam_id":76561198055468709,"connected_time":3768000000000,"state":"active","ping":59},{"user_id":516,"name":"Joxaren","steam_id":76561198049407893,"connected_time":3640000000000,"state":"active","ping":58},{"user_id":498,"name":"Tea Follet","steam_id":76561198852408734,"connected_time":4378000000000,"state":"active","ping":59},{"user_id":523,"name":"FTN | Nice1","steam_id":76561198026969020,"connected_time":3026000000000,"state":"active","ping":100},{"user_id":521,"name":"FTN | Shakaman","steam_id":76561198039829758,"connected_time":3119000000000,"state":"active","ping":117},{"user_id":524,"name":"Format Warper","steam_id":76561199008933241,"connected_time":2840000000000,"state":"active","ping":56},{"user_id":537,"name":"ender45","steam_id":76561198840955715,"connected_time":1533000000000,"state":"active","ping":45},{"user_id":541,"name":"vi hava en usel regering","steam_id":76561198037978654,"connected_time":607000000000,"state":"active","ping":79},{"user_id":500,"name":"Dozer","steam_id":76561197998742338,"connected_time":4316000000000,"state":"active","ping":55},{"user_id":542,"name":"Chromega","steam_id":76561199075307750,"connected_time":555000000000,"state":"active","ping":68},{"user_id":544,"name":"Townsend And Sons","steam_id":76561199072698153,"connected_time":357000000000,"state":"active","ping":72},{"user_id":501,"name":"junkfilter178","steam_id":76561198099005384,"connected_time":4298000000000,"state":"active","ping":63},{"user_id":496,"name":"Heihashit","steam_id":76561198323372946,"connected_time":4635000000000,"state":"active","ping":67},{"user_id":505,"name":"Gregor Mays","steam_id":76561198355292280,"connected_time":4276000000000,"state":"active","ping":49},{"user_id":502,"name":"Mortbold","steam_id":76561198037615960,"connected_time":4293000000000,"state":"active","ping":95},{"user_id":546,"name":"ReenoDaWizard","steam_id":76561198841678291,"connected_time":2000000000,"state":"spawning","ping":40},{"user_id":534,"name":"Aroo","steam_id":76561198132601368,"connected_time":1937000000000,"state":"active","ping":83},{"user_id":535,"name":"sponge","steam_id":76561198388679411,"connected_time":1799000000000,"state":"active","ping":67},{"user_id":543,"name":"Mr_Pulse_","steam_id":76561198095001602,"connected_time":529000000000,"state":"active","ping":102},{"user_id":526,"name":"Foo.","steam_id":76561198000013666,"connected_time":2478000000000,"state":"active","ping":70},{"user_id":527,"name":"neophyte78","steam_id":76561198010009076,"connected_time":2474000000000,"state":"active","ping":52},{"user_id":545,"name":"C.H.E.R.E.P.","steam_id":76561198026938595,"connected_time":348000000000,"state":"active","ping":76}]},{"server_id":321,"name":"Uncletopia | London | 4 | All Maps","name_short":"lon-4","host":"lon-1.uk.uncletopia.com","port":27045,"enabled":true,"region":"eu","cc":"gb","latitude":51.509865,"longitude":-0.118092,"reserved":0,"last_update":"0001-01-01T00:00:00Z","name_a2s":"Uncletopia | London | 4 | All Maps","protocol":17,"map":"cp_snakewater_final1","folder":"tf","game":"Team Fortress","app_id":440,"player_count":24,"max_players":24,"Bots":0,"server_type":"Dedicated","server_os":"Linux","password":true,"vac":true,"version":"7932396","steam_id":85568392924510193,"keywords":["cp","nocrits","nodmgspread","uncletopia"],"game_id":440,"stv_port":27046,"stv_name":"Uncletopia | London | 4 | All Maps | STV","players":[{"user_id":210,"name":"Soerlssoelss√∂en","steam_id":76561197993060585,"connected_time":3873000000000,"state":"active","ping":83},{"user_id":227,"name":"AppleTapple","steam_id":76561198216903201,"connected_time":2058000000000,"state":"active","ping":97},{"user_id":211,"name":"Nyst","steam_id":76561198400998400,"connected_time":3541000000000,"state":"active","ping":75},{"user_id":254,"name":"Spinya","steam_id":76561198086653667,"connected_time":749000000000,"state":"active","ping":59},{"user_id":244,"name":"MeatGrinderGuy(Vegans Beware)","steam_id":76561198833470398,"connected_time":1299000000000,"state":"active","ping":123},{"user_id":251,"name":"xen","steam_id":76561197961402456,"connected_time":952000000000,"state":"active","ping":49},{"user_id":198,"name":"Sir Cauterize","steam_id":76561198047079422,"connected_time":4917000000000,"state":"active","ping":53},{"user_id":228,"name":"ZOOKY","steam_id":76561198028806392,"connected_time":1989000000000,"state":"active","ping":43},{"user_id":240,"name":"Slipskip","steam_id":76561198018493540,"connected_time":1560000000000,"state":"active","ping":49},{"user_id":256,"name":"Rez","steam_id":76561198410598772,"connected_time":168000000000,"state":"active","ping":57},{"user_id":231,"name":"Yuzu","steam_id":76561198121694613,"connected_time":1879000000000,"state":"active","ping":46},{"user_id":250,"name":"Sam","steam_id":76561198230947820,"connected_time":981000000000,"state":"active","ping":81},{"user_id":216,"name":"Gormbrain","steam_id":76561198020079511,"connected_time":2911000000000,"state":"active","ping":31},{"user_id":245,"name":"HAYTAM14","steam_id":76561198970139659,"connected_time":1274000000000,"state":"active","ping":101},{"user_id":255,"name":"PrimeTarget","steam_id":76561198046409289,"connected_time":722000000000,"state":"active","ping":89},{"user_id":233,"name":"Crazyalita","steam_id":76561199167852262,"connected_time":1861000000000,"state":"active","ping":162},{"user_id":190,"name":"fence_","steam_id":76561198150386379,"connected_time":5496000000000,"state":"active","ping":48},{"user_id":234,"name":"Well, off to hang myself","steam_id":76561198053374944,"connected_time":1861000000000,"state":"active","ping":67},{"user_id":253,"name":"Os Rose Britt","steam_id":76561198109332049,"connected_time":919000000000,"state":"active","ping":39},{"user_id":159,"name":"Glitch","steam_id":76561198081895538,"connected_time":7024000000000,"state":"active","ping":58},{"user_id":220,"name":"K'aax Itzam","steam_id":76561198044024509,"connected_time":2230000000000,"state":"active","ping":80},{"user_id":248,"name":"Anri Okita's Massive Milkers","steam_id":76561199186352720,"connected_time":1077000000000,"state":"active","ping":69},{"user_id":236,"name":"JVLIVS","steam_id":76561198366167099,"connected_time":1849000000000,"state":"active","ping":51},{"user_id":238,"name":"Lampinen","steam_id":76561198004936228,"connected_time":1679000000000,"state":"active","ping":90}]},{"server_id":21,"name":"Uncletopia | London | 5 | All Maps","name_short":"lon-5","host":"lon-1.uk.uncletopia.com","port":27055,"enabled":true,"region":"eu","cc":"gb","latitude":51.509865,"longitude":-0.118092,"reserved":0,"last_update":"0001-01-01T00:00:00Z","name_a2s":"Uncletopia | London | 5 | All Maps","protocol":17,"map":"pl_badwater","folder":"tf","game":"Team Fortress","app_id":440,"player_count":18,"max_players":24,"Bots":0,"server_type":"Dedicated","server_os":"Linux","password":true,"vac":true,"version":"7932396","steam_id":85568392924742829,"keywords":["nocrits","nodmgspread","payload","uncletopia"],"game_id":440,"stv_port":27056,"stv_name":"Uncletopia | London | 5 | All Maps | STV","players":[{"user_id":612,"name":"Milca, One eye'd Drunkard","steam_id":76561198848650365,"connected_time":3314000000000,"state":"active","ping":82},{"user_id":650,"name":"Nanowu","steam_id":76561199220439812,"connected_time":337000000000,"state":"active","ping":50},{"user_id":554,"name":"Nornia","steam_id":76561198040509712,"connected_time":5200000000000,"state":"active","ping":57},{"user_id":631,"name":"R3inis","steam_id":76561199030393569,"connected_time":2233000000000,"state":"active","ping":89},{"user_id":653,"name":"Ross from F.R.I.E.N.D.S.","steam_id":76561198008511665,"connected_time":218000000000,"state":"active","ping":50},{"user_id":651,"name":"justpixels","steam_id":76561198143717568,"connected_time":229000000000,"state":"active","ping":110},{"user_id":654,"name":"G1","steam_id":76561199097753630,"connected_time":173000000000,"state":"active","ping":73},{"user_id":655,"name":"KrowPan","steam_id":76561198403587919,"connected_time":147000000000,"state":"active","ping":55},{"user_id":638,"name":"Weebot00","steam_id":76561199479204459,"connected_time":1715000000000,"state":"active","ping":58},{"user_id":657,"name":"Mads","steam_id":76561198045511379,"connected_time":90000000000,"state":"active","ping":77},{"user_id":658,"name":"thegreenslug1985","steam_id":76561198872072250,"connected_time":74000000000,"state":"active","ping":49},{"user_id":644,"name":"meatsoupcube","steam_id":76561198276802249,"connected_time":1026000000000,"state":"active","ping":98},{"user_id":556,"name":"Cataleptic","steam_id":76561197997966949,"connected_time":5144000000000,"state":"active","ping":56},{"user_id":603,"name":"Male_07","steam_id":76561198079411460,"connected_time":3844000000000,"state":"active","ping":53},{"user_id":659,"name":"zoinks!","steam_id":76561198068645362,"connected_time":61000000000,"state":"active","ping":40},{"user_id":660,"name":"Aeinzalot","steam_id":76561198195288449,"connected_time":50000000000,"state":"active","ping":47},{"user_id":621,"name":"Day 10","steam_id":76561198024438352,"connected_time":2719000000000,"state":"active","ping":44},{"user_id":550,"name":"Hyp3r #Savetf2","steam_id":76561198965043686,"connected_time":5299000000000,"state":"active","ping":57}]},{"server_id":22,"name":"Uncletopia | London | 6 | All Maps","name_short":"lon-6","host":"lon-1.uk.uncletopia.com","port":27065,"enabled":true,"region":"eu","cc":"gb","latitude":51.509865,"longitude":-0.118092,"reserved":0,"last_update":"0001-01-01T00:00:00Z","name_a2s":"Uncletopia | London | 6 | All Maps","protocol":17,"map":"cp_dustbowl","folder":"tf","game":"Team Fortress","app_id":440,"player_count":24,"max_players":24,"Bots":0,"server_type":"Dedicated","server_os":"Linux","password":true,"vac":true,"version":"7932396","steam_id":85568392924742830,"keywords":["cp","nocrits","nodmgspread","uncletopia"],"game_id":440,"stv_port":27066,"stv_name":"Uncletopia | London | 6 | All Maps | STV","players":[{"user_id":369,"name":"Fishkicker42","steam_id":76561198118764737,"connected_time":3738000000000,"state":"active","ping":83},{"user_id":391,"name":"‚àö(-Wolf)","steam_id":76561198024769704,"connected_time":1533000000000,"state":"active","ping":100},{"user_id":417,"name":"mohemmedmokhter2005","steam_id":76561199197650506,"connected_time":742000000000,"state":"active","ping":112},{"user_id":355,"name":"t√Øger","steam_id":76561198260483157,"connected_time":4317000000000,"state":"active","ping":84},{"user_id":416,"name":"W","steam_id":76561198273623211,"connected_time":764000000000,"state":"active","ping":87},{"user_id":380,"name":"CombustionCamel","steam_id":76561198168085530,"connected_time":2338000000000,"state":"active","ping":38},{"user_id":357,"name":"S.Scary","steam_id":76561198248602386,"connected_time":4262000000000,"state":"active","ping":76},{"user_id":415,"name":"death_recycled","steam_id":76561198072599852,"connected_time":829000000000,"state":"active","ping":64},{"user_id":420,"name":"tete","steam_id":76561198045222850,"connected_time":184000000000,"state":"active","ping":75},{"user_id":404,"name":"Ewelinka Zniszczenia","steam_id":76561198307374456,"connected_time":1005000000000,"state":"active","ping":81},{"user_id":401,"name":"rummy","steam_id":76561197997573379,"connected_time":1051000000000,"state":"active","ping":55},{"user_id":398,"name":"LurkingPancake","steam_id":76561199488567082,"connected_time":1259000000000,"state":"active","ping":93},{"user_id":405,"name":".:Mr. SnipeR:.","steam_id":76561198070091899,"connected_time":1004000000000,"state":"active","ping":62},{"user_id":407,"name":"-TA- Sussy Gilaric","steam_id":76561198067540283,"connected_time":945000000000,"state":"active","ping":76},{"user_id":264,"name":"png.png","steam_id":76561198444446521,"connected_time":8639000000000,"state":"active","ping":109},{"user_id":396,"name":"rolmos","steam_id":76561198024121853,"connected_time":1349000000000,"state":"active","ping":72},{"user_id":409,"name":"Dagoth Ur","steam_id":76561198220232352,"connected_time":882000000000,"state":"active","ping":47},{"user_id":364,"name":"2shay","steam_id":76561198094467900,"connected_time":4005000000000,"state":"active","ping":43},{"user_id":410,"name":"dishsoap","steam_id":76561198849284832,"connected_time":881000000000,"state":"active","ping":63},{"user_id":381,"name":"Registered Sex Defender","steam_id":76561198039836567,"connected_time":2261000000000,"state":"active","ping":45},{"user_id":411,"name":"Mr_Front","steam_id":76561198971006548,"connected_time":876000000000,"state":"active","ping":98},{"user_id":413,"name":"Dusklight","steam_id":76561198036982638,"connected_time":855000000000,"state":"active","ping":160},{"user_id":419,"name":"Mirage","steam_id":76561199013190566,"connected_time":666000000000,"state":"active","ping":49},{"user_id":390,"name":"Max Andrew","steam_id":76561198158955194,"connected_time":1628000000000,"state":"active","ping":57}]},{"server_id":40,"name":"Uncletopia | London | 7 | No Payload","name_short":"lon-7","host":"lon-1.uk.uncletopia.com","port":27075,"enabled":true,"region":"eu","cc":"gb","latitude":51.509865,"longitude":-0.118092,"reserved":0,"last_update":"0001-01-01T00:00:00Z","name_a2s":"Uncletopia | London | 7 | No Payload","protocol":17,"map":"cp_sunshine","folder":"tf","game":"Team Fortress","app_id":440,"player_count":23,"max_players":24,"Bots":0,"server_type":"Dedicated","server_os":"Linux","password":true,"vac":true,"version":"7932396","steam_id":85568392924964314,"keywords":["cp","nocrits","nodmgspread","uncletopia"],"game_id":440,"stv_port":27076,"stv_name":"Uncletopia | London | 7 | No Payload | STV","players":[{"user_id":222,"name":"Xanshi","steam_id":76561198152392309,"connected_time":4931000000000,"state":"active","ping":46},{"user_id":273,"name":"Candibun","steam_id":76561198039276208,"connected_time":997000000000,"state":"active","ping":56},{"user_id":290,"name":"mt","steam_id":76561197961319303,"connected_time":362000000000,"state":"active","ping":60},{"user_id":190,"name":"cream gravy","steam_id":76561198973069177,"connected_time":5641000000000,"state":"active","ping":55},{"user_id":242,"name":"IndigoJones","steam_id":76561198050284262,"connected_time":4266000000000,"state":"active","ping":45},{"user_id":223,"name":"Fat Pigeon","steam_id":76561198817940142,"connected_time":4683000000000,"state":"active","ping":49},{"user_id":278,"name":"Rock..","steam_id":76561198004641963,"connected_time":809000000000,"state":"active","ping":88},{"user_id":263,"name":"venomcake17","steam_id":76561198284643999,"connected_time":1608000000000,"state":"active","ping":39},{"user_id":191,"name":"xX_Veritas_Lux_Mea1337_Xx","steam_id":76561198350754203,"connected_time":5598000000000,"state":"active","ping":71},{"user_id":287,"name":"cobhlaith","steam_id":76561198039851829,"connected_time":624000000000,"state":"active","ping":131},{"user_id":268,"name":"meriones","steam_id":76561198034234373,"connected_time":1208000000000,"state":"active","ping":40},{"user_id":291,"name":"joachym","steam_id":76561198428579761,"connected_time":70000000000,"state":"active","ping":70},{"user_id":279,"name":"Mobster Tortoise","steam_id":76561199036837091,"connected_time":808000000000,"state":"active","ping":94},{"user_id":259,"name":"Just1s","steam_id":76561198026597437,"connected_time":2600000000000,"state":"active","ping":78},{"user_id":280,"name":"Genesis","steam_id":76561198999652040,"connected_time":795000000000,"state":"active","ping":60},{"user_id":281,"name":"Barb√Ätrou","steam_id":76561199439141531,"connected_time":785000000000,"state":"active","ping":52},{"user_id":282,"name":"P3rsErkki","steam_id":76561198063093495,"connected_time":779000000000,"state":"active","ping":66},{"user_id":283,"name":"miknando","steam_id":76561198046214898,"connected_time":743000000000,"state":"active","ping":74},{"user_id":262,"name":"‚òûLaZe‚òú","steam_id":76561198202191400,"connected_time":1727000000000,"state":"active","ping":48},{"user_id":284,"name":"Dreyfus","steam_id":76561198366687805,"connected_time":725000000000,"state":"active","ping":61},{"user_id":248,"name":"‚ù§ Sparx ‚ù§","steam_id":76561198095009261,"connected_time":3992000000000,"state":"active","ping":62},{"user_id":285,"name":"Moon","steam_id":76561198808108594,"connected_time":715000000000,"state":"active","ping":94},{"user_id":252,"name":"Zazou","steam_id":76561198028076362,"connected_time":3152000000000,"state":"active","ping":47}]},{"server_id":41,"name":"Uncletopia | London | 8 | Community","name_short":"lon-8","host":"lon-1.uk.uncletopia.com","port":27085,"enabled":true,"region":"eu","cc":"gb","latitude":51.509865,"longitude":-0.118092,"reserved":0,"last_update":"0001-01-01T00:00:00Z","name_a2s":"Uncletopia | London | 8 | Community","protocol":17,"map":"workshop/pl_fifthcurve_rc1.ugc648227046","folder":"tf","game":"Team Fortress","app_id":440,"player_count":0,"max_players":24,"Bots":0,"server_type":"Dedicated","server_os":"Linux","password":true,"vac":true,"version":"7932396","steam_id":85568392924964315,"keywords":["nocrits","nodmgspread","payload","uncletopia"],"game_id":440,"stv_port":27086,"stv_name":"Uncletopia | London | 8 | Community | STV","players":null},{"server_id":300,"name":"Uncletopia | Montr√©al | 1 | All Maps","name_short":"mtl-1","host":"mtl-1.ca.uncletopia.com","port":27015,"enabled":true,"region":"us-east","cc":"ca","latitude":45.50889,"longitude":-73.56167,"reserved":0,"last_update":"0001-01-01T00:00:00Z","name_a2s":"Uncletopia | Montr√©al | 1 | All Maps","protocol":17,"map":"pl_barnblitz","folder":"tf","game":"Team Fortress","app_id":440,"player_count":0,"max_players":24,"Bots":0,"server_type":"Dedicated","server_os":"Linux","password":true,"vac":true,"version":"7932396","steam_id":85568392924500087,"keywords":["nocrits","nodmgspread","payload","uncletopia"],"game_id":440,"stv_port":27016,"stv_name":"Uncletopia | Montr√©al | 1 | All Maps | STV","players":null},{"server_id":301,"name":"Uncletopia | Montr√©al | 2 | All Maps","name_short":"mtl-2","host":"mtl-1.ca.uncletopia.com","port":27025,"enabled":true,"region":"us-east","cc":"ca","latitude":45.50889,"longitude":-73.56167,"reserved":0,"last_update":"0001-01-01T00:00:00Z","name_a2s":"Uncletopia | Montr√©al | 2 | All Maps","protocol":17,"map":"koth_lakeside_final","folder":"tf","game":"Team Fortress","app_id":440,"player_count":0,"max_players":24,"Bots":0,"server_type":"Dedicated","server_os":"Linux","password":true,"vac":true,"version":"7932396","steam_id":85568392924500088,"keywords":["cp","nocrits","nodmgspread","uncletopia"],"game_id":440,"stv_port":27026,"stv_name":"Uncletopia | Montr√©al | 2 | All Maps | STV","players":null},{"server_id":302,"name":"Uncletopia | Montr√©al | 3 | All Maps","name_short":"mtl-3","host":"mtl-1.ca.uncletopia.com","port":27035,"enabled":true,"region":"us-east","cc":"ca","latitude":45.50889,"longitude":-73.56167,"reserved":0,"last_update":"0001-01-01T00:00:00Z","name_a2s":"Uncletopia | Montr√©al | 3 | All Maps","protocol":17,"map":"cp_mountainlab","folder":"tf","game":"Team Fortress","app_id":440,"player_count":0,"max_players":24,"Bots":0,"server_type":"Dedicated","server_os":"Linux","password":true,"vac":true,"version":"7932396","steam_id":85568392924500089,"keywords":["cp","nocrits","nodmgspread","uncletopia"],"game_id":440,"stv_port":27036,"stv_name":"Uncletopia | Montr√©al | 3 | All Maps | STV","players":null},{"server_id":303,"name":"Uncletopia | Montr√©al | 4 | No Payload","name_short":"mtl-4","host":"mtl-1.ca.uncletopia.com","port":27045,"enabled":true,"region":"us-east","cc":"ca","latitude":45.50889,"longitude":-73.56167,"reserved":0,"last_update":"0001-01-01T00:00:00Z","name_a2s":"Uncletopia | Montr√©al | 4 | No Payload","protocol":17,"map":"cp_snakewater_final1","folder":"tf","game":"Team Fortress","app_id":440,"player_count":0,"max_players":24,"Bots":0,"server_type":"Dedicated","server_os":"Linux","password":true,"vac":true,"version":"7932396","steam_id":85568392924500090,"keywords":["cp","nocrits","nodmgspread","uncletopia"],"game_id":440,"stv_port":27046,"stv_name":"Uncletopia | Montr√©al | 4 | No Payload | STV","players":null},{"server_id":13,"name":"Uncletopia | New York City | 1 | All Maps","name_short":"nyc-1","host":"nyc-1.us.uncletopia.com","port":27015,"enabled":true,"region":"us-east","cc":"us","latitude":40.73061,"longitude":-73.93524,"reserved":0,"last_update":"0001-01-01T00:00:00Z","name_a2s":"Uncletopia | New York City | 1 | All Maps","protocol":17,"map":"pl_swiftwater_final1","folder":"tf","game":"Team Fortress","app_id":440,"player_count":25,"max_players":24,"Bots":0,"server_type":"Dedicated","server_os":"Linux","password":true,"vac":true,"version":"7932396","steam_id":85568392924469993,"keywords":["nocrits","nodmgspread","payload","uncletopia"],"game_id":440,"stv_port":27016,"stv_name":"Uncletopia | New York City | 1 | All Maps | STV","players":[{"user_id":317,"name":"cz R√°da","steam_id":76561198865842097,"connected_time":251000000000,"state":"active","ping":155},{"user_id":321,"name":"Patrick Bateman","steam_id":76561198048146017,"connected_time":153000000000,"state":"active","ping":60},{"user_id":275,"name":"Anamm","steam_id":76561198328762510,"connected_time":1367000000000,"state":"active","ping":49},{"user_id":278,"name":"0vii","steam_id":76561198117084598,"connected_time":1233000000000,"state":"active","ping":75},{"user_id":268,"name":"wool","steam_id":76561198869689933,"connected_time":1614000000000,"state":"active","ping":59},{"user_id":269,"name":"Ïö∞Ïú†","steam_id":76561198848304038,"connected_time":1575000000000,"state":"active","ping":58},{"user_id":161,"name":"A Puppy","steam_id":76561198828184456,"connected_time":8511000000000,"state":"active","ping":53},{"user_id":226,"name":"1996 Chrysler Town and Country","steam_id":76561199147039906,"connected_time":3515000000000,"state":"active","ping":56},{"user_id":282,"name":"Professional Woman Burner","steam_id":76561198799712847,"connected_time":1184000000000,"state":"active","ping":89},{"user_id":270,"name":"Zalthair","steam_id":76561198052698533,"connected_time":1567000000000,"state":"active","ping":160},{"user_id":271,"name":"1-800-GHOST-DANCE","steam_id":76561198835430429,"connected_time":1561000000000,"state":"active","ping":60},{"user_id":281,"name":"Potion seller (They/Them)","steam_id":76561199078306687,"connected_time":1202000000000,"state":"active","ping":73},{"user_id":259,"name":"glue shoes","steam_id":76561198236343140,"connected_time":1934000000000,"state":"active","ping":70},{"user_id":274,"name":"instigator extraordinaire","steam_id":76561198860826977,"connected_time":1442000000000,"state":"active","ping":45},{"user_id":283,"name":"Bee_Pirate","steam_id":76561199000599111,"connected_time":1171000000000,"state":"active","ping":71},{"user_id":276,"name":"az_noob","steam_id":76561199382983284,"connected_time":1342000000000,"state":"active","ping":85},{"user_id":279,"name":"Jack","steam_id":76561198254716942,"connected_time":1223000000000,"state":"active","ping":73},{"user_id":322,"name":"JHLO","steam_id":76561198074359967,"connected_time":114000000000,"state":"active","ping":55},{"user_id":285,"name":"el wiwi","steam_id":76561198857304367,"connected_time":1116000000000,"state":"active","ping":76},{"user_id":323,"name":"Lorberry","steam_id":76561198023706058,"connected_time":102000000000,"state":"active","ping":51},{"user_id":287,"name":"beans","steam_id":76561198074275991,"connected_time":979000000000,"state":"active","ping":61},{"user_id":288,"name":"Professional Woman Helper","steam_id":76561198043225721,"connected_time":976000000000,"state":"active","ping":63},{"user_id":241,"name":"the relayer","steam_id":76561198089430717,"connected_time":2166000000000,"state":"active","ping":93},{"user_id":289,"name":"Rambly Dambly","steam_id":76561198844496567,"connected_time":954000000000,"state":"active","ping":54},{"user_id":327,"name":"noel","steam_id":76561198128280883,"connected_time":6000000000,"state":"spawning","ping":50}]},{"server_id":14,"name":"Uncletopia | New York City | 2 | All Maps","name_short":"nyc-2","host":"nyc-1.us.uncletopia.com","port":27025,"enabled":true,"region":"us-east","cc":"us","latitude":40.73061,"longitude":-73.93524,"reserved":0,"last_update":"0001-01-01T00:00:00Z","name_a2s":"Uncletopia | New York City | 2 | All Maps","protocol":17,"map":"pl_badwater","folder":"tf","game":"Team Fortress","app_id":440,"player_count":24,"max_players":24,"Bots":0,"server_type":"Dedicated","server_os":"Linux","password":true,"vac":true,"version":"7932396","steam_id":85568392924469994,"keywords":["nocrits","nodmgspread","payload","uncletopia"],"game_id":440,"stv_port":27026,"stv_name":"Uncletopia | New York City | 2 | All Maps | STV","players":[{"user_id":441,"name":"Vaudeville Villain","steam_id":76561199212093339,"connected_time":110000000000,"state":"active","ping":84},{"user_id":424,"name":"Lord_HoboJo","steam_id":76561198039800002,"connected_time":1017000000000,"state":"active","ping":66},{"user_id":412,"name":"cyberas","steam_id":76561198257092290,"connected_time":1918000000000,"state":"active","ping":64},{"user_id":426,"name":"SpaceLeezerd","steam_id":76561198171026678,"connected_time":927000000000,"state":"active","ping":60},{"user_id":442,"name":"OmniMoto","steam_id":76561198091298557,"connected_time":108000000000,"state":"active","ping":93},{"user_id":422,"name":"Dr. Cube","steam_id":76561198025469828,"connected_time":1089000000000,"state":"active","ping":68},{"user_id":309,"name":"A_Malebolgia","steam_id":76561198097722818,"connected_time":8115000000000,"state":"active","ping":76},{"user_id":427,"name":"toastman","steam_id":76561198207073088,"connected_time":910000000000,"state":"active","ping":69},{"user_id":438,"name":"Joy #savetf2","steam_id":76561198073690173,"connected_time":216000000000,"state":"active","ping":57},{"user_id":425,"name":"ADRIEN BRODY","steam_id":76561198009299473,"connected_time":974000000000,"state":"active","ping":55},{"user_id":343,"name":"gIBBY","steam_id":76561198080099598,"connected_time":5630000000000,"state":"active","ping":44},{"user_id":418,"name":"Wique","steam_id":76561198071217597,"connected_time":1610000000000,"state":"active","ping":64},{"user_id":336,"name":"[IRP] Dover","steam_id":76561198417653786,"connected_time":6315000000000,"state":"active","ping":120},{"user_id":428,"name":"honku honku","steam_id":76561198325760629,"connected_time":899000000000,"state":"active","ping":72},{"user_id":434,"name":"Marsupial Jones","steam_id":76561198058963406,"connected_time":483000000000,"state":"active","ping":100},{"user_id":443,"name":"Rock Kickass","steam_id":76561198450510841,"connected_time":106000000000,"state":"active","ping":134},{"user_id":368,"name":"BNTF","steam_id":76561198062740087,"connected_time":3928000000000,"state":"active","ping":75},{"user_id":444,"name":"Holdie","steam_id":76561198070378200,"connected_time":64000000000,"state":"active","ping":71},{"user_id":445,"name":"[‚òÖ] AnarkisT","steam_id":76561198082699361,"connected_time":41000000000,"state":"active","ping":56},{"user_id":432,"name":"Tarwood444","steam_id":76561198192703729,"connected_time":678000000000,"state":"active","ping":88},{"user_id":430,"name":"Swifgz","steam_id":76561198162875756,"connected_time":865000000000,"state":"active","ping":46},{"user_id":420,"name":"Bother","steam_id":76561198336750909,"connected_time":1173000000000,"state":"active","ping":47},{"user_id":332,"name":"·ìÄ‚Ä∏·ìÇ","steam_id":76561198046055673,"connected_time":6600000000000,"state":"active","ping":57},{"user_id":440,"name":"Bongos","steam_id":76561198865285465,"connected_time":203000000000,"state":"active","ping":124}]},{"server_id":15,"name":"Uncletopia | New York City | 3 | Stopwatch Beta","name_short":"nyc-3","host":"nyc-1.us.uncletopia.com","port":27035,"enabled":true,"region":"us-east","cc":"us","latitude":40.73061,"longitude":-73.93524,"reserved":0,"last_update":"0001-01-01T00:00:00Z","name_a2s":"Uncletopia | New York City | 3 | Stopwatch Beta","protocol":17,"map":"cp_sunshine","folder":"tf","game":"Team Fortress","app_id":440,"player_count":0,"max_players":24,"Bots":0,"server_type":"Dedicated","server_os":"Linux","password":true,"vac":true,"version":"7932396","steam_id":85568392924742820,"keywords":["cp","nocrits","nodmgspread","uncletopia"],"game_id":440,"stv_port":27036,"stv_name":"Uncletopia | New York City | 3 | Stopwatch Beta | STV","players":null},{"server_id":16,"name":"Uncletopia | New York City | 4 | Community","name_short":"nyc-4","host":"nyc-1.us.uncletopia.com","port":27045,"enabled":true,"region":"us-east","cc":"us","latitude":40.73061,"longitude":-73.93524,"reserved":0,"last_update":"0001-01-01T00:00:00Z","name_a2s":"Uncletopia | New York City | 4 | Community","protocol":17,"map":"workshop/koth_product_final.ugc454272353","folder":"tf","game":"Team Fortress","app_id":440,"player_count":0,"max_players":24,"Bots":0,"server_type":"Dedicated","server_os":"Linux","password":true,"vac":true,"version":"7932396","steam_id":85568392924742821,"keywords":["cp","nocrits","nodmgspread","uncletopia"],"game_id":440,"stv_port":27046,"stv_name":"Uncletopia | New York City | 4 | Community | STV","players":null},{"server_id":142,"name":"Uncletopia | S√£o Paulo | 1 | All Maps","name_short":"sao-1","host":"sao-1.br.uncletopia.com","port":27015,"enabled":true,"region":"sa","cc":"br","latitude":-23.533773,"longitude":-46.62529,"reserved":0,"last_update":"0001-01-01T00:00:00Z","name_a2s":"Uncletopia | S√£o Paulo | 1 | All Maps","protocol":17,"map":"koth_viaduct","folder":"tf","game":"Team Fortress","app_id":440,"player_count":0,"max_players":24,"Bots":0,"server_type":"Dedicated","server_os":"Linux","password":true,"vac":true,"version":"7932396","steam_id":85568392924469996,"keywords":["cp","nocrits","nodmgspread","uncletopia"],"game_id":440,"stv_port":27016,"stv_name":"Uncletopia | S√£o Paulo | 1 | All Maps | STV","players":null},{"server_id":143,"name":"Uncletopia | S√£o Paulo | 2 | All Maps","name_short":"sao-2","host":"sao-2.br.uncletopia.com","port":27015,"enabled":true,"region":"sa","cc":"br","latitude":-23.533773,"longitude":-46.62529,"reserved":0,"last_update":"0001-01-01T00:00:00Z","name_a2s":"Uncletopia | S√£o Paulo | 2 | All Maps","protocol":17,"map":"pl_snowycoast","folder":"tf","game":"Team Fortress","app_id":440,"player_count":0,"max_players":24,"Bots":0,"server_type":"Dedicated","server_os":"Linux","password":true,"vac":true,"version":"7932396","steam_id":85568392924485349,"keywords":["nocrits","nodmgspread","payload","uncletopia"],"game_id":440,"stv_port":27016,"stv_name":"Uncletopia | S√£o Paulo | 2 | All Maps | STV","players":null},{"server_id":7,"name":"Uncletopia | Seattle | 1 | All Maps","name_short":"sea-1","host":"sea-1.us.uncletopia.com","port":27015,"enabled":true,"region":"us-west","cc":"us","latitude":47.608013,"longitude":-122.33517,"reserved":0,"last_update":"0001-01-01T00:00:00Z","name_a2s":"Uncletopia | Seattle | 1 | All Maps","protocol":17,"map":"cp_fastlane","folder":"tf","game":"Team Fortress","app_id":440,"player_count":23,"max_players":24,"Bots":0,"server_type":"Dedicated","server_os":"Linux","password":true,"vac":true,"version":"7932396","steam_id":85568392924469997,"keywords":["cp","nocrits","nodmgspread","uncletopia"],"game_id":440,"stv_port":27016,"stv_name":"Uncletopia | Seattle | 1 | All Maps | STV","players":[{"user_id":412,"name":"Ping","steam_id":76561199206514106,"connected_time":322000000000,"state":"active","ping":116},{"user_id":359,"name":"mine diam","steam_id":76561198119123981,"connected_time":4133000000000,"state":"active","ping":47},{"user_id":409,"name":"Potatobreeder","steam_id":76561199077867000,"connected_time":535000000000,"state":"active","ping":70},{"user_id":422,"name":"·¥ø·¥∫·¥≥ ·¥≥ ≥·∂¶·µê·µõ·∂¶·µá\ufffd","steam_id":76561198065621941,"connected_time":87000000000,"state":"active","ping":45},{"user_id":399,"name":"uncle grandpa gaming","steam_id":76561198063024859,"connected_time":1003000000000,"state":"active","ping":117},{"user_id":406,"name":"Strikerbolt","steam_id":76561199095622897,"connected_time":611000000000,"state":"active","ping":80},{"user_id":376,"name":"It's a Doggydog World","steam_id":76561198018232414,"connected_time":2647000000000,"state":"active","ping":107},{"user_id":358,"name":"Peppy","steam_id":76561198866629645,"connected_time":4157000000000,"state":"active","ping":53},{"user_id":408,"name":"blinkerton city","steam_id":76561198054270410,"connected_time":595000000000,"state":"active","ping":51},{"user_id":410,"name":"TwoScore","steam_id":76561198024412148,"connected_time":483000000000,"state":"active","ping":69},{"user_id":413,"name":"BolognaWithOlives","steam_id":76561198101262668,"connected_time":310000000000,"state":"active","ping":80},{"user_id":393,"name":"Walter White","steam_id":76561199102963294,"connected_time":1385000000000,"state":"active","ping":72},{"user_id":418,"name":"TheSecretNewbie","steam_id":76561198194671218,"connected_time":181000000000,"state":"active","ping":90},{"user_id":415,"name":"Elfy","steam_id":76561199166448617,"connected_time":205000000000,"state":"active","ping":61},{"user_id":423,"name":"Mico (Mico)","steam_id":76561198125462953,"connected_time":70000000000,"state":"active","ping":46},{"user_id":419,"name":"rilelyscastle","steam_id":76561198090372870,"connected_time":161000000000,"state":"active","ping":53},{"user_id":356,"name":"greens beans","steam_id":76561198153611491,"connected_time":4167000000000,"state":"active","ping":41},{"user_id":420,"name":"Cloud","steam_id":76561198272454184,"connected_time":154000000000,"state":"active","ping":174},{"user_id":369,"name":"ArchmageF","steam_id":76561197992246851,"connected_time":3057000000000,"state":"active","ping":54},{"user_id":426,"name":"Dreamzapp","steam_id":76561199084936632,"connected_time":28000000000,"state":"active","ping":92},{"user_id":424,"name":"cockroach massive","steam_id":76561198011675372,"connected_time":65000000000,"state":"active","ping":60},{"user_id":343,"name":"Lolxdloldx","steam_id":76561198136887125,"connected_time":4756000000000,"state":"active","ping":99},{"user_id":425,"name":"Lesbian Gamin Avery.","steam_id":76561199035402139,"connected_time":62000000000,"state":"active","ping":53}]},{"server_id":119,"name":"Uncletopia | Seattle | 2 | All Maps","name_short":"sea-2","host":"sea-1.us.uncletopia.com","port":27025,"enabled":true,"region":"us-west","cc":"us","latitude":47.608013,"longitude":-122.33517,"reserved":0,"last_update":"0001-01-01T00:00:00Z","name_a2s":"Uncletopia | Seattle | 2 | All Maps","protocol":17,"map":"pl_badwater","folder":"tf","game":"Team Fortress","app_id":440,"player_count":24,"max_players":24,"Bots":0,"server_type":"Dedicated","server_os":"Linux","password":true,"vac":true,"version":"7932396","steam_id":85568392924469998,"keywords":["nocrits","nodmgspread","payload","uncletopia"],"game_id":440,"stv_port":27026,"stv_name":"Uncletopia | Seattle | 2 | All Maps | STV","players":[{"user_id":289,"name":"Doppelg√§nger","steam_id":76561198036730436,"connected_time":1276000000000,"state":"active","ping":85},{"user_id":273,"name":"Eros","steam_id":76561198071413833,"connected_time":2709000000000,"state":"active","ping":62},{"user_id":262,"name":"Coop","steam_id":76561199145266151,"connected_time":3183000000000,"state":"active","ping":48},{"user_id":298,"name":"VertexVortex","steam_id":76561198093646990,"connected_time":760000000000,"state":"active","ping":83},{"user_id":291,"name":"too much peyote","steam_id":76561198161747964,"connected_time":1242000000000,"state":"active","ping":63},{"user_id":302,"name":"BlazedBunny","steam_id":76561198243610560,"connected_time":361000000000,"state":"active","ping":75},{"user_id":272,"name":"Laffey","steam_id":76561198107049456,"connected_time":2769000000000,"state":"active","ping":65},{"user_id":282,"name":"NotAName","steam_id":76561198192584098,"connected_time":1967000000000,"state":"active","ping":77},{"user_id":265,"name":"slowdance","steam_id":76561198097427947,"connected_time":3160000000000,"state":"active","ping":120},{"user_id":299,"name":"JonBoy","steam_id":76561198082052480,"connected_time":707000000000,"state":"active","ping":60},{"user_id":278,"name":"awesomebrololo","steam_id":76561198374283489,"connected_time":2468000000000,"state":"active","ping":82},{"user_id":292,"name":"feathered_turtle","steam_id":76561199079858371,"connected_time":1233000000000,"state":"active","ping":114},{"user_id":293,"name":"Greskrendtregk","steam_id":76561197969553142,"connected_time":1217000000000,"state":"active","ping":55},{"user_id":306,"name":"oberon","steam_id":76561198305824514,"connected_time":217000000000,"state":"active","ping":110},{"user_id":294,"name":"JollyVG","steam_id":76561198044919633,"connected_time":1194000000000,"state":"active","ping":116},{"user_id":168,"name":"ChimiChan","steam_id":76561198080094525,"connected_time":10016000000000,"state":"active","ping":98},{"user_id":295,"name":"ItsJustEman","steam_id":76561198070543356,"connected_time":1193000000000,"state":"active","ping":111},{"user_id":303,"name":"Bottle","steam_id":76561199208835578,"connected_time":330000000000,"state":"active","ping":56},{"user_id":296,"name":"Col. RizzCheese","steam_id":76561198269459945,"connected_time":1125000000000,"state":"active","ping":50},{"user_id":286,"name":"LProduct","steam_id":76561199442139670,"connected_time":1558000000000,"state":"active","ping":63},{"user_id":288,"name":"Earthyburt","steam_id":76561198274964268,"connected_time":1346000000000,"state":"active","ping":102},{"user_id":270,"name":"Moonlily","steam_id":76561198852670061,"connected_time":2872000000000,"state":"active","ping":53},{"user_id":304,"name":"Coowil","steam_id":76561198070985437,"connected_time":310000000000,"state":"active","ping":43},{"user_id":305,"name":"pafijohn","steam_id":76561198002535190,"connected_time":277000000000,"state":"active","ping":73}]},{"server_id":406,"name":"Uncletopia | Seattle | 3 | Stopwatch Beta","name_short":"sea-3","host":"sea-1.us.uncletopia.com","port":27035,"enabled":true,"region":"us-west","cc":"us","latitude":47.608013,"longitude":-122.33517,"reserved":0,"last_update":"0001-01-01T00:00:00Z","name_a2s":"Uncletopia | Seattle | 3 | Stopwatch Beta","protocol":17,"map":"pl_upward","folder":"tf","game":"Team Fortress","app_id":440,"player_count":0,"max_players":24,"Bots":0,"server_type":"Dedicated","server_os":"Linux","password":true,"vac":true,"version":"7932396","steam_id":85568392924515217,"keywords":["nocrits","nodmgspread","payload","uncletopia"],"game_id":440,"stv_port":27036,"stv_name":"Uncletopia | Seattle | 3 | Stopwatch Beta | STV","players":null},{"server_id":17,"name":"Uncletopia | San Francisco | 1 | All Maps","name_short":"sfo-1","host":"sfo-1.us.uncletopia.com","port":27015,"enabled":true,"region":"us-west","cc":"us","latitude":37.77397,"longitude":-122.4313,"reserved":0,"last_update":"0001-01-01T00:00:00Z","name_a2s":"Uncletopia | San Francisco | 1 | All Maps","protocol":17,"map":"pl_frontier_final","folder":"tf","game":"Team Fortress","app_id":440,"player_count":24,"max_players":24,"Bots":0,"server_type":"Dedicated","server_os":"Linux","password":true,"vac":true,"version":"7932396","steam_id":85568392924469999,"keywords":["nocrits","nodmgspread","payload","uncletopia"],"game_id":440,"stv_port":27016,"stv_name":"Uncletopia | San Francisco | 1 | All Maps | STV","players":[{"user_id":263,"name":"omnislime","steam_id":76561199382475668,"connected_time":511000000000,"state":"active","ping":97},{"user_id":223,"name":"Earl Acton","steam_id":76561198064273772,"connected_time":2874000000000,"state":"active","ping":112},{"user_id":269,"name":"The Super Mario Bros. Movie","steam_id":76561198871692156,"connected_time":221000000000,"state":"active","ping":62},{"user_id":264,"name":"Abaddon","steam_id":76561198030992243,"connected_time":510000000000,"state":"active","ping":117},{"user_id":262,"name":"Dagoth Ur","steam_id":76561199007079402,"connected_time":843000000000,"state":"active","ping":113},{"user_id":265,"name":"Cheifer","steam_id":76561198372699269,"connected_time":500000000000,"state":"active","ping":86},{"user_id":245,"name":"Nuggies","steam_id":76561198272432592,"connected_time":1739000000000,"state":"active","ping":59},{"user_id":266,"name":"YoteDab McFapDab.jpg","steam_id":76561197984870380,"connected_time":487000000000,"state":"active","ping":119},{"user_id":242,"name":"mechanicvirus","steam_id":76561198038161480,"connected_time":2251000000000,"state":"active","ping":68},{"user_id":196,"name":"whittecar","steam_id":76561198169715643,"connected_time":4892000000000,"state":"active","ping":70},{"user_id":225,"name":"Deflated Horse","steam_id":76561199260931005,"connected_time":2843000000000,"state":"active","ping":90},{"user_id":270,"name":"Xx_UrineEnjoyer_xX","steam_id":76561198397991402,"connected_time":215000000000,"state":"active","ping":126},{"user_id":261,"name":"refrozen","steam_id":76561199070134414,"connected_time":928000000000,"state":"active","ping":79},{"user_id":252,"name":"kazoo2","steam_id":76561198260473504,"connected_time":1515000000000,"state":"active","ping":104},{"user_id":271,"name":"stick","steam_id":76561198134334367,"connected_time":211000000000,"state":"active","ping":82},{"user_id":247,"name":"Shalom","steam_id":76561198410005222,"connected_time":1724000000000,"state":"active","ping":73},{"user_id":248,"name":"Mihy","steam_id":76561199042677419,"connected_time":1722000000000,"state":"active","ping":59},{"user_id":249,"name":"Expand Dong","steam_id":76561198138525714,"connected_time":1707000000000,"state":"active","ping":81},{"user_id":258,"name":"Krysar","steam_id":76561198202077555,"connected_time":1351000000000,"state":"active","ping":99},{"user_id":250,"name":"Goldwalker","steam_id":76561198279461590,"connected_time":1693000000000,"state":"active","ping":101},{"user_id":203,"name":"lili","steam_id":76561199391478575,"connected_time":4175000000000,"state":"active","ping":78},{"user_id":251,"name":"pee pants","steam_id":76561198119711607,"connected_time":1652000000000,"state":"active","ping":87},{"user_id":272,"name":"Kylar","steam_id":76561198196979431,"connected_time":120000000000,"state":"active","ping":69},{"user_id":254,"name":"Alan","steam_id":76561198977083959,"connected_time":1501000000000,"state":"active","ping":82}]},{"server_id":18,"name":"Uncletopia | San Francisco | 2 | All Maps","name_short":"sfo-2","host":"sfo-1.us.uncletopia.com","port":27025,"enabled":true,"region":"us-west","cc":"us","latitude":37.77397,"longitude":-122.4313,"reserved":0,"last_update":"0001-01-01T00:00:00Z","name_a2s":"Uncletopia | San Francisco | 2 | All Maps","protocol":17,"map":"pl_upward","folder":"tf","game":"Team Fortress","app_id":440,"player_count":24,"max_players":24,"Bots":0,"server_type":"Dedicated","server_os":"Linux","password":true,"vac":true,"version":"7932396","steam_id":85568392924470000,"keywords":["nocrits","nodmgspread","payload","uncletopia"],"game_id":440,"stv_port":27026,"stv_name":"Uncletopia | San Francisco | 2 | All Maps | STV","players":[{"user_id":53,"name":"Qrowniniee","steam_id":76561198273028245,"connected_time":4534000000000,"state":"active","ping":66},{"user_id":12,"name":"HawkBlaze","steam_id":76561199000152914,"connected_time":7752000000000,"state":"active","ping":62},{"user_id":104,"name":"Dark Lord","steam_id":76561198044199150,"connected_time":1197000000000,"state":"active","ping":117},{"user_id":108,"name":"John","steam_id":76561198138105188,"connected_time":934000000000,"state":"active","ping":70},{"user_id":91,"name":"steelzepplin","steam_id":76561197993182335,"connected_time":1825000000000,"state":"active","ping":112},{"user_id":101,"name":"JVKYSL","steam_id":76561199482157711,"connected_time":1462000000000,"state":"active","ping":83},{"user_id":92,"name":"M3L","steam_id":76561199474189433,"connected_time":1819000000000,"state":"active","ping":118},{"user_id":61,"name":"bottom pride burger","steam_id":76561198322247602,"connected_time":3880000000000,"state":"active","ping":57},{"user_id":109,"name":"hatsune miku","steam_id":76561199445009981,"connected_time":931000000000,"state":"active","ping":65},{"user_id":106,"name":"krakn","steam_id":76561199125572659,"connected_time":1044000000000,"state":"active","ping":47},{"user_id":74,"name":"K2f","steam_id":76561198049600563,"connected_time":2424000000000,"state":"active","ping":53},{"user_id":28,"name":"nihbarre","steam_id":76561198221402024,"connected_time":5560000000000,"state":"active","ping":131},{"user_id":29,"name":"‚òÜRuke‚òÜ","steam_id":76561198072441047,"connected_time":5542000000000,"state":"active","ping":67},{"user_id":93,"name":"Eldritch Curio.üëÅ","steam_id":76561198044669027,"connected_time":1796000000000,"state":"active","ping":128},{"user_id":118,"name":"Paul Allen","steam_id":76561198036032168,"connected_time":491000000000,"state":"active","ping":113},{"user_id":35,"name":"Doloramen","steam_id":76561198864103577,"connected_time":5209000000000,"state":"active","ping":127},{"user_id":107,"name":"Glanderson booper","steam_id":76561198021223747,"connected_time":1016000000000,"state":"active","ping":83},{"user_id":110,"name":"BargainBhin","steam_id":76561198028519689,"connected_time":907000000000,"state":"active","ping":64},{"user_id":64,"name":"ayecodex","steam_id":76561199477598858,"connected_time":3047000000000,"state":"active","ping":105},{"user_id":84,"name":"Jelo Waso","steam_id":76561198261929108,"connected_time":2029000000000,"state":"active","ping":121},{"user_id":55,"name":"silly jester","steam_id":76561198079609974,"connected_time":4437000000000,"state":"active","ping":68},{"user_id":56,"name":"JC The Dumb","steam_id":76561199186185567,"connected_time":4437000000000,"state":"active","ping":69},{"user_id":112,"name":"Sleuth","steam_id":76561198418288939,"connected_time":732000000000,"state":"active","ping":56},{"user_id":111,"name":"chilis baby back ribs","steam_id":76561198813516435,"connected_time":886000000000,"state":"active","ping":50}]},{"server_id":19,"name":"Uncletopia | San Francisco | 3 | Stopwatch Beta","name_short":"sfo-3","host":"sfo-1.us.uncletopia.com","port":27035,"enabled":true,"region":"us-west","cc":"us","latitude":37.77397,"longitude":-122.4313,"reserved":0,"last_update":"0001-01-01T00:00:00Z","name_a2s":"Uncletopia | San Francisco | 3 | Stopwatch Beta","protocol":17,"map":"cp_process_final","folder":"tf","game":"Team Fortress","app_id":440,"player_count":0,"max_players":24,"Bots":0,"server_type":"Dedicated","server_os":"Linux","password":true,"vac":true,"version":"7932396","steam_id":85568392924742824,"keywords":["cp","nocrits","nodmgspread","uncletopia"],"game_id":440,"stv_port":27036,"stv_name":"Uncletopia | San Francisco | 3 | Stopwatch Beta | STV","players":null},{"server_id":20,"name":"Uncletopia | San Francisco | 4 | Community","name_short":"sfo-4","host":"sfo-1.us.uncletopia.com","port":27045,"enabled":true,"region":"us-west","cc":"us","latitude":37.77397,"longitude":-122.4313,"reserved":0,"last_update":"0001-01-01T00:00:00Z","name_a2s":"Uncletopia | San Francisco | 4 | Community","protocol":17,"map":"workshop/cp_hazyfort_rc6.ugc1365963729","folder":"tf","game":"Team Fortress","app_id":440,"player_count":0,"max_players":24,"Bots":0,"server_type":"Dedicated","server_os":"Linux","password":true,"vac":true,"version":"7932396","steam_id":85568392924742826,"keywords":["cp","nocrits","nodmgspread","uncletopia"],"game_id":440,"stv_port":27046,"stv_name":"Uncletopia | San Francisco | 4 | Community | STV","players":null},{"server_id":141,"name":"Uncletopia | Sydney | 1 | All Maps","name_short":"syd-1","host":"syd-1.au.uncletopia.com","port":27015,"enabled":true,"region":"au","cc":"au","latitude":-33.865143,"longitude":151.2099,"reserved":0,"last_update":"0001-01-01T00:00:00Z","name_a2s":"Uncletopia | Sydney | 1 | All Maps","protocol":17,"map":"pl_pier","folder":"tf","game":"Team Fortress","app_id":440,"player_count":1,"max_players":24,"Bots":0,"server_type":"Dedicated","server_os":"Linux","password":true,"vac":true,"version":"7932396","steam_id":85568392924470001,"keywords":["nocrits","nodmgspread","payload","uncletopia"],"game_id":440,"stv_port":27016,"stv_name":"Uncletopia | Sydney | 1 | All Maps | STV","players":[{"user_id":5,"name":"xandersalias","steam_id":76561198352460253,"connected_time":137000000000,"state":"active","ping":71}]},{"server_id":123,"name":"Uncletopia | Sydney | 2 | All Maps","name_short":"syd-2","host":"syd-1.au.uncletopia.com","port":27025,"enabled":true,"region":"au","cc":"au","latitude":-33.865143,"longitude":151.2099,"reserved":0,"last_update":"0001-01-01T00:00:00Z","name_a2s":"Uncletopia | Sydney | 2 | All Maps","protocol":17,"map":"koth_lakeside_final","folder":"tf","game":"Team Fortress","app_id":440,"player_count":0,"max_players":24,"Bots":0,"server_type":"Dedicated","server_os":"Linux","password":true,"vac":true,"version":"7932396","steam_id":85568392924470002,"keywords":["cp","nocrits","nodmgspread","uncletopia"],"game_id":440,"stv_port":27026,"stv_name":"Uncletopia | Sydney | 2 | All Maps | STV","players":null},{"server_id":395,"name":"Uncletopia | Sydney | 3 | All Maps","name_short":"syd-3","host":"syd-1.au.uncletopia.com","port":27035,"enabled":true,"region":"au","cc":"au","latitude":-33.865143,"longitude":151.2099,"reserved":0,"last_update":"0001-01-01T00:00:00Z","name_a2s":"Uncletopia | Sydney | 3 | All Maps","protocol":17,"map":"pl_badwater","folder":"tf","game":"Team Fortress","app_id":440,"player_count":0,"max_players":24,"Bots":0,"server_type":"Dedicated","server_os":"Linux","password":true,"vac":true,"version":"7932396","steam_id":85568392925194467,"keywords":["nocrits","nodmgspread","payload","uncletopia"],"game_id":440,"stv_port":27036,"stv_name":"Uncletopia | Sydney | 3 | All Maps | STV","players":null},{"server_id":396,"name":"Uncletopia | Sydney | 4 | All Maps","name_short":"syd-4","host":"syd-1.au.uncletopia.com","port":27045,"enabled":true,"region":"au","cc":"au","latitude":-33.865143,"longitude":151.2099,"reserved":0,"last_update":"0001-01-01T00:00:00Z","name_a2s":"Uncletopia | Sydney | 4 | All Maps","protocol":17,"map":"pl_pier","folder":"tf","game":"Team Fortress","app_id":440,"player_count":0,"max_players":24,"Bots":0,"server_type":"Dedicated","server_os":"Linux","password":true,"vac":true,"version":"7932396","steam_id":85568392925397958,"keywords":["nocrits","nodmgspread","payload","uncletopia"],"game_id":440,"stv_port":27046,"stv_name":"Uncletopia | Sydney | 4 | All Maps | STV","players":null},{"server_id":58,"name":"Uncletopia | Sydney | 5 | Stopwatch Beta","name_short":"syd-5","host":"syd-1.au.uncletopia.com","port":27055,"enabled":true,"region":"au","cc":"au","latitude":-33.865143,"longitude":151.2099,"reserved":0,"last_update":"0001-01-01T00:00:00Z","name_a2s":"Uncletopia | Sydney | 5 | Stopwatch Beta","protocol":17,"map":"pl_borneo","folder":"tf","game":"Team Fortress","app_id":440,"player_count":0,"max_players":24,"Bots":0,"server_type":"Dedicated","server_os":"Linux","password":true,"vac":true,"version":"7932396","steam_id":85568392925397959,"keywords":["nocrits","nodmgspread","payload","uncletopia"],"game_id":440,"stv_port":27056,"stv_name":"Uncletopia | Sydney | 5 | Stopwatch Beta | STV","players":null},{"server_id":59,"name":"Uncletopia | Sydney | 6 | Community","name_short":"syd-6","host":"syd-1.au.uncletopia.com","port":27065,"enabled":true,"region":"au","cc":"au","latitude":-33.865143,"longitude":151.2099,"reserved":0,"last_update":"0001-01-01T00:00:00Z","name_a2s":"Uncletopia | Sydney | 6 | Community","protocol":17,"map":"pl_badwater","folder":"tf","game":"Team Fortress","app_id":440,"player_count":0,"max_players":24,"Bots":0,"server_type":"Dedicated","server_os":"Linux","password":true,"vac":true,"version":"7932396","steam_id":85568392925397960,"keywords":["nocrits","nodmgspread","payload","uncletopia"],"game_id":440,"stv_port":27066,"stv_name":"Uncletopia | Sydney | 6 | Community | STV","players":null},{"server_id":49,"name":"Uncletopia | Warsaw | 1 | All Maps","name_short":"waw-1","host":"waw-1.pl.uncletopia.com","port":27015,"enabled":true,"region":"eu","cc":"pl","latitude":52.2297,"longitude":21.017532,"reserved":0,"last_update":"0001-01-01T00:00:00Z","name_a2s":"","protocol":0,"map":"","folder":"","game":"","app_id":0,"player_count":0,"max_players":0,"Bots":0,"server_type":"","server_os":"","password":false,"vac":false,"version":"","steam_id":0,"keywords":null,"game_id":0,"stv_port":0,"stv_name":"","players":null},{"server_id":50,"name":"Uncletopia | Warsaw | 2 | All Maps","name_short":"waw-2","host":"waw-1.pl.uncletopia.com","port":27025,"enabled":true,"region":"eu","cc":"pl","latitude":52.2297,"longitude":21.017532,"reserved":0,"last_update":"0001-01-01T00:00:00Z","name_a2s":"Uncletopia | Warsaw | 2 | All Maps","protocol":17,"map":"pl_barnblitz","folder":"tf","game":"Team Fortress","app_id":440,"player_count":0,"max_players":24,"Bots":0,"server_type":"Dedicated","server_os":"Linux","password":true,"vac":true,"version":"7932396","steam_id":85568392925397851,"keywords":["nocrits","nodmgspread","payload","uncletopia"],"game_id":440,"stv_port":27026,"stv_name":"Uncletopia | Warsaw | 2 | All Maps | STV","players":null},{"server_id":51,"name":"Uncletopia | Warsaw | 3 | All Maps","name_short":"waw-3","host":"waw-1.pl.uncletopia.com","port":27035,"enabled":true,"region":"eu","cc":"pl","latitude":52.2297,"longitude":21.017532,"reserved":0,"last_update":"0001-01-01T00:00:00Z","name_a2s":"Uncletopia | Warsaw | 3 | All Maps","protocol":17,"map":"pl_barnblitz","folder":"tf","game":"Team Fortress","app_id":440,"player_count":24,"max_players":24,"Bots":0,"server_type":"Dedicated","server_os":"Linux","password":true,"vac":true,"version":"7932396","steam_id":85568392925397852,"keywords":["nocrits","nodmgspread","payload","uncletopia"],"game_id":440,"stv_port":27036,"stv_name":"Uncletopia | Warsaw | 3 | All Maps | STV","players":[{"user_id":168,"name":"siema","steam_id":76561198033698248,"connected_time":2230000000000,"state":"active","ping":79},{"user_id":183,"name":"Mati [EST]","steam_id":76561197994743813,"connected_time":1595000000000,"state":"active","ping":127},{"user_id":194,"name":"Umbro","steam_id":76561198087930438,"connected_time":611000000000,"state":"active","ping":88},{"user_id":195,"name":"back to 60hz","steam_id":76561198340262024,"connected_time":304000000000,"state":"active","ping":74},{"user_id":140,"name":"Quokkboy Quaklas","steam_id":76561198113698819,"connected_time":4180000000000,"state":"active","ping":76},{"user_id":176,"name":"Pvt Talbot","steam_id":76561198261001389,"connected_time":2015000000000,"state":"active","ping":72},{"user_id":167,"name":"Kotbube Peter","steam_id":76561198148386749,"connected_time":2380000000000,"state":"active","ping":70},{"user_id":122,"name":"nemelex","steam_id":76561198958005865,"connected_time":4848000000000,"state":"active","ping":75},{"user_id":123,"name":"Syd","steam_id":76561198020515027,"connected_time":4834000000000,"state":"active","ping":56},{"user_id":196,"name":"Pumpkin Pie","steam_id":76561198115230959,"connected_time":219000000000,"state":"active","ping":102},{"user_id":197,"name":"Fart Goblin","steam_id":76561198072147068,"connected_time":127000000000,"state":"active","ping":117},{"user_id":127,"name":"s a i","steam_id":76561197970379754,"connected_time":4690000000000,"state":"active","ping":72},{"user_id":149,"name":"Bahador","steam_id":76561198897378461,"connected_time":3309000000000,"state":"active","ping":98},{"user_id":190,"name":"bull","steam_id":76561199233979726,"connected_time":1152000000000,"state":"active","ping":95},{"user_id":155,"name":"astigmatic","steam_id":76561199103959197,"connected_time":2936000000000,"state":"active","ping":85},{"user_id":191,"name":"Mata_FM","steam_id":76561198044824504,"connected_time":1144000000000,"state":"active","ping":70},{"user_id":55,"name":"CuJIA_TPAHCJIuTA","steam_id":76561198149654361,"connected_time":7536000000000,"state":"active","ping":70},{"user_id":145,"name":"Carrotcracker","steam_id":76561198034862396,"connected_time":3518000000000,"state":"active","ping":93},{"user_id":131,"name":"Hexagon","steam_id":76561198151205758,"connected_time":4523000000000,"state":"active","ping":74},{"user_id":186,"name":"Numernabis","steam_id":76561198152548272,"connected_time":1410000000000,"state":"active","ping":133},{"user_id":160,"name":"Sensei","steam_id":76561198383582429,"connected_time":2714000000000,"state":"active","ping":66},{"user_id":138,"name":"CS 2","steam_id":76561198972902040,"connected_time":4359000000000,"state":"active","ping":70},{"user_id":187,"name":"Dynamit Hans","steam_id":76561198801043701,"connected_time":1378000000000,"state":"active","ping":93},{"user_id":193,"name":"Jonasasaurus","steam_id":76561198100999770,"connected_time":875000000000,"state":"active","ping":94}]},{"server_id":52,"name":"Uncletopia | Warsaw | 4 | All Maps","name_short":"waw-4","host":"waw-1.pl.uncletopia.com","port":27045,"enabled":true,"region":"eu","cc":"pl","latitude":52.2297,"longitude":21.017532,"reserved":0,"last_update":"0001-01-01T00:00:00Z","name_a2s":"Uncletopia | Warsaw | 4 | All Maps","protocol":17,"map":"pl_swiftwater_final1","folder":"tf","game":"Team Fortress","app_id":440,"player_count":0,"max_players":24,"Bots":0,"server_type":"Dedicated","server_os":"Linux","password":true,"vac":true,"version":"7932396","steam_id":85568392925397853,"keywords":["nocrits","nodmgspread","payload","uncletopia"],"game_id":440,"stv_port":27046,"stv_name":"Uncletopia | Warsaw | 4 | All Maps | STV","players":null},{"server_id":53,"name":"Uncletopia | Warsaw | 5 | Stopwatch Beta","name_short":"waw-5","host":"waw-1.pl.uncletopia.com","port":27055,"enabled":true,"region":"eu","cc":"pl","latitude":52.2297,"longitude":21.017532,"reserved":0,"last_update":"0001-01-01T00:00:00Z","name_a2s":"Uncletopia | Warsaw | 5 | Stopwatch Beta","protocol":17,"map":"koth_lakeside_final","folder":"tf","game":"Team Fortress","app_id":440,"player_count":0,"max_players":24,"Bots":0,"server_type":"Dedicated","server_os":"Linux","password":true,"vac":true,"version":"7932396","steam_id":85568392925397854,"keywords":["cp","nocrits","nodmgspread","uncletopia"],"game_id":440,"stv_port":27056,"stv_name":"Uncletopia | Warsaw | 5 | Stopwatch Beta | STV","players":null},{"server_id":54,"name":"Uncletopia | Warsaw | 6 | Community","name_short":"waw-6","host":"waw-1.pl.uncletopia.com","port":27065,"enabled":true,"region":"eu","cc":"pl","latitude":52.2297,"longitude":21.017532,"reserved":0,"last_update":"0001-01-01T00:00:00Z","name_a2s":"Uncletopia | Warsaw | 6 | Community","protocol":17,"map":"workshop/koth_ramjam_rc1.ugc459778887","folder":"tf","game":"Team Fortress","app_id":440,"player_count":5,"max_players":24,"Bots":0,"server_type":"Dedicated","server_os":"Linux","password":true,"vac":true,"version":"7932396","steam_id":85568392925397856,"keywords":["cp","nocrits","nodmgspread","uncletopia"],"game_id":440,"stv_port":27066,"stv_name":"Uncletopia | Warsaw | 6 | Community | STV","players":[{"user_id":20,"name":"w√∂rb","steam_id":76561198159517104,"connected_time":2084000000000,"state":"active","ping":84},{"user_id":22,"name":"Xenowolfraptor","steam_id":76561199085273567,"connected_time":2014000000000,"state":"active","ping":103},{"user_id":23,"name":"Zenex The Zealous","steam_id":76561198957291440,"connected_time":1039000000000,"state":"active","ping":118},{"user_id":24,"name":"ZagreusNoMoney","steam_id":76561198996162089,"connected_time":362000000000,"state":"active","ping":47},{"user_id":25,"name":"Quewosha","steam_id":76561198967144540,"connected_time":139000000000,"state":"active","ping":75}]}]}