{"status":true,"message":"","result":[{"server_id":9,"name":"Uncletopia | Atlanta | 1 | All Maps","name_short":"atl-1","host":"atl-1.us.uncletopia.com","port":27015,"enabled":true,"region":"us-east","cc":"us","latitude":33.753746,"longitude":-84.38633,"reserved":0,"last_update":"0001-01-01T00:00:00Z","name_a2s":"Uncletopia | Atlanta | 1 | All Maps","protocol":17,"map":"cp_dustbowl","folder":"tf","game":"Team Fortress","app_id":440,"player_count":24,"max_players":24,"Bots":0,"server_type":"Dedicated","server_os":"Linux","password":true,"vac":true,"version":"7961495","steam_id":85568392924469982,"keywords":["cp","nocrits","nodmgspread","uncletopia"],"game_id":440,"stv_port":27016,"stv_name":"Uncletopia | Atlanta | 1 | All Maps | STV","players":null},{"server_id":104,"name":"Uncletopia | Atlanta | 2 | All Maps","name_short":"atl-2","host":"atl-1.us.uncletopia.com","port":27025,"enabled":true,"region":"us-east","cc":"us","latitude":33.753746,"longitude":-84.38633,"reserved":0,"last_update":"0001-01-01T00:00:00Z","name_a2s":"Uncletopia | Atlanta | 2 | All Maps","protocol":17,"map":"pl_badwater","folder":"tf","game":"Team Fortress","app_id":440,"player_count":19,"max_players":24,"Bots":0,"server_type":"Dedicated","server_os":"Linux","password":true,"vac":true,"version":"7961495","steam_id":85568392924469983,"keywords":["nocrits","nodmgspread","payload","uncletopia"],"game_id":440,"stv_port":27026,"stv_name":"Uncletopia | Atlanta | 2 | All Maps | STV","players":null},{"server_id":400,"name":"Uncletopia | Atlanta | 3 | All Maps","name_short":"atl-3","host":"atl-1.us.uncletopia.com","port":27035,"enabled":true,"region":"us-east","cc":"us","latitude":33.753746,"longitude":-84.38633,"reserved":0,"last_update":"0001-01-01T00:00:00Z","name_a2s":"Uncletopia | Atlanta | 3 | All Maps","protocol":17,"map":"koth_lakeside_final","folder":"tf","game":"Team Fortress","app_id":440,"player_count":0,"max_players":24,"Bots":0,"server_type":"Dedicated","server_os":"Linux","password":true,"vac":true,"version":"7961495","steam_id":85568392924515187,"keywords":["cp","nocrits","nodmgspread","uncletopia"],"game_id":440,"stv_port":27036,"stv_name":"Uncletopia | Atlanta | 3 | All Maps | STV","players":null},{"server_id":401,"name":"Uncletopia | Atlanta | 4 | Community","name_short":"atl-4","host":"atl-1.us.uncletopia.com","port":27045,"enabled":true,"region":"us-east","cc":"us","latitude":33.753746,"longitude":-84.38633,"reserved":0,"last_update":"0001-01-01T00:00:00Z","name_a2s":"Uncletopia | Atlanta | 4 | Community","protocol":17,"map":"cp_dustbowl","folder":"tf","game":"Team Fortress","app_id":440,"player_count":0,"max_players":24,"Bots":0,"server_type":"Dedicated","server_os":"Linux","password":true,"vac":true,"version":"7961495","steam_id":85568392924515188,"keywords":["cp","nocrits","nodmgspread","uncletopia"],"game_id":440,"stv_port":27046,"stv_name":"Uncletopia | Atlanta | 4 | Community | STV","players":null},{"server_id":2,"name":"Uncletopia | Chicago | 1 | All Maps","name_short":"chi-1","host":"chi-1.us.uncletopia.com","port":27015,"enabled":true,"region":"us-central","cc":"us","latitude":41.881832,"longitude":-87.62318,"reserved":0,"last_update":"0001-01-01T00:00:00Z","name_a2s":"Uncletopia | Chicago | 1 | All Maps","protocol":17,"map":"pl_frontier_final","folder":"tf","game":"Team Fortress","app_id":440,"player_count":24,"max_players":24,"Bots":0,"server_type":"Dedicated","server_os":"Linux","password":true,"vac":true,"version":"7961495","steam_id":85568392924469984,"keywords":["nocrits","nodmgspread","payload","uncletopia"],"game_id":440,"stv_port":27016,"stv_name":"Uncletopia | Chicago | 1 | All Maps | STV","players":[{"user_id":143,"name":"loser","steam_id":76561198259380127,"connected_time":2274000000000,"state":"active","ping":87},{"user_id":168,"name":"Interrobang","steam_id":76561197977290892,"connected_time":821000000000,"state":"active","ping":98},{"user_id":112,"name":"Praise_to_the_Flashlight!","steam_id":76561199001728789,"connected_time":4133000000000,"state":"active","ping":62},{"user_id":169,"name":"huh","steam_id":76561198128009444,"connected_time":813000000000,"state":"active","ping":125},{"user_id":117,"name":"Lost","steam_id":76561198093713427,"connected_time":3891000000000,"state":"active","ping":60},{"user_id":126,"name":"james may","steam_id":76561198043857339,"connected_time":3533000000000,"state":"active","ping":103},{"user_id":153,"name":"HarryjusttHarry","steam_id":76561198982810452,"connected_time":1121000000000,"state":"active","ping":87},{"user_id":157,"name":"glankinator","steam_id":76561198354077256,"connected_time":1091000000000,"state":"active","ping":47},{"user_id":144,"name":"TheOneZoot","steam_id":76561198121944243,"connected_time":2239000000000,"state":"active","ping":83},{"user_id":148,"name":"Firebreak Doing Contracts","steam_id":76561198009518178,"connected_time":1841000000000,"state":"active","ping":65},{"user_id":147,"name":"Kasimir","steam_id":76561198013840333,"connected_time":1921000000000,"state":"active","ping":86},{"user_id":132,"name":"ultralisk52","steam_id":76561198051666604,"connected_time":2983000000000,"state":"active","ping":60},{"user_id":173,"name":"The Cannon Man","steam_id":76561198058384335,"connected_time":461000000000,"state":"active","ping":118},{"user_id":165,"name":"100FootTallGoose","steam_id":76561198056611082,"connected_time":905000000000,"state":"active","ping":81},{"user_id":104,"name":"Astoriae!","steam_id":76561199090168858,"connected_time":4975000000000,"state":"active","ping":73},{"user_id":152,"name":"Maverick","steam_id":76561198322829814,"connected_time":1144000000000,"state":"active","ping":82},{"user_id":163,"name":"DADDY ESCANOR","steam_id":76561198075102565,"connected_time":929000000000,"state":"active","ping":58},{"user_id":154,"name":"chomp","steam_id":76561198886705498,"connected_time":1120000000000,"state":"active","ping":51},{"user_id":164,"name":"Mephistopheles","steam_id":76561198253731826,"connected_time":926000000000,"state":"active","ping":80},{"user_id":167,"name":"Sentry Gun (American)","steam_id":76561198313770809,"connected_time":858000000000,"state":"active","ping":68},{"user_id":174,"name":"㋛ countblanc","steam_id":76561197993171771,"connected_time":398000000000,"state":"active","ping":51},{"user_id":141,"name":"Heathcliff","steam_id":76561198044288534,"connected_time":2383000000000,"state":"active","ping":98},{"user_id":124,"name":"A Dodge Challenger","steam_id":76561198097978317,"connected_time":3674000000000,"state":"active","ping":76},{"user_id":171,"name":"krueger","steam_id":76561198268654031,"connected_time":611000000000,"state":"active","ping":53}]},{"server_id":106,"name":"Uncletopia | Chicago | 2 | All Maps","name_short":"chi-2","host":"chi-1.us.uncletopia.com","port":27025,"enabled":true,"region":"us-central","cc":"us","latitude":41.881832,"longitude":-87.62318,"reserved":0,"last_update":"0001-01-01T00:00:00Z","name_a2s":"Uncletopia | Chicago | 2 | All Maps","protocol":17,"map":"pl_barnblitz","folder":"tf","game":"Team Fortress","app_id":440,"player_count":24,"max_players":24,"Bots":0,"server_type":"Dedicated","server_os":"Linux","password":true,"vac":true,"version":"7961495","steam_id":85568392924469985,"keywords":["nocrits","nodmgspread","payload","uncletopia"],"game_id":440,"stv_port":27026,"stv_name":"Uncletopia | Chicago | 2 | All Maps | STV","players":[{"user_id":87,"name":"GreatTimBones","steam_id":76561198409145748,"connected_time":4759000000000,"state":"active","ping":85},{"user_id":97,"name":"HanakoToast","steam_id":76561198045233131,"connected_time":3402000000000,"state":"active","ping":100},{"user_id":104,"name":"Wafflehead","steam_id":76561198053539741,"connected_time":3243000000000,"state":"active","ping":75},{"user_id":124,"name":"stungoperation","steam_id":76561199162409918,"connected_time":1846000000000,"state":"active","ping":109},{"user_id":142,"name":"Harrier \"Harry\" du Bois","steam_id":76561198435876131,"connected_time":832000000000,"state":"active","ping":64},{"user_id":77,"name":"I shovel mayonnaise in mouth","steam_id":76561199123118241,"connected_time":5351000000000,"state":"active","ping":106},{"user_id":138,"name":"obamascout","steam_id":76561199073972797,"connected_time":1441000000000,"state":"active","ping":103},{"user_id":143,"name":"ardilla","steam_id":76561199104556891,"connected_time":831000000000,"state":"active","ping":53},{"user_id":93,"name":"Orijinal","steam_id":76561198044709519,"connected_time":4142000000000,"state":"active","ping":54},{"user_id":149,"name":"Ice dispenser(real)","steam_id":76561198298310744,"connected_time":187000000000,"state":"active","ping":86},{"user_id":126,"name":"NOT A FLYING TOY","steam_id":76561198069735882,"connected_time":1832000000000,"state":"active","ping":76},{"user_id":144,"name":"6t26j","steam_id":76561198278282836,"connected_time":812000000000,"state":"active","ping":59},{"user_id":147,"name":"HemoTox","steam_id":76561197999713466,"connected_time":760000000000,"state":"active","ping":70},{"user_id":148,"name":"Galaxy_42","steam_id":76561198845514831,"connected_time":611000000000,"state":"active","ping":71},{"user_id":108,"name":"Stryder","steam_id":76561199387418697,"connected_time":3120000000000,"state":"active","ping":89},{"user_id":116,"name":"Yackaboi","steam_id":76561199444911765,"connected_time":2477000000000,"state":"active","ping":94},{"user_id":120,"name":"A_Plush","steam_id":76561198147582451,"connected_time":1985000000000,"state":"active","ping":65},{"user_id":128,"name":"eipi","steam_id":76561199084492097,"connected_time":1808000000000,"state":"active","ping":76},{"user_id":135,"name":"TheGrassMan (He/Him)","steam_id":76561198118984048,"connected_time":1680000000000,"state":"active","ping":57},{"user_id":129,"name":"Cuddle Bunny \u003c3","steam_id":76561198045525598,"connected_time":1807000000000,"state":"active","ping":62},{"user_id":150,"name":"wayffles","steam_id":76561198044032876,"connected_time":83000000000,"state":"active","ping":71},{"user_id":145,"name":"Garth","steam_id":76561198170173453,"connected_time":810000000000,"state":"active","ping":77},{"user_id":141,"name":"Dr Smeggman","steam_id":76561197966614845,"connected_time":895000000000,"state":"active","ping":138},{"user_id":146,"name":"Saul Goodman","steam_id":76561198958881101,"connected_time":792000000000,"state":"active","ping":88}]},{"server_id":402,"name":"Uncletopia | Chicago | 3 | All Maps","name_short":"chi-3","host":"chi-1.us.uncletopia.com","port":27035,"enabled":true,"region":"us-central","cc":"us","latitude":41.881832,"longitude":-87.62318,"reserved":0,"last_update":"0001-01-01T00:00:00Z","name_a2s":"Uncletopia | Chicago | 3 | All Maps","protocol":17,"map":"pl_frontier_final","folder":"tf","game":"Team Fortress","app_id":440,"player_count":24,"max_players":24,"Bots":0,"server_type":"Dedicated","server_os":"Linux","password":true,"vac":true,"version":"7961495","steam_id":85568392924515191,"keywords":["nocrits","nodmgspread","payload","uncletopia"],"game_id":440,"stv_port":27036,"stv_name":"Uncletopia | Chicago | 3 | All Maps | STV","players":[{"user_id":127,"name":"jaykay","steam_id":76561199013604285,"connected_time":937000000000,"state":"active","ping":62},{"user_id":89,"name":"manbearswineflu","steam_id":76561198083945137,"connected_time":3797000000000,"state":"active","ping":89},{"user_id":5,"name":"corntent","steam_id":76561198824847948,"connected_time":9259000000000,"state":"active","ping":59},{"user_id":119,"name":"notdoxed","steam_id":76561197992591404,"connected_time":1850000000000,"state":"active","ping":47},{"user_id":90,"name":"The Engineer Is Engi-Here","steam_id":76561198027487285,"connected_time":3766000000000,"state":"active","ping":106},{"user_id":106,"name":"2JZ_","steam_id":76561198064027289,"connected_time":3126000000000,"state":"active","ping":80},{"user_id":49,"name":"Kantamoe","steam_id":76561198046661611,"connected_time":7221000000000,"state":"active","ping":89},{"user_id":128,"name":"yes daddy","steam_id":76561198166100997,"connected_time":937000000000,"state":"active","ping":76},{"user_id":108,"name":"punk cock","steam_id":76561198418182764,"connected_time":3077000000000,"state":"active","ping":67},{"user_id":136,"name":"Gaming","steam_id":76561198107080532,"connected_time":545000000000,"state":"active","ping":63},{"user_id":107,"name":"trianamarco780","steam_id":76561199084319677,"connected_time":3113000000000,"state":"active","ping":132},{"user_id":141,"name":"No Chance of Pearly Gates","steam_id":76561198042570322,"connected_time":65000000000,"state":"active","ping":90},{"user_id":133,"name":"I shit myself","steam_id":76561199174310124,"connected_time":860000000000,"state":"active","ping":96},{"user_id":96,"name":"Novu","steam_id":76561198886997024,"connected_time":3436000000000,"state":"active","ping":92},{"user_id":131,"name":"pickup truck with huge honks","steam_id":76561198111447214,"connected_time":927000000000,"state":"active","ping":81},{"user_id":97,"name":"minecraft","steam_id":76561198104345201,"connected_time":3436000000000,"state":"active","ping":66},{"user_id":98,"name":"RuinLucky","steam_id":76561199481172481,"connected_time":3423000000000,"state":"active","ping":99},{"user_id":121,"name":"Mads Mikkelsen","steam_id":76561198083482001,"connected_time":1579000000000,"state":"active","ping":136},{"user_id":61,"name":"Rat God","steam_id":76561198066161598,"connected_time":6964000000000,"state":"active","ping":57},{"user_id":122,"name":"Philo","steam_id":76561198061873341,"connected_time":1568000000000,"state":"active","ping":95},{"user_id":137,"name":"Gah'Lagah","steam_id":76561198053715847,"connected_time":503000000000,"state":"active","ping":68},{"user_id":135,"name":"REAL LAOZI","steam_id":76561198326944980,"connected_time":782000000000,"state":"active","ping":82},{"user_id":126,"name":"boo_thefeared","steam_id":76561198127967685,"connected_time":1284000000000,"state":"active","ping":145},{"user_id":138,"name":"XpHunter97","steam_id":76561198280892905,"connected_time":453000000000,"state":"active","ping":91}]},{"server_id":403,"name":"Uncletopia | Chicago | 4 | All Maps","name_short":"chi-4","host":"chi-1.us.uncletopia.com","port":27045,"enabled":true,"region":"us-central","cc":"us","latitude":41.881832,"longitude":-87.62318,"reserved":0,"last_update":"0001-01-01T00:00:00Z","name_a2s":"Uncletopia | Chicago | 4 | All Maps","protocol":17,"map":"pl_barnblitz","folder":"tf","game":"Team Fortress","app_id":440,"player_count":24,"max_players":24,"Bots":0,"server_type":"Dedicated","server_os":"Linux","password":true,"vac":true,"version":"7961495","steam_id":85568392924515193,"keywords":["nocrits","nodmgspread","payload","uncletopia"],"game_id":440,"stv_port":27046,"stv_name":"Uncletopia | Chicago | 4 | All Maps | STV","players":[{"user_id":154,"name":"Borri","steam_id":76561198094827584,"connected_time":1047000000000,"state":"active","ping":98},{"user_id":153,"name":"nomis","steam_id":76561198115367704,"connected_time":1129000000000,"state":"active","ping":82},{"user_id":136,"name":"Mally","steam_id":76561198025013765,"connected_time":1746000000000,"state":"active","ping":92},{"user_id":156,"name":"Crouching Noob Hidden Sniper","steam_id":76561197971328473,"connected_time":496000000000,"state":"active","ping":91},{"user_id":139,"name":"turnip","steam_id":76561197999375941,"connected_time":1684000000000,"state":"active","ping":82},{"user_id":163,"name":"Breach","steam_id":76561198045060392,"connected_time":296000000000,"state":"active","ping":45},{"user_id":129,"name":"V","steam_id":76561198057374871,"connected_time":3123000000000,"state":"active","ping":64},{"user_id":124,"name":"Ellis McGruber","steam_id":76561198060739536,"connected_time":3375000000000,"state":"active","ping":72},{"user_id":103,"name":"Keymaster","steam_id":76561198881514228,"connected_time":4595000000000,"state":"active","ping":83},{"user_id":159,"name":"7thelden","steam_id":76561198297428761,"connected_time":431000000000,"state":"active","ping":70},{"user_id":158,"name":"QuakAtack","steam_id":76561198870770157,"connected_time":472000000000,"state":"active","ping":75},{"user_id":155,"name":"wheresgeorge","steam_id":76561198986281248,"connected_time":950000000000,"state":"active","ping":90},{"user_id":63,"name":"Unk","steam_id":76561198031717617,"connected_time":6996000000000,"state":"active","ping":55},{"user_id":128,"name":"Chunk Stuffer","steam_id":76561198856508573,"connected_time":3235000000000,"state":"active","ping":67},{"user_id":151,"name":"DeSynthed","steam_id":76561198098768007,"connected_time":1272000000000,"state":"active","ping":107},{"user_id":149,"name":"crankshaft","steam_id":76561197992798282,"connected_time":1430000000000,"state":"active","ping":99},{"user_id":147,"name":"Sprinklingmydoughnut","steam_id":76561198168009092,"connected_time":1528000000000,"state":"active","ping":93},{"user_id":125,"name":"glonk","steam_id":76561198162544699,"connected_time":3340000000000,"state":"active","ping":63},{"user_id":162,"name":"Cyber Cylon","steam_id":76561198048972781,"connected_time":307000000000,"state":"active","ping":69},{"user_id":92,"name":"crystalgamerag","steam_id":76561198140553724,"connected_time":6033000000000,"state":"active","ping":76},{"user_id":160,"name":"metal fingers","steam_id":76561198823526581,"connected_time":422000000000,"state":"active","ping":73},{"user_id":146,"name":"Tethered","steam_id":76561199237582239,"connected_time":1541000000000,"state":"active","ping":96},{"user_id":37,"name":"conner","steam_id":76561198052911241,"connected_time":8506000000000,"state":"active","ping":77},{"user_id":165,"name":"Shady Businessman","steam_id":76561198143855968,"connected_time":113000000000,"state":"active","ping":92}]},{"server_id":36,"name":"Uncletopia | Chicago | 5 | All Maps","name_short":"chi-5","host":"chi-2.us.uncletopia.com","port":27015,"enabled":true,"region":"us-central","cc":"us","latitude":41.881832,"longitude":-87.62318,"reserved":0,"last_update":"0001-01-01T00:00:00Z","name_a2s":"Uncletopia | Chicago | 5 | All Maps","protocol":17,"map":"pl_borneo","folder":"tf","game":"Team Fortress","app_id":440,"player_count":24,"max_players":24,"Bots":0,"server_type":"Dedicated","server_os":"Linux","password":true,"vac":true,"version":"7961495","steam_id":85568392924866362,"keywords":["nocrits","nodmgspread","payload","uncletopia"],"game_id":440,"stv_port":27016,"stv_name":"Uncletopia | Chicago | 5 | All Maps | STV","players":[{"user_id":39,"name":"p_picklelol","steam_id":76561198129434533,"connected_time":4876000000000,"state":"active","ping":61},{"user_id":9,"name":"Digitic","steam_id":76561198080295536,"connected_time":6352000000000,"state":"active","ping":75},{"user_id":10,"name":"DoubleX2000","steam_id":76561198164134387,"connected_time":6342000000000,"state":"active","ping":115},{"user_id":87,"name":"ooidial","steam_id":76561199086221916,"connected_time":369000000000,"state":"active","ping":76},{"user_id":80,"name":"Johnny Lawrence #JohnnyMaxxing","steam_id":76561199367141671,"connected_time":744000000000,"state":"active","ping":60},{"user_id":85,"name":"jeremy_wreckage 1337","steam_id":76561198206943507,"connected_time":457000000000,"state":"active","ping":57},{"user_id":82,"name":"xochiquetzal","steam_id":76561199064278937,"connected_time":713000000000,"state":"active","ping":67},{"user_id":56,"name":"Dankimus3607","steam_id":76561198089083940,"connected_time":3022000000000,"state":"active","ping":116},{"user_id":20,"name":"Yayifications","steam_id":76561198066227208,"connected_time":5345000000000,"state":"active","ping":61},{"user_id":43,"name":"DingDongAnalog","steam_id":76561198850181994,"connected_time":4528000000000,"state":"active","ping":114},{"user_id":22,"name":"Toa of Time","steam_id":76561198086867556,"connected_time":5325000000000,"state":"active","ping":105},{"user_id":23,"name":"SneakySneak","steam_id":76561198064847921,"connected_time":5322000000000,"state":"active","ping":73},{"user_id":46,"name":"[TF2Apples] Intense Green Apple","steam_id":76561198803561622,"connected_time":3960000000000,"state":"active","ping":87},{"user_id":48,"name":"jolo","steam_id":76561198042831480,"connected_time":3858000000000,"state":"active","ping":73},{"user_id":41,"name":"Seven","steam_id":76561198259947055,"connected_time":4643000000000,"state":"active","ping":42},{"user_id":88,"name":"Sous-Chef","steam_id":76561198075705827,"connected_time":30000000000,"state":"active","ping":77},{"user_id":60,"name":"Speedy","steam_id":76561198080761661,"connected_time":3012000000000,"state":"active","ping":82},{"user_id":84,"name":"flm","steam_id":76561198144052860,"connected_time":705000000000,"state":"active","ping":86},{"user_id":65,"name":"Shrebbie","steam_id":76561198875230824,"connected_time":2753000000000,"state":"active","ping":58},{"user_id":74,"name":"gayest MF DOOM fan","steam_id":76561198065801979,"connected_time":1386000000000,"state":"active","ping":76},{"user_id":68,"name":"slep.py","steam_id":76561197988287144,"connected_time":2329000000000,"state":"active","ping":55},{"user_id":35,"name":"UpInTheAir89","steam_id":76561198010851778,"connected_time":4998000000000,"state":"active","ping":73},{"user_id":57,"name":"✧･ﾟhooligan!!","steam_id":76561198874149130,"connected_time":3020000000000,"state":"active","ping":74},{"user_id":63,"name":"Several Ducks","steam_id":76561198010667854,"connected_time":2910000000000,"state":"active","ping":90}]},{"server_id":37,"name":"Uncletopia | Chicago | 6 | All Maps","name_short":"chi-6","host":"chi-2.us.uncletopia.com","port":27025,"enabled":true,"region":"us-central","cc":"us","latitude":41.881832,"longitude":-87.62318,"reserved":0,"last_update":"0001-01-01T00:00:00Z","name_a2s":"Uncletopia | Chicago | 6 | All Maps","protocol":17,"map":"cp_sunshine","folder":"tf","game":"Team Fortress","app_id":440,"player_count":24,"max_players":24,"Bots":0,"server_type":"Dedicated","server_os":"Linux","password":true,"vac":true,"version":"7961495","steam_id":85568392924866363,"keywords":["cp","nocrits","nodmgspread","uncletopia"],"game_id":440,"stv_port":27026,"stv_name":"Uncletopia | Chicago | 6 | All Maps | STV","players":[{"user_id":107,"name":"jan kili","steam_id":76561198289894834,"connected_time":3212000000000,"state":"active","ping":62},{"user_id":141,"name":"Crazy__Biscuit","steam_id":76561198399851872,"connected_time":1341000000000,"state":"active","ping":54},{"user_id":144,"name":"BlueToffe","steam_id":76561198295178024,"connected_time":885000000000,"state":"active","ping":62},{"user_id":158,"name":"Owl Pacino","steam_id":76561197979970666,"connected_time":675000000000,"state":"active","ping":54},{"user_id":132,"name":"FRANKIEonPCP","steam_id":76561198208451949,"connected_time":1814000000000,"state":"active","ping":81},{"user_id":179,"name":"Bullwinkle J. Moose","steam_id":76561198075977196,"connected_time":160000000000,"state":"active","ping":76},{"user_id":147,"name":"Danmar33","steam_id":76561198056453091,"connected_time":829000000000,"state":"active","ping":83},{"user_id":168,"name":"LocaKola","steam_id":76561198173435430,"connected_time":500000000000,"state":"active","ping":79},{"user_id":65,"name":"Yam Jazzy Jim","steam_id":76561198000788950,"connected_time":5825000000000,"state":"active","ping":66},{"user_id":148,"name":"Induce Salt","steam_id":76561198116645978,"connected_time":822000000000,"state":"active","ping":89},{"user_id":79,"name":"Piyono","steam_id":76561197962188504,"connected_time":4748000000000,"state":"active","ping":71},{"user_id":105,"name":"nemesis","steam_id":76561198115050507,"connected_time":3385000000000,"state":"active","ping":75},{"user_id":150,"name":"Soldier","steam_id":76561199078537280,"connected_time":798000000000,"state":"active","ping":72},{"user_id":134,"name":"CanuckRabbit","steam_id":76561198112959489,"connected_time":1731000000000,"state":"active","ping":73},{"user_id":113,"name":"Monterfart","steam_id":76561198125034271,"connected_time":2785000000000,"state":"active","ping":75},{"user_id":151,"name":"viedoamges","steam_id":76561198025295263,"connected_time":783000000000,"state":"active","ping":80},{"user_id":155,"name":"Gnum","steam_id":76561197963046358,"connected_time":748000000000,"state":"active","ping":69},{"user_id":119,"name":"SnakeBrine","steam_id":76561198162007787,"connected_time":2641000000000,"state":"active","ping":78},{"user_id":142,"name":"MasKingDark","steam_id":76561198820069625,"connected_time":1020000000000,"state":"active","ping":84},{"user_id":153,"name":"where am i","steam_id":76561198036916669,"connected_time":777000000000,"state":"active","ping":78},{"user_id":154,"name":"[as] Toonami Tom","steam_id":76561198104939712,"connected_time":771000000000,"state":"active","ping":70},{"user_id":160,"name":"ole_diggy","steam_id":76561198970212746,"connected_time":633000000000,"state":"active","ping":69},{"user_id":178,"name":"smooth brain","steam_id":76561198049253541,"connected_time":177000000000,"state":"active","ping":62},{"user_id":157,"name":"Siren","steam_id":76561198047395823,"connected_time":721000000000,"state":"active","ping":81}]},{"server_id":38,"name":"Uncletopia | Chicago | 7 | Stopwatch Beta","name_short":"chi-7","host":"chi-2.us.uncletopia.com","port":27035,"enabled":true,"region":"us-central","cc":"us","latitude":41.881832,"longitude":-87.62318,"reserved":0,"last_update":"0001-01-01T00:00:00Z","name_a2s":"Uncletopia | Chicago | 7 | Stopwatch Beta","protocol":17,"map":"cp_granary","folder":"tf","game":"Team Fortress","app_id":440,"player_count":0,"max_players":24,"Bots":0,"server_type":"Dedicated","server_os":"Linux","password":true,"vac":true,"version":"7961495","steam_id":85568392924866364,"keywords":["cp","nocrits","nodmgspread","uncletopia"],"game_id":440,"stv_port":27036,"stv_name":"Uncletopia | Chicago | 7 | Stopwatch Beta | STV","players":null},{"server_id":39,"name":"Uncletopia | Chicago | 8 | Community","name_short":"chi-8","host":"chi-2.us.uncletopia.com","port":27045,"enabled":true,"region":"us-central","cc":"us","latitude":41.881832,"longitude":-87.62318,"reserved":0,"last_update":"0001-01-01T00:00:00Z","name_a2s":"Uncletopia | Chicago | 8 | Community","protocol":17,"map":"workshop/pl_eruption_b9a.ugc2807898013","folder":"tf","game":"Team Fortress","app_id":440,"player_count":24,"max_players":24,"Bots":0,"server_type":"Dedicated","server_os":"Linux","password":true,"vac":true,"version":"7961495","steam_id":85568392924866365,"keywords":["nocrits","nodmgspread","payload","uncletopia"],"game_id":440,"stv_port":27046,"stv_name":"Uncletopia | Chicago | 8 | Community | STV","players":[{"user_id":104,"name":"White_Wizard_Named_Corona","steam_id":76561198055652735,"connected_time":944000000000,"state":"active","ping":100},{"user_id":108,"name":"Skeleton Hotel","steam_id":76561198041704727,"connected_time":600000000000,"state":"active","ping":74},{"user_id":88,"name":"void","steam_id":76561198107501413,"connected_time":2163000000000,"state":"active","ping":40},{"user_id":96,"name":"Tom","steam_id":76561198070630154,"connected_time":1446000000000,"state":"active","ping":89},{"user_id":91,"name":"King's Disease","steam_id":76561198076639682,"connected_time":2004000000000,"state":"active","ping":76},{"user_id":92,"name":"Joker","steam_id":76561198077583446,"connected_time":1790000000000,"state":"active","ping":87},{"user_id":97,"name":"why the wig?","steam_id":76561199084109885,"connected_time":1167000000000,"state":"active","ping":68},{"user_id":100,"name":"LudicrousRed","steam_id":76561199047437703,"connected_time":1150000000000,"state":"active","ping":81},{"user_id":98,"name":"Squope","steam_id":76561198983129293,"connected_time":1166000000000,"state":"active","ping":78},{"user_id":106,"name":"gorf?","steam_id":76561198142286417,"connected_time":685000000000,"state":"active","ping":90},{"user_id":79,"name":"kitchen goblin","steam_id":76561198271710504,"connected_time":2268000000000,"state":"active","ping":58},{"user_id":102,"name":"John Taxenfraud","steam_id":76561199011358805,"connected_time":1067000000000,"state":"active","ping":82},{"user_id":81,"name":"floral incandescent porpoises","steam_id":76561198172454407,"connected_time":2250000000000,"state":"active","ping":79},{"user_id":27,"name":"Purchase","steam_id":76561198821991700,"connected_time":5834000000000,"state":"active","ping":74},{"user_id":95,"name":"EmeraldCola","steam_id":76561198066663687,"connected_time":1524000000000,"state":"active","ping":71},{"user_id":72,"name":"ShadowDragon0125","steam_id":76561198343849022,"connected_time":2796000000000,"state":"active","ping":76},{"user_id":63,"name":"Sunflower","steam_id":76561198081223793,"connected_time":3630000000000,"state":"active","ping":50},{"user_id":99,"name":"Mr. Call You Back","steam_id":76561198025172811,"connected_time":1157000000000,"state":"active","ping":59},{"user_id":110,"name":"Doctor Glocktorpus [NGC]","steam_id":76561198049194645,"connected_time":201000000000,"state":"active","ping":77},{"user_id":64,"name":"GreekGoat_Coffee","steam_id":76561198129331088,"connected_time":3606000000000,"state":"active","ping":49},{"user_id":65,"name":"green bean","steam_id":76561198113099204,"connected_time":3604000000000,"state":"active","ping":86},{"user_id":84,"name":"Rose","steam_id":76561198020936286,"connected_time":2221000000000,"state":"active","ping":113},{"user_id":85,"name":"LynBoByn","steam_id":76561198052911142,"connected_time":2204000000000,"state":"active","ping":62},{"user_id":86,"name":"ATL1 | SparkStorm","steam_id":76561198095817025,"connected_time":2202000000000,"state":"active","ping":61}]},{"server_id":8,"name":"Uncletopia | Dallas | 1 | All Maps","name_short":"dal-1","host":"dal-1.us.uncletopia.com","port":27015,"enabled":true,"region":"us-central","cc":"us","latitude":32.779167,"longitude":-96.80889,"reserved":0,"last_update":"0001-01-01T00:00:00Z","name_a2s":"Uncletopia | Dallas | 1 | All Maps","protocol":17,"map":"pl_upward","folder":"tf","game":"Team Fortress","app_id":440,"player_count":24,"max_players":24,"Bots":0,"server_type":"Dedicated","server_os":"Linux","password":true,"vac":true,"version":"7961495","steam_id":85568392924469986,"keywords":["nocrits","nodmgspread","payload","uncletopia"],"game_id":440,"stv_port":27016,"stv_name":"Uncletopia | Dallas | 1 | All Maps | STV","players":[{"user_id":105,"name":"Jean Deere","steam_id":76561198105101309,"connected_time":2247000000000,"state":"active","ping":97},{"user_id":136,"name":"LORDO","steam_id":76561198044824675,"connected_time":490000000000,"state":"active","ping":80},{"user_id":130,"name":"nerf fren","steam_id":76561198011363677,"connected_time":1139000000000,"state":"active","ping":63},{"user_id":118,"name":"dr. mal practice","steam_id":76561198042003968,"connected_time":2068000000000,"state":"active","ping":44},{"user_id":101,"name":"Jeff","steam_id":76561198050929005,"connected_time":2483000000000,"state":"active","ping":83},{"user_id":109,"name":"laaghice","steam_id":76561198274021552,"connected_time":2193000000000,"state":"active","ping":54},{"user_id":79,"name":"Alkimia","steam_id":76561198385763137,"connected_time":5001000000000,"state":"active","ping":129},{"user_id":137,"name":"ducky","steam_id":76561198007764271,"connected_time":58000000000,"state":"active","ping":53},{"user_id":140,"name":"flippercurve","steam_id":76561199238295034,"connected_time":32000000000,"state":"active","ping":80},{"user_id":104,"name":"Angry Ginger","steam_id":76561198256929349,"connected_time":2303000000000,"state":"active","ping":79},{"user_id":141,"name":"Oogle","steam_id":76561198041815877,"connected_time":26000000000,"state":"spawning","ping":74},{"user_id":129,"name":"sih3","steam_id":76561198081462396,"connected_time":1377000000000,"state":"active","ping":55},{"user_id":117,"name":"Handsome Pete","steam_id":76561198003224229,"connected_time":2088000000000,"state":"active","ping":89},{"user_id":112,"name":"Sanshi","steam_id":76561198145823543,"connected_time":2143000000000,"state":"active","ping":167},{"user_id":123,"name":"leesh","steam_id":76561198079603938,"connected_time":1764000000000,"state":"active","ping":60},{"user_id":142,"name":"Harufloofer","steam_id":76561199084506827,"connected_time":12000000000,"state":"spawning","ping":44},{"user_id":131,"name":"chesterwnimitz","steam_id":76561198062664377,"connected_time":1089000000000,"state":"active","ping":81},{"user_id":134,"name":"tooba","steam_id":76561198202589758,"connected_time":887000000000,"state":"active","ping":76},{"user_id":86,"name":"radicalPolio","steam_id":76561197961561855,"connected_time":4033000000000,"state":"active","ping":45},{"user_id":133,"name":"Manic","steam_id":76561198128149670,"connected_time":1007000000000,"state":"active","ping":50},{"user_id":97,"name":"Bogey","steam_id":76561198096227944,"connected_time":2976000000000,"state":"active","ping":46},{"user_id":126,"name":"harold","steam_id":76561199016285746,"connected_time":1629000000000,"state":"active","ping":63},{"user_id":138,"name":"Imrgrim","steam_id":76561198135866481,"connected_time":57000000000,"state":"active","ping":72},{"user_id":139,"name":"yes","steam_id":76561199226277457,"connected_time":57000000000,"state":"active","ping":75}]},{"server_id":108,"name":"Uncletopia | Dallas | 2 | All Maps","name_short":"dal-2","host":"dal-1.us.uncletopia.com","port":27025,"enabled":true,"region":"us-central","cc":"us","latitude":32.779167,"longitude":-96.80889,"reserved":0,"last_update":"0001-01-01T00:00:00Z","name_a2s":"Uncletopia | Dallas | 2 | All Maps","protocol":17,"map":"cp_mountainlab","folder":"tf","game":"Team Fortress","app_id":440,"player_count":24,"max_players":24,"Bots":0,"server_type":"Dedicated","server_os":"Linux","password":true,"vac":true,"version":"7961495","steam_id":85568392924469988,"keywords":["cp","nocrits","nodmgspread","uncletopia"],"game_id":440,"stv_port":27026,"stv_name":"Uncletopia | Dallas | 2 | All Maps | STV","players":[{"user_id":125,"name":"ShukSama","steam_id":76561198322357608,"connected_time":1032000000000,"state":"active","ping":79},{"user_id":97,"name":"Insizhen","steam_id":76561198051352605,"connected_time":2469000000000,"state":"active","ping":59},{"user_id":100,"name":"Hobbes","steam_id":76561197967448497,"connected_time":2233000000000,"state":"active","ping":77},{"user_id":126,"name":"UNCLE RUCKUS","steam_id":76561199380604147,"connected_time":1017000000000,"state":"active","ping":81},{"user_id":108,"name":"Try Gardening","steam_id":76561198120311340,"connected_time":1771000000000,"state":"active","ping":71},{"user_id":131,"name":"webaline :3","steam_id":76561199052450127,"connected_time":714000000000,"state":"active","ping":75},{"user_id":121,"name":"Rusty-dora","steam_id":76561198315631796,"connected_time":1211000000000,"state":"active","ping":87},{"user_id":109,"name":"Argon","steam_id":76561199254804349,"connected_time":1760000000000,"state":"active","ping":90},{"user_id":91,"name":"HeroOfTime","steam_id":76561199096218001,"connected_time":2739000000000,"state":"active","ping":82},{"user_id":128,"name":"SmokyDank","steam_id":76561198045782886,"connected_time":759000000000,"state":"active","ping":100},{"user_id":110,"name":"paypur -rng","steam_id":76561198214370515,"connected_time":1748000000000,"state":"active","ping":85},{"user_id":134,"name":"Nodspine","steam_id":76561198253579994,"connected_time":582000000000,"state":"active","ping":130},{"user_id":124,"name":"Sacknana","steam_id":76561199001811226,"connected_time":1046000000000,"state":"active","ping":59},{"user_id":112,"name":"morbidly a beast","steam_id":76561198061653298,"connected_time":1729000000000,"state":"active","ping":92},{"user_id":118,"name":"TheAilingSword","steam_id":76561198250350844,"connected_time":1473000000000,"state":"active","ping":58},{"user_id":90,"name":"hforce11","steam_id":76561198087647130,"connected_time":2755000000000,"state":"active","ping":65},{"user_id":132,"name":"Sworddemonboggle","steam_id":76561198295526535,"connected_time":697000000000,"state":"active","ping":93},{"user_id":84,"name":"Kng","steam_id":76561198993248203,"connected_time":3677000000000,"state":"active","ping":100},{"user_id":105,"name":"Jonah Hill from 21 Jump Street","steam_id":76561198811130843,"connected_time":1828000000000,"state":"active","ping":114},{"user_id":122,"name":"Yvette420","steam_id":76561199472888498,"connected_time":1161000000000,"state":"active","ping":102},{"user_id":36,"name":"CryshireWithAK","steam_id":76561198857908089,"connected_time":7489000000000,"state":"active","ping":102},{"user_id":133,"name":"Wang of Wall St","steam_id":76561198047460598,"connected_time":657000000000,"state":"active","ping":99},{"user_id":127,"name":"ATL1| laxthecar","steam_id":76561199020449059,"connected_time":776000000000,"state":"active","ping":54},{"user_id":123,"name":"creeeeeee","steam_id":76561198392539722,"connected_time":1109000000000,"state":"active","ping":86}]},{"server_id":404,"name":"Uncletopia | Dallas | 3 | All Maps","name_short":"dal-3","host":"dal-1.us.uncletopia.com","port":27035,"enabled":true,"region":"us-central","cc":"us","latitude":32.779167,"longitude":-96.80889,"reserved":0,"last_update":"0001-01-01T00:00:00Z","name_a2s":"Uncletopia | Dallas | 3 | All Maps","protocol":17,"map":"cp_mountainlab","folder":"tf","game":"Team Fortress","app_id":440,"player_count":24,"max_players":24,"Bots":0,"server_type":"Dedicated","server_os":"Linux","password":true,"vac":true,"version":"7961495","steam_id":85568392924515219,"keywords":["cp","nocrits","nodmgspread","uncletopia"],"game_id":440,"stv_port":27036,"stv_name":"Uncletopia | Dallas | 3 | All Maps | STV","players":[{"user_id":65,"name":"Jesse Bear","steam_id":76561198217075305,"connected_time":2668000000000,"state":"active","ping":94},{"user_id":11,"name":"Kyobi","steam_id":76561197998985111,"connected_time":6031000000000,"state":"active","ping":90},{"user_id":89,"name":"Scrumpy Main","steam_id":76561198146302597,"connected_time":59000000000,"state":"active","ping":82},{"user_id":86,"name":"Major Woody","steam_id":76561198835541533,"connected_time":469000000000,"state":"active","ping":76},{"user_id":90,"name":"Margo_Rae","steam_id":76561198035046430,"connected_time":10000000000,"state":"spawning","ping":81},{"user_id":63,"name":"Atomic Ursa","steam_id":76561198032246421,"connected_time":2673000000000,"state":"active","ping":101},{"user_id":41,"name":"Balor","steam_id":76561198180926835,"connected_time":4284000000000,"state":"active","ping":70},{"user_id":66,"name":"sebjzy ♥","steam_id":76561198009959034,"connected_time":2643000000000,"state":"active","ping":58},{"user_id":79,"name":"ms. capgras","steam_id":76561199080209996,"connected_time":1226000000000,"state":"active","ping":74},{"user_id":21,"name":"poopslapper33","steam_id":76561198294813506,"connected_time":5057000000000,"state":"active","ping":83},{"user_id":55,"name":"barker bill","steam_id":76561198018451994,"connected_time":3053000000000,"state":"active","ping":52},{"user_id":42,"name":"That Dude","steam_id":76561198980486227,"connected_time":4272000000000,"state":"active","ping":74},{"user_id":85,"name":"Kirby.exe","steam_id":76561198242714582,"connected_time":786000000000,"state":"active","ping":46},{"user_id":81,"name":"tydogzilla","steam_id":76561198054254518,"connected_time":1206000000000,"state":"active","ping":105},{"user_id":76,"name":"kimshwim","steam_id":76561198287933134,"connected_time":1494000000000,"state":"active","ping":85},{"user_id":67,"name":"Snivy","steam_id":76561198135488292,"connected_time":2284000000000,"state":"active","ping":77},{"user_id":77,"name":"Aegis","steam_id":76561198272052750,"connected_time":1251000000000,"state":"active","ping":80},{"user_id":82,"name":"your local forecast","steam_id":76561198042243083,"connected_time":1002000000000,"state":"active","ping":75},{"user_id":62,"name":"Olifont","steam_id":76561198141162919,"connected_time":2679000000000,"state":"active","ping":104},{"user_id":88,"name":"boof","steam_id":76561198218238705,"connected_time":427000000000,"state":"active","ping":56},{"user_id":84,"name":"Pan-Demonica","steam_id":76561198294350105,"connected_time":837000000000,"state":"active","ping":67},{"user_id":69,"name":"Tank Chili","steam_id":76561198161183031,"connected_time":2018000000000,"state":"active","ping":87},{"user_id":38,"name":"MantisToboggan","steam_id":76561197969447887,"connected_time":4363000000000,"state":"active","ping":147},{"user_id":87,"name":"Warmerfall","steam_id":76561198812218923,"connected_time":451000000000,"state":"active","ping":95}]},{"server_id":405,"name":"Uncletopia | Dallas | 4 | Community","name_short":"dal-4","host":"dal-1.us.uncletopia.com","port":27045,"enabled":true,"region":"us-central","cc":"us","latitude":32.779167,"longitude":-96.80889,"reserved":0,"last_update":"0001-01-01T00:00:00Z","name_a2s":"Uncletopia | Dallas | 4 | Community","protocol":17,"map":"koth_lakeside_final","folder":"tf","game":"Team Fortress","app_id":440,"player_count":0,"max_players":24,"Bots":0,"server_type":"Dedicated","server_os":"Linux","password":true,"vac":true,"version":"7961495","steam_id":85568392924515220,"keywords":["cp","nocrits","nodmgspread","uncletopia"],"game_id":440,"stv_port":27046,"stv_name":"Uncletopia | Dallas | 4 | Community | STV","players":null},{"server_id":5,"name":"Uncletopia | Frankfurt | 1 | All Maps","name_short":"frk-1","host":"frk-1.de.uncletopia.com","port":27015,"enabled":true,"region":"eu","cc":"de","latitude":50.110924,"longitude":8.682127,"reserved":0,"last_update":"0001-01-01T00:00:00Z","name_a2s":"Uncletopia | Frankfurt | 1 | All Maps","protocol":17,"map":"cp_snakewater_final1","folder":"tf","game":"Team Fortress","app_id":440,"player_count":24,"max_players":24,"Bots":0,"server_type":"Dedicated","server_os":"Linux","password":true,"vac":true,"version":"7961495","steam_id":85568392924469989,"keywords":["cp","nocrits","nodmgspread","uncletopia"],"game_id":440,"stv_port":27016,"stv_name":"Uncletopia | Frankfurt | 1 | All Maps | STV","players":[{"user_id":122,"name":"Kieranite","steam_id":76561198059607762,"connected_time":3708000000000,"state":"active","ping":60},{"user_id":152,"name":"Vinnidict","steam_id":76561198037087000,"connected_time":770000000000,"state":"active","ping":79},{"user_id":161,"name":"ronnoc11269","steam_id":76561199278450248,"connected_time":223000000000,"state":"active","ping":193},{"user_id":151,"name":"Dark|TBE","steam_id":76561199093438455,"connected_time":992000000000,"state":"active","ping":45},{"user_id":114,"name":"Piss Lord Moose","steam_id":76561199027129554,"connected_time":3968000000000,"state":"active","ping":142},{"user_id":153,"name":"Kanny","steam_id":76561198058810184,"connected_time":682000000000,"state":"active","ping":59},{"user_id":154,"name":"Toast","steam_id":76561199243331140,"connected_time":623000000000,"state":"active","ping":168},{"user_id":155,"name":"DDGAF","steam_id":76561198257836694,"connected_time":469000000000,"state":"active","ping":52},{"user_id":120,"name":"Jey Sus","steam_id":76561198129254533,"connected_time":3806000000000,"state":"active","ping":174},{"user_id":119,"name":"[HOL] Solringen","steam_id":76561198003584681,"connected_time":3820000000000,"state":"active","ping":71},{"user_id":156,"name":"CAR LOSER","steam_id":76561198235739036,"connected_time":406000000000,"state":"active","ping":67},{"user_id":157,"name":"rufoth","steam_id":76561198331749473,"connected_time":340000000000,"state":"active","ping":88},{"user_id":102,"name":"woop","steam_id":76561198985105074,"connected_time":5070000000000,"state":"active","ping":76},{"user_id":149,"name":"Arthur","steam_id":76561198066109166,"connected_time":1663000000000,"state":"active","ping":75},{"user_id":136,"name":"Meshers","steam_id":76561198260064322,"connected_time":3161000000000,"state":"active","ping":70},{"user_id":139,"name":"-kraft-","steam_id":76561198086695613,"connected_time":2387000000000,"state":"active","ping":80},{"user_id":158,"name":"skinacz","steam_id":76561198207474217,"connected_time":336000000000,"state":"active","ping":71},{"user_id":90,"name":"Sabour","steam_id":76561197963965445,"connected_time":5546000000000,"state":"active","ping":53},{"user_id":146,"name":"hardy","steam_id":76561198029228735,"connected_time":2090000000000,"state":"active","ping":62},{"user_id":150,"name":"Saber 0X1","steam_id":76561198090226093,"connected_time":1148000000000,"state":"active","ping":144},{"user_id":159,"name":"Rojapokemona","steam_id":76561198179925894,"connected_time":319000000000,"state":"active","ping":61},{"user_id":162,"name":"checkswing","steam_id":76561198999816132,"connected_time":222000000000,"state":"active","ping":161},{"user_id":138,"name":"A Succulent Chinese Meal","steam_id":76561198069472440,"connected_time":3067000000000,"state":"active","ping":63},{"user_id":97,"name":"FlammenwerferPanzer","steam_id":76561199096682977,"connected_time":5240000000000,"state":"active","ping":73}]},{"server_id":110,"name":"Uncletopia | Frankfurt | 2 | All Maps","name_short":"frk-2","host":"frk-1.de.uncletopia.com","port":27025,"enabled":true,"region":"eu","cc":"de","latitude":50.110924,"longitude":8.682127,"reserved":0,"last_update":"0001-01-01T00:00:00Z","name_a2s":"Uncletopia | Frankfurt | 2 | All Maps","protocol":17,"map":"plr_hightower","folder":"tf","game":"Team Fortress","app_id":440,"player_count":0,"max_players":24,"Bots":0,"server_type":"Dedicated","server_os":"Linux","password":true,"vac":true,"version":"7961495","steam_id":85568392924469990,"keywords":["nocrits","nodmgspread","payload","uncletopia"],"game_id":440,"stv_port":27026,"stv_name":"Uncletopia | Frankfurt | 2 | All Maps | STV","players":null},{"server_id":308,"name":"Uncletopia | Frankfurt | 3 | All Maps","name_short":"frk-3","host":"frk-1.de.uncletopia.com","port":27035,"enabled":true,"region":"eu","cc":"de","latitude":50.110924,"longitude":8.682127,"reserved":0,"last_update":"0001-01-01T00:00:00Z","name_a2s":"Uncletopia | Frankfurt | 3 | All Maps","protocol":17,"map":"koth_viaduct","folder":"tf","game":"Team Fortress","app_id":440,"player_count":0,"max_players":24,"Bots":0,"server_type":"Dedicated","server_os":"Linux","password":true,"vac":true,"version":"7961495","steam_id":85568392924504274,"keywords":["cp","nocrits","nodmgspread","uncletopia"],"game_id":440,"stv_port":27036,"stv_name":"Uncletopia | Frankfurt | 3 | All Maps | STV","players":null},{"server_id":309,"name":"Uncletopia | Frankfurt | 4 | All Maps","name_short":"frk-4","host":"frk-1.de.uncletopia.com","port":27045,"enabled":true,"region":"eu","cc":"de","latitude":50.110924,"longitude":8.682127,"reserved":0,"last_update":"0001-01-01T00:00:00Z","name_a2s":"Uncletopia | Frankfurt | 4 | All Maps","protocol":17,"map":"pl_barnblitz","folder":"tf","game":"Team Fortress","app_id":440,"player_count":0,"max_players":24,"Bots":0,"server_type":"Dedicated","server_os":"Linux","password":true,"vac":true,"version":"7961495","steam_id":85568392924504275,"keywords":["nocrits","nodmgspread","payload","uncletopia"],"game_id":440,"stv_port":27046,"stv_name":"Uncletopia | Frankfurt | 4 | All Maps | STV","players":null},{"server_id":310,"name":"Uncletopia | Frankfurt | 5 | All Maps","name_short":"frk-5","host":"frk-1.de.uncletopia.com","port":27055,"enabled":true,"region":"eu","cc":"de","latitude":50.110924,"longitude":8.682127,"reserved":0,"last_update":"0001-01-01T00:00:00Z","name_a2s":"Uncletopia | Frankfurt | 5 | All Maps","protocol":17,"map":"pl_swiftwater_final1","folder":"tf","game":"Team Fortress","app_id":440,"player_count":0,"max_players":24,"Bots":0,"server_type":"Dedicated","server_os":"Linux","password":true,"vac":true,"version":"7961495","steam_id":85568392924504277,"keywords":["nocrits","nodmgspread","payload","uncletopia"],"game_id":440,"stv_port":27056,"stv_name":"Uncletopia | Frankfurt | 5 | All Maps | STV","players":null},{"server_id":311,"name":"Uncletopia | Frankfurt | 6 | All Maps","name_short":"frk-6","host":"frk-1.de.uncletopia.com","port":27065,"enabled":true,"region":"eu","cc":"de","latitude":50.110924,"longitude":8.682127,"reserved":0,"last_update":"0001-01-01T00:00:00Z","name_a2s":"Uncletopia | Frankfurt | 6 | All Maps","protocol":17,"map":"pl_hoodoo_final","folder":"tf","game":"Team Fortress","app_id":440,"player_count":19,"max_players":24,"Bots":0,"server_type":"Dedicated","server_os":"Linux","password":true,"vac":true,"version":"7961495","steam_id":85568392924504278,"keywords":["nocrits","nodmgspread","payload","uncletopia"],"game_id":440,"stv_port":27066,"stv_name":"Uncletopia | Frankfurt | 6 | All Maps | STV","players":[{"user_id":115,"name":"Danoulus","steam_id":76561198840793596,"connected_time":425000000000,"state":"spawning","ping":23},{"user_id":4,"name":"Jon (ebic gamer)","steam_id":76561199380849468,"connected_time":9236000000000,"state":"spawning","ping":64},{"user_id":5,"name":"Bill Carr","steam_id":76561198110033943,"connected_time":9236000000000,"state":"spawning","ping":52},{"user_id":102,"name":"SIERRA1","steam_id":76561198231470280,"connected_time":1915000000000,"state":"spawning","ping":48},{"user_id":118,"name":"Qdarks","steam_id":76561198013391340,"connected_time":72000000000,"state":"spawning","ping":372},{"user_id":96,"name":"snowycoast","steam_id":76561198346638308,"connected_time":2686000000000,"state":"spawning","ping":235},{"user_id":59,"name":"Miss Bari (epik gamer)","steam_id":76561198365286092,"connected_time":6584000000000,"state":"spawning","ping":52},{"user_id":11,"name":"Marquis de Hoto","steam_id":76561198080687708,"connected_time":9178000000000,"state":"spawning","ping":51},{"user_id":100,"name":"Lyncurion","steam_id":76561199260022725,"connected_time":1931000000000,"state":"spawning","ping":63},{"user_id":15,"name":"Macoda","steam_id":76561198061487030,"connected_time":9078000000000,"state":"spawning","ping":77},{"user_id":48,"name":"Doctor Marijuana","steam_id":76561198288289879,"connected_time":7501000000000,"state":"spawning","ping":61},{"user_id":116,"name":"Rick Astley Is A F2P?","steam_id":76561199258805660,"connected_time":411000000000,"state":"spawning","ping":138},{"user_id":119,"name":"ay cabron","steam_id":76561198055552635,"connected_time":10000000000,"state":"spawning","ping":51},{"user_id":89,"name":"ratot","steam_id":76561198063132645,"connected_time":2995000000000,"state":"spawning","ping":50},{"user_id":75,"name":"SuntanPikachu","steam_id":76561198121242476,"connected_time":5313000000000,"state":"spawning","ping":97},{"user_id":94,"name":"pnh","steam_id":76561198264590662,"connected_time":2830000000000,"state":"spawning","ping":84},{"user_id":63,"name":"Suetolog","steam_id":76561199053090212,"connected_time":6532000000000,"state":"spawning","ping":63},{"user_id":95,"name":"IC 1101","steam_id":76561198127181171,"connected_time":2817000000000,"state":"spawning","ping":129}]},{"server_id":23,"name":"Uncletopia | Frankfurt | 7 | Stopwatch Beta","name_short":"frk-7","host":"frk-1.de.uncletopia.com","port":27075,"enabled":true,"region":"eu","cc":"de","latitude":50.110924,"longitude":8.682127,"reserved":0,"last_update":"0001-01-01T00:00:00Z","name_a2s":"Uncletopia | Frankfurt | 7 | Stopwatch Beta","protocol":17,"map":"pl_frontier_final","folder":"tf","game":"Team Fortress","app_id":440,"player_count":0,"max_players":24,"Bots":0,"server_type":"Dedicated","server_os":"Linux","password":true,"vac":true,"version":"7961495","steam_id":85568392924742827,"keywords":["nocrits","nodmgspread","payload","uncletopia"],"game_id":440,"stv_port":27076,"stv_name":"Uncletopia | Frankfurt | 7 | Stopwatch Beta | STV","players":null},{"server_id":24,"name":"Uncletopia | Frankfurt | 8 | Community","name_short":"frk-8","host":"frk-1.de.uncletopia.com","port":27085,"enabled":true,"region":"eu","cc":"de","latitude":50.110924,"longitude":8.682127,"reserved":0,"last_update":"0001-01-01T00:00:00Z","name_a2s":"Uncletopia | Frankfurt | 8 | Community","protocol":17,"map":"koth_highpass","folder":"tf","game":"Team Fortress","app_id":440,"player_count":0,"max_players":24,"Bots":0,"server_type":"Dedicated","server_os":"Linux","password":true,"vac":true,"version":"7961495","steam_id":85568392924742828,"keywords":["cp","nocrits","nodmgspread","uncletopia"],"game_id":440,"stv_port":27086,"stv_name":"Uncletopia | Frankfurt | 8 | Community | STV","players":null},{"server_id":202,"name":"Uncletopia | Hong Kong | 1 | All Maps","name_short":"hgk-1","host":"hgk-1.hk.uncletopia.com","port":27015,"enabled":true,"region":"asia","cc":"hk","latitude":22.302711,"longitude":114.177216,"reserved":0,"last_update":"0001-01-01T00:00:00Z","name_a2s":"Uncletopia | Hong Kong | 1 | All Maps","protocol":17,"map":"cp_dustbowl","folder":"tf","game":"Team Fortress","app_id":440,"player_count":0,"max_players":24,"Bots":0,"server_type":"Dedicated","server_os":"Linux","password":true,"vac":true,"version":"7961495","steam_id":85568392924494504,"keywords":["cp","nocrits","nodmgspread","uncletopia"],"game_id":440,"stv_port":27016,"stv_name":"Uncletopia | Hong Kong | 1 | All Maps | STV","players":null},{"server_id":1,"name":"Uncletopia | Los Angeles | 1 | All Maps","name_short":"lax-1","host":"lax-1.us.uncletopia.com","port":27015,"enabled":true,"region":"us-west","cc":"us","latitude":33.94279,"longitude":-118.41004,"reserved":0,"last_update":"0001-01-01T00:00:00Z","name_a2s":"Uncletopia | Los Angeles | 1 | All Maps","protocol":17,"map":"pl_frontier_final","folder":"tf","game":"Team Fortress","app_id":440,"player_count":24,"max_players":24,"Bots":0,"server_type":"Dedicated","server_os":"Linux","password":true,"vac":true,"version":"7961495","steam_id":85568392924469991,"keywords":["nocrits","nodmgspread","payload","uncletopia"],"game_id":440,"stv_port":27016,"stv_name":"Uncletopia | Los Angeles | 1 | All Maps | STV","players":[{"user_id":131,"name":"LogicalFurret","steam_id":76561198350604657,"connected_time":720000000000,"state":"active","ping":76},{"user_id":74,"name":"LeadButterTF2","steam_id":76561198260530863,"connected_time":6138000000000,"state":"active","ping":44},{"user_id":105,"name":"VoodooPapa","steam_id":76561199160439066,"connected_time":3491000000000,"state":"active","ping":60},{"user_id":75,"name":"Meekz","steam_id":76561198012562373,"connected_time":6137000000000,"state":"active","ping":60},{"user_id":125,"name":"TheSecretNewbie","steam_id":76561198194671218,"connected_time":1662000000000,"state":"active","ping":82},{"user_id":84,"name":"TTV/ChadMorningWood","steam_id":76561198139832291,"connected_time":4679000000000,"state":"active","ping":49},{"user_id":126,"name":"Chirp","steam_id":76561198240780230,"connected_time":1654000000000,"state":"active","ping":45},{"user_id":100,"name":"TheCockBaller","steam_id":76561198210452033,"connected_time":4094000000000,"state":"active","ping":71},{"user_id":127,"name":"Hephesus","steam_id":76561198071196438,"connected_time":1615000000000,"state":"active","ping":124},{"user_id":129,"name":"Wan Shi Tong","steam_id":76561198076441225,"connected_time":1379000000000,"state":"active","ping":105},{"user_id":133,"name":"xanderthecommander","steam_id":76561198883218291,"connected_time":404000000000,"state":"active","ping":45},{"user_id":104,"name":"Big Jack","steam_id":76561198132755619,"connected_time":3548000000000,"state":"active","ping":43},{"user_id":113,"name":"HOWDY","steam_id":76561198858807829,"connected_time":3087000000000,"state":"active","ping":87},{"user_id":102,"name":"Daypire","steam_id":76561198088120472,"connected_time":3832000000000,"state":"active","ping":76},{"user_id":120,"name":"30-50 feral hogs","steam_id":76561198073587145,"connected_time":1955000000000,"state":"active","ping":82},{"user_id":130,"name":"unnamed","steam_id":76561198240590320,"connected_time":772000000000,"state":"active","ping":45},{"user_id":96,"name":"WaterFish","steam_id":76561198105766844,"connected_time":4352000000000,"state":"active","ping":77},{"user_id":55,"name":"Loogus","steam_id":76561198811561721,"connected_time":7345000000000,"state":"active","ping":52},{"user_id":134,"name":"Enstabanger","steam_id":76561198140736928,"connected_time":3000000000,"state":"spawning","ping":63},{"user_id":128,"name":"Da Big Bumby","steam_id":76561198044511738,"connected_time":1603000000000,"state":"active","ping":106},{"user_id":80,"name":"Pybro's Day Off","steam_id":76561197996353534,"connected_time":5306000000000,"state":"active","ping":53},{"user_id":132,"name":"MisterMcBones","steam_id":76561198301885443,"connected_time":637000000000,"state":"active","ping":74},{"user_id":106,"name":"Toastedtoast222","steam_id":76561198120756409,"connected_time":3486000000000,"state":"active","ping":106},{"user_id":123,"name":"myunicorn","steam_id":76561199391478575,"connected_time":1690000000000,"state":"active","ping":95}]},{"server_id":112,"name":"Uncletopia | Los Angeles | 2 | All Maps","name_short":"lax-2","host":"lax-1.us.uncletopia.com","port":27025,"enabled":true,"region":"us-west","cc":"us","latitude":33.94279,"longitude":-118.41004,"reserved":0,"last_update":"0001-01-01T00:00:00Z","name_a2s":"Uncletopia | Los Angeles | 2 | All Maps","protocol":17,"map":"pl_snowycoast","folder":"tf","game":"Team Fortress","app_id":440,"player_count":24,"max_players":24,"Bots":0,"server_type":"Dedicated","server_os":"Linux","password":true,"vac":true,"version":"7961495","steam_id":85568392924469992,"keywords":["nocrits","nodmgspread","payload","uncletopia"],"game_id":440,"stv_port":27026,"stv_name":"Uncletopia | Los Angeles | 2 | All Maps | STV","players":[{"user_id":11,"name":"Cinnifox","steam_id":76561198068773971,"connected_time":2657000000000,"state":"active","ping":84},{"user_id":37,"name":"ninja45","steam_id":76561198150619521,"connected_time":1429000000000,"state":"active","ping":71},{"user_id":60,"name":"Miss PeaceTea","steam_id":76561198279236985,"connected_time":754000000000,"state":"active","ping":81},{"user_id":58,"name":"AXZIOM","steam_id":76561198255074952,"connected_time":931000000000,"state":"active","ping":109},{"user_id":63,"name":"Cipherlock","steam_id":76561198075994493,"connected_time":455000000000,"state":"active","ping":110},{"user_id":39,"name":"da-me da-ne","steam_id":76561198186208857,"connected_time":1347000000000,"state":"active","ping":45},{"user_id":64,"name":"it's finger lickin' gold yeehaw","steam_id":76561198068257774,"connected_time":261000000000,"state":"active","ping":68},{"user_id":18,"name":"SnazzyCelestial","steam_id":76561198328763813,"connected_time":2088000000000,"state":"active","ping":110},{"user_id":41,"name":"sixauto0706","steam_id":76561198126443610,"connected_time":1327000000000,"state":"active","ping":66},{"user_id":21,"name":"Weakforanimebitches","steam_id":76561198217663016,"connected_time":1906000000000,"state":"active","ping":50},{"user_id":22,"name":"mik","steam_id":76561198268948176,"connected_time":1892000000000,"state":"active","ping":61},{"user_id":42,"name":"Lumberjane37 (She/Her)","steam_id":76561198014841793,"connected_time":1304000000000,"state":"active","ping":67},{"user_id":36,"name":"Thequirka","steam_id":76561198968058652,"connected_time":1480000000000,"state":"active","ping":77},{"user_id":68,"name":"SadChicken λ","steam_id":76561198082458968,"connected_time":63000000000,"state":"active","ping":87},{"user_id":45,"name":"heck","steam_id":76561198315694520,"connected_time":1212000000000,"state":"active","ping":45},{"user_id":66,"name":"Minnie","steam_id":76561198091052019,"connected_time":147000000000,"state":"active","ping":137},{"user_id":29,"name":"Kermit","steam_id":76561198034559979,"connected_time":1764000000000,"state":"active","ping":125},{"user_id":30,"name":"PintSized","steam_id":76561199077031492,"connected_time":1760000000000,"state":"active","ping":120},{"user_id":47,"name":"Shagbark","steam_id":76561198173447342,"connected_time":1182000000000,"state":"active","ping":117},{"user_id":56,"name":"Alex Jones","steam_id":76561198272738226,"connected_time":1005000000000,"state":"active","ping":142},{"user_id":62,"name":"Lord_Tamal","steam_id":76561199144369334,"connected_time":472000000000,"state":"active","ping":186},{"user_id":53,"name":"Smallest one","steam_id":76561198407385971,"connected_time":1133000000000,"state":"active","ping":63},{"user_id":67,"name":"Waffle Wannabe","steam_id":76561198064510650,"connected_time":114000000000,"state":"active","ping":108},{"user_id":55,"name":"LavenderSys","steam_id":76561198289106015,"connected_time":1118000000000,"state":"active","ping":62}]},{"server_id":324,"name":"Uncletopia | Los Angeles | 3 | All Maps","name_short":"lax-3","host":"lax-1.us.uncletopia.com","port":27035,"enabled":true,"region":"us-west","cc":"us","latitude":33.94279,"longitude":-118.41004,"reserved":0,"last_update":"0001-01-01T00:00:00Z","name_a2s":"Uncletopia | Los Angeles | 3 | All Maps","protocol":17,"map":"koth_viaduct","folder":"tf","game":"Team Fortress","app_id":440,"player_count":0,"max_players":24,"Bots":0,"server_type":"Dedicated","server_os":"Linux","password":true,"vac":true,"version":"7961495","steam_id":85568392924510198,"keywords":["cp","nocrits","nodmgspread","uncletopia"],"game_id":440,"stv_port":27036,"stv_name":"Uncletopia | Los Angeles | 3 | All Maps | STV","players":null},{"server_id":25,"name":"Uncletopia | Los Angeles | 4 | Stopwatch","name_short":"lax-4","host":"lax-1.us.uncletopia.com","port":27045,"enabled":true,"region":"us-west","cc":"us","latitude":33.94279,"longitude":-118.41004,"reserved":0,"last_update":"0001-01-01T00:00:00Z","name_a2s":"Uncletopia | Los Angeles | 4 | Stopwatch","protocol":17,"map":"workshop/pl_barnblitz_pro7.ugc582280235","folder":"tf","game":"Team Fortress","app_id":440,"player_count":0,"max_players":24,"Bots":0,"server_type":"Dedicated","server_os":"Linux","password":true,"vac":true,"version":"7961495","steam_id":85568392924510199,"keywords":["nocrits","nodmgspread","payload","uncletopia"],"game_id":440,"stv_port":27046,"stv_name":"Uncletopia | Los Angeles | 4 | Stopwatch | STV","players":null},{"server_id":11,"name":"Uncletopia | London | 1 | All Maps","name_short":"lon-1","host":"lon-1.uk.uncletopia.com","port":27015,"enabled":true,"region":"eu","cc":"gb","latitude":51.509865,"longitude":-0.118092,"reserved":0,"last_update":"0001-01-01T00:00:00Z","name_a2s":"Uncletopia | London | 1 | All Maps","protocol":17,"map":"pl_barnblitz","folder":"tf","game":"Team Fortress","app_id":440,"player_count":24,"max_players":24,"Bots":0,"server_type":"Dedicated","server_os":"Linux","password":true,"vac":true,"version":"7961495","steam_id":85568392924367362,"keywords":["nocrits","nodmgspread","payload","uncletopia"],"game_id":440,"stv_port":27016,"stv_name":"Uncletopia | London | 1 | All Maps | STV","players":[{"user_id":107,"name":"DiviningWizard","steam_id":76561199101096245,"connected_time":704000000000,"state":"active","ping":142},{"user_id":108,"name":"JAZZ COMMANDO","steam_id":76561198031766068,"connected_time":659000000000,"state":"active","ping":47},{"user_id":103,"name":"The Groundhog","steam_id":76561198881037607,"connected_time":1122000000000,"state":"active","ping":65},{"user_id":95,"name":"Nag","steam_id":76561197970488206,"connected_time":2772000000000,"state":"active","ping":69},{"user_id":7,"name":"teddy","steam_id":76561198007436837,"connected_time":9308000000000,"state":"active","ping":39},{"user_id":58,"name":"jonesy","steam_id":76561198073975078,"connected_time":6011000000000,"state":"active","ping":52},{"user_id":100,"name":"Krucial","steam_id":76561198144464665,"connected_time":1768000000000,"state":"active","ping":84},{"user_id":62,"name":"Smiffy","steam_id":76561198094911581,"connected_time":5965000000000,"state":"active","ping":50},{"user_id":94,"name":"Tummy","steam_id":76561198045654910,"connected_time":2786000000000,"state":"active","ping":45},{"user_id":91,"name":"rez777ka","steam_id":76561198107605938,"connected_time":3069000000000,"state":"active","ping":99},{"user_id":106,"name":"Abby","steam_id":76561198170528489,"connected_time":770000000000,"state":"active","ping":63},{"user_id":104,"name":"Spore","steam_id":76561198889433116,"connected_time":1088000000000,"state":"active","ping":67},{"user_id":101,"name":"Kamina","steam_id":76561198079299570,"connected_time":1737000000000,"state":"active","ping":51},{"user_id":109,"name":"Hyppy ja liipasin pohjaan :D","steam_id":76561198080669698,"connected_time":633000000000,"state":"active","ping":97},{"user_id":53,"name":"remi, she wrote.","steam_id":76561198044045655,"connected_time":7425000000000,"state":"active","ping":73},{"user_id":93,"name":"Prome","steam_id":76561199050383942,"connected_time":2818000000000,"state":"active","ping":57},{"user_id":71,"name":"gibb (official)","steam_id":76561198074097655,"connected_time":4507000000000,"state":"active","ping":41},{"user_id":68,"name":"Purps","steam_id":76561198053886680,"connected_time":5161000000000,"state":"active","ping":46},{"user_id":42,"name":"Minimi","steam_id":76561198873850443,"connected_time":8366000000000,"state":"active","ping":41},{"user_id":47,"name":"Pinkchup","steam_id":76561198106802803,"connected_time":8189000000000,"state":"active","ping":77},{"user_id":87,"name":"nemo","steam_id":76561199488507139,"connected_time":3231000000000,"state":"active","ping":126},{"user_id":105,"name":"nug","steam_id":76561198055396568,"connected_time":791000000000,"state":"active","ping":48},{"user_id":66,"name":"SuperBob103","steam_id":76561199175360012,"connected_time":5401000000000,"state":"active","ping":59},{"user_id":111,"name":"bird ideas","steam_id":76561199480942903,"connected_time":564000000000,"state":"active","ping":75}]},{"server_id":114,"name":"Uncletopia | London | 2 | All Maps","name_short":"lon-2","host":"lon-1.uk.uncletopia.com","port":27025,"enabled":true,"region":"eu","cc":"gb","latitude":51.509865,"longitude":-0.118092,"reserved":0,"last_update":"0001-01-01T00:00:00Z","name_a2s":"Uncletopia | London | 2 | All Maps","protocol":17,"map":"pl_pier","folder":"tf","game":"Team Fortress","app_id":440,"player_count":0,"max_players":24,"Bots":0,"server_type":"Dedicated","server_os":"Linux","password":true,"vac":true,"version":"7961495","steam_id":85568392924470941,"keywords":["nocrits","nodmgspread","payload","uncletopia"],"game_id":440,"stv_port":27026,"stv_name":"Uncletopia | London | 2 | All Maps | STV","players":null},{"server_id":320,"name":"Uncletopia | London | 3 | All Maps","name_short":"lon-3","host":"lon-1.uk.uncletopia.com","port":27035,"enabled":true,"region":"eu","cc":"gb","latitude":51.509865,"longitude":-0.118092,"reserved":0,"last_update":"0001-01-01T00:00:00Z","name_a2s":"Uncletopia | London | 3 | All Maps","protocol":17,"map":"pl_pier","folder":"tf","game":"Team Fortress","app_id":440,"player_count":0,"max_players":24,"Bots":0,"server_type":"Dedicated","server_os":"Linux","password":true,"vac":true,"version":"7961495","steam_id":85568392924510192,"keywords":["nocrits","nodmgspread","payload","uncletopia"],"game_id":440,"stv_port":27036,"stv_name":"Uncletopia | London | 3 | All Maps | STV","players":null},{"server_id":321,"name":"Uncletopia | London | 4 | All Maps","name_short":"lon-4","host":"lon-1.uk.uncletopia.com","port":27045,"enabled":true,"region":"eu","cc":"gb","latitude":51.509865,"longitude":-0.118092,"reserved":0,"last_update":"0001-01-01T00:00:00Z","name_a2s":"Uncletopia | London | 4 | All Maps","protocol":17,"map":"koth_highpass","folder":"tf","game":"Team Fortress","app_id":440,"player_count":14,"max_players":24,"Bots":0,"server_type":"Dedicated","server_os":"Linux","password":true,"vac":true,"version":"7961495","steam_id":85568392924510193,"keywords":["cp","nocrits","nodmgspread","uncletopia"],"game_id":440,"stv_port":27046,"stv_name":"Uncletopia | London | 4 | All Maps | STV","players":[{"user_id":165,"name":"Nicktime","steam_id":76561198212315465,"connected_time":412000000000,"state":"active","ping":149},{"user_id":168,"name":"[IVe/LO]Jadore_les_Currywurst","steam_id":76561198005084382,"connected_time":195000000000,"state":"active","ping":80},{"user_id":162,"name":"grif","steam_id":76561198272333800,"connected_time":460000000000,"state":"active","ping":133},{"user_id":163,"name":"=BaFFe= Krakenpots","steam_id":76561198106600025,"connected_time":437000000000,"state":"active","ping":55},{"user_id":164,"name":"Schmoolius","steam_id":76561198255595894,"connected_time":435000000000,"state":"active","ping":149},{"user_id":143,"name":"Snowmotion","steam_id":76561198075022454,"connected_time":2390000000000,"state":"active","ping":69},{"user_id":156,"name":"Luciat","steam_id":76561198114216087,"connected_time":1220000000000,"state":"active","ping":43},{"user_id":167,"name":"Falcon","steam_id":76561198211463916,"connected_time":360000000000,"state":"active","ping":90},{"user_id":108,"name":"Slooshie","steam_id":76561198008749909,"connected_time":5002000000000,"state":"active","ping":64},{"user_id":150,"name":"chillrend_morphs_high_lod6","steam_id":76561198452963141,"connected_time":1797000000000,"state":"active","ping":87},{"user_id":157,"name":"Name","steam_id":76561199111748012,"connected_time":1212000000000,"state":"active","ping":149},{"user_id":134,"name":"Milkman","steam_id":76561199089290269,"connected_time":2980000000000,"state":"active","ping":46},{"user_id":145,"name":"akciq ⁧⁧respect","steam_id":76561198390963456,"connected_time":2333000000000,"state":"active","ping":78},{"user_id":115,"name":"caramelldancin'","steam_id":76561198193357946,"connected_time":4468000000000,"state":"active","ping":98}]},{"server_id":21,"name":"Uncletopia | London | 5 | All Maps","name_short":"lon-5","host":"lon-1.uk.uncletopia.com","port":27055,"enabled":true,"region":"eu","cc":"gb","latitude":51.509865,"longitude":-0.118092,"reserved":0,"last_update":"0001-01-01T00:00:00Z","name_a2s":"Uncletopia | London | 5 | All Maps","protocol":17,"map":"cp_sunshine","folder":"tf","game":"Team Fortress","app_id":440,"player_count":22,"max_players":24,"Bots":0,"server_type":"Dedicated","server_os":"Linux","password":true,"vac":true,"version":"7961495","steam_id":85568392924742829,"keywords":["cp","nocrits","nodmgspread","uncletopia"],"game_id":440,"stv_port":27056,"stv_name":"Uncletopia | London | 5 | All Maps | STV","players":[{"user_id":112,"name":"Rob","steam_id":76561198122971317,"connected_time":2921000000000,"state":"active","ping":46},{"user_id":147,"name":"Dr Condom","steam_id":76561198378657692,"connected_time":365000000000,"state":"active","ping":46},{"user_id":148,"name":"Sixie","steam_id":76561198251675360,"connected_time":340000000000,"state":"active","ping":49},{"user_id":113,"name":"Nick Cage (real)","steam_id":76561198042502842,"connected_time":2844000000000,"state":"active","ping":55},{"user_id":152,"name":"NOM","steam_id":76561199059006203,"connected_time":120000000000,"state":"active","ping":167},{"user_id":153,"name":"Risinger","steam_id":76561198079789688,"connected_time":51000000000,"state":"active","ping":62},{"user_id":115,"name":"George","steam_id":76561198129697223,"connected_time":2752000000000,"state":"active","ping":130},{"user_id":116,"name":"Luka","steam_id":76561198035374653,"connected_time":2742000000000,"state":"active","ping":116},{"user_id":131,"name":"Lorenzo Lovers","steam_id":76561198073973581,"connected_time":1525000000000,"state":"active","ping":86},{"user_id":150,"name":"Hancock","steam_id":76561198255466846,"connected_time":285000000000,"state":"active","ping":154},{"user_id":133,"name":"Joshibar","steam_id":76561198917388051,"connected_time":1333000000000,"state":"active","ping":61},{"user_id":107,"name":"yeetyfreety","steam_id":76561198882735886,"connected_time":3445000000000,"state":"active","ping":120},{"user_id":134,"name":"40mg of Elvanse","steam_id":76561198303429751,"connected_time":1287000000000,"state":"active","ping":46},{"user_id":135,"name":"stinkyhoovy","steam_id":76561198273397341,"connected_time":1273000000000,"state":"active","ping":44},{"user_id":136,"name":"hammertime","steam_id":76561199097714393,"connected_time":1264000000000,"state":"active","ping":138},{"user_id":154,"name":"Sky Tree","steam_id":76561198027103242,"connected_time":45000000000,"state":"active","ping":107},{"user_id":137,"name":"ball","steam_id":76561199045806741,"connected_time":1248000000000,"state":"active","ping":56},{"user_id":145,"name":"irritable vowel syndrome","steam_id":76561198117033273,"connected_time":910000000000,"state":"active","ping":48},{"user_id":81,"name":"NotChloe","steam_id":76561198080658092,"connected_time":4963000000000,"state":"active","ping":57},{"user_id":139,"name":"Sacralifia","steam_id":76561198079235347,"connected_time":1181000000000,"state":"active","ping":46},{"user_id":146,"name":"Infantile Pillock","steam_id":76561198283851362,"connected_time":759000000000,"state":"active","ping":69},{"user_id":143,"name":"Shark","steam_id":76561198205226501,"connected_time":998000000000,"state":"active","ping":175}]},{"server_id":22,"name":"Uncletopia | London | 6 | All Maps","name_short":"lon-6","host":"lon-1.uk.uncletopia.com","port":27065,"enabled":true,"region":"eu","cc":"gb","latitude":51.509865,"longitude":-0.118092,"reserved":0,"last_update":"0001-01-01T00:00:00Z","name_a2s":"Uncletopia | London | 6 | All Maps","protocol":17,"map":"koth_lakeside_final","folder":"tf","game":"Team Fortress","app_id":440,"player_count":0,"max_players":24,"Bots":0,"server_type":"Dedicated","server_os":"Linux","password":true,"vac":true,"version":"7961495","steam_id":85568392924742830,"keywords":["cp","nocrits","nodmgspread","uncletopia"],"game_id":440,"stv_port":27066,"stv_name":"Uncletopia | London | 6 | All Maps | STV","players":null},{"server_id":40,"name":"Uncletopia | London | 7 | No Payload","name_short":"lon-7","host":"lon-1.uk.uncletopia.com","port":27075,"enabled":true,"region":"eu","cc":"gb","latitude":51.509865,"longitude":-0.118092,"reserved":0,"last_update":"0001-01-01T00:00:00Z","name_a2s":"Uncletopia | London | 7 | No Payload","protocol":17,"map":"cp_altitude","folder":"tf","game":"Team Fortress","app_id":440,"player_count":0,"max_players":24,"Bots":0,"server_type":"Dedicated","server_os":"Linux","password":true,"vac":true,"version":"7961495","steam_id":85568392924964314,"keywords":["cp","nocrits","nodmgspread","uncletopia"],"game_id":440,"stv_port":27076,"stv_name":"Uncletopia | London | 7 | No Payload | STV","players":null},{"server_id":41,"name":"Uncletopia | London | 8 | Community","name_short":"lon-8","host":"lon-1.uk.uncletopia.com","port":27085,"enabled":true,"region":"eu","cc":"gb","latitude":51.509865,"longitude":-0.118092,"reserved":0,"last_update":"0001-01-01T00:00:00Z","name_a2s":"Uncletopia | London | 8 | Community","protocol":17,"map":"workshop/pl_emerge_rc2.ugc888027758","folder":"tf","game":"Team Fortress","app_id":440,"player_count":0,"max_players":24,"Bots":0,"server_type":"Dedicated","server_os":"Linux","password":true,"vac":true,"version":"7961495","steam_id":85568392924964315,"keywords":["nocrits","nodmgspread","payload","uncletopia"],"game_id":440,"stv_port":27086,"stv_name":"Uncletopia | London | 8 | Community | STV","players":null},{"server_id":300,"name":"Uncletopia | Montréal | 1 | All Maps","name_short":"mtl-1","host":"mtl-1.ca.uncletopia.com","port":27015,"enabled":true,"region":"us-east","cc":"ca","latitude":45.50889,"longitude":-73.56167,"reserved":0,"last_update":"0001-01-01T00:00:00Z","name_a2s":"","protocol":0,"map":"","folder":"","game":"","app_id":0,"player_count":4,"max_players":0,"Bots":0,"server_type":"","server_os":"","password":false,"vac":false,"version":"","steam_id":0,"keywords":null,"game_id":0,"stv_port":0,"stv_name":"","players":[{"user_id":30,"name":"wow12000000000000098","steam_id":76561198016826181,"connected_time":293000000000,"state":"active","ping":75},{"user_id":31,"name":"Goose of Wisdom","steam_id":76561198233465044,"connected_time":261000000000,"state":"active","ping":65},{"user_id":32,"name":"Orange Gaming Llama","steam_id":76561199088577021,"connected_time":147000000000,"state":"active","ping":66},{"user_id":34,"name":"SneakyJayMLP","steam_id":76561198969565685,"connected_time":9000000000,"state":"active","ping":69}]},{"server_id":301,"name":"Uncletopia | Montréal | 2 | All Maps","name_short":"mtl-2","host":"mtl-1.ca.uncletopia.com","port":27025,"enabled":true,"region":"us-east","cc":"ca","latitude":45.50889,"longitude":-73.56167,"reserved":0,"last_update":"0001-01-01T00:00:00Z","name_a2s":"","protocol":0,"map":"","folder":"","game":"","app_id":0,"player_count":0,"max_players":0,"Bots":0,"server_type":"","server_os":"","password":false,"vac":false,"version":"","steam_id":0,"keywords":null,"game_id":0,"stv_port":0,"stv_name":"","players":null},{"server_id":302,"name":"Uncletopia | Montréal | 3 | All Maps","name_short":"mtl-3","host":"mtl-1.ca.uncletopia.com","port":27035,"enabled":true,"region":"us-east","cc":"ca","latitude":45.50889,"longitude":-73.56167,"reserved":0,"last_update":"0001-01-01T00:00:00Z","name_a2s":"","protocol":0,"map":"","folder":"","game":"","app_id":0,"player_count":0,"max_players":0,"Bots":0,"server_type":"","server_os":"","password":false,"vac":false,"version":"","steam_id":0,"keywords":null,"game_id":0,"stv_port":0,"stv_name":"","players":null},{"server_id":303,"name":"Uncletopia | Montréal | 4 | No Payload","name_short":"mtl-4","host":"mtl-1.ca.uncletopia.com","port":27045,"enabled":true,"region":"us-east","cc":"ca","latitude":45.50889,"longitude":-73.56167,"reserved":0,"last_update":"0001-01-01T00:00:00Z","name_a2s":"","protocol":0,"map":"","folder":"","game":"","app_id":0,"player_count":0,"max_players":0,"Bots":0,"server_type":"","server_os":"","password":false,"vac":false,"version":"","steam_id":0,"keywords":null,"game_id":0,"stv_port":0,"stv_name":"","players":null},{"server_id":13,"name":"Uncletopia | New York City | 1 | All Maps","name_short":"nyc-1","host":"nyc-1.us.uncletopia.com","port":27015,"enabled":true,"region":"us-east","cc":"us","latitude":40.73061,"longitude":-73.93524,"reserved":0,"last_update":"0001-01-01T00:00:00Z","name_a2s":"Uncletopia | New York City | 1 | All Maps","protocol":17,"map":"ctf_doublecross","folder":"tf","game":"Team Fortress","app_id":440,"player_count":24,"max_players":24,"Bots":0,"server_type":"Dedicated","server_os":"Linux","password":true,"vac":true,"version":"7961495","steam_id":85568392924469993,"keywords":["ctf","nocrits","nodmgspread","uncletopia"],"game_id":440,"stv_port":27016,"stv_name":"Uncletopia | New York City | 1 | All Maps | STV","players":[{"user_id":144,"name":"leaving lunar orbit","steam_id":76561199085974120,"connected_time":566000000000,"state":"active","ping":58},{"user_id":78,"name":"Queso2469","steam_id":76561197993024580,"connected_time":5839000000000,"state":"active","ping":54},{"user_id":150,"name":"Sugahu17S","steam_id":76561198799403828,"connected_time":532000000000,"state":"active","ping":63},{"user_id":129,"name":"Judge Patience D. Roggensack","steam_id":76561198028606123,"connected_time":1876000000000,"state":"active","ping":44},{"user_id":145,"name":"medicine seller","steam_id":76561198044190635,"connected_time":566000000000,"state":"active","ping":32},{"user_id":151,"name":"ChozoChorizo","steam_id":76561198272609196,"connected_time":526000000000,"state":"active","ping":71},{"user_id":146,"name":"Citron","steam_id":76561198278687374,"connected_time":563000000000,"state":"active","ping":61},{"user_id":149,"name":"you forgot the sauce","steam_id":76561198387016713,"connected_time":544000000000,"state":"active","ping":58},{"user_id":114,"name":"RailRunner66","steam_id":76561198053779091,"connected_time":2757000000000,"state":"active","ping":102},{"user_id":12,"name":"High School Nudical","steam_id":76561198172120615,"connected_time":9298000000000,"state":"active","ping":31},{"user_id":147,"name":"I HATE A.I ART I HATE A.I ART I","steam_id":76561199101373436,"connected_time":562000000000,"state":"active","ping":68},{"user_id":104,"name":"GoodleShoes/ttv","steam_id":76561198030993521,"connected_time":3676000000000,"state":"active","ping":83},{"user_id":158,"name":"Red Lobster Cheddar Bay Biscuit","steam_id":76561198133231245,"connected_time":19000000000,"state":"active","ping":33},{"user_id":95,"name":"Dieu-Sama","steam_id":76561198002075862,"connected_time":3815000000000,"state":"active","ping":75},{"user_id":84,"name":"A Puppy","steam_id":76561198828184456,"connected_time":4748000000000,"state":"active","ping":45},{"user_id":156,"name":"\"The Finest\" Snail's Melon","steam_id":76561198041267795,"connected_time":323000000000,"state":"active","ping":42},{"user_id":108,"name":"GummybearKillr","steam_id":76561198031235750,"connected_time":3082000000000,"state":"active","ping":55},{"user_id":152,"name":"rmmr","steam_id":76561198069909083,"connected_time":521000000000,"state":"active","ping":60},{"user_id":153,"name":"Big Milk","steam_id":76561198066904836,"connected_time":511000000000,"state":"active","ping":73},{"user_id":138,"name":"Brawling Bouse","steam_id":76561198030271278,"connected_time":1340000000000,"state":"active","ping":60},{"user_id":159,"name":"Mystamous","steam_id":76561198158658043,"connected_time":2000000000,"state":"spawning","ping":104},{"user_id":139,"name":"jandajanda","steam_id":76561198235722476,"connected_time":905000000000,"state":"active","ping":71},{"user_id":155,"name":"Luis wid a mic","steam_id":76561198349570006,"connected_time":445000000000,"state":"active","ping":42},{"user_id":111,"name":"Maet","steam_id":76561198030208485,"connected_time":2818000000000,"state":"active","ping":81}]},{"server_id":14,"name":"Uncletopia | New York City | 2 | All Maps","name_short":"nyc-2","host":"nyc-1.us.uncletopia.com","port":27025,"enabled":true,"region":"us-east","cc":"us","latitude":40.73061,"longitude":-73.93524,"reserved":0,"last_update":"0001-01-01T00:00:00Z","name_a2s":"Uncletopia | New York City | 2 | All Maps","protocol":17,"map":"pl_upward","folder":"tf","game":"Team Fortress","app_id":440,"player_count":24,"max_players":24,"Bots":0,"server_type":"Dedicated","server_os":"Linux","password":true,"vac":true,"version":"7961495","steam_id":85568392924469994,"keywords":["nocrits","nodmgspread","payload","uncletopia"],"game_id":440,"stv_port":27026,"stv_name":"Uncletopia | New York City | 2 | All Maps | STV","players":[{"user_id":148,"name":"♦♣Quadric♥♠","steam_id":76561198061003853,"connected_time":1859000000000,"state":"active","ping":58},{"user_id":66,"name":"DJ Chalice","steam_id":76561197974872458,"connected_time":5514000000000,"state":"active","ping":65},{"user_id":147,"name":"sansa musa","steam_id":76561198163723555,"connected_time":1882000000000,"state":"active","ping":45},{"user_id":92,"name":"Braamklauw","steam_id":76561198283287697,"connected_time":4057000000000,"state":"active","ping":153},{"user_id":156,"name":"shnowshner","steam_id":76561198066450438,"connected_time":1684000000000,"state":"active","ping":74},{"user_id":99,"name":"BeerPowder","steam_id":76561198058129400,"connected_time":3502000000000,"state":"active","ping":53},{"user_id":10,"name":"2cats_2curious","steam_id":76561198027143149,"connected_time":8943000000000,"state":"active","ping":63},{"user_id":145,"name":"mikaXD","steam_id":76561198046055673,"connected_time":1908000000000,"state":"active","ping":57},{"user_id":116,"name":"ma0re","steam_id":76561199231971506,"connected_time":2264000000000,"state":"active","ping":46},{"user_id":158,"name":"Gentoo Linux Gaming","steam_id":76561197999657118,"connected_time":1652000000000,"state":"active","ping":80},{"user_id":98,"name":"OKAY","steam_id":76561198091980659,"connected_time":3554000000000,"state":"active","ping":58},{"user_id":54,"name":"Chernov","steam_id":76561198014463424,"connected_time":6761000000000,"state":"active","ping":33},{"user_id":157,"name":"lil hog","steam_id":76561199230929836,"connected_time":1677000000000,"state":"active","ping":96},{"user_id":159,"name":"lazily","steam_id":76561198051127715,"connected_time":1650000000000,"state":"active","ping":63},{"user_id":84,"name":"Sir Quacksalot","steam_id":76561198048942777,"connected_time":4474000000000,"state":"active","ping":101},{"user_id":48,"name":"Vee (very cool)","steam_id":76561198330432889,"connected_time":7421000000000,"state":"active","ping":76},{"user_id":110,"name":"Kaiser1417","steam_id":76561198153434261,"connected_time":2461000000000,"state":"active","ping":68},{"user_id":103,"name":"Machine Girl - SAD CLAPS","steam_id":76561198294013916,"connected_time":2951000000000,"state":"active","ping":45},{"user_id":71,"name":"rattlin' bog","steam_id":76561198224551028,"connected_time":5082000000000,"state":"active","ping":58},{"user_id":59,"name":"Sinno","steam_id":76561198144974589,"connected_time":6181000000000,"state":"active","ping":51},{"user_id":96,"name":"Tokyo_Timeshift_","steam_id":76561198048677523,"connected_time":3769000000000,"state":"active","ping":71},{"user_id":135,"name":"Pango","steam_id":76561198069811545,"connected_time":1994000000000,"state":"active","ping":53},{"user_id":109,"name":"Dreszerg","steam_id":76561198838757422,"connected_time":2542000000000,"state":"active","ping":84},{"user_id":142,"name":"Hoob.egfug","steam_id":76561197980557818,"connected_time":1927000000000,"state":"active","ping":66}]},{"server_id":15,"name":"Uncletopia | New York City | 3 | Stopwatch Beta","name_short":"nyc-3","host":"nyc-1.us.uncletopia.com","port":27035,"enabled":true,"region":"us-east","cc":"us","latitude":40.73061,"longitude":-73.93524,"reserved":0,"last_update":"0001-01-01T00:00:00Z","name_a2s":"Uncletopia | New York City | 3 | Stopwatch Beta","protocol":17,"map":"workshop/koth_bagel_rc6.ugc2514036946","folder":"tf","game":"Team Fortress","app_id":440,"player_count":0,"max_players":24,"Bots":0,"server_type":"Dedicated","server_os":"Linux","password":true,"vac":true,"version":"7961495","steam_id":85568392924742820,"keywords":["cp","nocrits","nodmgspread","uncletopia"],"game_id":440,"stv_port":27036,"stv_name":"Uncletopia | New York City | 3 | Stopwatch Beta | STV","players":null},{"server_id":16,"name":"Uncletopia | New York City | 4 | Community","name_short":"nyc-4","host":"nyc-1.us.uncletopia.com","port":27045,"enabled":true,"region":"us-east","cc":"us","latitude":40.73061,"longitude":-73.93524,"reserved":0,"last_update":"0001-01-01T00:00:00Z","name_a2s":"Uncletopia | New York City | 4 | Community","protocol":17,"map":"workshop/pl_cashworks_final1.ugc2904065412","folder":"tf","game":"Team Fortress","app_id":440,"player_count":0,"max_players":24,"Bots":0,"server_type":"Dedicated","server_os":"Linux","password":true,"vac":true,"version":"7961495","steam_id":85568392924742821,"keywords":["nocrits","nodmgspread","payload","uncletopia"],"game_id":440,"stv_port":27046,"stv_name":"Uncletopia | New York City | 4 | Community | STV","players":null},{"server_id":142,"name":"Uncletopia | São Paulo | 1 | All Maps","name_short":"sao-1","host":"sao-1.br.uncletopia.com","port":27015,"enabled":true,"region":"sa","cc":"br","latitude":-23.533773,"longitude":-46.62529,"reserved":0,"last_update":"0001-01-01T00:00:00Z","name_a2s":"Uncletopia | São Paulo | 1 | All Maps","protocol":17,"map":"koth_highpass","folder":"tf","game":"Team Fortress","app_id":440,"player_count":0,"max_players":24,"Bots":0,"server_type":"Dedicated","server_os":"Linux","password":true,"vac":true,"version":"7961495","steam_id":85568392924469996,"keywords":["cp","nocrits","nodmgspread","uncletopia"],"game_id":440,"stv_port":27016,"stv_name":"Uncletopia | São Paulo | 1 | All Maps | STV","players":null},{"server_id":143,"name":"Uncletopia | São Paulo | 2 | Community","name_short":"sao-2","host":"sao-2.br.uncletopia.com","port":27015,"enabled":true,"region":"sa","cc":"br","latitude":-23.533773,"longitude":-46.62529,"reserved":0,"last_update":"0001-01-01T00:00:00Z","name_a2s":"Uncletopia | São Paulo | 2 | Community","protocol":17,"map":"workshop/pl_divulgence_b4b.ugc2884808746","folder":"tf","game":"Team Fortress","app_id":440,"player_count":1,"max_players":24,"Bots":0,"server_type":"Dedicated","server_os":"Linux","password":true,"vac":true,"version":"7961495","steam_id":85568392924485349,"keywords":["nocrits","nodmgspread","payload","uncletopia"],"game_id":440,"stv_port":27016,"stv_name":"Uncletopia | São Paulo | 2 | Community | STV","players":[{"user_id":4,"name":"Scream for Uber","steam_id":76561198381380154,"connected_time":0,"state":"spawning","ping":0}]},{"server_id":7,"name":"Uncletopia | Seattle | 1 | All Maps","name_short":"sea-1","host":"sea-1.us.uncletopia.com","port":27015,"enabled":true,"region":"us-west","cc":"us","latitude":47.608013,"longitude":-122.33517,"reserved":0,"last_update":"0001-01-01T00:00:00Z","name_a2s":"Uncletopia | Seattle | 1 | All Maps","protocol":17,"map":"pl_thundermountain","folder":"tf","game":"Team Fortress","app_id":440,"player_count":23,"max_players":24,"Bots":0,"server_type":"Dedicated","server_os":"Linux","password":true,"vac":true,"version":"7961495","steam_id":85568392924469997,"keywords":["nocrits","nodmgspread","payload","uncletopia"],"game_id":440,"stv_port":27016,"stv_name":"Uncletopia | Seattle | 1 | All Maps | STV","players":[{"user_id":116,"name":"Big ol' Willy Gaming","steam_id":76561198048545731,"connected_time":1924000000000,"state":"active","ping":79},{"user_id":145,"name":"Crouchin down to munch bugs","steam_id":76561198011675372,"connected_time":251000000000,"state":"active","ping":61},{"user_id":153,"name":"Strikerbolt","steam_id":76561199095622897,"connected_time":47000000000,"state":"active","ping":76},{"user_id":129,"name":"gnoblin","steam_id":76561198210322871,"connected_time":1513000000000,"state":"active","ping":87},{"user_id":142,"name":"Sudsen","steam_id":76561198370603787,"connected_time":261000000000,"state":"active","ping":60},{"user_id":147,"name":"Makina","steam_id":76561198057475567,"connected_time":209000000000,"state":"active","ping":90},{"user_id":137,"name":"Zhukov","steam_id":76561199006602717,"connected_time":759000000000,"state":"active","ping":127},{"user_id":148,"name":"moonage72","steam_id":76561199187008629,"connected_time":204000000000,"state":"active","ping":98},{"user_id":93,"name":"CheesyPoofs","steam_id":76561197998650617,"connected_time":4454000000000,"state":"active","ping":57},{"user_id":109,"name":"Daz","steam_id":76561198041431938,"connected_time":2366000000000,"state":"active","ping":51},{"user_id":76,"name":"jacix3 [silly doggie :3]","steam_id":76561198205004165,"connected_time":6167000000000,"state":"active","ping":63},{"user_id":101,"name":"The King of Piss World","steam_id":76561198082806956,"connected_time":3123000000000,"state":"active","ping":153},{"user_id":106,"name":"DontRunWithScissors","steam_id":76561198079662757,"connected_time":2890000000000,"state":"active","ping":69},{"user_id":111,"name":"Sniff","steam_id":76561198010270922,"connected_time":2264000000000,"state":"active","ping":59},{"user_id":102,"name":"slushy :))","steam_id":76561198135281802,"connected_time":3121000000000,"state":"active","ping":40},{"user_id":117,"name":"Mish","steam_id":76561198042287075,"connected_time":1916000000000,"state":"active","ping":75},{"user_id":127,"name":"Eraser cat","steam_id":76561199045570463,"connected_time":1554000000000,"state":"active","ping":46},{"user_id":150,"name":"Lawyer","steam_id":76561197974126447,"connected_time":190000000000,"state":"active","ping":79},{"user_id":120,"name":"SomeRandomBetaFish","steam_id":76561198827731399,"connected_time":1868000000000,"state":"active","ping":109},{"user_id":114,"name":"Starkiller","steam_id":76561198101643120,"connected_time":2029000000000,"state":"active","ping":56},{"user_id":151,"name":"Lain","steam_id":76561198118282205,"connected_time":189000000000,"state":"active","ping":121},{"user_id":103,"name":"Noah","steam_id":76561198059048749,"connected_time":3121000000000,"state":"active","ping":61},{"user_id":123,"name":"SynSten","steam_id":76561199122281764,"connected_time":1863000000000,"state":"active","ping":87}]},{"server_id":119,"name":"Uncletopia | Seattle | 2 | All Maps","name_short":"sea-2","host":"sea-1.us.uncletopia.com","port":27025,"enabled":true,"region":"us-west","cc":"us","latitude":47.608013,"longitude":-122.33517,"reserved":0,"last_update":"0001-01-01T00:00:00Z","name_a2s":"Uncletopia | Seattle | 2 | All Maps","protocol":17,"map":"cp_steel","folder":"tf","game":"Team Fortress","app_id":440,"player_count":24,"max_players":24,"Bots":0,"server_type":"Dedicated","server_os":"Linux","password":true,"vac":true,"version":"7961495","steam_id":85568392924469998,"keywords":["cp","nocrits","nodmgspread","uncletopia"],"game_id":440,"stv_port":27026,"stv_name":"Uncletopia | Seattle | 2 | All Maps | STV","players":[{"user_id":138,"name":"BoyKisser","steam_id":76561199200969139,"connected_time":530000000000,"state":"active","ping":146},{"user_id":118,"name":"Strangelove","steam_id":76561198353773611,"connected_time":1776000000000,"state":"active","ping":115},{"user_id":43,"name":"Green eggs and ham","steam_id":76561198043507340,"connected_time":7253000000000,"state":"active","ping":66},{"user_id":139,"name":"hemaglox","steam_id":76561198023187633,"connected_time":504000000000,"state":"active","ping":41},{"user_id":128,"name":"American freedom bird","steam_id":76561198366142388,"connected_time":1470000000000,"state":"active","ping":83},{"user_id":145,"name":"cell8miami","steam_id":76561198119724195,"connected_time":306000000000,"state":"active","ping":89},{"user_id":105,"name":"fart thief","steam_id":76561198046073848,"connected_time":2548000000000,"state":"active","ping":45},{"user_id":121,"name":"eze","steam_id":76561198273222371,"connected_time":1649000000000,"state":"active","ping":54},{"user_id":136,"name":"P.C. Baby","steam_id":76561198067011379,"connected_time":642000000000,"state":"active","ping":85},{"user_id":140,"name":"ShadowNinja1246","steam_id":76561198828770220,"connected_time":485000000000,"state":"active","ping":60},{"user_id":144,"name":"Froggy Molotovy","steam_id":76561198448512237,"connected_time":380000000000,"state":"active","ping":81},{"user_id":129,"name":"Pepilepsi","steam_id":76561198000809372,"connected_time":1469000000000,"state":"active","ping":118},{"user_id":133,"name":"Pistol Freeman","steam_id":76561198026818915,"connected_time":1340000000000,"state":"active","ping":131},{"user_id":70,"name":"cool beans","steam_id":76561198045758072,"connected_time":6094000000000,"state":"active","ping":60},{"user_id":131,"name":"Soda Popinski","steam_id":76561198045209288,"connected_time":1427000000000,"state":"active","ping":74},{"user_id":141,"name":"Chocc-_-","steam_id":76561198068070211,"connected_time":480000000000,"state":"active","ping":77},{"user_id":94,"name":"Rude Dog","steam_id":76561197980385816,"connected_time":3449000000000,"state":"active","ping":63},{"user_id":115,"name":"❀lo mein lacht sep chicken❀","steam_id":76561198059580373,"connected_time":1962000000000,"state":"active","ping":76},{"user_id":110,"name":"illness","steam_id":76561198200749235,"connected_time":2446000000000,"state":"active","ping":59},{"user_id":142,"name":"NERV","steam_id":76561198111023744,"connected_time":474000000000,"state":"active","ping":120},{"user_id":143,"name":"thesmilingman654","steam_id":76561199196497254,"connected_time":428000000000,"state":"active","ping":86},{"user_id":60,"name":"★ dane","steam_id":76561198354081121,"connected_time":6571000000000,"state":"active","ping":108},{"user_id":146,"name":"Three(3)SlicesOfBread","steam_id":76561199386210740,"connected_time":283000000000,"state":"active","ping":96},{"user_id":114,"name":"how many sins","steam_id":76561198213385439,"connected_time":2047000000000,"state":"active","ping":70}]},{"server_id":406,"name":"Uncletopia | Seattle | 3 | Stopwatch","name_short":"sea-3","host":"sea-1.us.uncletopia.com","port":27035,"enabled":true,"region":"us-west","cc":"us","latitude":47.608013,"longitude":-122.33517,"reserved":0,"last_update":"0001-01-01T00:00:00Z","name_a2s":"Uncletopia | Seattle | 3 | Stopwatch","protocol":17,"map":"cp_dustbowl","folder":"tf","game":"Team Fortress","app_id":440,"player_count":0,"max_players":24,"Bots":0,"server_type":"Dedicated","server_os":"Linux","password":true,"vac":true,"version":"7961495","steam_id":85568392924515217,"keywords":["cp","nocrits","nodmgspread","uncletopia"],"game_id":440,"stv_port":27036,"stv_name":"Uncletopia | Seattle | 3 | Stopwatch | STV","players":null},{"server_id":17,"name":"Uncletopia | San Francisco | 1 | All Maps","name_short":"sfo-1","host":"sfo-1.us.uncletopia.com","port":27015,"enabled":true,"region":"us-west","cc":"us","latitude":37.77397,"longitude":-122.4313,"reserved":0,"last_update":"0001-01-01T00:00:00Z","name_a2s":"Uncletopia | San Francisco | 1 | All Maps","protocol":17,"map":"cp_altitude","folder":"tf","game":"Team Fortress","app_id":440,"player_count":24,"max_players":24,"Bots":0,"server_type":"Dedicated","server_os":"Linux","password":true,"vac":true,"version":"7961495","steam_id":85568392924469999,"keywords":["cp","nocrits","nodmgspread","uncletopia"],"game_id":440,"stv_port":27016,"stv_name":"Uncletopia | San Francisco | 1 | All Maps | STV","players":[{"user_id":114,"name":"saneggzings","steam_id":76561199465922101,"connected_time":2391000000000,"state":"active","ping":76},{"user_id":107,"name":"Oh No! It's Twister!","steam_id":76561198016791916,"connected_time":2592000000000,"state":"active","ping":102},{"user_id":140,"name":"Quigi","steam_id":76561198144645874,"connected_time":916000000000,"state":"active","ping":71},{"user_id":30,"name":"Rusty_Cheech","steam_id":76561198808236778,"connected_time":7486000000000,"state":"active","ping":80},{"user_id":131,"name":"TheMagicMrWaffle","steam_id":76561198104357256,"connected_time":1748000000000,"state":"active","ping":53},{"user_id":99,"name":"Manually Breathing","steam_id":76561198406252824,"connected_time":3146000000000,"state":"active","ping":75},{"user_id":115,"name":"French Fry Burrito!","steam_id":76561198103496593,"connected_time":2369000000000,"state":"active","ping":97},{"user_id":141,"name":"HeHedron","steam_id":76561199199667164,"connected_time":894000000000,"state":"active","ping":84},{"user_id":132,"name":"Kenny Riots","steam_id":76561198060800850,"connected_time":1639000000000,"state":"active","ping":133},{"user_id":142,"name":"Epifiny","steam_id":76561198027958086,"connected_time":870000000000,"state":"active","ping":114},{"user_id":136,"name":"Rags","steam_id":76561198219273017,"connected_time":1382000000000,"state":"active","ping":95},{"user_id":138,"name":"yousneak2","steam_id":76561198892751522,"connected_time":1206000000000,"state":"active","ping":54},{"user_id":116,"name":"TheLogannator","steam_id":76561198141957314,"connected_time":2349000000000,"state":"active","ping":91},{"user_id":143,"name":"iggybones (girl with balls)","steam_id":76561198101610291,"connected_time":846000000000,"state":"active","ping":75},{"user_id":105,"name":"sunflowerofwar","steam_id":76561198940058271,"connected_time":2648000000000,"state":"active","ping":82},{"user_id":144,"name":"Simply","steam_id":76561198052721496,"connected_time":812000000000,"state":"active","ping":60},{"user_id":94,"name":"Lucxs707","steam_id":76561198260136009,"connected_time":3965000000000,"state":"active","ping":114},{"user_id":135,"name":"ohnocringe","steam_id":76561199381232082,"connected_time":1479000000000,"state":"active","ping":102},{"user_id":119,"name":"DonoC","steam_id":76561198274473338,"connected_time":2289000000000,"state":"active","ping":83},{"user_id":139,"name":"crowe","steam_id":76561198142185527,"connected_time":1028000000000,"state":"active","ping":57},{"user_id":147,"name":"Cave Dweller","steam_id":76561198374825685,"connected_time":244000000000,"state":"active","ping":80},{"user_id":137,"name":"bryanliganiga","steam_id":76561199495051478,"connected_time":1363000000000,"state":"active","ping":98},{"user_id":145,"name":"MayKaye","steam_id":76561199016092265,"connected_time":382000000000,"state":"active","ping":72},{"user_id":123,"name":"Three Brown Guys In a Car","steam_id":76561199112000229,"connected_time":2235000000000,"state":"active","ping":63}]},{"server_id":18,"name":"Uncletopia | San Francisco | 2 | All Maps","name_short":"sfo-2","host":"sfo-1.us.uncletopia.com","port":27025,"enabled":true,"region":"us-west","cc":"us","latitude":37.77397,"longitude":-122.4313,"reserved":0,"last_update":"0001-01-01T00:00:00Z","name_a2s":"Uncletopia | San Francisco | 2 | All Maps","protocol":17,"map":"ctf_sawmill","folder":"tf","game":"Team Fortress","app_id":440,"player_count":20,"max_players":24,"Bots":0,"server_type":"Dedicated","server_os":"Linux","password":true,"vac":true,"version":"7961495","steam_id":85568392924470000,"keywords":["ctf","nocrits","nodmgspread","uncletopia"],"game_id":440,"stv_port":27026,"stv_name":"Uncletopia | San Francisco | 2 | All Maps | STV","players":[{"user_id":101,"name":"Jones","steam_id":76561198046037216,"connected_time":3444000000000,"state":"active","ping":111},{"user_id":129,"name":"BirBinGo","steam_id":76561198356529600,"connected_time":1328000000000,"state":"active","ping":117},{"user_id":131,"name":"chromakey","steam_id":76561199223686771,"connected_time":1167000000000,"state":"active","ping":46},{"user_id":139,"name":"Stephhh","steam_id":76561199099876931,"connected_time":305000000000,"state":"active","ping":108},{"user_id":137,"name":"Tripll-L","steam_id":76561197998077437,"connected_time":521000000000,"state":"active","ping":76},{"user_id":143,"name":"rpgceg","steam_id":76561199438695339,"connected_time":197000000000,"state":"active","ping":76},{"user_id":140,"name":"Kurtle","steam_id":76561199099898602,"connected_time":283000000000,"state":"active","ping":66},{"user_id":128,"name":"Ratchet55","steam_id":76561198208655521,"connected_time":1548000000000,"state":"active","ping":82},{"user_id":147,"name":"sentry turret","steam_id":76561198327057433,"connected_time":49000000000,"state":"active","ping":138},{"user_id":133,"name":"Ballif","steam_id":76561198167781555,"connected_time":942000000000,"state":"active","ping":54},{"user_id":132,"name":"demomanfan2008","steam_id":76561198077030486,"connected_time":996000000000,"state":"active","ping":57},{"user_id":134,"name":"raccoonmanthing","steam_id":76561199042222863,"connected_time":851000000000,"state":"active","ping":62},{"user_id":144,"name":"TrevBev45","steam_id":76561198273637677,"connected_time":173000000000,"state":"active","ping":125},{"user_id":145,"name":"mrthugpug1732","steam_id":76561198881200768,"connected_time":98000000000,"state":"active","ping":69},{"user_id":146,"name":"Sorry","steam_id":76561198040722720,"connected_time":76000000000,"state":"active","ping":118},{"user_id":59,"name":"Mr.Pan","steam_id":76561198069030613,"connected_time":7158000000000,"state":"active","ping":76},{"user_id":135,"name":"reymundo","steam_id":76561197989412830,"connected_time":801000000000,"state":"active","ping":70},{"user_id":92,"name":"Addy \u003c3","steam_id":76561198045819723,"connected_time":4386000000000,"state":"active","ping":130},{"user_id":65,"name":"Karg","steam_id":76561198091387866,"connected_time":6992000000000,"state":"active","ping":55},{"user_id":136,"name":"guy who stares at GOOD players","steam_id":76561198065662025,"connected_time":779000000000,"state":"active","ping":54}]},{"server_id":19,"name":"Uncletopia | San Francisco | 3 | Stopwatch","name_short":"sfo-3","host":"sfo-1.us.uncletopia.com","port":27035,"enabled":true,"region":"us-west","cc":"us","latitude":37.77397,"longitude":-122.4313,"reserved":0,"last_update":"0001-01-01T00:00:00Z","name_a2s":"Uncletopia | San Francisco | 3 | Stopwatch","protocol":17,"map":"workshop/koth_ramjam_rc1.ugc459778887","folder":"tf","game":"Team Fortress","app_id":440,"player_count":3,"max_players":24,"Bots":0,"server_type":"Dedicated","server_os":"Linux","password":true,"vac":true,"version":"7961495","steam_id":85568392924742824,"keywords":["cp","nocrits","nodmgspread","uncletopia"],"game_id":440,"stv_port":27036,"stv_name":"Uncletopia | San Francisco | 3 | Stopwatch | STV","players":[{"user_id":5,"name":"SlimeySan","steam_id":76561199239205538,"connected_time":1535000000000,"state":"active","ping":61},{"user_id":6,"name":"mrzach11","steam_id":76561199091703797,"connected_time":1515000000000,"state":"active","ping":46},{"user_id":9,"name":"Adokato","steam_id":76561199077640506,"connected_time":835000000000,"state":"active","ping":138}]},{"server_id":20,"name":"Uncletopia | San Francisco | 4 | Community","name_short":"sfo-4","host":"sfo-1.us.uncletopia.com","port":27045,"enabled":true,"region":"us-west","cc":"us","latitude":37.77397,"longitude":-122.4313,"reserved":0,"last_update":"0001-01-01T00:00:00Z","name_a2s":"Uncletopia | San Francisco | 4 | Community","protocol":17,"map":"cp_snakewater_final1","folder":"tf","game":"Team Fortress","app_id":440,"player_count":0,"max_players":24,"Bots":0,"server_type":"Dedicated","server_os":"Linux","password":true,"vac":true,"version":"7961495","steam_id":85568392924742826,"keywords":["cp","nocrits","nodmgspread","uncletopia"],"game_id":440,"stv_port":27046,"stv_name":"Uncletopia | San Francisco | 4 | Community | STV","players":null},{"server_id":141,"name":"Uncletopia | Sydney | 1 | All Maps","name_short":"syd-1","host":"syd-1.au.uncletopia.com","port":27015,"enabled":true,"region":"au","cc":"au","latitude":-33.865143,"longitude":151.2099,"reserved":0,"last_update":"0001-01-01T00:00:00Z","name_a2s":"Uncletopia | Sydney | 1 | All Maps","protocol":17,"map":"koth_viaduct","folder":"tf","game":"Team Fortress","app_id":440,"player_count":0,"max_players":24,"Bots":0,"server_type":"Dedicated","server_os":"Linux","password":true,"vac":true,"version":"7961495","steam_id":85568392924470001,"keywords":["cp","nocrits","nodmgspread","uncletopia"],"game_id":440,"stv_port":27016,"stv_name":"Uncletopia | Sydney | 1 | All Maps | STV","players":null},{"server_id":123,"name":"Uncletopia | Sydney | 2 | All Maps","name_short":"syd-2","host":"syd-1.au.uncletopia.com","port":27025,"enabled":true,"region":"au","cc":"au","latitude":-33.865143,"longitude":151.2099,"reserved":0,"last_update":"0001-01-01T00:00:00Z","name_a2s":"Uncletopia | Sydney | 2 | All Maps","protocol":17,"map":"koth_viaduct","folder":"tf","game":"Team Fortress","app_id":440,"player_count":0,"max_players":24,"Bots":0,"server_type":"Dedicated","server_os":"Linux","password":true,"vac":true,"version":"7961495","steam_id":85568392924470002,"keywords":["cp","nocrits","nodmgspread","uncletopia"],"game_id":440,"stv_port":27026,"stv_name":"Uncletopia | Sydney | 2 | All Maps | STV","players":null},{"server_id":395,"name":"Uncletopia | Sydney | 3 | All Maps","name_short":"syd-3","host":"syd-1.au.uncletopia.com","port":27035,"enabled":true,"region":"au","cc":"au","latitude":-33.865143,"longitude":151.2099,"reserved":0,"last_update":"0001-01-01T00:00:00Z","name_a2s":"Uncletopia | Sydney | 3 | All Maps","protocol":17,"map":"pl_borneo","folder":"tf","game":"Team Fortress","app_id":440,"player_count":0,"max_players":24,"Bots":0,"server_type":"Dedicated","server_os":"Linux","password":true,"vac":true,"version":"7961495","steam_id":85568392925194467,"keywords":["nocrits","nodmgspread","payload","uncletopia"],"game_id":440,"stv_port":27036,"stv_name":"Uncletopia | Sydney | 3 | All Maps | STV","players":null},{"server_id":396,"name":"Uncletopia | Sydney | 4 | All Maps","name_short":"syd-4","host":"syd-1.au.uncletopia.com","port":27045,"enabled":true,"region":"au","cc":"au","latitude":-33.865143,"longitude":151.2099,"reserved":0,"last_update":"0001-01-01T00:00:00Z","name_a2s":"Uncletopia | Sydney | 4 | All Maps","protocol":17,"map":"pl_barnblitz","folder":"tf","game":"Team Fortress","app_id":440,"player_count":0,"max_players":24,"Bots":0,"server_type":"Dedicated","server_os":"Linux","password":true,"vac":true,"version":"7961495","steam_id":85568392925397958,"keywords":["nocrits","nodmgspread","payload","uncletopia"],"game_id":440,"stv_port":27046,"stv_name":"Uncletopia | Sydney | 4 | All Maps | STV","players":null},{"server_id":58,"name":"Uncletopia | Sydney | 5 | Stopwatch Beta","name_short":"syd-5","host":"syd-1.au.uncletopia.com","port":27055,"enabled":true,"region":"au","cc":"au","latitude":-33.865143,"longitude":151.2099,"reserved":0,"last_update":"0001-01-01T00:00:00Z","name_a2s":"Uncletopia | Sydney | 5 | Stopwatch Beta","protocol":17,"map":"pl_frontier_final","folder":"tf","game":"Team Fortress","app_id":440,"player_count":0,"max_players":24,"Bots":0,"server_type":"Dedicated","server_os":"Linux","password":true,"vac":true,"version":"7961495","steam_id":85568392925397959,"keywords":["nocrits","nodmgspread","payload","uncletopia"],"game_id":440,"stv_port":27056,"stv_name":"Uncletopia | Sydney | 5 | Stopwatch Beta | STV","players":null},{"server_id":59,"name":"Uncletopia | Sydney | 6 | Community","name_short":"syd-6","host":"syd-1.au.uncletopia.com","port":27065,"enabled":true,"region":"au","cc":"au","latitude":-33.865143,"longitude":151.2099,"reserved":0,"last_update":"0001-01-01T00:00:00Z","name_a2s":"Uncletopia | Sydney | 6 | Community","protocol":17,"map":"pl_swiftwater_final1","folder":"tf","game":"Team Fortress","app_id":440,"player_count":0,"max_players":24,"Bots":0,"server_type":"Dedicated","server_os":"Linux","password":true,"vac":true,"version":"7961495","steam_id":85568392925397960,"keywords":["nocrits","nodmgspread","payload","uncletopia"],"game_id":440,"stv_port":27066,"stv_name":"Uncletopia | Sydney | 6 | Community | STV","players":null},{"server_id":49,"name":"Uncletopia | Warsaw | 1 | All Maps","name_short":"waw-1","host":"waw-1.pl.uncletopia.com","port":27015,"enabled":true,"region":"eu","cc":"pl","latitude":52.2297,"longitude":21.017532,"reserved":0,"last_update":"0001-01-01T00:00:00Z","name_a2s":"Uncletopia | Warsaw | 1 | All Maps","protocol":17,"map":"pl_upward","folder":"tf","game":"Team Fortress","app_id":440,"player_count":0,"max_players":24,"Bots":0,"server_type":"Dedicated","server_os":"Linux","password":true,"vac":true,"version":"7961495","steam_id":85568392925397850,"keywords":["nocrits","nodmgspread","payload","uncletopia"],"game_id":440,"stv_port":27016,"stv_name":"Uncletopia | Warsaw | 1 | All Maps | STV","players":null},{"server_id":50,"name":"Uncletopia | Warsaw | 2 | All Maps","name_short":"waw-2","host":"waw-1.pl.uncletopia.com","port":27025,"enabled":true,"region":"eu","cc":"pl","latitude":52.2297,"longitude":21.017532,"reserved":0,"last_update":"0001-01-01T00:00:00Z","name_a2s":"Uncletopia | Warsaw | 2 | All Maps","protocol":17,"map":"pl_badwater","folder":"tf","game":"Team Fortress","app_id":440,"player_count":0,"max_players":24,"Bots":0,"server_type":"Dedicated","server_os":"Linux","password":true,"vac":true,"version":"7961495","steam_id":85568392925397851,"keywords":["nocrits","nodmgspread","payload","uncletopia"],"game_id":440,"stv_port":27026,"stv_name":"Uncletopia | Warsaw | 2 | All Maps | STV","players":null},{"server_id":51,"name":"Uncletopia | Warsaw | 3 | All Maps","name_short":"waw-3","host":"waw-1.pl.uncletopia.com","port":27035,"enabled":true,"region":"eu","cc":"pl","latitude":52.2297,"longitude":21.017532,"reserved":0,"last_update":"0001-01-01T00:00:00Z","name_a2s":"Uncletopia | Warsaw | 3 | All Maps","protocol":17,"map":"cp_mountainlab","folder":"tf","game":"Team Fortress","app_id":440,"player_count":0,"max_players":24,"Bots":0,"server_type":"Dedicated","server_os":"Linux","password":true,"vac":true,"version":"7961495","steam_id":85568392925397852,"keywords":["cp","nocrits","nodmgspread","uncletopia"],"game_id":440,"stv_port":27036,"stv_name":"Uncletopia | Warsaw | 3 | All Maps | STV","players":null},{"server_id":52,"name":"Uncletopia | Warsaw | 4 | All Maps","name_short":"waw-4","host":"waw-1.pl.uncletopia.com","port":27045,"enabled":true,"region":"eu","cc":"pl","latitude":52.2297,"longitude":21.017532,"reserved":0,"last_update":"0001-01-01T00:00:00Z","name_a2s":"Uncletopia | Warsaw | 4 | All Maps","protocol":17,"map":"pl_badwater","folder":"tf","game":"Team Fortress","app_id":440,"player_count":0,"max_players":24,"Bots":0,"server_type":"Dedicated","server_os":"Linux","password":true,"vac":true,"version":"7961495","steam_id":85568392925397853,"keywords":["nocrits","nodmgspread","payload","uncletopia"],"game_id":440,"stv_port":27046,"stv_name":"Uncletopia | Warsaw | 4 | All Maps | STV","players":null},{"server_id":53,"name":"Uncletopia | Warsaw | 5 | Stopwatch Beta","name_short":"waw-5","host":"waw-1.pl.uncletopia.com","port":27055,"enabled":true,"region":"eu","cc":"pl","latitude":52.2297,"longitude":21.017532,"reserved":0,"last_update":"0001-01-01T00:00:00Z","name_a2s":"Uncletopia | Warsaw | 5 | Stopwatch Beta","protocol":17,"map":"pl_snowycoast","folder":"tf","game":"Team Fortress","app_id":440,"player_count":0,"max_players":24,"Bots":0,"server_type":"Dedicated","server_os":"Linux","password":true,"vac":true,"version":"7961495","steam_id":85568392925397854,"keywords":["nocrits","nodmgspread","payload","uncletopia"],"game_id":440,"stv_port":27056,"stv_name":"Uncletopia | Warsaw | 5 | Stopwatch Beta | STV","players":null},{"server_id":54,"name":"Uncletopia | Warsaw | 6 | Community","name_short":"waw-6","host":"waw-1.pl.uncletopia.com","port":27065,"enabled":true,"region":"eu","cc":"pl","latitude":52.2297,"longitude":21.017532,"reserved":0,"last_update":"0001-01-01T00:00:00Z","name_a2s":"Uncletopia | Warsaw | 6 | Community","protocol":17,"map":"pl_borneo","folder":"tf","game":"Team Fortress","app_id":440,"player_count":0,"max_players":24,"Bots":0,"server_type":"Dedicated","server_os":"Linux","password":true,"vac":true,"version":"7961495","steam_id":85568392925397856,"keywords":["nocrits","nodmgspread","payload","uncletopia"],"game_id":440,"stv_port":27066,"stv_name":"Uncletopia | Warsaw | 6 | Community | STV","players":null}]}