{"status":true,"message":"","result":[{"server_id":9,"name":"Uncletopia | Atlanta | 1 | All Maps","name_short":"atl-1","host":"atl-1.us.uncletopia.com","port":27015,"enabled":true,"region":"us-east","cc":"us","latitude":33.753746,"longitude":-84.38633,"reserved":0,"last_update":"0001-01-01T00:00:00Z","name_a2s":"Uncletopia | Atlanta | 1 | All Maps","protocol":17,"map":"pl_pier","folder":"tf","game":"Team Fortress","app_id":440,"player_count":23,"max_players":24,"Bots":0,"server_type":"Dedicated","server_os":"Linux","password":true,"vac":true,"version":"7757534","steam_id":85568392924469982,"keywords":["nocrits","nodmgspread","payload","uncletopia"],"game_id":440,"stv_port":27016,"stv_name":"Uncletopia | Atlanta | 1 | All Maps | STV","players":[{"user_id":372,"name":"Rin \"Hindwing\" Redtail","steam_id":76561199074865638,"connected_time":4024000000000,"state":"active","ping":59},{"user_id":401,"name":"Tay1Qr","steam_id":76561198082809935,"connected_time":1693000000000,"state":"active","ping":60},{"user_id":386,"name":"Murrdogg","steam_id":76561198210491188,"connected_time":2651000000000,"state":"active","ping":93},{"user_id":416,"name":"Crog","steam_id":76561198081129776,"connected_time":912000000000,"state":"active","ping":88},{"user_id":331,"name":"M@verick","steam_id":76561198006363519,"connected_time":6240000000000,"state":"active","ping":75},{"user_id":424,"name":"Decolour","steam_id":76561199045608372,"connected_time":8000000000,"state":"active","ping":121},{"user_id":327,"name":"khalil","steam_id":76561199008085020,"connected_time":6355000000000,"state":"active","ping":60},{"user_id":422,"name":"MyamE","steam_id":76561198133278462,"connected_time":53000000000,"state":"active","ping":73},{"user_id":420,"name":"The Engineer Without purpose","steam_id":76561199388706563,"connected_time":274000000000,"state":"active","ping":70},{"user_id":374,"name":"ATLS1 | SparkStorm","steam_id":76561198095817025,"connected_time":4001000000000,"state":"active","ping":36},{"user_id":384,"name":"squaggles!","steam_id":76561197994995011,"connected_time":3016000000000,"state":"active","ping":36},{"user_id":398,"name":"Oxyclean","steam_id":76561198042954813,"connected_time":1986000000000,"state":"active","ping":86},{"user_id":368,"name":"lil hog","steam_id":76561199230929836,"connected_time":4390000000000,"state":"active","ping":69},{"user_id":389,"name":"Moscow Medic","steam_id":76561198071040516,"connected_time":2344000000000,"state":"active","ping":83},{"user_id":367,"name":"Young-OG","steam_id":76561198058800479,"connected_time":4512000000000,"state":"active","ping":59},{"user_id":405,"name":"ash","steam_id":76561198127890645,"connected_time":1400000000000,"state":"active","ping":60},{"user_id":347,"name":"200,000 rabid chihuahuas in Ohi","steam_id":76561198130772096,"connected_time":5595000000000,"state":"active","ping":46},{"user_id":415,"name":"knotsofunny","steam_id":76561198071336304,"connected_time":952000000000,"state":"active","ping":47},{"user_id":404,"name":"You Don't Nomi.","steam_id":76561197969137836,"connected_time":1449000000000,"state":"active","ping":70},{"user_id":417,"name":"tandemaus","steam_id":76561198364713633,"connected_time":872000000000,"state":"active","ping":73},{"user_id":419,"name":"bmg #killtf2","steam_id":76561198328578605,"connected_time":326000000000,"state":"active","ping":45},{"user_id":255,"name":"slime ( ,'' w'' )","steam_id":76561198198984282,"connected_time":9435000000000,"state":"active","ping":71},{"user_id":396,"name":"Dr. Professor PJ, Ph.D","steam_id":76561198004429398,"connected_time":2023000000000,"state":"active","ping":40}]},{"server_id":400,"name":"Uncletopia | Atlanta | 3 | Community","name_short":"atl-3","host":"atl-1.us.uncletopia.com","port":27035,"enabled":true,"region":"us-east","cc":"us","latitude":33.753746,"longitude":-84.38633,"reserved":0,"last_update":"0001-01-01T00:00:00Z","name_a2s":"Uncletopia | Atlanta | 3 | Community","protocol":17,"map":"workshop/koth_ashville_final.ugc2130459942","folder":"tf","game":"Team Fortress","app_id":440,"player_count":0,"max_players":24,"Bots":0,"server_type":"Dedicated","server_os":"Linux","password":true,"vac":true,"version":"7757534","steam_id":85568392924515187,"keywords":["cp","nocrits","nodmgspread","uncletopia"],"game_id":440,"stv_port":27036,"stv_name":"Uncletopia | Atlanta | 3 | Community | STV","players":null},{"server_id":401,"name":"Uncletopia | Atlanta | 4 | No Payload","name_short":"atl-4","host":"atl-1.us.uncletopia.com","port":27045,"enabled":true,"region":"us-east","cc":"us","latitude":33.753746,"longitude":-84.38633,"reserved":0,"last_update":"0001-01-01T00:00:00Z","name_a2s":"","protocol":0,"map":"","folder":"","game":"","app_id":0,"player_count":0,"max_players":0,"Bots":0,"server_type":"","server_os":"","password":false,"vac":false,"version":"","steam_id":0,"keywords":null,"game_id":0,"stv_port":0,"stv_name":"","players":null},{"server_id":2,"name":"Uncletopia | Chicago | 1 | All Maps","name_short":"chi-1","host":"chi-1.us.uncletopia.com","port":27015,"enabled":true,"region":"us-central","cc":"us","latitude":41.881832,"longitude":-87.62318,"reserved":0,"last_update":"0001-01-01T00:00:00Z","name_a2s":"Uncletopia | Chicago | 1 | All Maps","protocol":17,"map":"pl_upward","folder":"tf","game":"Team Fortress","app_id":440,"player_count":24,"max_players":24,"Bots":0,"server_type":"Dedicated","server_os":"Linux","password":true,"vac":true,"version":"7757534","steam_id":85568392924469984,"keywords":["nocrits","nodmgspread","payload","uncletopia"],"game_id":440,"stv_port":27016,"stv_name":"Uncletopia | Chicago | 1 | All Maps | STV","players":[{"user_id":518,"name":"StonedGiant","steam_id":76561197984386932,"connected_time":2477000000000,"state":"active","ping":56},{"user_id":531,"name":"eWVra2Vy","steam_id":76561198453565942,"connected_time":2140000000000,"state":"active","ping":78},{"user_id":542,"name":"Veirū Viseris","steam_id":76561197989857176,"connected_time":1430000000000,"state":"active","ping":158},{"user_id":537,"name":"Cleric","steam_id":76561198045887994,"connected_time":1845000000000,"state":"active","ping":46},{"user_id":553,"name":"SubZeroDestruction","steam_id":76561198145082209,"connected_time":800000000000,"state":"active","ping":72},{"user_id":539,"name":"eloressa","steam_id":76561198120330867,"connected_time":1672000000000,"state":"active","ping":47},{"user_id":479,"name":"Rec","steam_id":76561198022813906,"connected_time":5460000000000,"state":"active","ping":51},{"user_id":520,"name":"Jak(i)","steam_id":76561198076823144,"connected_time":2251000000000,"state":"active","ping":63},{"user_id":540,"name":"Rifter","steam_id":76561198077430698,"connected_time":1516000000000,"state":"active","ping":61},{"user_id":551,"name":"Manager Troy","steam_id":76561198311004039,"connected_time":909000000000,"state":"active","ping":95},{"user_id":552,"name":"barbara","steam_id":76561198072417792,"connected_time":886000000000,"state":"active","ping":115},{"user_id":498,"name":"dP | I'm in a Wookie Suit","steam_id":76561198083307644,"connected_time":4015000000000,"state":"active","ping":109},{"user_id":525,"name":"weewa","steam_id":76561198064876090,"connected_time":2203000000000,"state":"active","ping":67},{"user_id":546,"name":"KingSteve42","steam_id":76561198409455888,"connected_time":1268000000000,"state":"active","ping":108},{"user_id":533,"name":"Mister Teardrop","steam_id":76561198067177025,"connected_time":2066000000000,"state":"active","ping":54},{"user_id":550,"name":"büddeh","steam_id":76561198070735936,"connected_time":920000000000,"state":"active","ping":54},{"user_id":480,"name":"wiiblob","steam_id":76561198109106242,"connected_time":5460000000000,"state":"active","ping":134},{"user_id":548,"name":"Sick Lia :c","steam_id":76561198151569597,"connected_time":1121000000000,"state":"active","ping":164},{"user_id":512,"name":"nav","steam_id":76561198872608266,"connected_time":2999000000000,"state":"active","ping":79},{"user_id":513,"name":"Lawtumn","steam_id":76561198347286009,"connected_time":2908000000000,"state":"active","ping":83},{"user_id":332,"name":"Joeyd2129 #saveTF2","steam_id":76561198238471088,"connected_time":9940000000000,"state":"active","ping":102},{"user_id":530,"name":"Cerabond","steam_id":76561199230915333,"connected_time":2182000000000,"state":"active","ping":83},{"user_id":536,"name":"Tyco","steam_id":76561197978414167,"connected_time":1933000000000,"state":"active","ping":75},{"user_id":502,"name":"mrbeast109385079350229083479082","steam_id":76561198370687830,"connected_time":3627000000000,"state":"active","ping":81}]},{"server_id":106,"name":"Uncletopia | Chicago | 2 | All Maps","name_short":"chi-2","host":"chi-1.us.uncletopia.com","port":27025,"enabled":true,"region":"us-central","cc":"us","latitude":41.881832,"longitude":-87.62318,"reserved":0,"last_update":"0001-01-01T00:00:00Z","name_a2s":"Uncletopia | Chicago | 2 | All Maps","protocol":17,"map":"pl_pier","folder":"tf","game":"Team Fortress","app_id":440,"player_count":21,"max_players":24,"Bots":0,"server_type":"Dedicated","server_os":"Linux","password":true,"vac":true,"version":"7757534","steam_id":85568392924469985,"keywords":["nocrits","nodmgspread","payload","uncletopia"],"game_id":440,"stv_port":27026,"stv_name":"Uncletopia | Chicago | 2 | All Maps | STV","players":[{"user_id":254,"name":"Tallyden","steam_id":76561197998572962,"connected_time":1000000000,"state":"spawning","ping":31},{"user_id":233,"name":"Sinistar","steam_id":76561198992778530,"connected_time":908000000000,"state":"active","ping":87},{"user_id":230,"name":"Indig0","steam_id":76561198121929881,"connected_time":946000000000,"state":"active","ping":84},{"user_id":156,"name":"ZombieSkeletor2","steam_id":76561198244937990,"connected_time":6191000000000,"state":"active","ping":88},{"user_id":235,"name":"HiruNichi","steam_id":76561198162682083,"connected_time":783000000000,"state":"active","ping":79},{"user_id":239,"name":"Bigtimefan5","steam_id":76561199047490167,"connected_time":497000000000,"state":"active","ping":80},{"user_id":234,"name":"Johnny Lawrence #JohnnyMaxxing","steam_id":76561199367141671,"connected_time":830000000000,"state":"active","ping":62},{"user_id":195,"name":"Cheeeeeeeen","steam_id":76561198986388085,"connected_time":4186000000000,"state":"active","ping":108},{"user_id":250,"name":"toxic man in training","steam_id":76561198128742436,"connected_time":211000000000,"state":"active","ping":49},{"user_id":226,"name":"Benky","steam_id":76561198062469194,"connected_time":1670000000000,"state":"active","ping":65},{"user_id":237,"name":"TastyWheat","steam_id":76561198855061918,"connected_time":752000000000,"state":"active","ping":104},{"user_id":238,"name":"ian","steam_id":76561198119616750,"connected_time":676000000000,"state":"active","ping":101},{"user_id":241,"name":"FUSION","steam_id":76561197972659738,"connected_time":408000000000,"state":"active","ping":53},{"user_id":242,"name":"Delta","steam_id":76561199059668195,"connected_time":387000000000,"state":"active","ping":93},{"user_id":247,"name":"Gork","steam_id":76561198304963530,"connected_time":280000000000,"state":"active","ping":75},{"user_id":245,"name":"I_Suck@ThisGame","steam_id":76561198021498139,"connected_time":300000000000,"state":"active","ping":93},{"user_id":251,"name":"Dzzplayz","steam_id":76561198380666998,"connected_time":202000000000,"state":"active","ping":101},{"user_id":229,"name":"Bears2231","steam_id":76561198097224505,"connected_time":1081000000000,"state":"active","ping":63},{"user_id":248,"name":"Mailman","steam_id":76561198090675970,"connected_time":255000000000,"state":"active","ping":57},{"user_id":249,"name":"lawnmowinkitty","steam_id":76561198038997467,"connected_time":242000000000,"state":"active","ping":105},{"user_id":252,"name":"pangxiong147","steam_id":76561199333740508,"connected_time":200000000000,"state":"active","ping":72}]},{"server_id":402,"name":"Uncletopia | Chicago | 3 | All Maps","name_short":"chi-3","host":"chi-1.us.uncletopia.com","port":27035,"enabled":true,"region":"us-central","cc":"us","latitude":41.881832,"longitude":-87.62318,"reserved":0,"last_update":"0001-01-01T00:00:00Z","name_a2s":"Uncletopia | Chicago | 3 | All Maps","protocol":17,"map":"koth_lakeside_final","folder":"tf","game":"Team Fortress","app_id":440,"player_count":12,"max_players":24,"Bots":0,"server_type":"Dedicated","server_os":"Linux","password":true,"vac":true,"version":"7757534","steam_id":85568392924515191,"keywords":["cp","nocrits","nodmgspread","uncletopia"],"game_id":440,"stv_port":27036,"stv_name":"Uncletopia | Chicago | 3 | All Maps | STV","players":[{"user_id":33,"name":"shadow wizard","steam_id":76561198165212575,"connected_time":149000000000,"state":"active","ping":69},{"user_id":13,"name":"ButterScotch","steam_id":76561199389314894,"connected_time":1587000000000,"state":"active","ping":61},{"user_id":34,"name":"$2.99 Shrimps","steam_id":76561198077272494,"connected_time":121000000000,"state":"active","ping":35},{"user_id":19,"name":"Scoobert","steam_id":76561198255705632,"connected_time":1070000000000,"state":"active","ping":62},{"user_id":20,"name":"cokersworld","steam_id":76561198039731344,"connected_time":1063000000000,"state":"active","ping":83},{"user_id":35,"name":"Mervous Thrifty","steam_id":76561198063250819,"connected_time":104000000000,"state":"active","ping":45},{"user_id":23,"name":"ChaingunnerFails","steam_id":76561198963075967,"connected_time":948000000000,"state":"active","ping":115},{"user_id":26,"name":"Recursive Gamer","steam_id":76561198042102952,"connected_time":448000000000,"state":"active","ping":64},{"user_id":28,"name":"Par1234","steam_id":76561198317503389,"connected_time":405000000000,"state":"active","ping":85},{"user_id":36,"name":"Player_X_YT","steam_id":76561198377711617,"connected_time":93000000000,"state":"active","ping":64},{"user_id":30,"name":"Gibby","steam_id":76561199336569123,"connected_time":331000000000,"state":"active","ping":115},{"user_id":37,"name":"antj","steam_id":76561198107931997,"connected_time":63000000000,"state":"active","ping":64}]},{"server_id":403,"name":"Uncletopia | Chicago | 4 | All Maps","name_short":"chi-4","host":"chi-1.us.uncletopia.com","port":27045,"enabled":true,"region":"us-central","cc":"us","latitude":41.881832,"longitude":-87.62318,"reserved":0,"last_update":"0001-01-01T00:00:00Z","name_a2s":"Uncletopia | Chicago | 4 | All Maps","protocol":17,"map":"pl_frontier_final","folder":"tf","game":"Team Fortress","app_id":440,"player_count":22,"max_players":24,"Bots":0,"server_type":"Dedicated","server_os":"Linux","password":true,"vac":true,"version":"7757534","steam_id":85568392924515193,"keywords":["nocrits","nodmgspread","payload","uncletopia"],"game_id":440,"stv_port":27046,"stv_name":"Uncletopia | Chicago | 4 | All Maps | STV","players":[{"user_id":330,"name":"Chrome Knight","steam_id":76561198851348871,"connected_time":2993000000000,"state":"active","ping":77},{"user_id":332,"name":"Mrcheesey","steam_id":76561199078252493,"connected_time":2895000000000,"state":"active","ping":98},{"user_id":376,"name":"The Undone Sage","steam_id":76561198261998561,"connected_time":805000000000,"state":"active","ping":62},{"user_id":378,"name":"thomasdee725","steam_id":76561199189526173,"connected_time":721000000000,"state":"active","ping":84},{"user_id":385,"name":"beethan","steam_id":76561198148199120,"connected_time":13000000000,"state":"spawning","ping":85},{"user_id":334,"name":"Appa","steam_id":76561198967570064,"connected_time":2849000000000,"state":"active","ping":85},{"user_id":379,"name":"Smileattack","steam_id":76561198044757167,"connected_time":563000000000,"state":"active","ping":53},{"user_id":335,"name":"Kim SEXler","steam_id":76561198811554257,"connected_time":2840000000000,"state":"active","ping":53},{"user_id":312,"name":"Vevici","steam_id":76561198182627309,"connected_time":4215000000000,"state":"active","ping":62},{"user_id":383,"name":"bary","steam_id":76561197988317087,"connected_time":96000000000,"state":"active","ping":67},{"user_id":382,"name":"FunGi","steam_id":76561198881418662,"connected_time":355000000000,"state":"active","ping":81},{"user_id":381,"name":"synoptic","steam_id":76561198995397050,"connected_time":375000000000,"state":"active","ping":160},{"user_id":359,"name":"The Jim Super Saiyan IV","steam_id":76561199046650666,"connected_time":1927000000000,"state":"active","ping":57},{"user_id":366,"name":"craxyt","steam_id":76561198050192689,"connected_time":1728000000000,"state":"active","ping":104},{"user_id":386,"name":"Blobulonn","steam_id":76561198247949502,"connected_time":7000000000,"state":"spawning","ping":77},{"user_id":367,"name":"Room_237","steam_id":76561199135081315,"connected_time":1723000000000,"state":"active","ping":72},{"user_id":350,"name":"greg","steam_id":76561199195205705,"connected_time":2313000000000,"state":"active","ping":85},{"user_id":368,"name":"Average F2P","steam_id":76561198449045344,"connected_time":1709000000000,"state":"active","ping":179},{"user_id":373,"name":"Sleepy Zombie","steam_id":76561197999126875,"connected_time":1531000000000,"state":"active","ping":54},{"user_id":370,"name":"Kielakeet™","steam_id":76561198236133422,"connected_time":1700000000000,"state":"active","ping":85},{"user_id":372,"name":"caboose","steam_id":76561198010370396,"connected_time":1660000000000,"state":"active","ping":49},{"user_id":375,"name":"４０ ＦＰＳ","steam_id":76561198272394965,"connected_time":1362000000000,"state":"active","ping":134}]},{"server_id":36,"name":"Uncletopia | Chicago | 5 | All Maps","name_short":"chi-5","host":"chi-2.us.uncletopia.com","port":27015,"enabled":true,"region":"us-central","cc":"us","latitude":41.881832,"longitude":-87.62318,"reserved":0,"last_update":"0001-01-01T00:00:00Z","name_a2s":"Uncletopia | Chicago | 5 | All Maps","protocol":17,"map":"pl_barnblitz","folder":"tf","game":"Team Fortress","app_id":440,"player_count":24,"max_players":24,"Bots":0,"server_type":"Dedicated","server_os":"Linux","password":true,"vac":true,"version":"7757534","steam_id":85568392924866362,"keywords":["nocrits","nodmgspread","payload","uncletopia"],"game_id":440,"stv_port":27016,"stv_name":"Uncletopia | Chicago | 5 | All Maps | STV","players":[{"user_id":402,"name":"Kero","steam_id":76561198343231436,"connected_time":4854000000000,"state":"active","ping":59},{"user_id":488,"name":"chicken banker","steam_id":76561199195196632,"connected_time":316000000000,"state":"active","ping":77},{"user_id":466,"name":"Kzjytsugn","steam_id":76561198130241974,"connected_time":2314000000000,"state":"active","ping":89},{"user_id":441,"name":"MultiWingCipher","steam_id":76561198048275541,"connected_time":3144000000000,"state":"active","ping":82},{"user_id":478,"name":"Twilz","steam_id":76561198180927529,"connected_time":1231000000000,"state":"active","ping":63},{"user_id":484,"name":"Wan Shi Tong","steam_id":76561198076441225,"connected_time":704000000000,"state":"active","ping":62},{"user_id":465,"name":"ryghehn","steam_id":76561198195359229,"connected_time":2347000000000,"state":"active","ping":91},{"user_id":474,"name":"Rajakz","steam_id":76561198220741160,"connected_time":1914000000000,"state":"active","ping":60},{"user_id":485,"name":"TimTam Tom","steam_id":76561198045988062,"connected_time":642000000000,"state":"active","ping":77},{"user_id":489,"name":"GL9001 Liam","steam_id":76561198059480214,"connected_time":281000000000,"state":"active","ping":71},{"user_id":486,"name":"Regi","steam_id":76561198271508598,"connected_time":628000000000,"state":"active","ping":60},{"user_id":430,"name":"Source Enjoyer","steam_id":76561198105663173,"connected_time":3347000000000,"state":"active","ping":57},{"user_id":410,"name":"Fresh0c0","steam_id":76561198271933283,"connected_time":4484000000000,"state":"active","ping":65},{"user_id":473,"name":"[chef] iron","steam_id":76561197970888616,"connected_time":2118000000000,"state":"active","ping":48},{"user_id":482,"name":"gabagool","steam_id":76561198012131766,"connected_time":1067000000000,"state":"active","ping":59},{"user_id":468,"name":"NitroNick","steam_id":76561198045728022,"connected_time":2297000000000,"state":"active","ping":88},{"user_id":431,"name":"Holy Dwight","steam_id":76561198012334980,"connected_time":3343000000000,"state":"active","ping":95},{"user_id":469,"name":"♥ memegamer23123 ♥","steam_id":76561198048478450,"connected_time":2289000000000,"state":"active","ping":80},{"user_id":490,"name":"Unwavering Flavor","steam_id":76561198053306065,"connected_time":270000000000,"state":"active","ping":83},{"user_id":491,"name":"Manu","steam_id":76561198145330934,"connected_time":237000000000,"state":"active","ping":127},{"user_id":492,"name":"daud","steam_id":76561198172714142,"connected_time":216000000000,"state":"active","ping":93},{"user_id":487,"name":"Sweet","steam_id":76561198140456369,"connected_time":404000000000,"state":"active","ping":55},{"user_id":421,"name":"Medl3y Batel","steam_id":76561198179888142,"connected_time":3634000000000,"state":"active","ping":60},{"user_id":475,"name":"Dangerous_Dave76","steam_id":76561199230056550,"connected_time":1662000000000,"state":"active","ping":121}]},{"server_id":37,"name":"Uncletopia | Chicago | 6 | All Maps","name_short":"chi-6","host":"chi-2.us.uncletopia.com","port":27025,"enabled":true,"region":"us-central","cc":"us","latitude":41.881832,"longitude":-87.62318,"reserved":0,"last_update":"0001-01-01T00:00:00Z","name_a2s":"Uncletopia | Chicago | 6 | All Maps","protocol":17,"map":"koth_cascade","folder":"tf","game":"Team Fortress","app_id":440,"player_count":23,"max_players":24,"Bots":0,"server_type":"Dedicated","server_os":"Linux","password":true,"vac":true,"version":"7757534","steam_id":85568392924866363,"keywords":["cp","nocrits","nodmgspread","uncletopia"],"game_id":440,"stv_port":27026,"stv_name":"Uncletopia | Chicago | 6 | All Maps | STV","players":[{"user_id":173,"name":"garbage (very bad)","steam_id":76561198172454407,"connected_time":127000000000,"state":"active","ping":75},{"user_id":155,"name":"glxy stan","steam_id":76561198986534519,"connected_time":923000000000,"state":"active","ping":95},{"user_id":120,"name":"Rappitor","steam_id":76561198105613110,"connected_time":3682000000000,"state":"active","ping":61},{"user_id":156,"name":"humandogboy","steam_id":76561199125041162,"connected_time":876000000000,"state":"active","ping":83},{"user_id":81,"name":"daemon","steam_id":76561198001541433,"connected_time":7940000000000,"state":"active","ping":59},{"user_id":157,"name":"criss11401","steam_id":76561198193805663,"connected_time":859000000000,"state":"active","ping":75},{"user_id":175,"name":"sky.to16","steam_id":76561199211313763,"connected_time":27000000000,"state":"active","ping":68},{"user_id":148,"name":"Smoker Lung","steam_id":76561198077167395,"connected_time":2011000000000,"state":"active","ping":61},{"user_id":174,"name":"KingPilgrim","steam_id":76561198850151440,"connected_time":119000000000,"state":"active","ping":79},{"user_id":158,"name":"Moz","steam_id":76561198027171160,"connected_time":858000000000,"state":"active","ping":47},{"user_id":134,"name":"Lucon","steam_id":76561198067147724,"connected_time":2598000000000,"state":"active","ping":59},{"user_id":150,"name":"jolo","steam_id":76561198042831480,"connected_time":1928000000000,"state":"active","ping":72},{"user_id":140,"name":"A Zoo Keeper","steam_id":76561198013732450,"connected_time":2256000000000,"state":"active","ping":52},{"user_id":125,"name":"okay but i'm literally gaming","steam_id":76561199012771039,"connected_time":3151000000000,"state":"active","ping":91},{"user_id":163,"name":"Acro Banwagon","steam_id":76561198092451804,"connected_time":689000000000,"state":"active","ping":69},{"user_id":172,"name":"nkb. CraftKitty @RGBLAN","steam_id":76561198080775103,"connected_time":238000000000,"state":"active","ping":60},{"user_id":166,"name":"nkb. Kami @ RGB","steam_id":76561197971352904,"connected_time":610000000000,"state":"active","ping":59},{"user_id":153,"name":"Mr. Electric","steam_id":76561198071962415,"connected_time":1153000000000,"state":"active","ping":86},{"user_id":167,"name":"beats","steam_id":76561199245717718,"connected_time":579000000000,"state":"active","ping":66},{"user_id":170,"name":"no way","steam_id":76561198082496000,"connected_time":326000000000,"state":"active","ping":80},{"user_id":147,"name":"Camping Stimpy","steam_id":76561197992633330,"connected_time":2077000000000,"state":"active","ping":63},{"user_id":136,"name":"no name retard","steam_id":76561198197047443,"connected_time":2541000000000,"state":"active","ping":63},{"user_id":171,"name":"nucket","steam_id":76561198028658527,"connected_time":313000000000,"state":"active","ping":105}]},{"server_id":38,"name":"Uncletopia | Chicago | 7 | Stopwatch Beta","name_short":"chi-7","host":"chi-2.us.uncletopia.com","port":27035,"enabled":true,"region":"us-central","cc":"us","latitude":41.881832,"longitude":-87.62318,"reserved":0,"last_update":"0001-01-01T00:00:00Z","name_a2s":"Uncletopia | Chicago | 7 | Stopwatch Beta","protocol":17,"map":"pl_upward","folder":"tf","game":"Team Fortress","app_id":440,"player_count":0,"max_players":24,"Bots":0,"server_type":"Dedicated","server_os":"Linux","password":true,"vac":true,"version":"7757534","steam_id":85568392924866364,"keywords":["nocrits","nodmgspread","payload","uncletopia"],"game_id":440,"stv_port":27036,"stv_name":"Uncletopia | Chicago | 7 | Stopwatch Beta | STV","players":null},{"server_id":39,"name":"Uncletopia | Chicago | 8 | Community","name_short":"chi-8","host":"chi-2.us.uncletopia.com","port":27045,"enabled":true,"region":"us-central","cc":"us","latitude":41.881832,"longitude":-87.62318,"reserved":0,"last_update":"0001-01-01T00:00:00Z","name_a2s":"Uncletopia | Chicago | 8 | Community","protocol":17,"map":"workshop/cp_reckoner_rc6.ugc674719999","folder":"tf","game":"Team Fortress","app_id":440,"player_count":19,"max_players":24,"Bots":0,"server_type":"Dedicated","server_os":"Linux","password":true,"vac":true,"version":"7757534","steam_id":85568392924866365,"keywords":["cp","nocrits","nodmgspread","uncletopia"],"game_id":440,"stv_port":27046,"stv_name":"Uncletopia | Chicago | 8 | Community | STV","players":[{"user_id":233,"name":"Candy Sparkles","steam_id":76561198126871264,"connected_time":916000000000,"state":"active","ping":80},{"user_id":179,"name":"Starlie","steam_id":76561198102100102,"connected_time":4804000000000,"state":"active","ping":125},{"user_id":132,"name":"magickxanadu","steam_id":76561199117360103,"connected_time":6587000000000,"state":"active","ping":74},{"user_id":231,"name":"^_^","steam_id":76561198971354161,"connected_time":1070000000000,"state":"active","ping":65},{"user_id":212,"name":"Lord Scrubling","steam_id":76561198263744445,"connected_time":3098000000000,"state":"active","ping":66},{"user_id":213,"name":"Dietrich","steam_id":76561198028163840,"connected_time":3083000000000,"state":"active","ping":84},{"user_id":235,"name":"FATBOY","steam_id":76561199002059394,"connected_time":828000000000,"state":"active","ping":70},{"user_id":191,"name":"cowgaming1004","steam_id":76561199077428781,"connected_time":4260000000000,"state":"active","ping":83},{"user_id":169,"name":"yoodle doodle","steam_id":76561198054897884,"connected_time":5111000000000,"state":"active","ping":74},{"user_id":236,"name":"Riske","steam_id":76561198115840568,"connected_time":809000000000,"state":"active","ping":64},{"user_id":214,"name":"banana man","steam_id":76561199385170644,"connected_time":3074000000000,"state":"active","ping":67},{"user_id":215,"name":"Bannana Man","steam_id":76561199345210632,"connected_time":3066000000000,"state":"active","ping":86},{"user_id":238,"name":"Schwagz","steam_id":76561198038330649,"connected_time":710000000000,"state":"active","ping":83},{"user_id":221,"name":"Redjay","steam_id":76561198045522718,"connected_time":3004000000000,"state":"active","ping":81},{"user_id":244,"name":"bruh","steam_id":76561199095370765,"connected_time":290000000000,"state":"active","ping":101},{"user_id":240,"name":"EliminateSingleFamilyZoning","steam_id":76561198276653985,"connected_time":508000000000,"state":"active","ping":63},{"user_id":222,"name":"Wazrobe","steam_id":76561198301357259,"connected_time":2995000000000,"state":"active","ping":91},{"user_id":226,"name":"PzVIIIMaus","steam_id":76561198346559365,"connected_time":2272000000000,"state":"spawning","ping":337},{"user_id":174,"name":"Number One Basil Fan","steam_id":76561198066227208,"connected_time":4976000000000,"state":"active","ping":60}]},{"server_id":8,"name":"Uncletopia | Dallas | 1 | All Maps","name_short":"dal-1","host":"dal-1.us.uncletopia.com","port":27015,"enabled":true,"region":"us-central","cc":"us","latitude":32.779167,"longitude":-96.80889,"reserved":0,"last_update":"0001-01-01T00:00:00Z","name_a2s":"Uncletopia | Dallas | 1 | All Maps","protocol":17,"map":"pl_upward","folder":"tf","game":"Team Fortress","app_id":440,"player_count":24,"max_players":24,"Bots":0,"server_type":"Dedicated","server_os":"Linux","password":true,"vac":true,"version":"7757534","steam_id":85568392924469986,"keywords":["nocrits","nodmgspread","payload","uncletopia"],"game_id":440,"stv_port":27016,"stv_name":"Uncletopia | Dallas | 1 | All Maps | STV","players":[{"user_id":161,"name":"Doober","steam_id":76561198056661095,"connected_time":328000000000,"state":"active","ping":64},{"user_id":111,"name":"Big Smoke","steam_id":76561198278375987,"connected_time":3619000000000,"state":"active","ping":53},{"user_id":146,"name":"DiscoTraveler","steam_id":76561199240168088,"connected_time":1142000000000,"state":"active","ping":80},{"user_id":136,"name":"Keg","steam_id":76561198242688458,"connected_time":2215000000000,"state":"active","ping":66},{"user_id":142,"name":"Dr. Bobo","steam_id":76561198271696761,"connected_time":1625000000000,"state":"active","ping":65},{"user_id":131,"name":"GLG.Liz","steam_id":76561198021957956,"connected_time":2529000000000,"state":"active","ping":45},{"user_id":124,"name":"Protoshake","steam_id":76561198840276176,"connected_time":2781000000000,"state":"active","ping":48},{"user_id":159,"name":"Merach","steam_id":76561197994544587,"connected_time":422000000000,"state":"active","ping":64},{"user_id":115,"name":"orange rind (eating bagels)","steam_id":76561198130242461,"connected_time":3044000000000,"state":"active","ping":51},{"user_id":112,"name":"Fishstall","steam_id":76561198038126034,"connected_time":3340000000000,"state":"active","ping":59},{"user_id":147,"name":"eyepen","steam_id":76561198381154476,"connected_time":1130000000000,"state":"active","ping":58},{"user_id":162,"name":"John16Mark","steam_id":76561198119445407,"connected_time":271000000000,"state":"active","ping":63},{"user_id":163,"name":"porz","steam_id":76561198195711453,"connected_time":233000000000,"state":"active","ping":50},{"user_id":100,"name":"The Overmind","steam_id":76561199170229428,"connected_time":4494000000000,"state":"active","ping":68},{"user_id":138,"name":"Dahminance","steam_id":76561198079115183,"connected_time":2160000000000,"state":"active","ping":68},{"user_id":139,"name":"Pinetree w/ apples.","steam_id":76561198105411709,"connected_time":2066000000000,"state":"active","ping":104},{"user_id":150,"name":"HRT","steam_id":76561198013781132,"connected_time":1108000000000,"state":"active","ping":79},{"user_id":133,"name":"Random","steam_id":76561198318879454,"connected_time":2468000000000,"state":"active","ping":85},{"user_id":157,"name":"Morbea","steam_id":76561199071098451,"connected_time":604000000000,"state":"active","ping":102},{"user_id":156,"name":"TheKeronianGamer","steam_id":76561198062405391,"connected_time":792000000000,"state":"active","ping":70},{"user_id":153,"name":"Razor","steam_id":76561198008415797,"connected_time":1038000000000,"state":"active","ping":92},{"user_id":140,"name":"the engineer","steam_id":76561198101203842,"connected_time":1723000000000,"state":"active","ping":53},{"user_id":127,"name":"the bulldozer","steam_id":76561198800334545,"connected_time":2764000000000,"state":"active","ping":74},{"user_id":154,"name":"Critical","steam_id":76561198123744966,"connected_time":1038000000000,"state":"active","ping":86}]},{"server_id":108,"name":"Uncletopia | Dallas | 2 | All Maps","name_short":"dal-2","host":"dal-1.us.uncletopia.com","port":27025,"enabled":true,"region":"us-central","cc":"us","latitude":32.779167,"longitude":-96.80889,"reserved":0,"last_update":"0001-01-01T00:00:00Z","name_a2s":"Uncletopia | Dallas | 2 | All Maps","protocol":17,"map":"koth_lakeside_final","folder":"tf","game":"Team Fortress","app_id":440,"player_count":0,"max_players":24,"Bots":0,"server_type":"Dedicated","server_os":"Linux","password":true,"vac":true,"version":"7757534","steam_id":85568392924469988,"keywords":["cp","nocrits","nodmgspread","uncletopia"],"game_id":440,"stv_port":27026,"stv_name":"Uncletopia | Dallas | 2 | All Maps | STV","players":null},{"server_id":5,"name":"Uncletopia | Frankfurt | 1 | All Maps","name_short":"frk-1","host":"frk-1.de.uncletopia.com","port":27015,"enabled":true,"region":"eu","cc":"de","latitude":50.110924,"longitude":8.682127,"reserved":0,"last_update":"0001-01-01T00:00:00Z","name_a2s":"Uncletopia | Frankfurt | 1 | All Maps","protocol":17,"map":"cp_gravelpit","folder":"tf","game":"Team Fortress","app_id":440,"player_count":24,"max_players":24,"Bots":0,"server_type":"Dedicated","server_os":"Linux","password":true,"vac":true,"version":"7757534","steam_id":85568392924469989,"keywords":["cp","nocrits","nodmgspread","uncletopia"],"game_id":440,"stv_port":27016,"stv_name":"Uncletopia | Frankfurt | 1 | All Maps | STV","players":[{"user_id":406,"name":"moser23","steam_id":76561197960543171,"connected_time":2257000000000,"state":"active","ping":53},{"user_id":422,"name":"nemelex","steam_id":76561198958005865,"connected_time":1551000000000,"state":"active","ping":60},{"user_id":310,"name":"Techm32","steam_id":76561198317134994,"connected_time":8915000000000,"state":"active","ping":62},{"user_id":350,"name":"Balls","steam_id":76561198086400484,"connected_time":6868000000000,"state":"active","ping":90},{"user_id":402,"name":"Ikit Claw #SaveTF2","steam_id":76561198194245103,"connected_time":2686000000000,"state":"active","ping":77},{"user_id":428,"name":"Sparky","steam_id":76561198036754195,"connected_time":441000000000,"state":"active","ping":42},{"user_id":437,"name":"Mr. Pootis","steam_id":76561199121999261,"connected_time":111000000000,"state":"active","ping":111},{"user_id":423,"name":"AxeGeddon","steam_id":76561198145365762,"connected_time":1546000000000,"state":"active","ping":60},{"user_id":429,"name":"Uncle Dane","steam_id":76561198146180114,"connected_time":430000000000,"state":"active","ping":100},{"user_id":410,"name":"NezertorcheaT","steam_id":76561198874370220,"connected_time":2067000000000,"state":"active","ping":120},{"user_id":411,"name":"frey`","steam_id":76561197971548290,"connected_time":2064000000000,"state":"active","ping":60},{"user_id":430,"name":"MrLroy","steam_id":76561199053452683,"connected_time":422000000000,"state":"active","ping":65},{"user_id":434,"name":"Cranjis McBasketball","steam_id":76561198051290193,"connected_time":370000000000,"state":"active","ping":64},{"user_id":435,"name":"Cosmic Gamer","steam_id":76561198027357981,"connected_time":320000000000,"state":"active","ping":86},{"user_id":426,"name":"ɘƚɒ⅃ɘƚɒ⅃ /./ =)(= \\.\\","steam_id":76561198053339372,"connected_time":1231000000000,"state":"active","ping":59},{"user_id":364,"name":"Caro-Kann","steam_id":76561198065506317,"connected_time":5290000000000,"state":"active","ping":68},{"user_id":431,"name":"Tre3","steam_id":76561198054795379,"connected_time":417000000000,"state":"active","ping":52},{"user_id":427,"name":"Menty","steam_id":76561198036748212,"connected_time":488000000000,"state":"active","ping":46},{"user_id":328,"name":"It's a me Malario","steam_id":76561198176546013,"connected_time":8179000000000,"state":"active","ping":66},{"user_id":404,"name":"ASer1982","steam_id":76561197998146109,"connected_time":2672000000000,"state":"active","ping":75},{"user_id":436,"name":"Jamba Sparabo","steam_id":76561198131647600,"connected_time":224000000000,"state":"active","ping":45},{"user_id":433,"name":"LordTrap.exe","steam_id":76561198318089716,"connected_time":404000000000,"state":"active","ping":62},{"user_id":393,"name":"The Stig","steam_id":76561198103908668,"connected_time":3129000000000,"state":"active","ping":69},{"user_id":420,"name":"Fancy","steam_id":76561198350658462,"connected_time":1716000000000,"state":"active","ping":79}]},{"server_id":110,"name":"Uncletopia | Frankfurt | 2 | All Maps","name_short":"frk-2","host":"frk-1.de.uncletopia.com","port":27025,"enabled":true,"region":"eu","cc":"de","latitude":50.110924,"longitude":8.682127,"reserved":0,"last_update":"0001-01-01T00:00:00Z","name_a2s":"Uncletopia | Frankfurt | 2 | All Maps","protocol":17,"map":"koth_nucleus","folder":"tf","game":"Team Fortress","app_id":440,"player_count":19,"max_players":24,"Bots":0,"server_type":"Dedicated","server_os":"Linux","password":true,"vac":true,"version":"7757534","steam_id":85568392924469990,"keywords":["cp","nocrits","nodmgspread","uncletopia"],"game_id":440,"stv_port":27026,"stv_name":"Uncletopia | Frankfurt | 2 | All Maps | STV","players":[{"user_id":217,"name":"Laax","steam_id":76561198938409558,"connected_time":271000000000,"state":"active","ping":85},{"user_id":199,"name":"pogfish","steam_id":76561198061427584,"connected_time":1477000000000,"state":"active","ping":57},{"user_id":203,"name":"BruceTheFunnyDog","steam_id":76561198001149133,"connected_time":1186000000000,"state":"active","ping":89},{"user_id":205,"name":"-=|⚓|Kraakephydta|⚓|=-","steam_id":76561198000895348,"connected_time":1111000000000,"state":"active","ping":88},{"user_id":226,"name":"fried","steam_id":76561198307522022,"connected_time":16000000000,"state":"active","ping":49},{"user_id":218,"name":"Lukey","steam_id":76561198074642724,"connected_time":262000000000,"state":"active","ping":74},{"user_id":219,"name":"CaparezzaMunnezza","steam_id":76561198262231733,"connected_time":250000000000,"state":"active","ping":60},{"user_id":220,"name":"Psychicpie","steam_id":76561198126065206,"connected_time":222000000000,"state":"active","ping":47},{"user_id":210,"name":"Gemmers","steam_id":76561198046786913,"connected_time":598000000000,"state":"active","ping":58},{"user_id":211,"name":"TurboPro1656","steam_id":76561198375538056,"connected_time":443000000000,"state":"active","ping":182},{"user_id":221,"name":"..","steam_id":76561198380752444,"connected_time":206000000000,"state":"active","ping":70},{"user_id":197,"name":"Videogamer","steam_id":76561198106012909,"connected_time":1658000000000,"state":"active","ping":69},{"user_id":122,"name":"Ruth(-less bitch)","steam_id":76561198150006573,"connected_time":6208000000000,"state":"active","ping":71},{"user_id":227,"name":"Yakashii","steam_id":76561198073297078,"connected_time":2000000000,"state":"spawning","ping":54},{"user_id":216,"name":"kotamine","steam_id":76561198068907991,"connected_time":316000000000,"state":"active","ping":62},{"user_id":222,"name":"Joki [Ger]","steam_id":76561198299841574,"connected_time":189000000000,"state":"active","ping":79},{"user_id":224,"name":"Leugim Sotnas","steam_id":76561198955711094,"connected_time":77000000000,"state":"active","ping":83},{"user_id":225,"name":"Billy Genie","steam_id":76561198061724014,"connected_time":66000000000,"state":"active","ping":46},{"user_id":176,"name":"Norbert Hallelujah","steam_id":76561198137876982,"connected_time":3396000000000,"state":"active","ping":63}]},{"server_id":308,"name":"Uncletopia | Frankfurt | 3 | All Maps","name_short":"frk-3","host":"frk-1.de.uncletopia.com","port":27035,"enabled":true,"region":"eu","cc":"de","latitude":50.110924,"longitude":8.682127,"reserved":0,"last_update":"0001-01-01T00:00:00Z","name_a2s":"Uncletopia | Frankfurt | 3 | All Maps","protocol":17,"map":"cp_dustbowl","folder":"tf","game":"Team Fortress","app_id":440,"player_count":23,"max_players":24,"Bots":0,"server_type":"Dedicated","server_os":"Linux","password":true,"vac":true,"version":"7757534","steam_id":85568392924504274,"keywords":["cp","nocrits","nodmgspread","uncletopia"],"game_id":440,"stv_port":27036,"stv_name":"Uncletopia | Frankfurt | 3 | All Maps | STV","players":[{"user_id":474,"name":"Big Balls Bill","steam_id":76561198045998627,"connected_time":934000000000,"state":"active","ping":65},{"user_id":485,"name":"Aleks","steam_id":76561198815609623,"connected_time":474000000000,"state":"active","ping":70},{"user_id":490,"name":"Pumpkin jucio","steam_id":76561199064334950,"connected_time":323000000000,"state":"active","ping":70},{"user_id":466,"name":"Toon","steam_id":76561198065421595,"connected_time":2039000000000,"state":"active","ping":47},{"user_id":478,"name":"dAg CS ⇄ TF2","steam_id":76561198047819527,"connected_time":810000000000,"state":"active","ping":108},{"user_id":448,"name":"LemonLeCitron","steam_id":76561198215545267,"connected_time":2877000000000,"state":"active","ping":71},{"user_id":438,"name":"GEP Gun","steam_id":76561197981821003,"connected_time":3632000000000,"state":"active","ping":76},{"user_id":461,"name":"Hegyi tahó F2P","steam_id":76561199219150356,"connected_time":2391000000000,"state":"active","ping":75},{"user_id":481,"name":"Mandele","steam_id":76561199183213205,"connected_time":584000000000,"state":"active","ping":121},{"user_id":479,"name":"neta GAMING GAMING","steam_id":76561198262910410,"connected_time":726000000000,"state":"active","ping":100},{"user_id":484,"name":"Telivan","steam_id":76561198026048940,"connected_time":528000000000,"state":"active","ping":66},{"user_id":482,"name":"teddyswk","steam_id":76561198404939571,"connected_time":582000000000,"state":"active","ping":79},{"user_id":491,"name":"i dont read, i farm","steam_id":76561197974177672,"connected_time":214000000000,"state":"active","ping":79},{"user_id":487,"name":"Bug","steam_id":76561198168268048,"connected_time":429000000000,"state":"active","ping":66},{"user_id":493,"name":"Fori","steam_id":76561198377310820,"connected_time":180000000000,"state":"active","ping":59},{"user_id":489,"name":"PieTer","steam_id":76561198001999422,"connected_time":370000000000,"state":"active","ping":64},{"user_id":431,"name":"Spooks","steam_id":76561199171471823,"connected_time":3985000000000,"state":"active","ping":47},{"user_id":447,"name":"DartMonkyFromBloonsTD5","steam_id":76561198390314734,"connected_time":3069000000000,"state":"active","ping":61},{"user_id":307,"name":"TheGreenWolf","steam_id":76561198170607033,"connected_time":10785000000000,"state":"active","ping":76},{"user_id":460,"name":"DeCypher","steam_id":76561198171992619,"connected_time":2426000000000,"state":"active","ping":83},{"user_id":495,"name":"dotdotdot","steam_id":76561198057628751,"connected_time":105000000000,"state":"active","ping":63},{"user_id":496,"name":"CL0UDKINGS SniperR","steam_id":76561198198520554,"connected_time":86000000000,"state":"active","ping":75},{"user_id":497,"name":"Bill The Beekeeper","steam_id":76561198253502133,"connected_time":32000000000,"state":"spawning","ping":103}]},{"server_id":309,"name":"Uncletopia | Frankfurt | 4 | All Maps","name_short":"frk-4","host":"frk-1.de.uncletopia.com","port":27045,"enabled":true,"region":"eu","cc":"de","latitude":50.110924,"longitude":8.682127,"reserved":0,"last_update":"0001-01-01T00:00:00Z","name_a2s":"Uncletopia | Frankfurt | 4 | All Maps","protocol":17,"map":"cp_snakewater_final1","folder":"tf","game":"Team Fortress","app_id":440,"player_count":0,"max_players":24,"Bots":0,"server_type":"Dedicated","server_os":"Linux","password":true,"vac":true,"version":"7757534","steam_id":85568392924504275,"keywords":["cp","nocrits","nodmgspread","uncletopia"],"game_id":440,"stv_port":27046,"stv_name":"Uncletopia | Frankfurt | 4 | All Maps | STV","players":null},{"server_id":310,"name":"Uncletopia | Frankfurt | 5 | All Maps","name_short":"frk-5","host":"frk-1.de.uncletopia.com","port":27055,"enabled":true,"region":"eu","cc":"de","latitude":50.110924,"longitude":8.682127,"reserved":0,"last_update":"0001-01-01T00:00:00Z","name_a2s":"Uncletopia | Frankfurt | 5 | All Maps","protocol":17,"map":"pl_frontier_final","folder":"tf","game":"Team Fortress","app_id":440,"player_count":24,"max_players":24,"Bots":0,"server_type":"Dedicated","server_os":"Linux","password":true,"vac":true,"version":"7757534","steam_id":85568392924504277,"keywords":["nocrits","nodmgspread","payload","uncletopia"],"game_id":440,"stv_port":27056,"stv_name":"Uncletopia | Frankfurt | 5 | All Maps | STV","players":[{"user_id":528,"name":"Acanda","steam_id":76561198123246537,"connected_time":4976000000000,"state":"active","ping":54},{"user_id":576,"name":"Bruh","steam_id":76561198269997109,"connected_time":2039000000000,"state":"active","ping":78},{"user_id":589,"name":"S164","steam_id":76561198802694108,"connected_time":970000000000,"state":"active","ping":70},{"user_id":590,"name":"Ged","steam_id":76561198079288943,"connected_time":955000000000,"state":"active","ping":115},{"user_id":591,"name":"You play like a noob blocked","steam_id":76561198418538887,"connected_time":931000000000,"state":"active","ping":93},{"user_id":552,"name":"_zipfile","steam_id":76561198066133808,"connected_time":3035000000000,"state":"active","ping":74},{"user_id":592,"name":"ActiWix","steam_id":76561198021813586,"connected_time":911000000000,"state":"active","ping":47},{"user_id":554,"name":"trk","steam_id":76561198079111788,"connected_time":2944000000000,"state":"active","ping":78},{"user_id":514,"name":"cringe incarnate","steam_id":76561198086987479,"connected_time":6212000000000,"state":"active","ping":90},{"user_id":593,"name":"SoupER","steam_id":76561198063056668,"connected_time":907000000000,"state":"active","ping":64},{"user_id":550,"name":"pezza","steam_id":76561197995173247,"connected_time":3217000000000,"state":"active","ping":84},{"user_id":601,"name":"AneveX","steam_id":76561198111905804,"connected_time":321000000000,"state":"active","ping":74},{"user_id":602,"name":"zak","steam_id":76561197998895428,"connected_time":311000000000,"state":"active","ping":56},{"user_id":597,"name":"Mike Rizzowski","steam_id":76561198798657045,"connected_time":793000000000,"state":"active","ping":75},{"user_id":582,"name":"Curlew","steam_id":76561198075884540,"connected_time":1832000000000,"state":"active","ping":88},{"user_id":584,"name":"Conan the Librarian","steam_id":76561198007224654,"connected_time":1190000000000,"state":"active","ping":53},{"user_id":585,"name":"Nils1","steam_id":76561198060896649,"connected_time":1113000000000,"state":"active","ping":77},{"user_id":551,"name":"whatever","steam_id":76561198095943461,"connected_time":3043000000000,"state":"active","ping":65},{"user_id":595,"name":"Qdarks","steam_id":76561198013391340,"connected_time":871000000000,"state":"active","ping":144},{"user_id":586,"name":"dn4k","steam_id":76561199221755690,"connected_time":1096000000000,"state":"active","ping":78},{"user_id":603,"name":"Huscper","steam_id":76561198106229481,"connected_time":120000000000,"state":"active","ping":86},{"user_id":600,"name":"joe","steam_id":76561198026484403,"connected_time":483000000000,"state":"active","ping":79},{"user_id":598,"name":"s a i","steam_id":76561197970379754,"connected_time":718000000000,"state":"active","ping":54},{"user_id":596,"name":"Qosmo","steam_id":76561197980806182,"connected_time":836000000000,"state":"active","ping":89}]},{"server_id":311,"name":"Uncletopia | Frankfurt | 6 | All Maps","name_short":"frk-6","host":"frk-1.de.uncletopia.com","port":27065,"enabled":true,"region":"eu","cc":"de","latitude":50.110924,"longitude":8.682127,"reserved":0,"last_update":"0001-01-01T00:00:00Z","name_a2s":"Uncletopia | Frankfurt | 6 | All Maps","protocol":17,"map":"cp_powerhouse","folder":"tf","game":"Team Fortress","app_id":440,"player_count":24,"max_players":24,"Bots":0,"server_type":"Dedicated","server_os":"Linux","password":true,"vac":true,"version":"7757534","steam_id":85568392924504278,"keywords":["cp","nocrits","nodmgspread","uncletopia"],"game_id":440,"stv_port":27066,"stv_name":"Uncletopia | Frankfurt | 6 | All Maps | STV","players":[{"user_id":336,"name":"Professor Pussy","steam_id":76561199231729436,"connected_time":2524000000000,"state":"active","ping":157},{"user_id":290,"name":"eduardo","steam_id":76561198014491925,"connected_time":6102000000000,"state":"active","ping":128},{"user_id":351,"name":"Spetse","steam_id":76561197990649972,"connected_time":1168000000000,"state":"active","ping":96},{"user_id":308,"name":"Jimmy","steam_id":76561198133680783,"connected_time":5009000000000,"state":"active","ping":62},{"user_id":316,"name":"eeeeee","steam_id":76561198017786875,"connected_time":4366000000000,"state":"active","ping":60},{"user_id":291,"name":"Doctor Mobius","steam_id":76561197971281806,"connected_time":6061000000000,"state":"active","ping":65},{"user_id":292,"name":"Jackriz","steam_id":76561198024882111,"connected_time":6041000000000,"state":"active","ping":64},{"user_id":367,"name":"a fresh pan of lemon squares","steam_id":76561197984071376,"connected_time":568000000000,"state":"active","ping":72},{"user_id":325,"name":"Pipper","steam_id":76561197970326616,"connected_time":3514000000000,"state":"active","ping":54},{"user_id":284,"name":"RealManiHACK","steam_id":76561198408081068,"connected_time":6508000000000,"state":"active","ping":82},{"user_id":359,"name":"^6demoknight66 trade.tf\"","steam_id":76561198104631920,"connected_time":1040000000000,"state":"active","ping":48},{"user_id":356,"name":"XavierSweet","steam_id":76561198091781913,"connected_time":1135000000000,"state":"active","ping":75},{"user_id":366,"name":"Burpman","steam_id":76561198022897937,"connected_time":893000000000,"state":"active","ping":70},{"user_id":361,"name":"mat987","steam_id":76561198152125214,"connected_time":974000000000,"state":"active","ping":55},{"user_id":362,"name":"clems17","steam_id":76561199420685482,"connected_time":953000000000,"state":"active","ping":51},{"user_id":364,"name":"jovi_","steam_id":76561198449280552,"connected_time":931000000000,"state":"active","ping":66},{"user_id":340,"name":"Rai_to","steam_id":76561199013720618,"connected_time":1938000000000,"state":"active","ping":99},{"user_id":355,"name":"Mogwai","steam_id":76561198078832314,"connected_time":1143000000000,"state":"active","ping":75},{"user_id":368,"name":"Roberto","steam_id":76561198166217497,"connected_time":243000000000,"state":"active","ping":54},{"user_id":261,"name":"TheKlin","steam_id":76561198032331453,"connected_time":8692000000000,"state":"active","ping":75},{"user_id":334,"name":"tf2 snake","steam_id":76561198193971167,"connected_time":2560000000000,"state":"active","ping":60},{"user_id":365,"name":"Klutz","steam_id":76561199466998211,"connected_time":912000000000,"state":"active","ping":165},{"user_id":349,"name":"usia","steam_id":76561198120406679,"connected_time":1184000000000,"state":"active","ping":79},{"user_id":321,"name":"Carrotcracker","steam_id":76561198034862396,"connected_time":4271000000000,"state":"active","ping":76}]},{"server_id":23,"name":"Uncletopia | Frankfurt | 7 | Stopwatch Beta","name_short":"frk-7","host":"frk-1.de.uncletopia.com","port":27075,"enabled":true,"region":"eu","cc":"de","latitude":50.110924,"longitude":8.682127,"reserved":0,"last_update":"0001-01-01T00:00:00Z","name_a2s":"Uncletopia | Frankfurt | 7 | Stopwatch Beta","protocol":17,"map":"pl_frontier_final","folder":"tf","game":"Team Fortress","app_id":440,"player_count":0,"max_players":24,"Bots":0,"server_type":"Dedicated","server_os":"Linux","password":true,"vac":true,"version":"7757534","steam_id":85568392924742827,"keywords":["nocrits","nodmgspread","payload","uncletopia"],"game_id":440,"stv_port":27076,"stv_name":"Uncletopia | Frankfurt | 7 | Stopwatch Beta | STV","players":null},{"server_id":24,"name":"Uncletopia | Frankfurt | 8 | Community","name_short":"frk-8","host":"frk-1.de.uncletopia.com","port":27085,"enabled":true,"region":"eu","cc":"de","latitude":50.110924,"longitude":8.682127,"reserved":0,"last_update":"0001-01-01T00:00:00Z","name_a2s":"Uncletopia | Frankfurt | 8 | Community","protocol":17,"map":"workshop/koth_kemptown_rc1.ugc767410655","folder":"tf","game":"Team Fortress","app_id":440,"player_count":0,"max_players":24,"Bots":0,"server_type":"Dedicated","server_os":"Linux","password":true,"vac":true,"version":"7757534","steam_id":85568392924742828,"keywords":["cp","nocrits","nodmgspread","uncletopia"],"game_id":440,"stv_port":27086,"stv_name":"Uncletopia | Frankfurt | 8 | Community | STV","players":null},{"server_id":202,"name":"Uncletopia | Hong Kong | 1 | All Maps","name_short":"hgk-1","host":"hgk-1.hk.uncletopia.com","port":27015,"enabled":true,"region":"asia","cc":"hk","latitude":22.302711,"longitude":114.177216,"reserved":0,"last_update":"0001-01-01T00:00:00Z","name_a2s":"Uncletopia | Hong Kong | 1 | All Maps","protocol":17,"map":"koth_harvest_final","folder":"tf","game":"Team Fortress","app_id":440,"player_count":0,"max_players":24,"Bots":0,"server_type":"Dedicated","server_os":"Linux","password":true,"vac":true,"version":"7757534","steam_id":85568392924494504,"keywords":["cp","nocrits","nodmgspread","uncletopia"],"game_id":440,"stv_port":27016,"stv_name":"Uncletopia | Hong Kong | 1 | All Maps | STV","players":null},{"server_id":1,"name":"Uncletopia | Los Angeles | 1 | All Maps","name_short":"lax-1","host":"lax-1.us.uncletopia.com","port":27015,"enabled":true,"region":"us-west","cc":"us","latitude":33.94279,"longitude":-118.41004,"reserved":0,"last_update":"0001-01-01T00:00:00Z","name_a2s":"Uncletopia | Los Angeles | 1 | All Maps","protocol":17,"map":"koth_lakeside_final","folder":"tf","game":"Team Fortress","app_id":440,"player_count":24,"max_players":24,"Bots":0,"server_type":"Dedicated","server_os":"Linux","password":true,"vac":true,"version":"7757534","steam_id":85568392924469991,"keywords":["cp","nocrits","nodmgspread","uncletopia"],"game_id":440,"stv_port":27016,"stv_name":"Uncletopia | Los Angeles | 1 | All Maps | STV","players":[{"user_id":86,"name":"spherewithahat","steam_id":76561199122192660,"connected_time":554000000000,"state":"active","ping":120},{"user_id":85,"name":"HaruhiSuzumiyaFan2007","steam_id":76561198799269836,"connected_time":887000000000,"state":"active","ping":49},{"user_id":18,"name":"wait no stop dont do that","steam_id":76561199117157198,"connected_time":6032000000000,"state":"active","ping":72},{"user_id":82,"name":"Rock Kickass","steam_id":76561198450510841,"connected_time":977000000000,"state":"active","ping":83},{"user_id":74,"name":"supatrip","steam_id":76561198131030886,"connected_time":2091000000000,"state":"active","ping":53},{"user_id":38,"name":"Ari","steam_id":76561198183269215,"connected_time":4062000000000,"state":"active","ping":64},{"user_id":64,"name":"Mina's Ninas","steam_id":76561198046502179,"connected_time":3096000000000,"state":"active","ping":56},{"user_id":70,"name":"Sykes10","steam_id":76561198279623105,"connected_time":2314000000000,"state":"active","ping":46},{"user_id":87,"name":"nut","steam_id":76561198206203015,"connected_time":518000000000,"state":"active","ping":50},{"user_id":79,"name":"LX-24","steam_id":76561198016168993,"connected_time":1139000000000,"state":"active","ping":86},{"user_id":76,"name":"TTV/ChadMorningWood","steam_id":76561198139832291,"connected_time":1671000000000,"state":"active","ping":47},{"user_id":90,"name":"ice cream (冰淇淋)","steam_id":76561198976530881,"connected_time":366000000000,"state":"active","ping":30},{"user_id":91,"name":"crush","steam_id":76561198107219183,"connected_time":341000000000,"state":"active","ping":48},{"user_id":73,"name":"yellow","steam_id":76561198366474647,"connected_time":2200000000000,"state":"active","ping":42},{"user_id":80,"name":"you got games on your phone?","steam_id":76561198981135699,"connected_time":1137000000000,"state":"active","ping":131},{"user_id":89,"name":"Oddsky","steam_id":76561197995186317,"connected_time":509000000000,"state":"active","ping":75},{"user_id":67,"name":"SyntheticCereal","steam_id":76561198208048093,"connected_time":2548000000000,"state":"active","ping":120},{"user_id":83,"name":"amo333ba","steam_id":76561198970261784,"connected_time":940000000000,"state":"active","ping":78},{"user_id":92,"name":"daffytrick","steam_id":76561198248625526,"connected_time":313000000000,"state":"active","ping":43},{"user_id":94,"name":"squish","steam_id":76561198097657352,"connected_time":83000000000,"state":"active","ping":57},{"user_id":68,"name":"the pest","steam_id":76561198097721532,"connected_time":2504000000000,"state":"active","ping":54},{"user_id":65,"name":"❅Catgirl Queen Nobushi❅","steam_id":76561199106077003,"connected_time":2577000000000,"state":"active","ping":96},{"user_id":69,"name":"The Squid Gamer™","steam_id":76561198340621517,"connected_time":2472000000000,"state":"active","ping":84},{"user_id":93,"name":"Frongus","steam_id":76561197979056451,"connected_time":253000000000,"state":"active","ping":75}]},{"server_id":112,"name":"Uncletopia | Los Angeles | 2 | All Maps","name_short":"lax-2","host":"lax-1.us.uncletopia.com","port":27025,"enabled":true,"region":"us-west","cc":"us","latitude":33.94279,"longitude":-118.41004,"reserved":0,"last_update":"0001-01-01T00:00:00Z","name_a2s":"Uncletopia | Los Angeles | 2 | All Maps","protocol":17,"map":"koth_cascade","folder":"tf","game":"Team Fortress","app_id":440,"player_count":1,"max_players":24,"Bots":0,"server_type":"Dedicated","server_os":"Linux","password":true,"vac":true,"version":"7757534","steam_id":85568392924469992,"keywords":["cp","nocrits","nodmgspread","uncletopia"],"game_id":440,"stv_port":27026,"stv_name":"Uncletopia | Los Angeles | 2 | All Maps | STV","players":[{"user_id":8,"name":"super","steam_id":76561197975080641,"connected_time":4000000000,"state":"spawning","ping":56}]},{"server_id":324,"name":"Uncletopia | Los Angeles | 3 | All Maps","name_short":"lax-3","host":"lax-1.us.uncletopia.com","port":27035,"enabled":true,"region":"us-west","cc":"us","latitude":33.94279,"longitude":-118.41004,"reserved":0,"last_update":"0001-01-01T00:00:00Z","name_a2s":"Uncletopia | Los Angeles | 3 | All Maps","protocol":17,"map":"koth_cascade","folder":"tf","game":"Team Fortress","app_id":440,"player_count":7,"max_players":24,"Bots":0,"server_type":"Dedicated","server_os":"Linux","password":true,"vac":true,"version":"7757534","steam_id":85568392924510198,"keywords":["cp","nocrits","nodmgspread","uncletopia"],"game_id":440,"stv_port":27036,"stv_name":"Uncletopia | Los Angeles | 3 | All Maps | STV","players":[{"user_id":10,"name":"engineer th gaming (please help","steam_id":76561199108982007,"connected_time":418000000000,"state":"active","ping":45},{"user_id":11,"name":"Deputy Dexin","steam_id":76561198419852659,"connected_time":408000000000,"state":"active","ping":58},{"user_id":12,"name":"MrPotter","steam_id":76561199470627974,"connected_time":399000000000,"state":"active","ping":67},{"user_id":13,"name":"gerge","steam_id":76561199160149960,"connected_time":201000000000,"state":"active","ping":223},{"user_id":14,"name":"GrapeGoodra","steam_id":76561198042141579,"connected_time":170000000000,"state":"active","ping":100},{"user_id":15,"name":"Revenant","steam_id":76561198074139416,"connected_time":110000000000,"state":"active","ping":121},{"user_id":16,"name":"BDMango","steam_id":76561199323225729,"connected_time":18000000000,"state":"spawning","ping":47}]},{"server_id":25,"name":"Uncletopia | Los Angeles | 4 | Stopwatch Beta","name_short":"lax-4","host":"lax-1.us.uncletopia.com","port":27045,"enabled":true,"region":"us-west","cc":"us","latitude":33.94279,"longitude":-118.41004,"reserved":0,"last_update":"0001-01-01T00:00:00Z","name_a2s":"Uncletopia | Los Angeles | 4 | Stopwatch Beta","protocol":17,"map":"pl_frontier_final","folder":"tf","game":"Team Fortress","app_id":440,"player_count":0,"max_players":24,"Bots":0,"server_type":"Dedicated","server_os":"Linux","password":true,"vac":true,"version":"7757534","steam_id":85568392924510199,"keywords":["nocrits","nodmgspread","payload","uncletopia"],"game_id":440,"stv_port":27046,"stv_name":"Uncletopia | Los Angeles | 4 | Stopwatch Beta | STV","players":null},{"server_id":11,"name":"Uncletopia | London | 1 | All Maps","name_short":"lon-1","host":"lon-1.uk.uncletopia.com","port":27015,"enabled":true,"region":"eu","cc":"gb","latitude":51.509865,"longitude":-0.118092,"reserved":0,"last_update":"0001-01-01T00:00:00Z","name_a2s":"Uncletopia | London | 1 | All Maps","protocol":17,"map":"koth_lakeside_final","folder":"tf","game":"Team Fortress","app_id":440,"player_count":23,"max_players":24,"Bots":0,"server_type":"Dedicated","server_os":"Linux","password":true,"vac":true,"version":"7757534","steam_id":85568392924367362,"keywords":["cp","nocrits","nodmgspread","uncletopia"],"game_id":440,"stv_port":27016,"stv_name":"Uncletopia | London | 1 | All Maps | STV","players":[{"user_id":617,"name":"ThrobbingFerret","steam_id":76561199075576606,"connected_time":7686000000000,"state":"active","ping":71},{"user_id":674,"name":"Grillem Dafoe","steam_id":76561198306874574,"connected_time":3268000000000,"state":"active","ping":59},{"user_id":709,"name":"Carreidas","steam_id":76561198056957730,"connected_time":103000000000,"state":"active","ping":64},{"user_id":688,"name":"Socradeez","steam_id":76561198038381519,"connected_time":1562000000000,"state":"active","ping":67},{"user_id":686,"name":"Tafrum","steam_id":76561198053868147,"connected_time":1911000000000,"state":"active","ping":97},{"user_id":694,"name":"char$","steam_id":76561198145697406,"connected_time":1363000000000,"state":"active","ping":78},{"user_id":606,"name":"Jofiah/TTV","steam_id":76561197977233962,"connected_time":8561000000000,"state":"active","ping":43},{"user_id":699,"name":"Backup","steam_id":76561197999557567,"connected_time":1263000000000,"state":"active","ping":74},{"user_id":700,"name":"Ghostler","steam_id":76561198008734235,"connected_time":1237000000000,"state":"active","ping":40},{"user_id":710,"name":"ivanmixo","steam_id":76561198160213989,"connected_time":78000000000,"state":"active","ping":76},{"user_id":703,"name":"Juiceydough","steam_id":76561197997323419,"connected_time":881000000000,"state":"active","ping":100},{"user_id":707,"name":"Senator Armstrong","steam_id":76561198984346408,"connected_time":694000000000,"state":"active","ping":76},{"user_id":698,"name":"ant753","steam_id":76561198103458889,"connected_time":1301000000000,"state":"active","ping":69},{"user_id":691,"name":"abn","steam_id":76561198163474082,"connected_time":1389000000000,"state":"active","ping":172},{"user_id":649,"name":"Charles Darwin","steam_id":76561197973496139,"connected_time":4988000000000,"state":"active","ping":74},{"user_id":706,"name":"Mad_Scientist","steam_id":76561198121431854,"connected_time":765000000000,"state":"active","ping":73},{"user_id":646,"name":"KPhii","steam_id":76561198970587061,"connected_time":5036000000000,"state":"active","ping":82},{"user_id":685,"name":"dec","steam_id":76561198009660168,"connected_time":1953000000000,"state":"active","ping":48},{"user_id":705,"name":"Dachowiec","steam_id":76561198195408281,"connected_time":779000000000,"state":"active","ping":81},{"user_id":650,"name":"EdSuedi","steam_id":76561199387956486,"connected_time":4957000000000,"state":"active","ping":60},{"user_id":692,"name":"i'm not gonna sugarcoat it","steam_id":76561198048453764,"connected_time":1385000000000,"state":"active","ping":54},{"user_id":602,"name":"Durham.","steam_id":76561199013125141,"connected_time":8983000000000,"state":"active","ping":63},{"user_id":642,"name":"Sentry comin' right up","steam_id":76561198256755222,"connected_time":5597000000000,"state":"active","ping":35}]},{"server_id":114,"name":"Uncletopia | London | 2 | All Maps","name_short":"lon-2","host":"lon-1.uk.uncletopia.com","port":27025,"enabled":true,"region":"eu","cc":"gb","latitude":51.509865,"longitude":-0.118092,"reserved":0,"last_update":"0001-01-01T00:00:00Z","name_a2s":"Uncletopia | London | 2 | All Maps","protocol":17,"map":"pl_upward","folder":"tf","game":"Team Fortress","app_id":440,"player_count":24,"max_players":24,"Bots":0,"server_type":"Dedicated","server_os":"Linux","password":true,"vac":true,"version":"7757534","steam_id":85568392924470941,"keywords":["nocrits","nodmgspread","payload","uncletopia"],"game_id":440,"stv_port":27026,"stv_name":"Uncletopia | London | 2 | All Maps | STV","players":[{"user_id":613,"name":"Akker","steam_id":76561199000630792,"connected_time":3113000000000,"state":"active","ping":70},{"user_id":629,"name":"_Context_","steam_id":76561199163359312,"connected_time":1562000000000,"state":"active","ping":62},{"user_id":513,"name":"Tynnyri","steam_id":76561198075516541,"connected_time":10617000000000,"state":"active","ping":92},{"user_id":635,"name":"rummy","steam_id":76561197997573379,"connected_time":1095000000000,"state":"active","ping":50},{"user_id":618,"name":"Joseph Stalin","steam_id":76561198033199746,"connected_time":2737000000000,"state":"active","ping":54},{"user_id":622,"name":"The Ghost of Rizz-mas Past","steam_id":76561198119547399,"connected_time":1928000000000,"state":"active","ping":61},{"user_id":644,"name":"Xeronuclear","steam_id":76561198167712775,"connected_time":644000000000,"state":"active","ping":53},{"user_id":559,"name":"gagalak","steam_id":76561198089979108,"connected_time":8074000000000,"state":"active","ping":105},{"user_id":646,"name":"HRCR118","steam_id":76561199146388596,"connected_time":109000000000,"state":"active","ping":65},{"user_id":632,"name":"Tlad2","steam_id":76561198854897667,"connected_time":1115000000000,"state":"active","ping":77},{"user_id":576,"name":"Real (Real)","steam_id":76561198323425034,"connected_time":6063000000000,"state":"active","ping":78},{"user_id":626,"name":"Simonisis","steam_id":76561198049706007,"connected_time":1747000000000,"state":"active","ping":112},{"user_id":647,"name":"Sal Vulcano","steam_id":76561198016677665,"connected_time":14000000000,"state":"spawning","ping":144},{"user_id":624,"name":"punchmypotatoes","steam_id":76561198091255731,"connected_time":1778000000000,"state":"active","ping":58},{"user_id":636,"name":"Permzilla","steam_id":76561198009407651,"connected_time":1046000000000,"state":"active","ping":45},{"user_id":598,"name":"Furno","steam_id":76561197999723047,"connected_time":4599000000000,"state":"active","ping":51},{"user_id":627,"name":"obscure","steam_id":76561198119532381,"connected_time":1731000000000,"state":"active","ping":54},{"user_id":612,"name":"WEneedAgreatRESET","steam_id":76561199388295925,"connected_time":3218000000000,"state":"active","ping":70},{"user_id":568,"name":"scantron","steam_id":76561199103959197,"connected_time":7191000000000,"state":"active","ping":105},{"user_id":617,"name":"PWizard","steam_id":76561198026458489,"connected_time":3085000000000,"state":"active","ping":78},{"user_id":628,"name":"El Gato Volador","steam_id":76561198021296882,"connected_time":1724000000000,"state":"active","ping":73},{"user_id":634,"name":"getting another lethal injectio","steam_id":76561199414716848,"connected_time":1103000000000,"state":"active","ping":83},{"user_id":637,"name":"grape","steam_id":76561198048836593,"connected_time":955000000000,"state":"active","ping":84},{"user_id":620,"name":"soil.dirt.earth","steam_id":76561198014377623,"connected_time":2303000000000,"state":"active","ping":49}]},{"server_id":320,"name":"Uncletopia | London | 3 | All Maps","name_short":"lon-3","host":"lon-1.uk.uncletopia.com","port":27035,"enabled":true,"region":"eu","cc":"gb","latitude":51.509865,"longitude":-0.118092,"reserved":0,"last_update":"0001-01-01T00:00:00Z","name_a2s":"Uncletopia | London | 3 | All Maps","protocol":17,"map":"cp_snakewater_final1","folder":"tf","game":"Team Fortress","app_id":440,"player_count":24,"max_players":24,"Bots":0,"server_type":"Dedicated","server_os":"Linux","password":true,"vac":true,"version":"7757534","steam_id":85568392924510192,"keywords":["cp","nocrits","nodmgspread","uncletopia"],"game_id":440,"stv_port":27036,"stv_name":"Uncletopia | London | 3 | All Maps | STV","players":[{"user_id":750,"name":"AFerociousTeddyBearSlayer","steam_id":76561198247447256,"connected_time":363000000000,"state":"active","ping":59},{"user_id":684,"name":"Egor Pomidor","steam_id":76561199175688390,"connected_time":4937000000000,"state":"active","ping":90},{"user_id":758,"name":"toothpaste vaper","steam_id":76561198078458780,"connected_time":23000000000,"state":"active","ping":120},{"user_id":651,"name":"Fit Crow mark","steam_id":76561198309246388,"connected_time":7852000000000,"state":"active","ping":64},{"user_id":638,"name":"PizzaPete123","steam_id":76561198089478290,"connected_time":8786000000000,"state":"active","ping":40},{"user_id":733,"name":"emily ❤","steam_id":76561198156678840,"connected_time":1852000000000,"state":"active","ping":43},{"user_id":727,"name":"t.tv/FamilyGuyFunnyMoments277","steam_id":76561198416047580,"connected_time":2149000000000,"state":"active","ping":147},{"user_id":634,"name":"Fat Pigeon","steam_id":76561198817940142,"connected_time":9052000000000,"state":"active","ping":48},{"user_id":726,"name":"Asfreild","steam_id":76561198055901120,"connected_time":2448000000000,"state":"active","ping":80},{"user_id":743,"name":"mt","steam_id":76561197961319303,"connected_time":621000000000,"state":"active","ping":60},{"user_id":732,"name":"Carl's Marx","steam_id":76561198059700045,"connected_time":1861000000000,"state":"active","ping":78},{"user_id":744,"name":"Kirby","steam_id":76561198806061276,"connected_time":612000000000,"state":"active","ping":80},{"user_id":751,"name":"flr","steam_id":76561198249327786,"connected_time":363000000000,"state":"active","ping":60},{"user_id":728,"name":"Camo Leaf","steam_id":76561197999456575,"connected_time":2078000000000,"state":"active","ping":58},{"user_id":738,"name":"Utter Shit","steam_id":76561198020254869,"connected_time":865000000000,"state":"active","ping":46},{"user_id":759,"name":"jhonny el sins","steam_id":76561198982787752,"connected_time":23000000000,"state":"active","ping":71},{"user_id":752,"name":"ralek","steam_id":76561198337027746,"connected_time":262000000000,"state":"active","ping":101},{"user_id":548,"name":"Sneaky boi","steam_id":76561199195985387,"connected_time":12730000000000,"state":"active","ping":92},{"user_id":674,"name":"wouris","steam_id":76561198876188003,"connected_time":5914000000000,"state":"active","ping":74},{"user_id":721,"name":"✿ Diluted Tea ✿","steam_id":76561198174523727,"connected_time":2767000000000,"state":"active","ping":69},{"user_id":703,"name":"джегеми хэпкингс","steam_id":76561198131531394,"connected_time":4217000000000,"state":"active","ping":109},{"user_id":748,"name":"Maneon","steam_id":76561198208386005,"connected_time":532000000000,"state":"active","ping":39},{"user_id":742,"name":"ducks","steam_id":76561198148378654,"connected_time":647000000000,"state":"active","ping":101},{"user_id":722,"name":"TheKromeDome","steam_id":76561198288951592,"connected_time":2510000000000,"state":"active","ping":83}]},{"server_id":321,"name":"Uncletopia | London | 4 | All Maps","name_short":"lon-4","host":"lon-1.uk.uncletopia.com","port":27045,"enabled":true,"region":"eu","cc":"gb","latitude":51.509865,"longitude":-0.118092,"reserved":0,"last_update":"0001-01-01T00:00:00Z","name_a2s":"Uncletopia | London | 4 | All Maps","protocol":17,"map":"pl_upward","folder":"tf","game":"Team Fortress","app_id":440,"player_count":24,"max_players":24,"Bots":0,"server_type":"Dedicated","server_os":"Linux","password":true,"vac":true,"version":"7757534","steam_id":85568392924510193,"keywords":["nocrits","nodmgspread","payload","uncletopia"],"game_id":440,"stv_port":27046,"stv_name":"Uncletopia | London | 4 | All Maps | STV","players":[{"user_id":342,"name":"DeleteTrickster","steam_id":76561198397120242,"connected_time":629000000000,"state":"active","ping":99},{"user_id":341,"name":"bifi","steam_id":76561198045347066,"connected_time":733000000000,"state":"active","ping":67},{"user_id":324,"name":"SuperBob103","steam_id":76561199175360012,"connected_time":2461000000000,"state":"active","ping":48},{"user_id":333,"name":"Ryfili","steam_id":76561198167001433,"connected_time":2112000000000,"state":"active","ping":105},{"user_id":247,"name":"Not Friends","steam_id":76561198043775605,"connected_time":6801000000000,"state":"active","ping":100},{"user_id":288,"name":"Spootnak","steam_id":76561198049052518,"connected_time":3663000000000,"state":"active","ping":53},{"user_id":312,"name":"BigBustyBiden","steam_id":76561198155187233,"connected_time":3103000000000,"state":"active","ping":66},{"user_id":266,"name":"Wayward Smile","steam_id":76561198058841506,"connected_time":4672000000000,"state":"active","ping":46},{"user_id":261,"name":"chiswola","steam_id":76561198046920142,"connected_time":5223000000000,"state":"active","ping":150},{"user_id":325,"name":"A Pigeon","steam_id":76561198114090555,"connected_time":2444000000000,"state":"active","ping":83},{"user_id":339,"name":"SaiyaBoy","steam_id":76561197995674205,"connected_time":1509000000000,"state":"active","ping":84},{"user_id":320,"name":"Sonnakai","steam_id":76561198051688749,"connected_time":2683000000000,"state":"active","ping":39},{"user_id":322,"name":"Cypher","steam_id":76561197996967254,"connected_time":2580000000000,"state":"active","ping":62},{"user_id":332,"name":"Florua","steam_id":76561198182297846,"connected_time":2270000000000,"state":"active","ping":74},{"user_id":321,"name":"TMC","steam_id":76561198077956157,"connected_time":2609000000000,"state":"active","ping":44},{"user_id":331,"name":"Literally a Trans Woman","steam_id":76561198054639925,"connected_time":2298000000000,"state":"active","ping":111},{"user_id":310,"name":"MAKENTAKEN","steam_id":76561199127359587,"connected_time":3240000000000,"state":"active","ping":110},{"user_id":286,"name":"Ecton","steam_id":76561198025103720,"connected_time":3722000000000,"state":"active","ping":62},{"user_id":302,"name":"dddd","steam_id":76561198120894372,"connected_time":3345000000000,"state":"active","ping":119},{"user_id":303,"name":"pizzaboob","steam_id":76561198097507847,"connected_time":3343000000000,"state":"active","ping":91},{"user_id":335,"name":"BBQ Warman","steam_id":76561198070137469,"connected_time":1917000000000,"state":"active","ping":75},{"user_id":328,"name":"Jayco","steam_id":76561198122497262,"connected_time":2407000000000,"state":"active","ping":70},{"user_id":311,"name":"Skooks","steam_id":76561198125022077,"connected_time":3213000000000,"state":"active","ping":59},{"user_id":340,"name":"Wario","steam_id":76561198356089255,"connected_time":797000000000,"state":"active","ping":78}]},{"server_id":21,"name":"Uncletopia | London | 5 | All Maps","name_short":"lon-5","host":"lon-1.uk.uncletopia.com","port":27055,"enabled":true,"region":"eu","cc":"gb","latitude":51.509865,"longitude":-0.118092,"reserved":0,"last_update":"0001-01-01T00:00:00Z","name_a2s":"Uncletopia | London | 5 | All Maps","protocol":17,"map":"cp_process_final","folder":"tf","game":"Team Fortress","app_id":440,"player_count":23,"max_players":24,"Bots":0,"server_type":"Dedicated","server_os":"Linux","password":true,"vac":true,"version":"7757534","steam_id":85568392924742829,"keywords":["cp","nocrits","nodmgspread","uncletopia"],"game_id":440,"stv_port":27056,"stv_name":"Uncletopia | London | 5 | All Maps | STV","players":[{"user_id":116,"name":"Cabbch","steam_id":76561198045955679,"connected_time":4510000000000,"state":"active","ping":49},{"user_id":157,"name":"Umberto Bossi","steam_id":76561198136150267,"connected_time":1025000000000,"state":"active","ping":67},{"user_id":158,"name":"Koi-Koi","steam_id":76561198045527771,"connected_time":830000000000,"state":"active","ping":53},{"user_id":70,"name":"SuntanPikachu","steam_id":76561198121242476,"connected_time":7278000000000,"state":"active","ping":60},{"user_id":156,"name":"lumiukko","steam_id":76561199103891073,"connected_time":1112000000000,"state":"active","ping":93},{"user_id":159,"name":"SeductiveOctopus","steam_id":76561198011036516,"connected_time":800000000000,"state":"active","ping":65},{"user_id":93,"name":"yyny","steam_id":76561198066287297,"connected_time":5563000000000,"state":"active","ping":58},{"user_id":162,"name":"Cosmetic brain","steam_id":76561198055936410,"connected_time":5000000000,"state":"spawning","ping":101},{"user_id":145,"name":"dopamine enjoyer","steam_id":76561198140591983,"connected_time":1812000000000,"state":"active","ping":92},{"user_id":81,"name":"Vershal Smershal","steam_id":76561198116223995,"connected_time":6646000000000,"state":"active","ping":62},{"user_id":124,"name":"god","steam_id":76561198288183181,"connected_time":4382000000000,"state":"active","ping":81},{"user_id":110,"name":"subway vergil","steam_id":76561199110064166,"connected_time":4796000000000,"state":"active","ping":92},{"user_id":139,"name":"zinzyk","steam_id":76561198128011822,"connected_time":3136000000000,"state":"active","ping":72},{"user_id":133,"name":"Kahvi","steam_id":76561198723244199,"connected_time":3633000000000,"state":"active","ping":74},{"user_id":141,"name":"Umbro","steam_id":76561198087930438,"connected_time":2277000000000,"state":"active","ping":81},{"user_id":150,"name":"Getrkod","steam_id":76561198986560793,"connected_time":1269000000000,"state":"active","ping":58},{"user_id":151,"name":"music bot???","steam_id":76561198058012525,"connected_time":1261000000000,"state":"active","ping":82},{"user_id":161,"name":"Peaced.old","steam_id":76561197993682469,"connected_time":654000000000,"state":"active","ping":66},{"user_id":138,"name":"Oasis","steam_id":76561198261112343,"connected_time":3244000000000,"state":"active","ping":147},{"user_id":134,"name":"Udinese Dion","steam_id":76561198067931573,"connected_time":3561000000000,"state":"active","ping":62},{"user_id":153,"name":"balanced diet","steam_id":76561198240320806,"connected_time":1240000000000,"state":"active","ping":88},{"user_id":154,"name":"△catfood","steam_id":76561198024321232,"connected_time":1222000000000,"state":"active","ping":66},{"user_id":160,"name":"the indomitable human spirit","steam_id":76561198718760200,"connected_time":792000000000,"state":"active","ping":45}]},{"server_id":22,"name":"Uncletopia | London | 6 | All Maps","name_short":"lon-6","host":"lon-1.uk.uncletopia.com","port":27065,"enabled":true,"region":"eu","cc":"gb","latitude":51.509865,"longitude":-0.118092,"reserved":0,"last_update":"0001-01-01T00:00:00Z","name_a2s":"Uncletopia | London | 6 | All Maps","protocol":17,"map":"koth_viaduct","folder":"tf","game":"Team Fortress","app_id":440,"player_count":0,"max_players":24,"Bots":0,"server_type":"Dedicated","server_os":"Linux","password":true,"vac":true,"version":"7757534","steam_id":85568392924742830,"keywords":["cp","nocrits","nodmgspread","uncletopia"],"game_id":440,"stv_port":27066,"stv_name":"Uncletopia | London | 6 | All Maps | STV","players":null},{"server_id":40,"name":"Uncletopia | London | 7 | No Payload","name_short":"lon-7","host":"lon-1.uk.uncletopia.com","port":27075,"enabled":true,"region":"eu","cc":"gb","latitude":51.509865,"longitude":-0.118092,"reserved":0,"last_update":"0001-01-01T00:00:00Z","name_a2s":"Uncletopia | London | 7 | No Payload","protocol":17,"map":"koth_lazarus","folder":"tf","game":"Team Fortress","app_id":440,"player_count":0,"max_players":24,"Bots":0,"server_type":"Dedicated","server_os":"Linux","password":true,"vac":true,"version":"7757534","steam_id":85568392924964314,"keywords":["cp","nocrits","nodmgspread","uncletopia"],"game_id":440,"stv_port":27076,"stv_name":"Uncletopia | London | 7 | No Payload | STV","players":null},{"server_id":41,"name":"Uncletopia | London | 8 | Community","name_short":"lon-8","host":"lon-1.uk.uncletopia.com","port":27085,"enabled":true,"region":"eu","cc":"gb","latitude":51.509865,"longitude":-0.118092,"reserved":0,"last_update":"0001-01-01T00:00:00Z","name_a2s":"Uncletopia | London | 8 | Community","protocol":17,"map":"workshop/koth_synthetic_rc6a.ugc1549817316","folder":"tf","game":"Team Fortress","app_id":440,"player_count":19,"max_players":24,"Bots":0,"server_type":"Dedicated","server_os":"Linux","password":true,"vac":true,"version":"7757534","steam_id":85568392924964315,"keywords":["cp","nocrits","nodmgspread","uncletopia"],"game_id":440,"stv_port":27086,"stv_name":"Uncletopia | London | 8 | Community | STV","players":[{"user_id":325,"name":"xkcd","steam_id":76561199027981643,"connected_time":2058000000000,"state":"active","ping":134},{"user_id":353,"name":"Shohi","steam_id":76561198080656840,"connected_time":522000000000,"state":"active","ping":55},{"user_id":319,"name":"John Fortress","steam_id":76561198043743881,"connected_time":2529000000000,"state":"active","ping":45},{"user_id":336,"name":"Frank","steam_id":76561198086672774,"connected_time":1288000000000,"state":"active","ping":47},{"user_id":343,"name":"Fofenho","steam_id":76561198436817109,"connected_time":1144000000000,"state":"active","ping":46},{"user_id":346,"name":"newport smoker","steam_id":76561199042470246,"connected_time":837000000000,"state":"active","ping":70},{"user_id":332,"name":"Zogg","steam_id":76561198352683491,"connected_time":1383000000000,"state":"active","ping":46},{"user_id":327,"name":"Ashortboi","steam_id":76561198854595394,"connected_time":1819000000000,"state":"active","ping":179},{"user_id":328,"name":"a sticky situation","steam_id":76561198011692496,"connected_time":1769000000000,"state":"active","ping":83},{"user_id":330,"name":"I'm A Real Human Being","steam_id":76561199471571148,"connected_time":1661000000000,"state":"active","ping":75},{"user_id":347,"name":"Toa LightMakuta","steam_id":76561198212178104,"connected_time":746000000000,"state":"active","ping":54},{"user_id":360,"name":"gamer gaming","steam_id":76561198348260195,"connected_time":120000000000,"state":"active","ping":100},{"user_id":359,"name":"Grongus","steam_id":76561198871090340,"connected_time":225000000000,"state":"active","ping":158},{"user_id":361,"name":"Zen","steam_id":76561198362450830,"connected_time":101000000000,"state":"active","ping":99},{"user_id":339,"name":"ShellyPlains19","steam_id":76561198917578392,"connected_time":1236000000000,"state":"active","ping":51},{"user_id":340,"name":"AncientOwO","steam_id":76561198356392614,"connected_time":1233000000000,"state":"active","ping":70},{"user_id":362,"name":"Sweeties:3♥","steam_id":76561198218423769,"connected_time":89000000000,"state":"active","ping":159},{"user_id":349,"name":"jabar7","steam_id":76561198055137986,"connected_time":661000000000,"state":"active","ping":75},{"user_id":350,"name":"Hypno_Flower","steam_id":76561199225893185,"connected_time":641000000000,"state":"active","ping":52}]},{"server_id":300,"name":"Uncletopia | Montréal | 1 | All Maps","name_short":"mtl-1","host":"mtl-1.ca.uncletopia.com","port":27015,"enabled":true,"region":"us-east","cc":"ca","latitude":45.50889,"longitude":-73.56167,"reserved":0,"last_update":"0001-01-01T00:00:00Z","name_a2s":"Uncletopia | Montréal | 1 | All Maps","protocol":17,"map":"cp_dustbowl","folder":"tf","game":"Team Fortress","app_id":440,"player_count":0,"max_players":24,"Bots":0,"server_type":"Dedicated","server_os":"Linux","password":true,"vac":true,"version":"7757534","steam_id":85568392924500087,"keywords":["cp","nocrits","nodmgspread","uncletopia"],"game_id":440,"stv_port":27016,"stv_name":"Uncletopia | Montréal | 1 | All Maps | STV","players":null},{"server_id":301,"name":"Uncletopia | Montréal | 2 | All Maps","name_short":"mtl-2","host":"mtl-1.ca.uncletopia.com","port":27025,"enabled":true,"region":"us-east","cc":"ca","latitude":45.50889,"longitude":-73.56167,"reserved":0,"last_update":"0001-01-01T00:00:00Z","name_a2s":"Uncletopia | Montréal | 2 | All Maps","protocol":17,"map":"pl_snowycoast","folder":"tf","game":"Team Fortress","app_id":440,"player_count":0,"max_players":24,"Bots":0,"server_type":"Dedicated","server_os":"Linux","password":true,"vac":true,"version":"7757534","steam_id":85568392924500088,"keywords":["nocrits","nodmgspread","payload","uncletopia"],"game_id":440,"stv_port":27026,"stv_name":"Uncletopia | Montréal | 2 | All Maps | STV","players":null},{"server_id":302,"name":"Uncletopia | Montréal | 3 | All Maps","name_short":"mtl-3","host":"mtl-1.ca.uncletopia.com","port":27035,"enabled":true,"region":"us-east","cc":"ca","latitude":45.50889,"longitude":-73.56167,"reserved":0,"last_update":"0001-01-01T00:00:00Z","name_a2s":"Uncletopia | Montréal | 3 | All Maps","protocol":17,"map":"pl_barnblitz","folder":"tf","game":"Team Fortress","app_id":440,"player_count":0,"max_players":24,"Bots":0,"server_type":"Dedicated","server_os":"Linux","password":true,"vac":true,"version":"7757534","steam_id":85568392924500089,"keywords":["nocrits","nodmgspread","payload","uncletopia"],"game_id":440,"stv_port":27036,"stv_name":"Uncletopia | Montréal | 3 | All Maps | STV","players":null},{"server_id":303,"name":"Uncletopia | Montréal | 4 | No Payload","name_short":"mtl-4","host":"mtl-1.ca.uncletopia.com","port":27045,"enabled":true,"region":"us-east","cc":"ca","latitude":45.50889,"longitude":-73.56167,"reserved":0,"last_update":"0001-01-01T00:00:00Z","name_a2s":"Uncletopia | Montréal | 4 | No Payload","protocol":17,"map":"cp_altitude","folder":"tf","game":"Team Fortress","app_id":440,"player_count":0,"max_players":24,"Bots":0,"server_type":"Dedicated","server_os":"Linux","password":true,"vac":true,"version":"7757534","steam_id":85568392924500090,"keywords":["cp","nocrits","nodmgspread","uncletopia"],"game_id":440,"stv_port":27046,"stv_name":"Uncletopia | Montréal | 4 | No Payload | STV","players":null},{"server_id":13,"name":"Uncletopia | New York City | 1 | All Maps","name_short":"nyc-1","host":"nyc-1.us.uncletopia.com","port":27015,"enabled":true,"region":"us-east","cc":"us","latitude":40.73061,"longitude":-73.93524,"reserved":0,"last_update":"0001-01-01T00:00:00Z","name_a2s":"Uncletopia | New York City | 1 | All Maps","protocol":17,"map":"cp_dustbowl","folder":"tf","game":"Team Fortress","app_id":440,"player_count":24,"max_players":24,"Bots":0,"server_type":"Dedicated","server_os":"Linux","password":true,"vac":true,"version":"7757534","steam_id":85568392924469993,"keywords":["cp","nocrits","nodmgspread","uncletopia"],"game_id":440,"stv_port":27016,"stv_name":"Uncletopia | New York City | 1 | All Maps | STV","players":[{"user_id":301,"name":"hoos","steam_id":76561198045985910,"connected_time":1788000000000,"state":"active","ping":92},{"user_id":290,"name":"e0e0","steam_id":76561198293839750,"connected_time":2245000000000,"state":"active","ping":35},{"user_id":300,"name":"Mifee","steam_id":76561198069991093,"connected_time":1867000000000,"state":"active","ping":55},{"user_id":291,"name":"Xavibite","steam_id":76561198209380493,"connected_time":2179000000000,"state":"active","ping":40},{"user_id":295,"name":"StuartBell511","steam_id":76561198060931721,"connected_time":2050000000000,"state":"active","ping":66},{"user_id":296,"name":"L0w","steam_id":76561198130294665,"connected_time":1927000000000,"state":"active","ping":69},{"user_id":249,"name":"Bootes","steam_id":76561197968255551,"connected_time":5761000000000,"state":"active","ping":47},{"user_id":316,"name":"Ursus Ludius","steam_id":76561198025470722,"connected_time":685000000000,"state":"active","ping":67},{"user_id":314,"name":"The milked man","steam_id":76561198352997734,"connected_time":728000000000,"state":"active","ping":57},{"user_id":312,"name":"Wintery Solstices","steam_id":76561198251108612,"connected_time":916000000000,"state":"active","ping":67},{"user_id":292,"name":"ChefMike","steam_id":76561198414034069,"connected_time":2144000000000,"state":"active","ping":85},{"user_id":267,"name":"PinkLemonade","steam_id":76561198799286228,"connected_time":4202000000000,"state":"active","ping":55},{"user_id":246,"name":"Horse","steam_id":76561199112075552,"connected_time":5820000000000,"state":"active","ping":53},{"user_id":302,"name":"basil","steam_id":76561198075758026,"connected_time":1730000000000,"state":"active","ping":86},{"user_id":315,"name":"火星 | Marsy","steam_id":76561198014979892,"connected_time":711000000000,"state":"active","ping":54},{"user_id":308,"name":"DJ Deoxys","steam_id":76561198322147008,"connected_time":1039000000000,"state":"active","ping":94},{"user_id":242,"name":"ndvr","steam_id":76561199379200102,"connected_time":6886000000000,"state":"active","ping":56},{"user_id":313,"name":"viscodolante","steam_id":76561198013650292,"connected_time":915000000000,"state":"active","ping":105},{"user_id":288,"name":"muzikelretifhbr","steam_id":76561198445169719,"connected_time":2280000000000,"state":"active","ping":117},{"user_id":230,"name":"moodi catgirl","steam_id":76561198124028045,"connected_time":7805000000000,"state":"active","ping":63},{"user_id":317,"name":"Eraserhead Baby","steam_id":76561198010968514,"connected_time":669000000000,"state":"active","ping":113},{"user_id":318,"name":"my unique gamertag","steam_id":76561198262167378,"connected_time":637000000000,"state":"active","ping":82},{"user_id":304,"name":"blackwater","steam_id":76561198069065342,"connected_time":1415000000000,"state":"active","ping":65},{"user_id":281,"name":"sam!!! :)","steam_id":76561198217362968,"connected_time":2962000000000,"state":"active","ping":71}]},{"server_id":14,"name":"Uncletopia | New York City | 2 | All Maps","name_short":"nyc-2","host":"nyc-1.us.uncletopia.com","port":27025,"enabled":true,"region":"us-east","cc":"us","latitude":40.73061,"longitude":-73.93524,"reserved":0,"last_update":"0001-01-01T00:00:00Z","name_a2s":"Uncletopia | New York City | 2 | All Maps","protocol":17,"map":"pl_borneo","folder":"tf","game":"Team Fortress","app_id":440,"player_count":24,"max_players":24,"Bots":0,"server_type":"Dedicated","server_os":"Linux","password":true,"vac":true,"version":"7757534","steam_id":85568392924469994,"keywords":["nocrits","nodmgspread","payload","uncletopia"],"game_id":440,"stv_port":27026,"stv_name":"Uncletopia | New York City | 2 | All Maps | STV","players":[{"user_id":125,"name":"Socialism Doesn't Work","steam_id":76561198044115698,"connected_time":275000000000,"state":"active","ping":61},{"user_id":111,"name":"Huevo Frito","steam_id":76561198896811394,"connected_time":1350000000000,"state":"active","ping":31},{"user_id":127,"name":"jeremimi","steam_id":76561198818225102,"connected_time":141000000000,"state":"active","ping":121},{"user_id":92,"name":"Psychosis","steam_id":76561198078659070,"connected_time":2605000000000,"state":"active","ping":68},{"user_id":117,"name":"Pebbled","steam_id":76561199390347605,"connected_time":1293000000000,"state":"active","ping":102},{"user_id":107,"name":"DazzlingMaggot","steam_id":76561197972716928,"connected_time":1374000000000,"state":"active","ping":69},{"user_id":97,"name":"Taco Cabeza","steam_id":76561198880227689,"connected_time":2251000000000,"state":"active","ping":50},{"user_id":98,"name":"-W3E- grim10465","steam_id":76561198045698581,"connected_time":2138000000000,"state":"active","ping":30},{"user_id":109,"name":"Wilhelmktx","steam_id":76561198158102295,"connected_time":1367000000000,"state":"active","ping":70},{"user_id":110,"name":"saul goodman","steam_id":76561199165336576,"connected_time":1365000000000,"state":"active","ping":127},{"user_id":120,"name":"VioletSpecs","steam_id":76561198089366466,"connected_time":1169000000000,"state":"active","ping":57},{"user_id":122,"name":"Ginger Jesus","steam_id":76561198052386458,"connected_time":1060000000000,"state":"active","ping":45},{"user_id":126,"name":"deech","steam_id":76561198066429444,"connected_time":246000000000,"state":"active","ping":44},{"user_id":113,"name":"FoodzAreGoodz","steam_id":76561198309262052,"connected_time":1339000000000,"state":"active","ping":124},{"user_id":114,"name":"fast","steam_id":76561198311704368,"connected_time":1331000000000,"state":"active","ping":63},{"user_id":83,"name":"Kintsugi","steam_id":76561198831280817,"connected_time":2863000000000,"state":"active","ping":43},{"user_id":63,"name":"Rockguy21","steam_id":76561198121303359,"connected_time":4947000000000,"state":"active","ping":71},{"user_id":128,"name":"leumas","steam_id":76561198240408540,"connected_time":121000000000,"state":"active","ping":63},{"user_id":129,"name":"[[Mr. Wild Prizez]]","steam_id":76561198053726350,"connected_time":104000000000,"state":"active","ping":89},{"user_id":115,"name":"boat","steam_id":76561198157124609,"connected_time":1315000000000,"state":"active","ping":56},{"user_id":89,"name":"Bocchi the Rock","steam_id":76561198025668771,"connected_time":2752000000000,"state":"active","ping":134},{"user_id":130,"name":"Tlaloc","steam_id":76561198375215983,"connected_time":96000000000,"state":"active","ping":119},{"user_id":118,"name":"uzr","steam_id":76561198799343084,"connected_time":1286000000000,"state":"active","ping":118},{"user_id":124,"name":"grind","steam_id":76561198801214349,"connected_time":913000000000,"state":"active","ping":67}]},{"server_id":15,"name":"Uncletopia | New York City | 3 | Stopwatch Beta","name_short":"nyc-3","host":"nyc-1.us.uncletopia.com","port":27035,"enabled":true,"region":"us-east","cc":"us","latitude":40.73061,"longitude":-73.93524,"reserved":0,"last_update":"0001-01-01T00:00:00Z","name_a2s":"Uncletopia | New York City | 3 | Stopwatch Beta","protocol":17,"map":"cp_mountainlab","folder":"tf","game":"Team Fortress","app_id":440,"player_count":0,"max_players":24,"Bots":0,"server_type":"Dedicated","server_os":"Linux","password":true,"vac":true,"version":"7757534","steam_id":85568392924742820,"keywords":["cp","nocrits","nodmgspread","uncletopia"],"game_id":440,"stv_port":27036,"stv_name":"Uncletopia | New York City | 3 | Stopwatch Beta | STV","players":null},{"server_id":16,"name":"Uncletopia | New York City | 4 | Community","name_short":"nyc-4","host":"nyc-1.us.uncletopia.com","port":27045,"enabled":true,"region":"us-east","cc":"us","latitude":40.73061,"longitude":-73.93524,"reserved":0,"last_update":"0001-01-01T00:00:00Z","name_a2s":"Uncletopia | New York City | 4 | Community","protocol":17,"map":"workshop/koth_kemptown_rc1.ugc767410655","folder":"tf","game":"Team Fortress","app_id":440,"player_count":0,"max_players":24,"Bots":0,"server_type":"Dedicated","server_os":"Linux","password":true,"vac":true,"version":"7757534","steam_id":85568392924742821,"keywords":["cp","nocrits","nodmgspread","uncletopia"],"game_id":440,"stv_port":27046,"stv_name":"Uncletopia | New York City | 4 | Community | STV","players":null},{"server_id":142,"name":"Uncletopia | São Paulo | 1 | All Maps","name_short":"sao-1","host":"sao-1.br.uncletopia.com","port":27015,"enabled":true,"region":"sa","cc":"br","latitude":-23.533773,"longitude":-46.62529,"reserved":0,"last_update":"0001-01-01T00:00:00Z","name_a2s":"Uncletopia | São Paulo | 1 | All Maps","protocol":17,"map":"koth_highpass","folder":"tf","game":"Team Fortress","app_id":440,"player_count":0,"max_players":24,"Bots":0,"server_type":"Dedicated","server_os":"Linux","password":true,"vac":true,"version":"7757534","steam_id":85568392924469996,"keywords":["cp","nocrits","nodmgspread","uncletopia"],"game_id":440,"stv_port":27016,"stv_name":"Uncletopia | São Paulo | 1 | All Maps | STV","players":null},{"server_id":143,"name":"Uncletopia | São Paulo | 2 | All Maps","name_short":"sao-2","host":"sao-2.br.uncletopia.com","port":27015,"enabled":true,"region":"sa","cc":"br","latitude":-23.533773,"longitude":-46.62529,"reserved":0,"last_update":"0001-01-01T00:00:00Z","name_a2s":"Uncletopia | São Paulo | 2 | All Maps","protocol":17,"map":"pl_snowycoast","folder":"tf","game":"Team Fortress","app_id":440,"player_count":0,"max_players":24,"Bots":0,"server_type":"Dedicated","server_os":"Linux","password":true,"vac":true,"version":"7757534","steam_id":85568392924485349,"keywords":["nocrits","nodmgspread","payload","uncletopia"],"game_id":440,"stv_port":27016,"stv_name":"Uncletopia | São Paulo | 2 | All Maps | STV","players":null},{"server_id":7,"name":"Uncletopia | Seattle | 1 | All Maps","name_short":"sea-1","host":"sea-1.us.uncletopia.com","port":27015,"enabled":true,"region":"us-west","cc":"us","latitude":47.608013,"longitude":-122.33517,"reserved":0,"last_update":"0001-01-01T00:00:00Z","name_a2s":"Uncletopia | Seattle | 1 | All Maps","protocol":17,"map":"pl_badwater","folder":"tf","game":"Team Fortress","app_id":440,"player_count":23,"max_players":24,"Bots":0,"server_type":"Dedicated","server_os":"Linux","password":true,"vac":true,"version":"7757534","steam_id":85568392924469997,"keywords":["nocrits","nodmgspread","payload","uncletopia"],"game_id":440,"stv_port":27016,"stv_name":"Uncletopia | Seattle | 1 | All Maps | STV","players":[{"user_id":301,"name":"Gimmick","steam_id":76561198065873462,"connected_time":2203000000000,"state":"active","ping":73},{"user_id":323,"name":"lag","steam_id":76561197963872739,"connected_time":1143000000000,"state":"active","ping":55},{"user_id":302,"name":"Lonestar827","steam_id":76561198035533639,"connected_time":2186000000000,"state":"active","ping":50},{"user_id":305,"name":"Ghoster","steam_id":76561198329367716,"connected_time":1689000000000,"state":"active","ping":76},{"user_id":235,"name":"Daz","steam_id":76561198041431938,"connected_time":8786000000000,"state":"active","ping":120},{"user_id":293,"name":"Oldengie","steam_id":76561199074712665,"connected_time":3513000000000,"state":"active","ping":85},{"user_id":288,"name":"Admiral Crumbs","steam_id":76561198108791583,"connected_time":3616000000000,"state":"active","ping":46},{"user_id":315,"name":"SDL","steam_id":76561198859719985,"connected_time":1473000000000,"state":"active","ping":118},{"user_id":314,"name":"red gatorade","steam_id":76561198413125750,"connected_time":1482000000000,"state":"active","ping":112},{"user_id":316,"name":"cringe","steam_id":76561198104086771,"connected_time":1462000000000,"state":"active","ping":76},{"user_id":312,"name":"parrot1002924","steam_id":76561199443882275,"connected_time":1522000000000,"state":"active","ping":54},{"user_id":326,"name":"〣dust〣 -she/her-","steam_id":76561198045218909,"connected_time":3000000000,"state":"spawning","ping":39},{"user_id":306,"name":"Seriously Bruh","steam_id":76561198070408485,"connected_time":1654000000000,"state":"active","ping":45},{"user_id":246,"name":"AmiableNebula","steam_id":76561198094306627,"connected_time":7281000000000,"state":"active","ping":75},{"user_id":324,"name":"gosu","steam_id":76561198412353895,"connected_time":1108000000000,"state":"active","ping":44},{"user_id":325,"name":"pablo","steam_id":76561199190247198,"connected_time":958000000000,"state":"active","ping":166},{"user_id":307,"name":"KingToaster","steam_id":76561198007903802,"connected_time":1615000000000,"state":"active","ping":42},{"user_id":283,"name":"Path To Victory","steam_id":76561198026958898,"connected_time":4171000000000,"state":"active","ping":66},{"user_id":224,"name":"Lamy","steam_id":76561198348354629,"connected_time":10588000000000,"state":"active","ping":85},{"user_id":263,"name":"Wake up remember","steam_id":76561198217229039,"connected_time":6192000000000,"state":"active","ping":50},{"user_id":292,"name":"kaede","steam_id":76561198345528370,"connected_time":3522000000000,"state":"active","ping":51},{"user_id":317,"name":"Lemon Demon Enthusiast","steam_id":76561199026721822,"connected_time":1458000000000,"state":"active","ping":125},{"user_id":286,"name":"BellabeanRecharged","steam_id":76561199387316573,"connected_time":3779000000000,"state":"active","ping":143}]},{"server_id":119,"name":"Uncletopia | Seattle | 2 | All Maps","name_short":"sea-2","host":"sea-1.us.uncletopia.com","port":27025,"enabled":true,"region":"us-west","cc":"us","latitude":47.608013,"longitude":-122.33517,"reserved":0,"last_update":"0001-01-01T00:00:00Z","name_a2s":"Uncletopia | Seattle | 2 | All Maps","protocol":17,"map":"pl_goldrush","folder":"tf","game":"Team Fortress","app_id":440,"player_count":23,"max_players":24,"Bots":0,"server_type":"Dedicated","server_os":"Linux","password":true,"vac":true,"version":"7757534","steam_id":85568392924469998,"keywords":["nocrits","nodmgspread","payload","uncletopia"],"game_id":440,"stv_port":27026,"stv_name":"Uncletopia | Seattle | 2 | All Maps | STV","players":[{"user_id":219,"name":"Tom Skirrett","steam_id":76561198014600788,"connected_time":211000000000,"state":"active","ping":65},{"user_id":220,"name":"The Wise Guy","steam_id":76561198031080216,"connected_time":179000000000,"state":"active","ping":60},{"user_id":225,"name":"tailsspector","steam_id":76561199066068833,"connected_time":111000000000,"state":"active","ping":57},{"user_id":71,"name":"hotdogs in paris","steam_id":76561198046073848,"connected_time":10975000000000,"state":"active","ping":51},{"user_id":208,"name":"Best Bleach","steam_id":76561198090216348,"connected_time":1579000000000,"state":"active","ping":68},{"user_id":178,"name":"Kal3b","steam_id":76561198236708484,"connected_time":3260000000000,"state":"active","ping":61},{"user_id":222,"name":"Jkbh1","steam_id":76561198093449670,"connected_time":172000000000,"state":"active","ping":77},{"user_id":190,"name":"TROY","steam_id":76561197983852176,"connected_time":2978000000000,"state":"active","ping":86},{"user_id":228,"name":"autumnal.messenger","steam_id":76561199345816635,"connected_time":57000000000,"state":"active","ping":51},{"user_id":201,"name":"dwefr1243","steam_id":76561198299025609,"connected_time":2123000000000,"state":"active","ping":41},{"user_id":216,"name":"WalkinMan","steam_id":76561198047941142,"connected_time":308000000000,"state":"active","ping":56},{"user_id":230,"name":"Cloud","steam_id":76561198272454184,"connected_time":32000000000,"state":"active","ping":167},{"user_id":224,"name":"Peppy","steam_id":76561198866629645,"connected_time":129000000000,"state":"active","ping":60},{"user_id":192,"name":"dminty87","steam_id":76561198880739963,"connected_time":2734000000000,"state":"active","ping":58},{"user_id":177,"name":"The Lasagna Hunter","steam_id":76561199222602638,"connected_time":3434000000000,"state":"active","ping":128},{"user_id":226,"name":"Frostyfaucet","steam_id":76561198060524722,"connected_time":111000000000,"state":"active","ping":44},{"user_id":227,"name":"O","steam_id":76561198450073779,"connected_time":108000000000,"state":"active","ping":45},{"user_id":213,"name":"mumbles","steam_id":76561197994528974,"connected_time":844000000000,"state":"active","ping":80},{"user_id":210,"name":"Jailbreak","steam_id":76561198802085218,"connected_time":1114000000000,"state":"active","ping":111},{"user_id":197,"name":"Eris","steam_id":76561199471434875,"connected_time":2673000000000,"state":"active","ping":41},{"user_id":215,"name":"ggggggggggggggggggggglo","steam_id":76561199163004572,"connected_time":351000000000,"state":"active","ping":64},{"user_id":229,"name":"WicKKan","steam_id":76561198868089057,"connected_time":48000000000,"state":"active","ping":110},{"user_id":231,"name":"Sixteen60","steam_id":76561198296453242,"connected_time":22000000000,"state":"spawning","ping":68}]},{"server_id":406,"name":"Uncletopia | Seattle | 3 | Stopwatch Beta","name_short":"sea-3","host":"sea-1.us.uncletopia.com","port":27035,"enabled":true,"region":"us-west","cc":"us","latitude":47.608013,"longitude":-122.33517,"reserved":0,"last_update":"0001-01-01T00:00:00Z","name_a2s":"Uncletopia | Seattle | 3 | Stopwatch Beta","protocol":17,"map":"pl_barnblitz","folder":"tf","game":"Team Fortress","app_id":440,"player_count":0,"max_players":24,"Bots":0,"server_type":"Dedicated","server_os":"Linux","password":true,"vac":true,"version":"7757534","steam_id":85568392924515217,"keywords":["nocrits","nodmgspread","payload","uncletopia"],"game_id":440,"stv_port":27036,"stv_name":"Uncletopia | Seattle | 3 | Stopwatch Beta | STV","players":null},{"server_id":17,"name":"Uncletopia | San Francisco | 1 | All Maps","name_short":"sfo-1","host":"sfo-1.us.uncletopia.com","port":27015,"enabled":true,"region":"us-west","cc":"us","latitude":37.77397,"longitude":-122.4313,"reserved":0,"last_update":"0001-01-01T00:00:00Z","name_a2s":"Uncletopia | San Francisco | 1 | All Maps","protocol":17,"map":"pl_frontier_final","folder":"tf","game":"Team Fortress","app_id":440,"player_count":24,"max_players":24,"Bots":0,"server_type":"Dedicated","server_os":"Linux","password":true,"vac":true,"version":"7757534","steam_id":85568392924469999,"keywords":["nocrits","nodmgspread","payload","uncletopia"],"game_id":440,"stv_port":27016,"stv_name":"Uncletopia | San Francisco | 1 | All Maps | STV","players":[{"user_id":12,"name":"Jeck","steam_id":76561199089073433,"connected_time":2287000000000,"state":"active","ping":59},{"user_id":15,"name":"Masaki","steam_id":76561199175900697,"connected_time":1914000000000,"state":"active","ping":61},{"user_id":48,"name":"Serene Salamander","steam_id":76561198001094770,"connected_time":272000000000,"state":"active","ping":70},{"user_id":16,"name":"galunga","steam_id":76561198027184320,"connected_time":1697000000000,"state":"active","ping":83},{"user_id":17,"name":"KyePerson","steam_id":76561198145597212,"connected_time":1688000000000,"state":"active","ping":57},{"user_id":18,"name":"ihavetapeworms","steam_id":76561198357040313,"connected_time":1661000000000,"state":"active","ping":101},{"user_id":26,"name":"That Guy","steam_id":76561198120788964,"connected_time":1214000000000,"state":"active","ping":45},{"user_id":49,"name":"Embraxxas","steam_id":76561197979342709,"connected_time":59000000000,"state":"active","ping":68},{"user_id":28,"name":"myo0mity","steam_id":76561199018184096,"connected_time":1103000000000,"state":"active","ping":69},{"user_id":50,"name":"SKINGRAPH","steam_id":76561198082933650,"connected_time":31000000000,"state":"active","ping":116},{"user_id":25,"name":"Villchip","steam_id":76561198198599982,"connected_time":1223000000000,"state":"active","ping":67},{"user_id":35,"name":"Pheasant President","steam_id":76561198315295873,"connected_time":849000000000,"state":"active","ping":51},{"user_id":29,"name":"Olibeea","steam_id":76561198079445380,"connected_time":1095000000000,"state":"active","ping":61},{"user_id":30,"name":"Thequirka","steam_id":76561198968058652,"connected_time":1053000000000,"state":"active","ping":66},{"user_id":31,"name":"A UsedNom","steam_id":76561198402832756,"connected_time":1052000000000,"state":"active","ping":33},{"user_id":32,"name":"dakota__","steam_id":76561198076596506,"connected_time":1026000000000,"state":"active","ping":118},{"user_id":36,"name":"Wizops","steam_id":76561198907030448,"connected_time":841000000000,"state":"active","ping":126},{"user_id":34,"name":"Maj","steam_id":76561198128811267,"connected_time":986000000000,"state":"active","ping":90},{"user_id":39,"name":"Andy Hue","steam_id":76561198176949919,"connected_time":702000000000,"state":"active","ping":56},{"user_id":44,"name":"lyraaaaaaaaaaa","steam_id":76561198259331758,"connected_time":601000000000,"state":"active","ping":72},{"user_id":41,"name":"alpharuby","steam_id":76561198051638462,"connected_time":696000000000,"state":"active","ping":59},{"user_id":42,"name":"yukcy","steam_id":76561199037510359,"connected_time":649000000000,"state":"active","ping":114},{"user_id":45,"name":"Master Of Whales","steam_id":76561198349104889,"connected_time":552000000000,"state":"active","ping":61},{"user_id":46,"name":"nephone","steam_id":76561198452515824,"connected_time":548000000000,"state":"active","ping":76}]},{"server_id":18,"name":"Uncletopia | San Francisco | 2 | All Maps","name_short":"sfo-2","host":"sfo-1.us.uncletopia.com","port":27025,"enabled":true,"region":"us-west","cc":"us","latitude":37.77397,"longitude":-122.4313,"reserved":0,"last_update":"0001-01-01T00:00:00Z","name_a2s":"Uncletopia | San Francisco | 2 | All Maps","protocol":17,"map":"koth_highpass","folder":"tf","game":"Team Fortress","app_id":440,"player_count":0,"max_players":24,"Bots":0,"server_type":"Dedicated","server_os":"Linux","password":true,"vac":true,"version":"7757534","steam_id":85568392924470000,"keywords":["cp","nocrits","nodmgspread","uncletopia"],"game_id":440,"stv_port":27026,"stv_name":"Uncletopia | San Francisco | 2 | All Maps | STV","players":null},{"server_id":19,"name":"Uncletopia | San Francisco | 3 | Stopwatch Beta","name_short":"sfo-3","host":"sfo-1.us.uncletopia.com","port":27035,"enabled":true,"region":"us-west","cc":"us","latitude":37.77397,"longitude":-122.4313,"reserved":0,"last_update":"0001-01-01T00:00:00Z","name_a2s":"Uncletopia | San Francisco | 3 | Stopwatch Beta","protocol":17,"map":"pl_borneo","folder":"tf","game":"Team Fortress","app_id":440,"player_count":0,"max_players":24,"Bots":0,"server_type":"Dedicated","server_os":"Linux","password":true,"vac":true,"version":"7757534","steam_id":85568392924742824,"keywords":["nocrits","nodmgspread","payload","uncletopia"],"game_id":440,"stv_port":27036,"stv_name":"Uncletopia | San Francisco | 3 | Stopwatch Beta | STV","players":null},{"server_id":20,"name":"Uncletopia | San Francisco | 4 | Community","name_short":"sfo-4","host":"sfo-1.us.uncletopia.com","port":27045,"enabled":true,"region":"us-west","cc":"us","latitude":37.77397,"longitude":-122.4313,"reserved":0,"last_update":"0001-01-01T00:00:00Z","name_a2s":"Uncletopia | San Francisco | 4 | Community","protocol":17,"map":"koth_highpass","folder":"tf","game":"Team Fortress","app_id":440,"player_count":0,"max_players":24,"Bots":0,"server_type":"Dedicated","server_os":"Linux","password":true,"vac":true,"version":"7757534","steam_id":85568392924742826,"keywords":["cp","nocrits","nodmgspread","uncletopia"],"game_id":440,"stv_port":27046,"stv_name":"Uncletopia | San Francisco | 4 | Community | STV","players":null},{"server_id":141,"name":"Uncletopia | Sydney | 1 | All Maps","name_short":"syd-1","host":"syd-1.au.uncletopia.com","port":27015,"enabled":true,"region":"au","cc":"au","latitude":-33.865143,"longitude":151.2099,"reserved":0,"last_update":"0001-01-01T00:00:00Z","name_a2s":"Uncletopia | Sydney | 1 | All Maps","protocol":17,"map":"cp_dustbowl","folder":"tf","game":"Team Fortress","app_id":440,"player_count":0,"max_players":24,"Bots":0,"server_type":"Dedicated","server_os":"Linux","password":true,"vac":true,"version":"7757534","steam_id":85568392924470001,"keywords":["cp","nocrits","nodmgspread","uncletopia"],"game_id":440,"stv_port":27016,"stv_name":"Uncletopia | Sydney | 1 | All Maps | STV","players":null},{"server_id":123,"name":"Uncletopia | Sydney | 2 | All Maps","name_short":"syd-2","host":"syd-1.au.uncletopia.com","port":27025,"enabled":true,"region":"au","cc":"au","latitude":-33.865143,"longitude":151.2099,"reserved":0,"last_update":"0001-01-01T00:00:00Z","name_a2s":"Uncletopia | Sydney | 2 | All Maps","protocol":17,"map":"koth_viaduct","folder":"tf","game":"Team Fortress","app_id":440,"player_count":1,"max_players":24,"Bots":0,"server_type":"Dedicated","server_os":"Linux","password":true,"vac":true,"version":"7757534","steam_id":85568392924470002,"keywords":["cp","nocrits","nodmgspread","uncletopia"],"game_id":440,"stv_port":27026,"stv_name":"Uncletopia | Sydney | 2 | All Maps | STV","players":[{"user_id":4,"name":"Crumpet","steam_id":76561199096381193,"connected_time":75000000000,"state":"active","ping":61}]},{"server_id":395,"name":"Uncletopia | Sydney | 3 | All Maps","name_short":"syd-3","host":"syd-1.au.uncletopia.com","port":27035,"enabled":true,"region":"au","cc":"au","latitude":-33.865143,"longitude":151.2099,"reserved":0,"last_update":"0001-01-01T00:00:00Z","name_a2s":"Uncletopia | Sydney | 3 | All Maps","protocol":17,"map":"pl_upward","folder":"tf","game":"Team Fortress","app_id":440,"player_count":0,"max_players":24,"Bots":0,"server_type":"Dedicated","server_os":"Linux","password":true,"vac":true,"version":"7757534","steam_id":85568392925194467,"keywords":["nocrits","nodmgspread","payload","uncletopia"],"game_id":440,"stv_port":27036,"stv_name":"Uncletopia | Sydney | 3 | All Maps | STV","players":null},{"server_id":396,"name":"Uncletopia | Sydney | 4 | All Maps","name_short":"syd-4","host":"syd-1.au.uncletopia.com","port":27045,"enabled":true,"region":"au","cc":"au","latitude":-33.865143,"longitude":151.2099,"reserved":0,"last_update":"0001-01-01T00:00:00Z","name_a2s":"Uncletopia | Sydney | 4 | All Maps","protocol":17,"map":"cp_snakewater_final1","folder":"tf","game":"Team Fortress","app_id":440,"player_count":3,"max_players":24,"Bots":0,"server_type":"Dedicated","server_os":"Linux","password":true,"vac":true,"version":"7757534","steam_id":85568392925397958,"keywords":["cp","nocrits","nodmgspread","uncletopia"],"game_id":440,"stv_port":27046,"stv_name":"Uncletopia | Sydney | 4 | All Maps | STV","players":[{"user_id":3,"name":"Dotss","steam_id":76561198868958592,"connected_time":2825000000000,"state":"active","ping":257},{"user_id":4,"name":"squrrel","steam_id":76561198083429611,"connected_time":2765000000000,"state":"active","ping":73},{"user_id":6,"name":"Jimsehy","steam_id":76561198061059871,"connected_time":1981000000000,"state":"active","ping":69}]},{"server_id":58,"name":"Uncletopia | Sydney | 5 | Stopwatch Beta","name_short":"syd-5","host":"syd-1.au.uncletopia.com","port":27055,"enabled":true,"region":"au","cc":"au","latitude":-33.865143,"longitude":151.2099,"reserved":0,"last_update":"0001-01-01T00:00:00Z","name_a2s":"Uncletopia | Sydney | 5 | Stopwatch Beta","protocol":17,"map":"koth_highpass","folder":"tf","game":"Team Fortress","app_id":440,"player_count":0,"max_players":24,"Bots":0,"server_type":"Dedicated","server_os":"Linux","password":true,"vac":true,"version":"7757534","steam_id":85568392925397959,"keywords":["cp","nocrits","nodmgspread","uncletopia"],"game_id":440,"stv_port":27056,"stv_name":"Uncletopia | Sydney | 5 | Stopwatch Beta | STV","players":null},{"server_id":59,"name":"Uncletopia | Sydney | 6 | Community","name_short":"syd-6","host":"syd-1.au.uncletopia.com","port":27065,"enabled":true,"region":"au","cc":"au","latitude":-33.865143,"longitude":151.2099,"reserved":0,"last_update":"0001-01-01T00:00:00Z","name_a2s":"Uncletopia | Sydney | 6 | Community","protocol":17,"map":"cp_sunshine","folder":"tf","game":"Team Fortress","app_id":440,"player_count":0,"max_players":24,"Bots":0,"server_type":"Dedicated","server_os":"Linux","password":true,"vac":true,"version":"7757534","steam_id":85568392925397960,"keywords":["cp","nocrits","nodmgspread","uncletopia"],"game_id":440,"stv_port":27066,"stv_name":"Uncletopia | Sydney | 6 | Community | STV","players":null},{"server_id":49,"name":"Uncletopia | Warsaw | 1 | All Maps","name_short":"waw-1","host":"waw-1.pl.uncletopia.com","port":27015,"enabled":true,"region":"eu","cc":"pl","latitude":52.2297,"longitude":21.017532,"reserved":0,"last_update":"0001-01-01T00:00:00Z","name_a2s":"","protocol":0,"map":"","folder":"","game":"","app_id":0,"player_count":0,"max_players":0,"Bots":0,"server_type":"","server_os":"","password":false,"vac":false,"version":"","steam_id":0,"keywords":null,"game_id":0,"stv_port":0,"stv_name":"","players":null},{"server_id":50,"name":"Uncletopia | Warsaw | 2 | All Maps","name_short":"waw-2","host":"waw-1.pl.uncletopia.com","port":27025,"enabled":true,"region":"eu","cc":"pl","latitude":52.2297,"longitude":21.017532,"reserved":0,"last_update":"0001-01-01T00:00:00Z","name_a2s":"Uncletopia | Warsaw | 2 | All Maps","protocol":17,"map":"koth_suijin","folder":"tf","game":"Team Fortress","app_id":440,"player_count":10,"max_players":24,"Bots":0,"server_type":"Dedicated","server_os":"Linux","password":true,"vac":true,"version":"7757534","steam_id":85568392925397851,"keywords":["cp","nocrits","nodmgspread","uncletopia"],"game_id":440,"stv_port":27026,"stv_name":"Uncletopia | Warsaw | 2 | All Maps | STV","players":[{"user_id":382,"name":"lerodai","steam_id":76561199084810384,"connected_time":246000000000,"state":"active","ping":133},{"user_id":384,"name":"Пес Патрон","steam_id":76561198273199378,"connected_time":219000000000,"state":"active","ping":45},{"user_id":375,"name":"Lee Harvey Oswald","steam_id":76561198263308943,"connected_time":1283000000000,"state":"active","ping":96},{"user_id":357,"name":"Piquesque","steam_id":76561198286763046,"connected_time":2203000000000,"state":"active","ping":120},{"user_id":381,"name":"LouPancake","steam_id":76561199180901164,"connected_time":675000000000,"state":"active","ping":69},{"user_id":385,"name":"akela","steam_id":76561198122010232,"connected_time":207000000000,"state":"active","ping":43},{"user_id":386,"name":"The Masterplan","steam_id":76561198158631465,"connected_time":80000000000,"state":"active","ping":37},{"user_id":358,"name":"HungriSanta","steam_id":76561198020376441,"connected_time":2166000000000,"state":"active","ping":69},{"user_id":373,"name":"godmodule","steam_id":76561198165995444,"connected_time":1380000000000,"state":"active","ping":90},{"user_id":374,"name":"Solman","steam_id":76561198313520013,"connected_time":1369000000000,"state":"active","ping":74}]},{"server_id":51,"name":"Uncletopia | Warsaw | 3 | All Maps","name_short":"waw-3","host":"waw-1.pl.uncletopia.com","port":27035,"enabled":true,"region":"eu","cc":"pl","latitude":52.2297,"longitude":21.017532,"reserved":0,"last_update":"0001-01-01T00:00:00Z","name_a2s":"Uncletopia | Warsaw | 3 | All Maps","protocol":17,"map":"pl_borneo","folder":"tf","game":"Team Fortress","app_id":440,"player_count":0,"max_players":24,"Bots":0,"server_type":"Dedicated","server_os":"Linux","password":true,"vac":true,"version":"7757534","steam_id":85568392925397852,"keywords":["nocrits","nodmgspread","payload","uncletopia"],"game_id":440,"stv_port":27036,"stv_name":"Uncletopia | Warsaw | 3 | All Maps | STV","players":null},{"server_id":52,"name":"Uncletopia | Warsaw | 4 | All Maps","name_short":"waw-4","host":"waw-1.pl.uncletopia.com","port":27045,"enabled":true,"region":"eu","cc":"pl","latitude":52.2297,"longitude":21.017532,"reserved":0,"last_update":"0001-01-01T00:00:00Z","name_a2s":"Uncletopia | Warsaw | 4 | All Maps","protocol":17,"map":"pl_borneo","folder":"tf","game":"Team Fortress","app_id":440,"player_count":0,"max_players":24,"Bots":0,"server_type":"Dedicated","server_os":"Linux","password":true,"vac":true,"version":"7757534","steam_id":85568392925397853,"keywords":["nocrits","nodmgspread","payload","uncletopia"],"game_id":440,"stv_port":27046,"stv_name":"Uncletopia | Warsaw | 4 | All Maps | STV","players":null},{"server_id":53,"name":"Uncletopia | Warsaw | 5 | Stopwatch Beta","name_short":"waw-5","host":"waw-1.pl.uncletopia.com","port":27055,"enabled":true,"region":"eu","cc":"pl","latitude":52.2297,"longitude":21.017532,"reserved":0,"last_update":"0001-01-01T00:00:00Z","name_a2s":"Uncletopia | Warsaw | 5 | Stopwatch Beta","protocol":17,"map":"pl_barnblitz","folder":"tf","game":"Team Fortress","app_id":440,"player_count":0,"max_players":24,"Bots":0,"server_type":"Dedicated","server_os":"Linux","password":true,"vac":true,"version":"7757534","steam_id":85568392925397854,"keywords":["nocrits","nodmgspread","payload","uncletopia"],"game_id":440,"stv_port":27056,"stv_name":"Uncletopia | Warsaw | 5 | Stopwatch Beta | STV","players":null},{"server_id":54,"name":"Uncletopia | Warsaw | 6 | Community","name_short":"waw-6","host":"waw-1.pl.uncletopia.com","port":27065,"enabled":true,"region":"eu","cc":"pl","latitude":52.2297,"longitude":21.017532,"reserved":0,"last_update":"0001-01-01T00:00:00Z","name_a2s":"Uncletopia | Warsaw | 6 | Community","protocol":17,"map":"workshop/koth_ashville_final.ugc2130459942","folder":"tf","game":"Team Fortress","app_id":440,"player_count":0,"max_players":24,"Bots":0,"server_type":"Dedicated","server_os":"Linux","password":true,"vac":true,"version":"7757534","steam_id":85568392925397856,"keywords":["cp","nocrits","nodmgspread","uncletopia"],"game_id":440,"stv_port":27066,"stv_name":"Uncletopia | Warsaw | 6 | Community | STV","players":null}]}