{"status":true,"message":"","result":[{"server_id":9,"name":"Uncletopia | Atlanta | 1 | All Maps","name_short":"atl-1","host":"atl-1.us.uncletopia.com","port":27015,"enabled":true,"region":"us-east","cc":"us","latitude":33.753746,"longitude":-84.38633,"reserved":0,"last_update":"0001-01-01T00:00:00Z","name_a2s":"Uncletopia | Atlanta | 1 | All Maps","protocol":17,"map":"pl_snowycoast","folder":"tf","game":"Team Fortress","app_id":440,"player_count":0,"max_players":24,"Bots":0,"server_type":"Dedicated","server_os":"Linux","password":true,"vac":true,"version":"7932396","steam_id":85568392924469982,"keywords":["nocrits","nodmgspread","payload","uncletopia"],"game_id":440,"stv_port":27016,"stv_name":"Uncletopia | Atlanta | 1 | All Maps | STV","players":null},{"server_id":104,"name":"Uncletopia | Atlanta | 2 | All Maps","name_short":"atl-2","host":"atl-1.us.uncletopia.com","port":27025,"enabled":true,"region":"us-east","cc":"us","latitude":33.753746,"longitude":-84.38633,"reserved":0,"last_update":"0001-01-01T00:00:00Z","name_a2s":"Uncletopia | Atlanta | 2 | All Maps","protocol":17,"map":"pl_snowycoast","folder":"tf","game":"Team Fortress","app_id":440,"player_count":0,"max_players":24,"Bots":0,"server_type":"Dedicated","server_os":"Linux","password":true,"vac":true,"version":"7932396","steam_id":85568392924469983,"keywords":["nocrits","nodmgspread","payload","uncletopia"],"game_id":440,"stv_port":27026,"stv_name":"Uncletopia | Atlanta | 2 | All Maps | STV","players":null},{"server_id":400,"name":"Uncletopia | Atlanta | 3 | Community","name_short":"atl-3","host":"atl-1.us.uncletopia.com","port":27035,"enabled":true,"region":"us-east","cc":"us","latitude":33.753746,"longitude":-84.38633,"reserved":0,"last_update":"0001-01-01T00:00:00Z","name_a2s":"Uncletopia | Atlanta | 3 | Community","protocol":17,"map":"workshop/pl_fifthcurve_rc1.ugc648227046","folder":"tf","game":"Team Fortress","app_id":440,"player_count":0,"max_players":24,"Bots":0,"server_type":"Dedicated","server_os":"Linux","password":true,"vac":true,"version":"7932396","steam_id":85568392924515187,"keywords":["nocrits","nodmgspread","payload","uncletopia"],"game_id":440,"stv_port":27036,"stv_name":"Uncletopia | Atlanta | 3 | Community | STV","players":null},{"server_id":401,"name":"Uncletopia | Atlanta | 4 | No Payload","name_short":"atl-4","host":"atl-1.us.uncletopia.com","port":27045,"enabled":true,"region":"us-east","cc":"us","latitude":33.753746,"longitude":-84.38633,"reserved":0,"last_update":"0001-01-01T00:00:00Z","name_a2s":"","protocol":0,"map":"","folder":"","game":"","app_id":0,"player_count":0,"max_players":0,"Bots":0,"server_type":"","server_os":"","password":false,"vac":false,"version":"","steam_id":0,"keywords":null,"game_id":0,"stv_port":0,"stv_name":"","players":null},{"server_id":2,"name":"Uncletopia | Chicago | 1 | All Maps","name_short":"chi-1","host":"chi-1.us.uncletopia.com","port":27015,"enabled":true,"region":"us-central","cc":"us","latitude":41.881832,"longitude":-87.62318,"reserved":0,"last_update":"0001-01-01T00:00:00Z","name_a2s":"Uncletopia | Chicago | 1 | All Maps","protocol":17,"map":"pl_barnblitz","folder":"tf","game":"Team Fortress","app_id":440,"player_count":24,"max_players":24,"Bots":0,"server_type":"Dedicated","server_os":"Linux","password":true,"vac":true,"version":"7932396","steam_id":85568392924469984,"keywords":["nocrits","nodmgspread","payload","uncletopia"],"game_id":440,"stv_port":27016,"stv_name":"Uncletopia | Chicago | 1 | All Maps | STV","players":[{"user_id":53,"name":"mothra","steam_id":76561198028444359,"connected_time":742000000000,"state":"active","ping":154},{"user_id":42,"name":"i forgor","steam_id":76561199120622265,"connected_time":1162000000000,"state":"active","ping":77},{"user_id":8,"name":"Mecha","steam_id":76561198014927379,"connected_time":3248000000000,"state":"active","ping":67},{"user_id":19,"name":"zzzPoison","steam_id":76561198302928116,"connected_time":2203000000000,"state":"active","ping":55},{"user_id":59,"name":"Sire Salty","steam_id":76561198079639072,"connected_time":159000000000,"state":"active","ping":61},{"user_id":46,"name":"Elm","steam_id":76561198127972568,"connected_time":1041000000000,"state":"active","ping":75},{"user_id":50,"name":"primordialheath","steam_id":76561199386942638,"connected_time":897000000000,"state":"active","ping":53},{"user_id":51,"name":"CommissionerWyatt_B","steam_id":76561199138580790,"connected_time":879000000000,"state":"active","ping":58},{"user_id":20,"name":"BarrowBaron","steam_id":76561198013633236,"connected_time":2111000000000,"state":"active","ping":71},{"user_id":60,"name":"preger u graduate","steam_id":76561198068190834,"connected_time":138000000000,"state":"active","ping":107},{"user_id":24,"name":"Asthmatic boi","steam_id":76561198197796766,"connected_time":1756000000000,"state":"active","ping":54},{"user_id":57,"name":"saib","steam_id":76561198966980576,"connected_time":185000000000,"state":"active","ping":69},{"user_id":26,"name":"your neighbour's garden gnome","steam_id":76561199037050183,"connected_time":1704000000000,"state":"active","ping":94},{"user_id":58,"name":"Halibard","steam_id":76561198011239659,"connected_time":183000000000,"state":"active","ping":69},{"user_id":52,"name":"Yam Jazzy Jim","steam_id":76561198000788950,"connected_time":864000000000,"state":"active","ping":60},{"user_id":43,"name":"Ventastega","steam_id":76561197999366317,"connected_time":1153000000000,"state":"active","ping":87},{"user_id":31,"name":"jdt631","steam_id":76561198271999934,"connected_time":1564000000000,"state":"active","ping":86},{"user_id":54,"name":"Cyclops_672","steam_id":76561198080169497,"connected_time":455000000000,"state":"active","ping":59},{"user_id":40,"name":"Smoby","steam_id":76561198823256099,"connected_time":1335000000000,"state":"active","ping":146},{"user_id":61,"name":"Space","steam_id":76561198350489754,"connected_time":138000000000,"state":"active","ping":54},{"user_id":36,"name":"soup time","steam_id":76561197961488590,"connected_time":1406000000000,"state":"active","ping":60},{"user_id":56,"name":"kite","steam_id":76561198346516392,"connected_time":200000000000,"state":"active","ping":71},{"user_id":45,"name":"Ligmus Sigmus","steam_id":76561198168946002,"connected_time":1135000000000,"state":"active","ping":56},{"user_id":63,"name":"Peppino","steam_id":76561198189176634,"connected_time":59000000000,"state":"active","ping":83}]},{"server_id":106,"name":"Uncletopia | Chicago | 2 | All Maps","name_short":"chi-2","host":"chi-1.us.uncletopia.com","port":27025,"enabled":true,"region":"us-central","cc":"us","latitude":41.881832,"longitude":-87.62318,"reserved":0,"last_update":"0001-01-01T00:00:00Z","name_a2s":"Uncletopia | Chicago | 2 | All Maps","protocol":17,"map":"cp_gorge","folder":"tf","game":"Team Fortress","app_id":440,"player_count":24,"max_players":24,"Bots":0,"server_type":"Dedicated","server_os":"Linux","password":true,"vac":true,"version":"7932396","steam_id":85568392924469985,"keywords":["cp","nocrits","nodmgspread","uncletopia"],"game_id":440,"stv_port":27026,"stv_name":"Uncletopia | Chicago | 2 | All Maps | STV","players":[{"user_id":178,"name":"lasagnalarry12","steam_id":76561198162688146,"connected_time":376000000000,"state":"active","ping":105},{"user_id":159,"name":"Mr. Cheesey","steam_id":76561198153462183,"connected_time":2169000000000,"state":"active","ping":68},{"user_id":174,"name":"N U T T","steam_id":76561198139661511,"connected_time":710000000000,"state":"active","ping":69},{"user_id":188,"name":"Fobby #Savetf2","steam_id":76561198047681469,"connected_time":52000000000,"state":"active","ping":64},{"user_id":184,"name":"Nyko","steam_id":76561198143197549,"connected_time":164000000000,"state":"active","ping":80},{"user_id":182,"name":"Life, Death, and Taxes","steam_id":76561198126734886,"connected_time":258000000000,"state":"active","ping":74},{"user_id":185,"name":"14Noodles","steam_id":76561198162798676,"connected_time":163000000000,"state":"active","ping":63},{"user_id":150,"name":"·µò‚Åø·∂†·µí ≥·µó·µò‚Åø·µÉ·µó\ufffd\ufffd","steam_id":76561198929646112,"connected_time":3482000000000,"state":"active","ping":71},{"user_id":176,"name":"stall","steam_id":76561199152861652,"connected_time":542000000000,"state":"active","ping":58},{"user_id":179,"name":"·ìÄ‚Ä∏·ìÇ","steam_id":76561198046055673,"connected_time":354000000000,"state":"active","ping":72},{"user_id":164,"name":"Adam (Cursed Confetti Creature)","steam_id":76561198317690197,"connected_time":1670000000000,"state":"active","ping":46},{"user_id":180,"name":"Gremlin.","steam_id":76561199035402139,"connected_time":331000000000,"state":"active","ping":84},{"user_id":155,"name":"Elias","steam_id":76561198106431732,"connected_time":2749000000000,"state":"active","ping":51},{"user_id":172,"name":"Embers Dawn","steam_id":76561198297808177,"connected_time":840000000000,"state":"active","ping":69},{"user_id":161,"name":"jon.cinnamon","steam_id":76561198127316418,"connected_time":2017000000000,"state":"active","ping":63},{"user_id":102,"name":"mikey","steam_id":76561198095803763,"connected_time":7116000000000,"state":"active","ping":86},{"user_id":157,"name":"Kurt Biscuitmaker","steam_id":76561198331701823,"connected_time":2389000000000,"state":"active","ping":72},{"user_id":183,"name":"{LAG}I-suck-at-every-game{LAG}","steam_id":76561199270004038,"connected_time":256000000000,"state":"active","ping":69},{"user_id":173,"name":"phantom","steam_id":76561197963860777,"connected_time":821000000000,"state":"active","ping":90},{"user_id":166,"name":"SantaMuerte","steam_id":76561198039898148,"connected_time":1385000000000,"state":"active","ping":75},{"user_id":147,"name":"Mank","steam_id":76561198189421005,"connected_time":3803000000000,"state":"active","ping":45},{"user_id":186,"name":"JimCGoodfellas","steam_id":76561198353568076,"connected_time":153000000000,"state":"active","ping":70},{"user_id":132,"name":"Lost","steam_id":76561198093713427,"connected_time":4583000000000,"state":"active","ping":60},{"user_id":187,"name":"Ezakt","steam_id":76561199099132304,"connected_time":106000000000,"state":"active","ping":70}]},{"server_id":402,"name":"Uncletopia | Chicago | 3 | All Maps","name_short":"chi-3","host":"chi-1.us.uncletopia.com","port":27035,"enabled":true,"region":"us-central","cc":"us","latitude":41.881832,"longitude":-87.62318,"reserved":0,"last_update":"0001-01-01T00:00:00Z","name_a2s":"Uncletopia | Chicago | 3 | All Maps","protocol":17,"map":"pl_upward","folder":"tf","game":"Team Fortress","app_id":440,"player_count":24,"max_players":24,"Bots":0,"server_type":"Dedicated","server_os":"Linux","password":true,"vac":true,"version":"7932396","steam_id":85568392924515191,"keywords":["nocrits","nodmgspread","payload","uncletopia"],"game_id":440,"stv_port":27036,"stv_name":"Uncletopia | Chicago | 3 | All Maps | STV","players":[{"user_id":74,"name":"Bogeyman","steam_id":76561198829294071,"connected_time":1772000000000,"state":"active","ping":72},{"user_id":81,"name":"TheChickenChuck","steam_id":76561199192686708,"connected_time":717000000000,"state":"active","ping":124},{"user_id":76,"name":"JetZ","steam_id":76561199122488957,"connected_time":1692000000000,"state":"active","ping":70},{"user_id":49,"name":"meat glasses","steam_id":76561198046742645,"connected_time":3504000000000,"state":"active","ping":62},{"user_id":52,"name":"bear","steam_id":76561198313696546,"connected_time":3226000000000,"state":"active","ping":89},{"user_id":87,"name":"Your Local NPR Station","steam_id":76561198143830279,"connected_time":419000000000,"state":"active","ping":60},{"user_id":88,"name":"Sych06","steam_id":76561198798979302,"connected_time":286000000000,"state":"active","ping":54},{"user_id":73,"name":"Monolith Soldier","steam_id":76561198171898155,"connected_time":1874000000000,"state":"active","ping":51},{"user_id":83,"name":"Freddie Mercury's Ghost","steam_id":76561198140320704,"connected_time":508000000000,"state":"active","ping":71},{"user_id":72,"name":"Nefy","steam_id":76561198030017316,"connected_time":1913000000000,"state":"active","ping":84},{"user_id":17,"name":"Smile from God","steam_id":76561198032663494,"connected_time":4894000000000,"state":"active","ping":64},{"user_id":61,"name":"hecatoncheires","steam_id":76561198091862137,"connected_time":2529000000000,"state":"active","ping":59},{"user_id":21,"name":"whittlo","steam_id":76561198056793479,"connected_time":4802000000000,"state":"active","ping":76},{"user_id":20,"name":"crittr","steam_id":76561198014302068,"connected_time":4811000000000,"state":"active","ping":76},{"user_id":56,"name":"Borat Voice My Wife","steam_id":76561198020474727,"connected_time":2721000000000,"state":"active","ping":72},{"user_id":69,"name":"Boog","steam_id":76561198995070739,"connected_time":2144000000000,"state":"active","ping":79},{"user_id":84,"name":"Edgy McEdgeison","steam_id":76561198047845399,"connected_time":476000000000,"state":"active","ping":73},{"user_id":80,"name":"LukeLeal","steam_id":76561198049822995,"connected_time":999000000000,"state":"active","ping":173},{"user_id":85,"name":"Cerabond","steam_id":76561199230915333,"connected_time":468000000000,"state":"active","ping":85},{"user_id":33,"name":"Madeline (She/Her)","steam_id":76561198336551859,"connected_time":4440000000000,"state":"active","ping":85},{"user_id":34,"name":"Coda","steam_id":76561198057571125,"connected_time":4405000000000,"state":"active","ping":54},{"user_id":48,"name":"glue sniffer","steam_id":76561198044689778,"connected_time":3988000000000,"state":"active","ping":60},{"user_id":89,"name":"FancyBones","steam_id":76561198180198885,"connected_time":216000000000,"state":"active","ping":90},{"user_id":86,"name":"Kid named download","steam_id":76561199192074448,"connected_time":463000000000,"state":"active","ping":80}]},{"server_id":403,"name":"Uncletopia | Chicago | 4 | All Maps","name_short":"chi-4","host":"chi-1.us.uncletopia.com","port":27045,"enabled":true,"region":"us-central","cc":"us","latitude":41.881832,"longitude":-87.62318,"reserved":0,"last_update":"0001-01-01T00:00:00Z","name_a2s":"Uncletopia | Chicago | 4 | All Maps","protocol":17,"map":"cp_granary","folder":"tf","game":"Team Fortress","app_id":440,"player_count":19,"max_players":24,"Bots":0,"server_type":"Dedicated","server_os":"Linux","password":true,"vac":true,"version":"7932396","steam_id":85568392924515193,"keywords":["cp","nocrits","nodmgspread","uncletopia"],"game_id":440,"stv_port":27046,"stv_name":"Uncletopia | Chicago | 4 | All Maps | STV","players":[{"user_id":216,"name":"SCARY MONSTERS","steam_id":76561198042034176,"connected_time":20000000000,"state":"connecting","ping":59},{"user_id":147,"name":"viego","steam_id":76561198273568117,"connected_time":4301000000000,"state":"connecting","ping":79},{"user_id":217,"name":"acxeu","steam_id":76561198394435000,"connected_time":15000000000,"state":"connecting","ping":159},{"user_id":138,"name":"daemon","steam_id":76561198001541433,"connected_time":5183000000000,"state":"connecting","ping":62},{"user_id":202,"name":"toastman","steam_id":76561198207073088,"connected_time":723000000000,"state":"connecting","ping":109},{"user_id":87,"name":"shadowking","steam_id":76561199284698401,"connected_time":8927000000000,"state":"connecting","ping":113},{"user_id":193,"name":"hud_saytext_time 0","steam_id":76561198010327228,"connected_time":1223000000000,"state":"connecting","ping":197},{"user_id":215,"name":"Uncle Dan","steam_id":76561198435354491,"connected_time":77000000000,"state":"connecting","ping":62},{"user_id":177,"name":"khil","steam_id":76561198042455487,"connected_time":2472000000000,"state":"connecting","ping":60},{"user_id":195,"name":"sunny","steam_id":76561198069380992,"connected_time":1139000000000,"state":"connecting","ping":97},{"user_id":206,"name":"Lord Scrubling","steam_id":76561198263744445,"connected_time":657000000000,"state":"connecting","ping":99},{"user_id":118,"name":"Wire  Bash","steam_id":76561198033268371,"connected_time":7244000000000,"state":"connecting","ping":183},{"user_id":212,"name":"to sem ideia #savetf2","steam_id":76561199052177486,"connected_time":180000000000,"state":"connecting","ping":208},{"user_id":208,"name":"0vii","steam_id":76561198117084598,"connected_time":637000000000,"state":"connecting","ping":101},{"user_id":190,"name":"DrCrent","steam_id":76561198182204161,"connected_time":1398000000000,"state":"connecting","ping":76},{"user_id":197,"name":"gameofstones2010","steam_id":76561198887808591,"connected_time":1089000000000,"state":"connecting","ping":71},{"user_id":209,"name":"GhettoSmash@freenudecelebs.com","steam_id":76561198168864083,"connected_time":629000000000,"state":"connecting","ping":117}]},{"server_id":36,"name":"Uncletopia | Chicago | 5 | All Maps","name_short":"chi-5","host":"chi-2.us.uncletopia.com","port":27015,"enabled":true,"region":"us-central","cc":"us","latitude":41.881832,"longitude":-87.62318,"reserved":0,"last_update":"0001-01-01T00:00:00Z","name_a2s":"Uncletopia | Chicago | 5 | All Maps","protocol":17,"map":"cp_mountainlab","folder":"tf","game":"Team Fortress","app_id":440,"player_count":0,"max_players":24,"Bots":0,"server_type":"Dedicated","server_os":"Linux","password":true,"vac":true,"version":"7932396","steam_id":85568392924866362,"keywords":["cp","nocrits","nodmgspread","uncletopia"],"game_id":440,"stv_port":27016,"stv_name":"Uncletopia | Chicago | 5 | All Maps | STV","players":null},{"server_id":37,"name":"Uncletopia | Chicago | 6 | All Maps","name_short":"chi-6","host":"chi-2.us.uncletopia.com","port":27025,"enabled":true,"region":"us-central","cc":"us","latitude":41.881832,"longitude":-87.62318,"reserved":0,"last_update":"0001-01-01T00:00:00Z","name_a2s":"Uncletopia | Chicago | 6 | All Maps","protocol":17,"map":"koth_viaduct","folder":"tf","game":"Team Fortress","app_id":440,"player_count":0,"max_players":24,"Bots":0,"server_type":"Dedicated","server_os":"Linux","password":true,"vac":true,"version":"7932396","steam_id":85568392924866363,"keywords":["cp","nocrits","nodmgspread","uncletopia"],"game_id":440,"stv_port":27026,"stv_name":"Uncletopia | Chicago | 6 | All Maps | STV","players":null},{"server_id":38,"name":"Uncletopia | Chicago | 7 | Stopwatch Beta","name_short":"chi-7","host":"chi-2.us.uncletopia.com","port":27035,"enabled":true,"region":"us-central","cc":"us","latitude":41.881832,"longitude":-87.62318,"reserved":0,"last_update":"0001-01-01T00:00:00Z","name_a2s":"Uncletopia | Chicago | 7 | Stopwatch Beta","protocol":17,"map":"pl_borneo","folder":"tf","game":"Team Fortress","app_id":440,"player_count":1,"max_players":24,"Bots":0,"server_type":"Dedicated","server_os":"Linux","password":true,"vac":true,"version":"7932396","steam_id":85568392924866364,"keywords":["nocrits","nodmgspread","payload","uncletopia"],"game_id":440,"stv_port":27036,"stv_name":"Uncletopia | Chicago | 7 | Stopwatch Beta | STV","players":[{"user_id":3,"name":"Farm3rJh0nson","steam_id":76561199166153873,"connected_time":15000000000,"state":"active","ping":81}]},{"server_id":39,"name":"Uncletopia | Chicago | 8 | Community","name_short":"chi-8","host":"chi-2.us.uncletopia.com","port":27045,"enabled":true,"region":"us-central","cc":"us","latitude":41.881832,"longitude":-87.62318,"reserved":0,"last_update":"0001-01-01T00:00:00Z","name_a2s":"Uncletopia | Chicago | 8 | Community","protocol":17,"map":"koth_viaduct","folder":"tf","game":"Team Fortress","app_id":440,"player_count":0,"max_players":24,"Bots":0,"server_type":"Dedicated","server_os":"Linux","password":true,"vac":true,"version":"7932396","steam_id":85568392924866365,"keywords":["cp","nocrits","nodmgspread","uncletopia"],"game_id":440,"stv_port":27046,"stv_name":"Uncletopia | Chicago | 8 | Community | STV","players":null},{"server_id":8,"name":"Uncletopia | Dallas | 1 | All Maps","name_short":"dal-1","host":"dal-1.us.uncletopia.com","port":27015,"enabled":true,"region":"us-central","cc":"us","latitude":32.779167,"longitude":-96.80889,"reserved":0,"last_update":"0001-01-01T00:00:00Z","name_a2s":"Uncletopia | Dallas | 1 | All Maps","protocol":17,"map":"pl_hoodoo_final","folder":"tf","game":"Team Fortress","app_id":440,"player_count":24,"max_players":24,"Bots":0,"server_type":"Dedicated","server_os":"Linux","password":true,"vac":true,"version":"7932396","steam_id":85568392924469986,"keywords":["nocrits","nodmgspread","payload","uncletopia"],"game_id":440,"stv_port":27016,"stv_name":"Uncletopia | Dallas | 1 | All Maps | STV","players":[{"user_id":41,"name":"tacofever","steam_id":76561198010966507,"connected_time":5546000000000,"state":"active","ping":76},{"user_id":82,"name":"Cat in Your Backyard","steam_id":76561197979078330,"connected_time":1540000000000,"state":"active","ping":81},{"user_id":70,"name":"Faefanger","steam_id":76561198201871002,"connected_time":1902000000000,"state":"active","ping":111},{"user_id":10,"name":"penis scout","steam_id":76561199105479508,"connected_time":7089000000000,"state":"active","ping":76},{"user_id":100,"name":"sir camara32","steam_id":76561199473344099,"connected_time":203000000000,"state":"active","ping":178},{"user_id":69,"name":"SRP","steam_id":76561197995626651,"connected_time":1963000000000,"state":"active","ping":58},{"user_id":98,"name":"motherofdragons96","steam_id":76561198864779097,"connected_time":336000000000,"state":"active","ping":85},{"user_id":84,"name":"M","steam_id":76561198286792807,"connected_time":1315000000000,"state":"active","ping":95},{"user_id":16,"name":"Jerk Tryhard (roleplay)","steam_id":76561199470538309,"connected_time":6803000000000,"state":"active","ping":77},{"user_id":18,"name":"DMM","steam_id":76561198065426171,"connected_time":6568000000000,"state":"active","ping":61},{"user_id":26,"name":"Yummy Kabobz","steam_id":76561198067661705,"connected_time":6096000000000,"state":"active","ping":80},{"user_id":95,"name":"[ibb‚Ñ¢]Shadow20X6-ENGI","steam_id":76561198019292755,"connected_time":670000000000,"state":"active","ping":89},{"user_id":91,"name":"bingo bango","steam_id":76561198068933412,"connected_time":903000000000,"state":"active","ping":48},{"user_id":102,"name":"hoboways","steam_id":76561198168035195,"connected_time":120000000000,"state":"active","ping":85},{"user_id":92,"name":"kiryu gaming","steam_id":76561198201920759,"connected_time":807000000000,"state":"active","ping":77},{"user_id":78,"name":"HOODOO_LOVER_2007","steam_id":76561199087691214,"connected_time":1691000000000,"state":"active","ping":95},{"user_id":73,"name":"Terrazzle","steam_id":76561197999850393,"connected_time":1833000000000,"state":"active","ping":65},{"user_id":96,"name":"G-G-G-GAMERSHOT","steam_id":76561198798980951,"connected_time":634000000000,"state":"active","ping":81},{"user_id":81,"name":"Terminal Brain Rot","steam_id":76561198112594672,"connected_time":1588000000000,"state":"active","ping":73},{"user_id":101,"name":"Prinny (Time)","steam_id":76561198155467647,"connected_time":137000000000,"state":"active","ping":61},{"user_id":60,"name":"mkl","steam_id":76561197986401685,"connected_time":3554000000000,"state":"active","ping":61},{"user_id":83,"name":"ROGUE-PLANET","steam_id":76561198116023052,"connected_time":1462000000000,"state":"active","ping":68},{"user_id":61,"name":"Sahbi","steam_id":76561199196292242,"connected_time":3296000000000,"state":"active","ping":67},{"user_id":88,"name":"HEX:HUNTRESS SIMP","steam_id":76561198878003496,"connected_time":974000000000,"state":"active","ping":100}]},{"server_id":108,"name":"Uncletopia | Dallas | 2 | All Maps","name_short":"dal-2","host":"dal-1.us.uncletopia.com","port":27025,"enabled":true,"region":"us-central","cc":"us","latitude":32.779167,"longitude":-96.80889,"reserved":0,"last_update":"0001-01-01T00:00:00Z","name_a2s":"Uncletopia | Dallas | 2 | All Maps","protocol":17,"map":"pl_upward","folder":"tf","game":"Team Fortress","app_id":440,"player_count":24,"max_players":24,"Bots":0,"server_type":"Dedicated","server_os":"Linux","password":true,"vac":true,"version":"7932396","steam_id":85568392924469988,"keywords":["nocrits","nodmgspread","payload","uncletopia"],"game_id":440,"stv_port":27026,"stv_name":"Uncletopia | Dallas | 2 | All Maps | STV","players":[{"user_id":67,"name":"toastloard","steam_id":76561198368386853,"connected_time":731000000000,"state":"active","ping":88},{"user_id":23,"name":"sheep man shaun","steam_id":76561198994349483,"connected_time":3509000000000,"state":"active","ping":82},{"user_id":76,"name":"Mury","steam_id":76561198069743049,"connected_time":545000000000,"state":"active","ping":104},{"user_id":60,"name":"Muk__Tuk","steam_id":76561199122524457,"connected_time":1200000000000,"state":"active","ping":85},{"user_id":78,"name":"Canooor","steam_id":76561198373938514,"connected_time":207000000000,"state":"active","ping":174},{"user_id":35,"name":"Ice cream sandwich","steam_id":76561198172748357,"connected_time":2910000000000,"state":"active","ping":87},{"user_id":77,"name":"gaelaspuru","steam_id":76561198838235696,"connected_time":496000000000,"state":"active","ping":124},{"user_id":69,"name":"defect player","steam_id":76561198055855534,"connected_time":673000000000,"state":"active","ping":89},{"user_id":36,"name":"binzblade","steam_id":76561199213188982,"connected_time":2728000000000,"state":"active","ping":82},{"user_id":65,"name":"aVO","steam_id":76561198161429389,"connected_time":985000000000,"state":"active","ping":52},{"user_id":38,"name":"Gragerus_JR","steam_id":76561199434059545,"connected_time":2600000000000,"state":"active","ping":98},{"user_id":39,"name":"Landogg","steam_id":76561198049000586,"connected_time":2589000000000,"state":"active","ping":63},{"user_id":71,"name":"kiv","steam_id":76561198838223023,"connected_time":622000000000,"state":"active","ping":75},{"user_id":42,"name":"IlMostro","steam_id":76561197970514922,"connected_time":2526000000000,"state":"active","ping":91},{"user_id":72,"name":"your local forecast","steam_id":76561198042243083,"connected_time":615000000000,"state":"active","ping":83},{"user_id":79,"name":"feenman","steam_id":76561199383834799,"connected_time":173000000000,"state":"active","ping":70},{"user_id":45,"name":"SneakyJayMLP","steam_id":76561198969565685,"connected_time":2412000000000,"state":"active","ping":87},{"user_id":66,"name":"-W3E- grim10465","steam_id":76561198045698581,"connected_time":933000000000,"state":"active","ping":75},{"user_id":47,"name":"CFGU || RAWRWAFL","steam_id":76561198032118386,"connected_time":2309000000000,"state":"active","ping":73},{"user_id":74,"name":"Fstev ‚úò","steam_id":76561198358766202,"connected_time":567000000000,"state":"active","ping":260},{"user_id":51,"name":"stupid bastard","steam_id":76561199195104977,"connected_time":2237000000000,"state":"active","ping":86},{"user_id":80,"name":"im high asf","steam_id":76561198198781598,"connected_time":101000000000,"state":"active","ping":81},{"user_id":53,"name":"Agent Q","steam_id":76561198830829003,"connected_time":2199000000000,"state":"active","ping":93},{"user_id":75,"name":"jammy nutrient boy genius","steam_id":76561198165086917,"connected_time":560000000000,"state":"active","ping":61}]},{"server_id":5,"name":"Uncletopia | Frankfurt | 1 | All Maps","name_short":"frk-1","host":"frk-1.de.uncletopia.com","port":27015,"enabled":true,"region":"eu","cc":"de","latitude":50.110924,"longitude":8.682127,"reserved":0,"last_update":"0001-01-01T00:00:00Z","name_a2s":"Uncletopia | Frankfurt | 1 | All Maps","protocol":17,"map":"pl_frontier_final","folder":"tf","game":"Team Fortress","app_id":440,"player_count":24,"max_players":24,"Bots":0,"server_type":"Dedicated","server_os":"Linux","password":true,"vac":true,"version":"7932396","steam_id":85568392924469989,"keywords":["nocrits","nodmgspread","payload","uncletopia"],"game_id":440,"stv_port":27016,"stv_name":"Uncletopia | Frankfurt | 1 | All Maps | STV","players":[{"user_id":89,"name":"Silverstorm","steam_id":76561198118175267,"connected_time":3991000000000,"state":"active","ping":77},{"user_id":168,"name":"jamkel #savetf2","steam_id":76561199088464666,"connected_time":63000000000,"state":"active","ping":130},{"user_id":125,"name":"Penis Contortionist","steam_id":76561198073663784,"connected_time":2498000000000,"state":"active","ping":51},{"user_id":159,"name":"M√©bh √ìg MacT√≠re","steam_id":76561198346399624,"connected_time":534000000000,"state":"active","ping":79},{"user_id":136,"name":"Live Laugh Love","steam_id":76561198306066820,"connected_time":1604000000000,"state":"active","ping":81},{"user_id":167,"name":"Nibbenji2077","steam_id":76561199219663655,"connected_time":117000000000,"state":"spawning","ping":119},{"user_id":134,"name":"I jazzed myself","steam_id":76561198203016603,"connected_time":1671000000000,"state":"active","ping":79},{"user_id":154,"name":"Lennox","steam_id":76561198069063554,"connected_time":688000000000,"state":"active","ping":44},{"user_id":128,"name":"Ratatatatatatouille","steam_id":76561198182267098,"connected_time":2387000000000,"state":"active","ping":88},{"user_id":124,"name":"roblan11","steam_id":76561198066839258,"connected_time":2519000000000,"state":"active","ping":46},{"user_id":157,"name":"skill based","steam_id":76561198341178432,"connected_time":650000000000,"state":"active","ping":103},{"user_id":161,"name":"CptHavvock","steam_id":76561199189740651,"connected_time":495000000000,"state":"active","ping":79},{"user_id":143,"name":"AleXandriX","steam_id":76561198035203950,"connected_time":1171000000000,"state":"active","ping":58},{"user_id":162,"name":"stickurr","steam_id":76561198089536805,"connected_time":483000000000,"state":"active","ping":60},{"user_id":144,"name":"TJ1212","steam_id":76561199013575313,"connected_time":1171000000000,"state":"active","ping":63},{"user_id":147,"name":"TheBorous_","steam_id":76561198087721696,"connected_time":1023000000000,"state":"active","ping":49},{"user_id":163,"name":"stefanbejenari","steam_id":76561199466718294,"connected_time":475000000000,"state":"active","ping":76},{"user_id":150,"name":"molten","steam_id":76561198096653130,"connected_time":906000000000,"state":"active","ping":102},{"user_id":169,"name":"shakebell","steam_id":76561197970795094,"connected_time":55000000000,"state":"active","ping":75},{"user_id":149,"name":"Jemuzu Hasuki","steam_id":76561198308368911,"connected_time":942000000000,"state":"active","ping":56},{"user_id":151,"name":"Conagher","steam_id":76561198217607996,"connected_time":839000000000,"state":"active","ping":77},{"user_id":165,"name":"panakid","steam_id":76561198364121077,"connected_time":376000000000,"state":"active","ping":90},{"user_id":153,"name":"Panda","steam_id":76561198176342325,"connected_time":740000000000,"state":"active","ping":105},{"user_id":158,"name":"r1ghty","steam_id":76561198022349611,"connected_time":646000000000,"state":"active","ping":130}]},{"server_id":110,"name":"Uncletopia | Frankfurt | 2 | All Maps","name_short":"frk-2","host":"frk-1.de.uncletopia.com","port":27025,"enabled":true,"region":"eu","cc":"de","latitude":50.110924,"longitude":8.682127,"reserved":0,"last_update":"0001-01-01T00:00:00Z","name_a2s":"Uncletopia | Frankfurt | 2 | All Maps","protocol":17,"map":"cp_dustbowl","folder":"tf","game":"Team Fortress","app_id":440,"player_count":24,"max_players":24,"Bots":0,"server_type":"Dedicated","server_os":"Linux","password":true,"vac":true,"version":"7932396","steam_id":85568392924469990,"keywords":["cp","nocrits","nodmgspread","uncletopia"],"game_id":440,"stv_port":27026,"stv_name":"Uncletopia | Frankfurt | 2 | All Maps | STV","players":[{"user_id":447,"name":"Haloman","steam_id":76561198119610371,"connected_time":75000000000,"state":"active","ping":225},{"user_id":406,"name":"Marukuso","steam_id":76561198154229845,"connected_time":2974000000000,"state":"active","ping":72},{"user_id":268,"name":"Death","steam_id":76561198176896415,"connected_time":6458000000000,"state":"active","ping":80},{"user_id":421,"name":"domek brexit geezerüá¨üáß","steam_id":76561198048447632,"connected_time":2010000000000,"state":"active","ping":60},{"user_id":442,"name":"ANGELFISH","steam_id":76561198027536466,"connected_time":540000000000,"state":"active","ping":89},{"user_id":411,"name":"howabe","steam_id":76561197996486818,"connected_time":2826000000000,"state":"active","ping":49},{"user_id":441,"name":"JareJare","steam_id":76561199040893751,"connected_time":557000000000,"state":"active","ping":70},{"user_id":357,"name":"Sham!","steam_id":76561198050434275,"connected_time":3950000000000,"state":"active","ping":57},{"user_id":434,"name":"big poo","steam_id":76561198129157178,"connected_time":1106000000000,"state":"active","ping":90},{"user_id":429,"name":"4","steam_id":76561197964945192,"connected_time":1264000000000,"state":"active","ping":51},{"user_id":443,"name":"Dr. Mario","steam_id":76561199125182282,"connected_time":511000000000,"state":"active","ping":55},{"user_id":435,"name":"John Darksoul","steam_id":76561198110470565,"connected_time":1101000000000,"state":"active","ping":95},{"user_id":436,"name":"Waltcha","steam_id":76561198007691468,"connected_time":1043000000000,"state":"active","ping":60},{"user_id":366,"name":"Fairy Of Nature","steam_id":76561198274159048,"connected_time":3778000000000,"state":"active","ping":66},{"user_id":417,"name":"LuckLuster","steam_id":76561198092986647,"connected_time":2668000000000,"state":"active","ping":95},{"user_id":437,"name":"I only uber spies","steam_id":76561198333241218,"connected_time":989000000000,"state":"active","ping":81},{"user_id":422,"name":"Zenkai","steam_id":76561198975556646,"connected_time":1889000000000,"state":"active","ping":58},{"user_id":424,"name":"Profile","steam_id":76561198966737485,"connected_time":1719000000000,"state":"active","ping":67},{"user_id":334,"name":"Tegnerud","steam_id":76561198214185612,"connected_time":4103000000000,"state":"active","ping":71},{"user_id":425,"name":"_420_StopItDudeCmon","steam_id":76561197997146481,"connected_time":1637000000000,"state":"active","ping":65},{"user_id":428,"name":"nyanezt","steam_id":76561198253734265,"connected_time":1374000000000,"state":"active","ping":103},{"user_id":430,"name":"Kapitan Polska","steam_id":76561197968069413,"connected_time":1249000000000,"state":"active","ping":76},{"user_id":445,"name":"Avarus","steam_id":76561198040324008,"connected_time":399000000000,"state":"active","ping":73},{"user_id":340,"name":"El_Kommadante","steam_id":76561198079551685,"connected_time":4063000000000,"state":"active","ping":73}]},{"server_id":308,"name":"Uncletopia | Frankfurt | 3 | All Maps","name_short":"frk-3","host":"frk-1.de.uncletopia.com","port":27035,"enabled":true,"region":"eu","cc":"de","latitude":50.110924,"longitude":8.682127,"reserved":0,"last_update":"0001-01-01T00:00:00Z","name_a2s":"Uncletopia | Frankfurt | 3 | All Maps","protocol":17,"map":"pl_thundermountain","folder":"tf","game":"Team Fortress","app_id":440,"player_count":24,"max_players":24,"Bots":0,"server_type":"Dedicated","server_os":"Linux","password":true,"vac":true,"version":"7932396","steam_id":85568392924504274,"keywords":["nocrits","nodmgspread","payload","uncletopia"],"game_id":440,"stv_port":27036,"stv_name":"Uncletopia | Frankfurt | 3 | All Maps | STV","players":[{"user_id":255,"name":"Fr1Zer","steam_id":76561198357086270,"connected_time":2626000000000,"state":"active","ping":95},{"user_id":176,"name":"Malte","steam_id":76561198326324739,"connected_time":6091000000000,"state":"active","ping":60},{"user_id":244,"name":"Killer Bean","steam_id":76561198072567787,"connected_time":2993000000000,"state":"active","ping":70},{"user_id":174,"name":"Cyrell","steam_id":76561198158308194,"connected_time":6304000000000,"state":"active","ping":44},{"user_id":280,"name":"samswhikwhikey","steam_id":76561199192602677,"connected_time":221000000000,"state":"active","ping":163},{"user_id":275,"name":"ScarredPixel123","steam_id":76561199165112703,"connected_time":898000000000,"state":"active","ping":82},{"user_id":240,"name":"Koli","steam_id":76561197992428783,"connected_time":3425000000000,"state":"active","ping":45},{"user_id":281,"name":"snsmac","steam_id":76561198082821185,"connected_time":185000000000,"state":"active","ping":50},{"user_id":273,"name":"Mitt","steam_id":76561199011013919,"connected_time":1621000000000,"state":"active","ping":70},{"user_id":277,"name":"Bumblebee","steam_id":76561198033551105,"connected_time":816000000000,"state":"active","ping":62},{"user_id":286,"name":"Logan","steam_id":76561199153519887,"connected_time":68000000000,"state":"active","ping":70},{"user_id":285,"name":"snowii","steam_id":76561198836246326,"connected_time":113000000000,"state":"active","ping":75},{"user_id":268,"name":"English Class Student","steam_id":76561199171260409,"connected_time":1869000000000,"state":"active","ping":65},{"user_id":245,"name":"Spectral Sloth","steam_id":76561198170083139,"connected_time":2950000000000,"state":"active","ping":85},{"user_id":182,"name":"Nekoshironi","steam_id":76561198191124837,"connected_time":6044000000000,"state":"active","ping":74},{"user_id":243,"name":"john fortress","steam_id":76561198013237629,"connected_time":3143000000000,"state":"active","ping":105},{"user_id":236,"name":"pyh√§ petteri","steam_id":76561198057722639,"connected_time":3631000000000,"state":"active","ping":65},{"user_id":221,"name":"m√®x","steam_id":76561197975951572,"connected_time":4363000000000,"state":"active","ping":68},{"user_id":287,"name":"Doughy","steam_id":76561198044084210,"connected_time":16000000000,"state":"spawning","ping":69},{"user_id":279,"name":"ZaneMago","steam_id":76561198305019050,"connected_time":329000000000,"state":"active","ping":72},{"user_id":284,"name":"FishNachoz","steam_id":76561198026519426,"connected_time":137000000000,"state":"active","ping":64},{"user_id":269,"name":"CAR DOOR","steam_id":76561198055283295,"connected_time":1852000000000,"state":"active","ping":47},{"user_id":272,"name":"Michal jordan","steam_id":76561199106262610,"connected_time":1668000000000,"state":"active","ping":65},{"user_id":270,"name":"TAFI03","steam_id":76561198213082089,"connected_time":1831000000000,"state":"active","ping":60}]},{"server_id":309,"name":"Uncletopia | Frankfurt | 4 | All Maps","name_short":"frk-4","host":"frk-1.de.uncletopia.com","port":27045,"enabled":true,"region":"eu","cc":"de","latitude":50.110924,"longitude":8.682127,"reserved":0,"last_update":"0001-01-01T00:00:00Z","name_a2s":"Uncletopia | Frankfurt | 4 | All Maps","protocol":17,"map":"pl_borneo","folder":"tf","game":"Team Fortress","app_id":440,"player_count":0,"max_players":24,"Bots":0,"server_type":"Dedicated","server_os":"Linux","password":true,"vac":true,"version":"7932396","steam_id":85568392924504275,"keywords":["nocrits","nodmgspread","payload","uncletopia"],"game_id":440,"stv_port":27046,"stv_name":"Uncletopia | Frankfurt | 4 | All Maps | STV","players":null},{"server_id":310,"name":"Uncletopia | Frankfurt | 5 | All Maps","name_short":"frk-5","host":"frk-1.de.uncletopia.com","port":27055,"enabled":true,"region":"eu","cc":"de","latitude":50.110924,"longitude":8.682127,"reserved":0,"last_update":"0001-01-01T00:00:00Z","name_a2s":"Uncletopia | Frankfurt | 5 | All Maps","protocol":17,"map":"koth_cascade","folder":"tf","game":"Team Fortress","app_id":440,"player_count":3,"max_players":24,"Bots":0,"server_type":"Dedicated","server_os":"Linux","password":true,"vac":true,"version":"7932396","steam_id":85568392924504277,"keywords":["cp","nocrits","nodmgspread","uncletopia"],"game_id":440,"stv_port":27056,"stv_name":"Uncletopia | Frankfurt | 5 | All Maps | STV","players":[{"user_id":373,"name":"PopxCpe","steam_id":76561198365405733,"connected_time":2519000000000,"state":"active","ping":110},{"user_id":374,"name":"SnipeX_PC","steam_id":76561199149331583,"connected_time":2517000000000,"state":"active","ping":105},{"user_id":379,"name":"yoki","steam_id":76561198275399153,"connected_time":993000000000,"state":"active","ping":90}]},{"server_id":311,"name":"Uncletopia | Frankfurt | 6 | All Maps","name_short":"frk-6","host":"frk-1.de.uncletopia.com","port":27065,"enabled":true,"region":"eu","cc":"de","latitude":50.110924,"longitude":8.682127,"reserved":0,"last_update":"0001-01-01T00:00:00Z","name_a2s":"Uncletopia | Frankfurt | 6 | All Maps","protocol":17,"map":"pl_snowycoast","folder":"tf","game":"Team Fortress","app_id":440,"player_count":0,"max_players":24,"Bots":0,"server_type":"Dedicated","server_os":"Linux","password":true,"vac":true,"version":"7932396","steam_id":85568392924504278,"keywords":["nocrits","nodmgspread","payload","uncletopia"],"game_id":440,"stv_port":27066,"stv_name":"Uncletopia | Frankfurt | 6 | All Maps | STV","players":null},{"server_id":23,"name":"Uncletopia | Frankfurt | 7 | Stopwatch Beta","name_short":"frk-7","host":"frk-1.de.uncletopia.com","port":27075,"enabled":true,"region":"eu","cc":"de","latitude":50.110924,"longitude":8.682127,"reserved":0,"last_update":"0001-01-01T00:00:00Z","name_a2s":"Uncletopia | Frankfurt | 7 | Stopwatch Beta","protocol":17,"map":"pl_snowycoast","folder":"tf","game":"Team Fortress","app_id":440,"player_count":0,"max_players":24,"Bots":0,"server_type":"Dedicated","server_os":"Linux","password":true,"vac":true,"version":"7932396","steam_id":85568392924742827,"keywords":["nocrits","nodmgspread","payload","uncletopia"],"game_id":440,"stv_port":27076,"stv_name":"Uncletopia | Frankfurt | 7 | Stopwatch Beta | STV","players":null},{"server_id":24,"name":"Uncletopia | Frankfurt | 8 | Community","name_short":"frk-8","host":"frk-1.de.uncletopia.com","port":27085,"enabled":true,"region":"eu","cc":"de","latitude":50.110924,"longitude":8.682127,"reserved":0,"last_update":"0001-01-01T00:00:00Z","name_a2s":"Uncletopia | Frankfurt | 8 | Community","protocol":17,"map":"workshop/cp_fulgur_rc2a.ugc2068252300","folder":"tf","game":"Team Fortress","app_id":440,"player_count":0,"max_players":24,"Bots":0,"server_type":"Dedicated","server_os":"Linux","password":true,"vac":true,"version":"7932396","steam_id":85568392924742828,"keywords":["cp","nocrits","nodmgspread","uncletopia"],"game_id":440,"stv_port":27086,"stv_name":"Uncletopia | Frankfurt | 8 | Community | STV","players":null},{"server_id":202,"name":"Uncletopia | Hong Kong | 1 | All Maps","name_short":"hgk-1","host":"hgk-1.hk.uncletopia.com","port":27015,"enabled":true,"region":"asia","cc":"hk","latitude":22.302711,"longitude":114.177216,"reserved":0,"last_update":"0001-01-01T00:00:00Z","name_a2s":"Uncletopia | Hong Kong | 1 | All Maps","protocol":17,"map":"cp_sunshine","folder":"tf","game":"Team Fortress","app_id":440,"player_count":24,"max_players":24,"Bots":0,"server_type":"Dedicated","server_os":"Linux","password":true,"vac":true,"version":"7932396","steam_id":85568392924494504,"keywords":["cp","nocrits","nodmgspread","uncletopia"],"game_id":440,"stv_port":27016,"stv_name":"Uncletopia | Hong Kong | 1 | All Maps | STV","players":[{"user_id":767,"name":"DEMI TYRANT","steam_id":76561198971023363,"connected_time":4014000000000,"state":"active","ping":95},{"user_id":788,"name":"Samoyed","steam_id":76561198299150410,"connected_time":2665000000000,"state":"active","ping":78},{"user_id":730,"name":"Kurtie","steam_id":76561198144737876,"connected_time":7074000000000,"state":"active","ping":69},{"user_id":797,"name":"not stonks player","steam_id":76561198075139194,"connected_time":2069000000000,"state":"active","ping":79},{"user_id":764,"name":"ÊØç„ÅÆËÇâÂõ£Â≠ê@hao123.com","steam_id":76561198069561896,"connected_time":4093000000000,"state":"active","ping":34},{"user_id":754,"name":"AmaiToxic","steam_id":76561199122491157,"connected_time":5035000000000,"state":"active","ping":123},{"user_id":805,"name":"monkeyman536","steam_id":76561197997717737,"connected_time":1137000000000,"state":"active","ping":123},{"user_id":786,"name":"Wx","steam_id":76561199217780897,"connected_time":2796000000000,"state":"active","ping":110},{"user_id":779,"name":"John Weak","steam_id":76561198321885643,"connected_time":3031000000000,"state":"active","ping":43},{"user_id":802,"name":"coakDeLera","steam_id":76561199262817512,"connected_time":1623000000000,"state":"active","ping":82},{"user_id":772,"name":"Hay","steam_id":76561199438952901,"connected_time":3498000000000,"state":"active","ping":52},{"user_id":765,"name":"Pug_Lord","steam_id":76561199090153442,"connected_time":4087000000000,"state":"active","ping":113},{"user_id":810,"name":"lsf","steam_id":76561198095278714,"connected_time":359000000000,"state":"active","ping":45},{"user_id":800,"name":"apollo","steam_id":76561198823374287,"connected_time":1896000000000,"state":"active","ping":84},{"user_id":741,"name":"r/sinkpissers","steam_id":76561198413116920,"connected_time":6501000000000,"state":"active","ping":86},{"user_id":806,"name":"meowdy","steam_id":76561198337154745,"connected_time":1106000000000,"state":"active","ping":127},{"user_id":761,"name":"TonXD","steam_id":76561199024372559,"connected_time":4790000000000,"state":"active","ping":98},{"user_id":804,"name":"justify","steam_id":76561199227541378,"connected_time":1302000000000,"state":"active","ping":141},{"user_id":769,"name":"tiden2000","steam_id":76561198092969425,"connected_time":4008000000000,"state":"active","ping":104},{"user_id":809,"name":"Streety","steam_id":76561199098969003,"connected_time":614000000000,"state":"active","ping":75},{"user_id":723,"name":"Drutzhfer","steam_id":76561198299948446,"connected_time":7385000000000,"state":"active","ping":102},{"user_id":803,"name":"justaguyinariver","steam_id":76561199150967531,"connected_time":1475000000000,"state":"active","ping":113},{"user_id":795,"name":"morplul","steam_id":76561198841772813,"connected_time":2137000000000,"state":"active","ping":66},{"user_id":808,"name":"disgruntled vet","steam_id":76561199048275012,"connected_time":688000000000,"state":"active","ping":80}]},{"server_id":1,"name":"Uncletopia | Los Angeles | 1 | All Maps","name_short":"lax-1","host":"lax-1.us.uncletopia.com","port":27015,"enabled":true,"region":"us-west","cc":"us","latitude":33.94279,"longitude":-118.41004,"reserved":0,"last_update":"0001-01-01T00:00:00Z","name_a2s":"Uncletopia | Los Angeles | 1 | All Maps","protocol":17,"map":"pl_badwater","folder":"tf","game":"Team Fortress","app_id":440,"player_count":0,"max_players":24,"Bots":0,"server_type":"Dedicated","server_os":"Linux","password":true,"vac":true,"version":"7932396","steam_id":85568392924469991,"keywords":["nocrits","nodmgspread","payload","uncletopia"],"game_id":440,"stv_port":27016,"stv_name":"Uncletopia | Los Angeles | 1 | All Maps | STV","players":null},{"server_id":112,"name":"Uncletopia | Los Angeles | 2 | All Maps","name_short":"lax-2","host":"lax-1.us.uncletopia.com","port":27025,"enabled":true,"region":"us-west","cc":"us","latitude":33.94279,"longitude":-118.41004,"reserved":0,"last_update":"0001-01-01T00:00:00Z","name_a2s":"Uncletopia | Los Angeles | 2 | All Maps","protocol":17,"map":"pl_borneo","folder":"tf","game":"Team Fortress","app_id":440,"player_count":0,"max_players":24,"Bots":0,"server_type":"Dedicated","server_os":"Linux","password":true,"vac":true,"version":"7932396","steam_id":85568392924469992,"keywords":["nocrits","nodmgspread","payload","uncletopia"],"game_id":440,"stv_port":27026,"stv_name":"Uncletopia | Los Angeles | 2 | All Maps | STV","players":null},{"server_id":324,"name":"Uncletopia | Los Angeles | 3 | All Maps","name_short":"lax-3","host":"lax-1.us.uncletopia.com","port":27035,"enabled":true,"region":"us-west","cc":"us","latitude":33.94279,"longitude":-118.41004,"reserved":0,"last_update":"0001-01-01T00:00:00Z","name_a2s":"Uncletopia | Los Angeles | 3 | All Maps","protocol":17,"map":"pl_borneo","folder":"tf","game":"Team Fortress","app_id":440,"player_count":0,"max_players":24,"Bots":0,"server_type":"Dedicated","server_os":"Linux","password":true,"vac":true,"version":"7932396","steam_id":85568392924510198,"keywords":["nocrits","nodmgspread","payload","uncletopia"],"game_id":440,"stv_port":27036,"stv_name":"Uncletopia | Los Angeles | 3 | All Maps | STV","players":null},{"server_id":25,"name":"Uncletopia | Los Angeles | 4 | Stopwatch Beta","name_short":"lax-4","host":"lax-1.us.uncletopia.com","port":27045,"enabled":true,"region":"us-west","cc":"us","latitude":33.94279,"longitude":-118.41004,"reserved":0,"last_update":"0001-01-01T00:00:00Z","name_a2s":"Uncletopia | Los Angeles | 4 | Stopwatch Beta","protocol":17,"map":"cp_altitude","folder":"tf","game":"Team Fortress","app_id":440,"player_count":0,"max_players":24,"Bots":0,"server_type":"Dedicated","server_os":"Linux","password":true,"vac":true,"version":"7932396","steam_id":85568392924510199,"keywords":["cp","nocrits","nodmgspread","uncletopia"],"game_id":440,"stv_port":27046,"stv_name":"Uncletopia | Los Angeles | 4 | Stopwatch Beta | STV","players":null},{"server_id":11,"name":"Uncletopia | London | 1 | All Maps","name_short":"lon-1","host":"lon-1.uk.uncletopia.com","port":27015,"enabled":true,"region":"eu","cc":"gb","latitude":51.509865,"longitude":-0.118092,"reserved":0,"last_update":"0001-01-01T00:00:00Z","name_a2s":"Uncletopia | London | 1 | All Maps","protocol":17,"map":"pl_badwater","folder":"tf","game":"Team Fortress","app_id":440,"player_count":21,"max_players":24,"Bots":0,"server_type":"Dedicated","server_os":"Linux","password":true,"vac":true,"version":"7932396","steam_id":85568392924367362,"keywords":["nocrits","nodmgspread","payload","uncletopia"],"game_id":440,"stv_port":27016,"stv_name":"Uncletopia | London | 1 | All Maps | STV","players":[{"user_id":456,"name":"Finnistae","steam_id":76561198437703773,"connected_time":29000000000,"state":"connecting","ping":127},{"user_id":418,"name":"Cosmetic brain","steam_id":76561198055936410,"connected_time":2023000000000,"state":"active","ping":217},{"user_id":419,"name":"Starach","steam_id":76561198084530972,"connected_time":2005000000000,"state":"spawning","ping":60},{"user_id":420,"name":"mwr","steam_id":76561199129942647,"connected_time":2004000000000,"state":"spawning","ping":79},{"user_id":415,"name":"the joy of recycling","steam_id":76561198138509827,"connected_time":2066000000000,"state":"spawning","ping":93},{"user_id":424,"name":"Caerot","steam_id":76561198839000676,"connected_time":1769000000000,"state":"spawning","ping":79},{"user_id":434,"name":"Phoskito","steam_id":76561199175072402,"connected_time":1070000000000,"state":"spawning","ping":95},{"user_id":458,"name":"elijah","steam_id":76561198093936708,"connected_time":20000000000,"state":"spawning","ping":82},{"user_id":388,"name":"MIG","steam_id":76561198099245500,"connected_time":2919000000000,"state":"spawning","ping":317},{"user_id":407,"name":"Wilderhammer","steam_id":76561198132133702,"connected_time":2279000000000,"state":"spawning","ping":50},{"user_id":347,"name":"whimsy.","steam_id":76561198878171763,"connected_time":7553000000000,"state":"spawning","ping":47},{"user_id":414,"name":"LordTrap.exe","steam_id":76561198318089716,"connected_time":2073000000000,"state":"spawning","ping":64},{"user_id":431,"name":"Dolcelatte","steam_id":76561198038501770,"connected_time":1149000000000,"state":"spawning","ping":67},{"user_id":435,"name":"TheButterPickle","steam_id":76561198354317787,"connected_time":977000000000,"state":"active","ping":108},{"user_id":396,"name":"Explosive Poptart","steam_id":76561198023918830,"connected_time":2687000000000,"state":"spawning","ping":46},{"user_id":425,"name":"James","steam_id":76561198168882012,"connected_time":1723000000000,"state":"active","ping":67},{"user_id":436,"name":"Plep","steam_id":76561198840259819,"connected_time":837000000000,"state":"active","ping":123},{"user_id":421,"name":"The_EC","steam_id":76561198025587050,"connected_time":1993000000000,"state":"spawning","ping":69},{"user_id":364,"name":"goff","steam_id":76561198118989010,"connected_time":5549000000000,"state":"active","ping":67},{"user_id":365,"name":"night.s","steam_id":76561198326287823,"connected_time":5549000000000,"state":"spawning","ping":225},{"user_id":455,"name":"–¢—Ä—É–ø –í–æ–ª–æ–¥—è","steam_id":76561198035718457,"connected_time":125000000000,"state":"spawning","ping":98}]},{"server_id":114,"name":"Uncletopia | London | 2 | All Maps","name_short":"lon-2","host":"lon-1.uk.uncletopia.com","port":27025,"enabled":true,"region":"eu","cc":"gb","latitude":51.509865,"longitude":-0.118092,"reserved":0,"last_update":"0001-01-01T00:00:00Z","name_a2s":"Uncletopia | London | 2 | All Maps","protocol":17,"map":"pl_badwater","folder":"tf","game":"Team Fortress","app_id":440,"player_count":24,"max_players":24,"Bots":0,"server_type":"Dedicated","server_os":"Linux","password":true,"vac":true,"version":"7932396","steam_id":85568392924470941,"keywords":["nocrits","nodmgspread","payload","uncletopia"],"game_id":440,"stv_port":27026,"stv_name":"Uncletopia | London | 2 | All Maps | STV","players":[{"user_id":306,"name":"PrimeTarget","steam_id":76561198046409289,"connected_time":1418000000000,"state":"active","ping":76},{"user_id":298,"name":"Mr.Schnittlauch","steam_id":76561198295868113,"connected_time":1541000000000,"state":"active","ping":61},{"user_id":318,"name":"Dakeyras","steam_id":76561198057069564,"connected_time":595000000000,"state":"active","ping":100},{"user_id":227,"name":"Funky Fresh Beats","steam_id":76561199097171354,"connected_time":6360000000000,"state":"active","ping":56},{"user_id":320,"name":"Ferlo","steam_id":76561198095561504,"connected_time":457000000000,"state":"active","ping":60},{"user_id":311,"name":"saltdue","steam_id":76561198879405711,"connected_time":1196000000000,"state":"active","ping":97},{"user_id":321,"name":"RIFT","steam_id":76561198991622379,"connected_time":416000000000,"state":"active","ping":43},{"user_id":232,"name":"worm with a fat ass","steam_id":76561198170026338,"connected_time":5842000000000,"state":"active","ping":64},{"user_id":250,"name":"yuno appreciator","steam_id":76561198083286511,"connected_time":4820000000000,"state":"active","ping":42},{"user_id":268,"name":"rapeseed oil 1L","steam_id":76561199105796083,"connected_time":3961000000000,"state":"active","ping":84},{"user_id":294,"name":"2spooky4me","steam_id":76561198043211244,"connected_time":1805000000000,"state":"active","ping":72},{"user_id":323,"name":"KLAMA  ‚ù§","steam_id":76561198351549661,"connected_time":400000000000,"state":"active","ping":75},{"user_id":322,"name":"vadim_kotler","steam_id":76561199016634369,"connected_time":415000000000,"state":"active","ping":104},{"user_id":319,"name":"TheEventGuy","steam_id":76561197972797744,"connected_time":544000000000,"state":"active","ping":67},{"user_id":309,"name":"Well","steam_id":76561198411337640,"connected_time":1288000000000,"state":"active","ping":105},{"user_id":288,"name":"‚ô£–ì–µ–Ω—Å–µ–∫ –ü–æ–Ω–æ—Å–∞","steam_id":76561198796404149,"connected_time":2463000000000,"state":"active","ping":118},{"user_id":216,"name":"Mono","steam_id":76561198114569493,"connected_time":6997000000000,"state":"active","ping":45},{"user_id":324,"name":"whatever","steam_id":76561198095943461,"connected_time":395000000000,"state":"active","ping":68},{"user_id":277,"name":"Chief Executive Officer of Sex","steam_id":76561198385989487,"connected_time":3713000000000,"state":"active","ping":101},{"user_id":325,"name":"average f2p","steam_id":76561199109449730,"connected_time":389000000000,"state":"active","ping":156},{"user_id":255,"name":"JUST","steam_id":76561198069064885,"connected_time":4745000000000,"state":"active","ping":58},{"user_id":327,"name":"BING CHILLING","steam_id":76561198065438030,"connected_time":42000000000,"state":"active","ping":134},{"user_id":316,"name":"MILKY","steam_id":76561199261620682,"connected_time":769000000000,"state":"active","ping":61},{"user_id":281,"name":"Orbit","steam_id":76561198242999878,"connected_time":3681000000000,"state":"active","ping":56}]},{"server_id":320,"name":"Uncletopia | London | 3 | All Maps","name_short":"lon-3","host":"lon-1.uk.uncletopia.com","port":27035,"enabled":true,"region":"eu","cc":"gb","latitude":51.509865,"longitude":-0.118092,"reserved":0,"last_update":"0001-01-01T00:00:00Z","name_a2s":"Uncletopia | London | 3 | All Maps","protocol":17,"map":"cp_steel","folder":"tf","game":"Team Fortress","app_id":440,"player_count":24,"max_players":24,"Bots":0,"server_type":"Dedicated","server_os":"Linux","password":true,"vac":true,"version":"7932396","steam_id":85568392924510192,"keywords":["cp","nocrits","nodmgspread","uncletopia"],"game_id":440,"stv_port":27036,"stv_name":"Uncletopia | London | 3 | All Maps | STV","players":[{"user_id":211,"name":"Agro | KritzKast","steam_id":76561197970498549,"connected_time":1141000000000,"state":"active","ping":41},{"user_id":228,"name":"jumanji","steam_id":76561199061441036,"connected_time":330000000000,"state":"active","ping":105},{"user_id":214,"name":"Matt","steam_id":76561198263644467,"connected_time":699000000000,"state":"active","ping":85},{"user_id":215,"name":"Û†Å≥‚Åß‚Åß Kruthal","steam_id":76561198245726582,"connected_time":616000000000,"state":"active","ping":75},{"user_id":181,"name":"lagzer","steam_id":76561198029295449,"connected_time":3621000000000,"state":"active","ping":83},{"user_id":224,"name":"Tyrosine","steam_id":76561198301670611,"connected_time":409000000000,"state":"active","ping":72},{"user_id":218,"name":"AwterSix","steam_id":76561198042561678,"connected_time":523000000000,"state":"active","ping":59},{"user_id":236,"name":"Genesis","steam_id":76561198999652040,"connected_time":181000000000,"state":"active","ping":59},{"user_id":235,"name":"hmscole09","steam_id":76561198811362788,"connected_time":202000000000,"state":"active","ping":55},{"user_id":221,"name":"Kiz","steam_id":76561198811732820,"connected_time":437000000000,"state":"active","ping":75},{"user_id":222,"name":"Townsend And Sons","steam_id":76561199072698153,"connected_time":431000000000,"state":"active","ping":69},{"user_id":223,"name":"DicyPicky","steam_id":76561198078873335,"connected_time":428000000000,"state":"active","ping":65},{"user_id":225,"name":"IndigoJones","steam_id":76561198050284262,"connected_time":381000000000,"state":"active","ping":45},{"user_id":197,"name":"gr3821","steam_id":76561198091531010,"connected_time":2536000000000,"state":"active","ping":43},{"user_id":182,"name":"NutsNTrolls","steam_id":76561198335891676,"connected_time":3616000000000,"state":"active","ping":90},{"user_id":232,"name":"Grillem Dafoe","steam_id":76561198306874574,"connected_time":288000000000,"state":"active","ping":64},{"user_id":190,"name":"GrzMik","steam_id":76561198061951968,"connected_time":3410000000000,"state":"active","ping":101},{"user_id":202,"name":"koira","steam_id":76561197996199669,"connected_time":1740000000000,"state":"active","ping":75},{"user_id":184,"name":"Kabachok Aeronavt","steam_id":76561198123659806,"connected_time":3609000000000,"state":"active","ping":99},{"user_id":185,"name":"***** ***","steam_id":76561198048037379,"connected_time":3606000000000,"state":"active","ping":83},{"user_id":210,"name":"Milky","steam_id":76561198276826810,"connected_time":1272000000000,"state":"active","ping":68},{"user_id":205,"name":"Yodesman","steam_id":76561198035765995,"connected_time":1657000000000,"state":"active","ping":108},{"user_id":231,"name":"Taharaki","steam_id":76561198131746120,"connected_time":291000000000,"state":"active","ping":62},{"user_id":233,"name":"Mr.O #deletesniper","steam_id":76561198039567498,"connected_time":288000000000,"state":"active","ping":59}]},{"server_id":321,"name":"Uncletopia | London | 4 | All Maps","name_short":"lon-4","host":"lon-1.uk.uncletopia.com","port":27045,"enabled":true,"region":"eu","cc":"gb","latitude":51.509865,"longitude":-0.118092,"reserved":0,"last_update":"0001-01-01T00:00:00Z","name_a2s":"Uncletopia | London | 4 | All Maps","protocol":17,"map":"koth_viaduct","folder":"tf","game":"Team Fortress","app_id":440,"player_count":0,"max_players":24,"Bots":0,"server_type":"Dedicated","server_os":"Linux","password":true,"vac":true,"version":"7932396","steam_id":85568392924510193,"keywords":["cp","nocrits","nodmgspread","uncletopia"],"game_id":440,"stv_port":27046,"stv_name":"Uncletopia | London | 4 | All Maps | STV","players":null},{"server_id":21,"name":"Uncletopia | London | 5 | All Maps","name_short":"lon-5","host":"lon-1.uk.uncletopia.com","port":27055,"enabled":true,"region":"eu","cc":"gb","latitude":51.509865,"longitude":-0.118092,"reserved":0,"last_update":"0001-01-01T00:00:00Z","name_a2s":"Uncletopia | London | 5 | All Maps","protocol":17,"map":"pl_badwater","folder":"tf","game":"Team Fortress","app_id":440,"player_count":24,"max_players":24,"Bots":0,"server_type":"Dedicated","server_os":"Linux","password":true,"vac":true,"version":"7932396","steam_id":85568392924742829,"keywords":["nocrits","nodmgspread","payload","uncletopia"],"game_id":440,"stv_port":27056,"stv_name":"Uncletopia | London | 5 | All Maps | STV","players":[{"user_id":296,"name":"Gibuswagen","steam_id":76561198231141012,"connected_time":155000000000,"state":"active","ping":122},{"user_id":262,"name":"Technic","steam_id":76561198128096130,"connected_time":2185000000000,"state":"active","ping":48},{"user_id":288,"name":"HalfPear","steam_id":76561198289156209,"connected_time":276000000000,"state":"active","ping":85},{"user_id":277,"name":"executive producer larry david","steam_id":76561198057868438,"connected_time":1142000000000,"state":"active","ping":60},{"user_id":290,"name":"yaldabaoth","steam_id":76561198084606869,"connected_time":266000000000,"state":"active","ping":134},{"user_id":285,"name":"SLiPpeRyJoe.nosound","steam_id":76561197977206359,"connected_time":302000000000,"state":"active","ping":158},{"user_id":263,"name":"generic alias","steam_id":76561198271607226,"connected_time":2004000000000,"state":"active","ping":81},{"user_id":298,"name":"YuraGreek","steam_id":76561198050182252,"connected_time":132000000000,"state":"active","ping":90},{"user_id":286,"name":"conquistadorgt","steam_id":76561198848812449,"connected_time":290000000000,"state":"active","ping":75},{"user_id":235,"name":"Flight of the Blonde Giraffes","steam_id":76561198451585571,"connected_time":4710000000000,"state":"active","ping":71},{"user_id":255,"name":"GMsU | DaLuigi","steam_id":76561198054486188,"connected_time":3098000000000,"state":"active","ping":60},{"user_id":253,"name":"Will","steam_id":76561198173329977,"connected_time":3182000000000,"state":"active","ping":58},{"user_id":237,"name":"SlowMode","steam_id":76561198039631442,"connected_time":4678000000000,"state":"active","ping":75},{"user_id":287,"name":"c4ctus","steam_id":76561198925655488,"connected_time":286000000000,"state":"active","ping":84},{"user_id":256,"name":"GMsU | Rebikas","steam_id":76561198077053764,"connected_time":3085000000000,"state":"active","ping":52},{"user_id":272,"name":"askulap","steam_id":76561197992018795,"connected_time":1514000000000,"state":"active","ping":81},{"user_id":265,"name":"LivEssense","steam_id":76561198052476979,"connected_time":2000000000000,"state":"active","ping":82},{"user_id":278,"name":"Dry","steam_id":76561198027164095,"connected_time":989000000000,"state":"active","ping":135},{"user_id":299,"name":"Joker ‚òÜ","steam_id":76561198096066091,"connected_time":92000000000,"state":"active","ping":39},{"user_id":291,"name":"Bonca","steam_id":76561198137503531,"connected_time":260000000000,"state":"active","ping":76},{"user_id":297,"name":"You Don't Nomi.","steam_id":76561197969137836,"connected_time":149000000000,"state":"active","ping":125},{"user_id":292,"name":"Dominus Di Spiritus","steam_id":76561198200488383,"connected_time":247000000000,"state":"active","ping":84},{"user_id":293,"name":"SURPRISE","steam_id":76561198156432640,"connected_time":246000000000,"state":"active","ping":99},{"user_id":294,"name":"flr","steam_id":76561198249327786,"connected_time":244000000000,"state":"active","ping":61}]},{"server_id":22,"name":"Uncletopia | London | 6 | All Maps","name_short":"lon-6","host":"lon-1.uk.uncletopia.com","port":27065,"enabled":true,"region":"eu","cc":"gb","latitude":51.509865,"longitude":-0.118092,"reserved":0,"last_update":"0001-01-01T00:00:00Z","name_a2s":"Uncletopia | London | 6 | All Maps","protocol":17,"map":"pl_frontier_final","folder":"tf","game":"Team Fortress","app_id":440,"player_count":24,"max_players":24,"Bots":0,"server_type":"Dedicated","server_os":"Linux","password":true,"vac":true,"version":"7932396","steam_id":85568392924742830,"keywords":["nocrits","nodmgspread","payload","uncletopia"],"game_id":440,"stv_port":27066,"stv_name":"Uncletopia | London | 6 | All Maps | STV","players":[{"user_id":109,"name":"ABbott_","steam_id":76561198030528873,"connected_time":587000000000,"state":"active","ping":57},{"user_id":112,"name":"Glenn Quagmire","steam_id":76561199348527880,"connected_time":300000000000,"state":"active","ping":92},{"user_id":64,"name":"real open player","steam_id":76561198148115584,"connected_time":3285000000000,"state":"active","ping":78},{"user_id":94,"name":"‚òÆ","steam_id":76561198202990635,"connected_time":1671000000000,"state":"active","ping":63},{"user_id":92,"name":"wouris","steam_id":76561198876188003,"connected_time":1928000000000,"state":"active","ping":74},{"user_id":85,"name":"JIJI","steam_id":76561198137597283,"connected_time":2393000000000,"state":"active","ping":102},{"user_id":110,"name":"bigmazi","steam_id":76561198133276643,"connected_time":364000000000,"state":"active","ping":94},{"user_id":62,"name":"1914","steam_id":76561198257383813,"connected_time":3496000000000,"state":"active","ping":58},{"user_id":103,"name":"Sign up to give bone marrow!","steam_id":76561198055363275,"connected_time":1241000000000,"state":"active","ping":42},{"user_id":91,"name":"Udinese Dion","steam_id":76561198067931573,"connected_time":2093000000000,"state":"active","ping":62},{"user_id":108,"name":"VEH-DEH-VEH","steam_id":76561198010978989,"connected_time":671000000000,"state":"active","ping":72},{"user_id":38,"name":"fearlessbot","steam_id":76561199002587064,"connected_time":4228000000000,"state":"active","ping":51},{"user_id":113,"name":"trampampoline","steam_id":76561198121286517,"connected_time":263000000000,"state":"active","ping":45},{"user_id":49,"name":"tired","steam_id":76561198046838168,"connected_time":3942000000000,"state":"active","ping":60},{"user_id":76,"name":"Troop","steam_id":76561198031303282,"connected_time":2619000000000,"state":"active","ping":58},{"user_id":98,"name":"Buddy","steam_id":76561198050185582,"connected_time":1470000000000,"state":"active","ping":57},{"user_id":107,"name":"Swanky","steam_id":76561198033898548,"connected_time":968000000000,"state":"active","ping":64},{"user_id":89,"name":"Hexagon","steam_id":76561198151205758,"connected_time":2282000000000,"state":"active","ping":60},{"user_id":115,"name":"Boevaia Pelmeha","steam_id":76561198989010446,"connected_time":244000000000,"state":"active","ping":108},{"user_id":116,"name":"D0kai","steam_id":76561198389271720,"connected_time":205000000000,"state":"active","ping":49},{"user_id":84,"name":"56","steam_id":76561198295305088,"connected_time":2403000000000,"state":"active","ping":64},{"user_id":104,"name":"daniel.novikov","steam_id":76561199172189811,"connected_time":1198000000000,"state":"active","ping":109},{"user_id":87,"name":"I.AM.THE.BOOP.WHICH.IS.APROACHI","steam_id":76561198049342507,"connected_time":2332000000000,"state":"active","ping":94},{"user_id":59,"name":"VolcanicArts","steam_id":76561198063453246,"connected_time":3825000000000,"state":"active","ping":52}]},{"server_id":40,"name":"Uncletopia | London | 7 | No Payload","name_short":"lon-7","host":"lon-1.uk.uncletopia.com","port":27075,"enabled":true,"region":"eu","cc":"gb","latitude":51.509865,"longitude":-0.118092,"reserved":0,"last_update":"0001-01-01T00:00:00Z","name_a2s":"Uncletopia | London | 7 | No Payload","protocol":17,"map":"cp_mercenarypark","folder":"tf","game":"Team Fortress","app_id":440,"player_count":23,"max_players":24,"Bots":0,"server_type":"Dedicated","server_os":"Linux","password":true,"vac":true,"version":"7932396","steam_id":85568392924964314,"keywords":["cp","nocrits","nodmgspread","uncletopia"],"game_id":440,"stv_port":27076,"stv_name":"Uncletopia | London | 7 | No Payload | STV","players":[{"user_id":31,"name":"Kamanie","steam_id":76561198135448255,"connected_time":1891000000000,"state":"active","ping":60},{"user_id":32,"name":"Macro","steam_id":76561199442846226,"connected_time":1869000000000,"state":"active","ping":153},{"user_id":36,"name":"cosmetical","steam_id":76561198444036574,"connected_time":1838000000000,"state":"active","ping":63},{"user_id":34,"name":"sushii","steam_id":76561198297987372,"connected_time":1846000000000,"state":"active","ping":54},{"user_id":52,"name":"zebulon","steam_id":76561198384683504,"connected_time":676000000000,"state":"active","ping":69},{"user_id":46,"name":"Noob_with_source","steam_id":76561198870362103,"connected_time":1642000000000,"state":"active","ping":59},{"user_id":16,"name":"Ineluctable Sex Predator","steam_id":76561197995971061,"connected_time":2173000000000,"state":"active","ping":104},{"user_id":17,"name":"Kekeke","steam_id":76561198063672270,"connected_time":2152000000000,"state":"active","ping":104},{"user_id":50,"name":"Weebot00","steam_id":76561199479204459,"connected_time":1319000000000,"state":"active","ping":61},{"user_id":53,"name":"Michael","steam_id":76561198003146906,"connected_time":663000000000,"state":"active","ping":45},{"user_id":20,"name":"BD[PL]","steam_id":76561198115995871,"connected_time":2109000000000,"state":"active","ping":107},{"user_id":54,"name":"Bisago?","steam_id":76561198181794353,"connected_time":655000000000,"state":"active","ping":45},{"user_id":22,"name":"Grundle Cruncher","steam_id":76561199234858261,"connected_time":2046000000000,"state":"active","ping":95},{"user_id":23,"name":"Aleyway","steam_id":76561198799137475,"connected_time":2046000000000,"state":"active","ping":59},{"user_id":55,"name":"ÔΩÑÔΩÖÔΩìÔΩãÔΩíÔΩÅÔΩô","steam_id":76561198805536170,"connected_time":651000000000,"state":"active","ping":83},{"user_id":47,"name":"P3rsErkki","steam_id":76561198063093495,"connected_time":1629000000000,"state":"active","ping":71},{"user_id":58,"name":"PerskuleBenener","steam_id":76561198156899375,"connected_time":471000000000,"state":"active","ping":87},{"user_id":59,"name":"DiscoInferno","steam_id":76561198013218979,"connected_time":427000000000,"state":"active","ping":56},{"user_id":56,"name":"EinManuel","steam_id":76561198354983840,"connected_time":636000000000,"state":"active","ping":71},{"user_id":49,"name":"wyro","steam_id":76561199176835169,"connected_time":1462000000000,"state":"active","ping":55},{"user_id":41,"name":"DOMAIN","steam_id":76561199095640319,"connected_time":1797000000000,"state":"active","ping":90},{"user_id":43,"name":"submackeen","steam_id":76561198799855913,"connected_time":1782000000000,"state":"active","ping":156},{"user_id":45,"name":"ambarasodor","steam_id":76561198799029492,"connected_time":1750000000000,"state":"active","ping":74}]},{"server_id":41,"name":"Uncletopia | London | 8 | Community","name_short":"lon-8","host":"lon-1.uk.uncletopia.com","port":27085,"enabled":true,"region":"eu","cc":"gb","latitude":51.509865,"longitude":-0.118092,"reserved":0,"last_update":"0001-01-01T00:00:00Z","name_a2s":"Uncletopia | London | 8 | Community","protocol":17,"map":"workshop/koth_slaughter_rc1.ugc1712845210","folder":"tf","game":"Team Fortress","app_id":440,"player_count":0,"max_players":24,"Bots":0,"server_type":"Dedicated","server_os":"Linux","password":true,"vac":true,"version":"7932396","steam_id":85568392924964315,"keywords":["cp","nocrits","nodmgspread","uncletopia"],"game_id":440,"stv_port":27086,"stv_name":"Uncletopia | London | 8 | Community | STV","players":null},{"server_id":300,"name":"Uncletopia | Montr√©al | 1 | All Maps","name_short":"mtl-1","host":"mtl-1.ca.uncletopia.com","port":27015,"enabled":true,"region":"us-east","cc":"ca","latitude":45.50889,"longitude":-73.56167,"reserved":0,"last_update":"0001-01-01T00:00:00Z","name_a2s":"Uncletopia | Montr√©al | 1 | All Maps","protocol":17,"map":"koth_cascade","folder":"tf","game":"Team Fortress","app_id":440,"player_count":0,"max_players":24,"Bots":0,"server_type":"Dedicated","server_os":"Linux","password":true,"vac":true,"version":"7932396","steam_id":85568392924500087,"keywords":["cp","nocrits","nodmgspread","uncletopia"],"game_id":440,"stv_port":27016,"stv_name":"Uncletopia | Montr√©al | 1 | All Maps | STV","players":null},{"server_id":301,"name":"Uncletopia | Montr√©al | 2 | All Maps","name_short":"mtl-2","host":"mtl-1.ca.uncletopia.com","port":27025,"enabled":true,"region":"us-east","cc":"ca","latitude":45.50889,"longitude":-73.56167,"reserved":0,"last_update":"0001-01-01T00:00:00Z","name_a2s":"Uncletopia | Montr√©al | 2 | All Maps","protocol":17,"map":"koth_lakeside_final","folder":"tf","game":"Team Fortress","app_id":440,"player_count":0,"max_players":24,"Bots":0,"server_type":"Dedicated","server_os":"Linux","password":true,"vac":true,"version":"7932396","steam_id":85568392924500088,"keywords":["cp","nocrits","nodmgspread","uncletopia"],"game_id":440,"stv_port":27026,"stv_name":"Uncletopia | Montr√©al | 2 | All Maps | STV","players":null},{"server_id":302,"name":"Uncletopia | Montr√©al | 3 | All Maps","name_short":"mtl-3","host":"mtl-1.ca.uncletopia.com","port":27035,"enabled":true,"region":"us-east","cc":"ca","latitude":45.50889,"longitude":-73.56167,"reserved":0,"last_update":"0001-01-01T00:00:00Z","name_a2s":"Uncletopia | Montr√©al | 3 | All Maps","protocol":17,"map":"cp_process_final","folder":"tf","game":"Team Fortress","app_id":440,"player_count":0,"max_players":24,"Bots":0,"server_type":"Dedicated","server_os":"Linux","password":true,"vac":true,"version":"7932396","steam_id":85568392924500089,"keywords":["cp","nocrits","nodmgspread","uncletopia"],"game_id":440,"stv_port":27036,"stv_name":"Uncletopia | Montr√©al | 3 | All Maps | STV","players":null},{"server_id":303,"name":"Uncletopia | Montr√©al | 4 | No Payload","name_short":"mtl-4","host":"mtl-1.ca.uncletopia.com","port":27045,"enabled":true,"region":"us-east","cc":"ca","latitude":45.50889,"longitude":-73.56167,"reserved":0,"last_update":"0001-01-01T00:00:00Z","name_a2s":"Uncletopia | Montr√©al | 4 | No Payload","protocol":17,"map":"cp_snakewater_final1","folder":"tf","game":"Team Fortress","app_id":440,"player_count":0,"max_players":24,"Bots":0,"server_type":"Dedicated","server_os":"Linux","password":true,"vac":true,"version":"7932396","steam_id":85568392924500090,"keywords":["cp","nocrits","nodmgspread","uncletopia"],"game_id":440,"stv_port":27046,"stv_name":"Uncletopia | Montr√©al | 4 | No Payload | STV","players":null},{"server_id":13,"name":"Uncletopia | New York City | 1 | All Maps","name_short":"nyc-1","host":"nyc-1.us.uncletopia.com","port":27015,"enabled":true,"region":"us-east","cc":"us","latitude":40.73061,"longitude":-73.93524,"reserved":0,"last_update":"0001-01-01T00:00:00Z","name_a2s":"Uncletopia | New York City | 1 | All Maps","protocol":17,"map":"cp_sunshine","folder":"tf","game":"Team Fortress","app_id":440,"player_count":0,"max_players":24,"Bots":0,"server_type":"Dedicated","server_os":"Linux","password":true,"vac":true,"version":"7932396","steam_id":85568392924469993,"keywords":["cp","nocrits","nodmgspread","uncletopia"],"game_id":440,"stv_port":27016,"stv_name":"Uncletopia | New York City | 1 | All Maps | STV","players":null},{"server_id":14,"name":"Uncletopia | New York City | 2 | All Maps","name_short":"nyc-2","host":"nyc-1.us.uncletopia.com","port":27025,"enabled":true,"region":"us-east","cc":"us","latitude":40.73061,"longitude":-73.93524,"reserved":0,"last_update":"0001-01-01T00:00:00Z","name_a2s":"Uncletopia | New York City | 2 | All Maps","protocol":17,"map":"pl_borneo","folder":"tf","game":"Team Fortress","app_id":440,"player_count":7,"max_players":24,"Bots":0,"server_type":"Dedicated","server_os":"Linux","password":true,"vac":true,"version":"7932396","steam_id":85568392924469994,"keywords":["nocrits","nodmgspread","payload","uncletopia"],"game_id":440,"stv_port":27026,"stv_name":"Uncletopia | New York City | 2 | All Maps | STV","players":[{"user_id":107,"name":"Tyulmi","steam_id":76561198041432710,"connected_time":1694000000000,"state":"active","ping":72},{"user_id":122,"name":"Glue Sniffer","steam_id":76561198799199425,"connected_time":126000000000,"state":"active","ping":162},{"user_id":119,"name":"gideon nav my beloved","steam_id":76561198259092181,"connected_time":851000000000,"state":"active","ping":63},{"user_id":123,"name":"FMG8","steam_id":76561199149971166,"connected_time":64000000000,"state":"active","ping":54},{"user_id":124,"name":"judesro","steam_id":76561198352244888,"connected_time":55000000000,"state":"active","ping":59},{"user_id":126,"name":"coolepicusername","steam_id":76561199047813617,"connected_time":44000000000,"state":"active","ping":139},{"user_id":127,"name":"total nougat decadence","steam_id":76561199311921686,"connected_time":40000000000,"state":"active","ping":65}]},{"server_id":15,"name":"Uncletopia | New York City | 3 | Stopwatch Beta","name_short":"nyc-3","host":"nyc-1.us.uncletopia.com","port":27035,"enabled":true,"region":"us-east","cc":"us","latitude":40.73061,"longitude":-73.93524,"reserved":0,"last_update":"0001-01-01T00:00:00Z","name_a2s":"Uncletopia | New York City | 3 | Stopwatch Beta","protocol":17,"map":"cp_sunshine","folder":"tf","game":"Team Fortress","app_id":440,"player_count":0,"max_players":24,"Bots":0,"server_type":"Dedicated","server_os":"Linux","password":true,"vac":true,"version":"7932396","steam_id":85568392924742820,"keywords":["cp","nocrits","nodmgspread","uncletopia"],"game_id":440,"stv_port":27036,"stv_name":"Uncletopia | New York City | 3 | Stopwatch Beta | STV","players":null},{"server_id":16,"name":"Uncletopia | New York City | 4 | Community","name_short":"nyc-4","host":"nyc-1.us.uncletopia.com","port":27045,"enabled":true,"region":"us-east","cc":"us","latitude":40.73061,"longitude":-73.93524,"reserved":0,"last_update":"0001-01-01T00:00:00Z","name_a2s":"Uncletopia | New York City | 4 | Community","protocol":17,"map":"workshop/cp_glacier_rc6.ugc2905735376","folder":"tf","game":"Team Fortress","app_id":440,"player_count":0,"max_players":24,"Bots":0,"server_type":"Dedicated","server_os":"Linux","password":true,"vac":true,"version":"7932396","steam_id":85568392924742821,"keywords":["cp","nocrits","nodmgspread","uncletopia"],"game_id":440,"stv_port":27046,"stv_name":"Uncletopia | New York City | 4 | Community | STV","players":null},{"server_id":142,"name":"Uncletopia | S√£o Paulo | 1 | All Maps","name_short":"sao-1","host":"sao-1.br.uncletopia.com","port":27015,"enabled":true,"region":"sa","cc":"br","latitude":-23.533773,"longitude":-46.62529,"reserved":0,"last_update":"0001-01-01T00:00:00Z","name_a2s":"Uncletopia | S√£o Paulo | 1 | All Maps","protocol":17,"map":"koth_viaduct","folder":"tf","game":"Team Fortress","app_id":440,"player_count":0,"max_players":24,"Bots":0,"server_type":"Dedicated","server_os":"Linux","password":true,"vac":true,"version":"7932396","steam_id":85568392924469996,"keywords":["cp","nocrits","nodmgspread","uncletopia"],"game_id":440,"stv_port":27016,"stv_name":"Uncletopia | S√£o Paulo | 1 | All Maps | STV","players":null},{"server_id":143,"name":"Uncletopia | S√£o Paulo | 2 | All Maps","name_short":"sao-2","host":"sao-2.br.uncletopia.com","port":27015,"enabled":true,"region":"sa","cc":"br","latitude":-23.533773,"longitude":-46.62529,"reserved":0,"last_update":"0001-01-01T00:00:00Z","name_a2s":"Uncletopia | S√£o Paulo | 2 | All Maps","protocol":17,"map":"cp_altitude","folder":"tf","game":"Team Fortress","app_id":440,"player_count":0,"max_players":24,"Bots":0,"server_type":"Dedicated","server_os":"Linux","password":true,"vac":true,"version":"7932396","steam_id":85568392924485349,"keywords":["cp","nocrits","nodmgspread","uncletopia"],"game_id":440,"stv_port":27016,"stv_name":"Uncletopia | S√£o Paulo | 2 | All Maps | STV","players":null},{"server_id":7,"name":"Uncletopia | Seattle | 1 | All Maps","name_short":"sea-1","host":"sea-1.us.uncletopia.com","port":27015,"enabled":true,"region":"us-west","cc":"us","latitude":47.608013,"longitude":-122.33517,"reserved":0,"last_update":"0001-01-01T00:00:00Z","name_a2s":"Uncletopia | Seattle | 1 | All Maps","protocol":17,"map":"pl_frontier_final","folder":"tf","game":"Team Fortress","app_id":440,"player_count":24,"max_players":24,"Bots":0,"server_type":"Dedicated","server_os":"Linux","password":true,"vac":true,"version":"7932396","steam_id":85568392924469997,"keywords":["nocrits","nodmgspread","payload","uncletopia"],"game_id":440,"stv_port":27016,"stv_name":"Uncletopia | Seattle | 1 | All Maps | STV","players":[{"user_id":91,"name":"Santer51","steam_id":76561198125834260,"connected_time":350000000000,"state":"active","ping":67},{"user_id":66,"name":"C Sharp Minor","steam_id":76561199185191710,"connected_time":1471000000000,"state":"active","ping":136},{"user_id":14,"name":"Mattacam","steam_id":76561198862289471,"connected_time":5350000000000,"state":"active","ping":129},{"user_id":26,"name":"MEDTheProtogen","steam_id":76561198863984364,"connected_time":3864000000000,"state":"active","ping":89},{"user_id":27,"name":"Mopwater","steam_id":76561198113607272,"connected_time":3832000000000,"state":"active","ping":110},{"user_id":8,"name":"CoffeeZombee","steam_id":76561198172708053,"connected_time":5697000000000,"state":"active","ping":134},{"user_id":9,"name":"Flippityflop","steam_id":76561198086692908,"connected_time":5684000000000,"state":"active","ping":126},{"user_id":88,"name":"Peaches","steam_id":76561198157117348,"connected_time":591000000000,"state":"active","ping":121},{"user_id":89,"name":"echelon","steam_id":76561198139172979,"connected_time":552000000000,"state":"active","ping":63},{"user_id":73,"name":"Saggle","steam_id":76561198056075147,"connected_time":1316000000000,"state":"active","ping":188},{"user_id":84,"name":"Little Linguine","steam_id":76561198816986370,"connected_time":975000000000,"state":"active","ping":53},{"user_id":77,"name":"Apathetica","steam_id":76561197978237633,"connected_time":1174000000000,"state":"active","ping":55},{"user_id":68,"name":"Cat Hicks","steam_id":76561198122049803,"connected_time":1444000000000,"state":"active","ping":170},{"user_id":75,"name":"User","steam_id":76561198123471222,"connected_time":1223000000000,"state":"active","ping":83},{"user_id":70,"name":"Sprit ‚ô•","steam_id":76561198268780781,"connected_time":1414000000000,"state":"active","ping":104},{"user_id":92,"name":"Goldensliv","steam_id":76561198161673891,"connected_time":348000000000,"state":"active","ping":62},{"user_id":90,"name":"Monketron","steam_id":76561198014225523,"connected_time":536000000000,"state":"active","ping":81},{"user_id":78,"name":"laggy mcstab","steam_id":76561198106379962,"connected_time":1155000000000,"state":"active","ping":81},{"user_id":93,"name":"nav","steam_id":76561198872608266,"connected_time":144000000000,"state":"active","ping":117},{"user_id":87,"name":"Tanuki with a gun.","steam_id":76561198027487285,"connected_time":845000000000,"state":"active","ping":103},{"user_id":85,"name":"comet sooicidy","steam_id":76561198025173479,"connected_time":917000000000,"state":"active","ping":140},{"user_id":83,"name":"Headmouth","steam_id":76561198019789855,"connected_time":1021000000000,"state":"active","ping":175},{"user_id":86,"name":"Nanobit","steam_id":76561198013709962,"connected_time":908000000000,"state":"active","ping":91},{"user_id":48,"name":"Wayan","steam_id":76561198354695464,"connected_time":3113000000000,"state":"active","ping":154}]},{"server_id":119,"name":"Uncletopia | Seattle | 2 | All Maps","name_short":"sea-2","host":"sea-1.us.uncletopia.com","port":27025,"enabled":true,"region":"us-west","cc":"us","latitude":47.608013,"longitude":-122.33517,"reserved":0,"last_update":"0001-01-01T00:00:00Z","name_a2s":"Uncletopia | Seattle | 2 | All Maps","protocol":17,"map":"koth_viaduct","folder":"tf","game":"Team Fortress","app_id":440,"player_count":0,"max_players":24,"Bots":0,"server_type":"Dedicated","server_os":"Linux","password":true,"vac":true,"version":"7932396","steam_id":85568392924469998,"keywords":["cp","nocrits","nodmgspread","uncletopia"],"game_id":440,"stv_port":27026,"stv_name":"Uncletopia | Seattle | 2 | All Maps | STV","players":null},{"server_id":406,"name":"Uncletopia | Seattle | 3 | Stopwatch Beta","name_short":"sea-3","host":"sea-1.us.uncletopia.com","port":27035,"enabled":true,"region":"us-west","cc":"us","latitude":47.608013,"longitude":-122.33517,"reserved":0,"last_update":"0001-01-01T00:00:00Z","name_a2s":"Uncletopia | Seattle | 3 | Stopwatch Beta","protocol":17,"map":"cp_mountainlab","folder":"tf","game":"Team Fortress","app_id":440,"player_count":0,"max_players":24,"Bots":0,"server_type":"Dedicated","server_os":"Linux","password":true,"vac":true,"version":"7932396","steam_id":85568392924515217,"keywords":["cp","nocrits","nodmgspread","uncletopia"],"game_id":440,"stv_port":27036,"stv_name":"Uncletopia | Seattle | 3 | Stopwatch Beta | STV","players":null},{"server_id":17,"name":"Uncletopia | San Francisco | 1 | All Maps","name_short":"sfo-1","host":"sfo-1.us.uncletopia.com","port":27015,"enabled":true,"region":"us-west","cc":"us","latitude":37.77397,"longitude":-122.4313,"reserved":0,"last_update":"0001-01-01T00:00:00Z","name_a2s":"Uncletopia | San Francisco | 1 | All Maps","protocol":17,"map":"pl_frontier_final","folder":"tf","game":"Team Fortress","app_id":440,"player_count":0,"max_players":24,"Bots":0,"server_type":"Dedicated","server_os":"Linux","password":true,"vac":true,"version":"7932396","steam_id":85568392924469999,"keywords":["nocrits","nodmgspread","payload","uncletopia"],"game_id":440,"stv_port":27016,"stv_name":"Uncletopia | San Francisco | 1 | All Maps | STV","players":null},{"server_id":18,"name":"Uncletopia | San Francisco | 2 | All Maps","name_short":"sfo-2","host":"sfo-1.us.uncletopia.com","port":27025,"enabled":true,"region":"us-west","cc":"us","latitude":37.77397,"longitude":-122.4313,"reserved":0,"last_update":"0001-01-01T00:00:00Z","name_a2s":"Uncletopia | San Francisco | 2 | All Maps","protocol":17,"map":"cp_snakewater_final1","folder":"tf","game":"Team Fortress","app_id":440,"player_count":0,"max_players":24,"Bots":0,"server_type":"Dedicated","server_os":"Linux","password":true,"vac":true,"version":"7932396","steam_id":85568392924470000,"keywords":["cp","nocrits","nodmgspread","uncletopia"],"game_id":440,"stv_port":27026,"stv_name":"Uncletopia | San Francisco | 2 | All Maps | STV","players":null},{"server_id":19,"name":"Uncletopia | San Francisco | 3 | Stopwatch Beta","name_short":"sfo-3","host":"sfo-1.us.uncletopia.com","port":27035,"enabled":true,"region":"us-west","cc":"us","latitude":37.77397,"longitude":-122.4313,"reserved":0,"last_update":"0001-01-01T00:00:00Z","name_a2s":"Uncletopia | San Francisco | 3 | Stopwatch Beta","protocol":17,"map":"koth_lakeside_final","folder":"tf","game":"Team Fortress","app_id":440,"player_count":0,"max_players":24,"Bots":0,"server_type":"Dedicated","server_os":"Linux","password":true,"vac":true,"version":"7932396","steam_id":85568392924742824,"keywords":["cp","nocrits","nodmgspread","uncletopia"],"game_id":440,"stv_port":27036,"stv_name":"Uncletopia | San Francisco | 3 | Stopwatch Beta | STV","players":null},{"server_id":20,"name":"Uncletopia | San Francisco | 4 | Community","name_short":"sfo-4","host":"sfo-1.us.uncletopia.com","port":27045,"enabled":true,"region":"us-west","cc":"us","latitude":37.77397,"longitude":-122.4313,"reserved":0,"last_update":"0001-01-01T00:00:00Z","name_a2s":"Uncletopia | San Francisco | 4 | Community","protocol":17,"map":"pl_borneo","folder":"tf","game":"Team Fortress","app_id":440,"player_count":0,"max_players":24,"Bots":0,"server_type":"Dedicated","server_os":"Linux","password":true,"vac":true,"version":"7932396","steam_id":85568392924742826,"keywords":["nocrits","nodmgspread","payload","uncletopia"],"game_id":440,"stv_port":27046,"stv_name":"Uncletopia | San Francisco | 4 | Community | STV","players":null},{"server_id":141,"name":"Uncletopia | Sydney | 1 | All Maps","name_short":"syd-1","host":"syd-1.au.uncletopia.com","port":27015,"enabled":true,"region":"au","cc":"au","latitude":-33.865143,"longitude":151.2099,"reserved":0,"last_update":"0001-01-01T00:00:00Z","name_a2s":"Uncletopia | Sydney | 1 | All Maps","protocol":17,"map":"cp_process_final","folder":"tf","game":"Team Fortress","app_id":440,"player_count":0,"max_players":24,"Bots":0,"server_type":"Dedicated","server_os":"Linux","password":true,"vac":true,"version":"7932396","steam_id":85568392924470001,"keywords":["cp","nocrits","nodmgspread","uncletopia"],"game_id":440,"stv_port":27016,"stv_name":"Uncletopia | Sydney | 1 | All Maps | STV","players":null},{"server_id":123,"name":"Uncletopia | Sydney | 2 | All Maps","name_short":"syd-2","host":"syd-1.au.uncletopia.com","port":27025,"enabled":true,"region":"au","cc":"au","latitude":-33.865143,"longitude":151.2099,"reserved":0,"last_update":"0001-01-01T00:00:00Z","name_a2s":"Uncletopia | Sydney | 2 | All Maps","protocol":17,"map":"ctf_2fort","folder":"tf","game":"Team Fortress","app_id":440,"player_count":0,"max_players":24,"Bots":0,"server_type":"Dedicated","server_os":"Linux","password":true,"vac":true,"version":"7932396","steam_id":85568392924470002,"keywords":["ctf","nocrits","nodmgspread","uncletopia"],"game_id":440,"stv_port":27026,"stv_name":"Uncletopia | Sydney | 2 | All Maps | STV","players":null},{"server_id":395,"name":"Uncletopia | Sydney | 3 | All Maps","name_short":"syd-3","host":"syd-1.au.uncletopia.com","port":27035,"enabled":true,"region":"au","cc":"au","latitude":-33.865143,"longitude":151.2099,"reserved":0,"last_update":"0001-01-01T00:00:00Z","name_a2s":"Uncletopia | Sydney | 3 | All Maps","protocol":17,"map":"koth_cascade","folder":"tf","game":"Team Fortress","app_id":440,"player_count":0,"max_players":24,"Bots":0,"server_type":"Dedicated","server_os":"Linux","password":true,"vac":true,"version":"7932396","steam_id":85568392925194467,"keywords":["cp","nocrits","nodmgspread","uncletopia"],"game_id":440,"stv_port":27036,"stv_name":"Uncletopia | Sydney | 3 | All Maps | STV","players":null},{"server_id":396,"name":"Uncletopia | Sydney | 4 | All Maps","name_short":"syd-4","host":"syd-1.au.uncletopia.com","port":27045,"enabled":true,"region":"au","cc":"au","latitude":-33.865143,"longitude":151.2099,"reserved":0,"last_update":"0001-01-01T00:00:00Z","name_a2s":"Uncletopia | Sydney | 4 | All Maps","protocol":17,"map":"koth_lakeside_final","folder":"tf","game":"Team Fortress","app_id":440,"player_count":0,"max_players":24,"Bots":0,"server_type":"Dedicated","server_os":"Linux","password":true,"vac":true,"version":"7932396","steam_id":85568392925397958,"keywords":["cp","nocrits","nodmgspread","uncletopia"],"game_id":440,"stv_port":27046,"stv_name":"Uncletopia | Sydney | 4 | All Maps | STV","players":null},{"server_id":58,"name":"Uncletopia | Sydney | 5 | Stopwatch Beta","name_short":"syd-5","host":"syd-1.au.uncletopia.com","port":27055,"enabled":true,"region":"au","cc":"au","latitude":-33.865143,"longitude":151.2099,"reserved":0,"last_update":"0001-01-01T00:00:00Z","name_a2s":"Uncletopia | Sydney | 5 | Stopwatch Beta","protocol":17,"map":"pl_borneo","folder":"tf","game":"Team Fortress","app_id":440,"player_count":0,"max_players":24,"Bots":0,"server_type":"Dedicated","server_os":"Linux","password":true,"vac":true,"version":"7932396","steam_id":85568392925397959,"keywords":["nocrits","nodmgspread","payload","uncletopia"],"game_id":440,"stv_port":27056,"stv_name":"Uncletopia | Sydney | 5 | Stopwatch Beta | STV","players":null},{"server_id":59,"name":"Uncletopia | Sydney | 6 | Community","name_short":"syd-6","host":"syd-1.au.uncletopia.com","port":27065,"enabled":true,"region":"au","cc":"au","latitude":-33.865143,"longitude":151.2099,"reserved":0,"last_update":"0001-01-01T00:00:00Z","name_a2s":"Uncletopia | Sydney | 6 | Community","protocol":17,"map":"workshop/koth_product_final.ugc454272353","folder":"tf","game":"Team Fortress","app_id":440,"player_count":0,"max_players":24,"Bots":0,"server_type":"Dedicated","server_os":"Linux","password":true,"vac":true,"version":"7932396","steam_id":85568392925397960,"keywords":["cp","nocrits","nodmgspread","uncletopia"],"game_id":440,"stv_port":27066,"stv_name":"Uncletopia | Sydney | 6 | Community | STV","players":null},{"server_id":49,"name":"Uncletopia | Warsaw | 1 | All Maps","name_short":"waw-1","host":"waw-1.pl.uncletopia.com","port":27015,"enabled":true,"region":"eu","cc":"pl","latitude":52.2297,"longitude":21.017532,"reserved":0,"last_update":"0001-01-01T00:00:00Z","name_a2s":"","protocol":0,"map":"","folder":"","game":"","app_id":0,"player_count":0,"max_players":0,"Bots":0,"server_type":"","server_os":"","password":false,"vac":false,"version":"","steam_id":0,"keywords":null,"game_id":0,"stv_port":0,"stv_name":"","players":null},{"server_id":50,"name":"Uncletopia | Warsaw | 2 | All Maps","name_short":"waw-2","host":"waw-1.pl.uncletopia.com","port":27025,"enabled":true,"region":"eu","cc":"pl","latitude":52.2297,"longitude":21.017532,"reserved":0,"last_update":"0001-01-01T00:00:00Z","name_a2s":"Uncletopia | Warsaw | 2 | All Maps","protocol":17,"map":"pl_barnblitz","folder":"tf","game":"Team Fortress","app_id":440,"player_count":0,"max_players":24,"Bots":0,"server_type":"Dedicated","server_os":"Linux","password":true,"vac":true,"version":"7932396","steam_id":85568392925397851,"keywords":["nocrits","nodmgspread","payload","uncletopia"],"game_id":440,"stv_port":27026,"stv_name":"Uncletopia | Warsaw | 2 | All Maps | STV","players":null},{"server_id":51,"name":"Uncletopia | Warsaw | 3 | All Maps","name_short":"waw-3","host":"waw-1.pl.uncletopia.com","port":27035,"enabled":true,"region":"eu","cc":"pl","latitude":52.2297,"longitude":21.017532,"reserved":0,"last_update":"0001-01-01T00:00:00Z","name_a2s":"Uncletopia | Warsaw | 3 | All Maps","protocol":17,"map":"koth_lakeside_final","folder":"tf","game":"Team Fortress","app_id":440,"player_count":0,"max_players":24,"Bots":0,"server_type":"Dedicated","server_os":"Linux","password":true,"vac":true,"version":"7932396","steam_id":85568392925397852,"keywords":["cp","nocrits","nodmgspread","uncletopia"],"game_id":440,"stv_port":27036,"stv_name":"Uncletopia | Warsaw | 3 | All Maps | STV","players":null},{"server_id":52,"name":"Uncletopia | Warsaw | 4 | All Maps","name_short":"waw-4","host":"waw-1.pl.uncletopia.com","port":27045,"enabled":true,"region":"eu","cc":"pl","latitude":52.2297,"longitude":21.017532,"reserved":0,"last_update":"0001-01-01T00:00:00Z","name_a2s":"Uncletopia | Warsaw | 4 | All Maps","protocol":17,"map":"pl_swiftwater_final1","folder":"tf","game":"Team Fortress","app_id":440,"player_count":0,"max_players":24,"Bots":0,"server_type":"Dedicated","server_os":"Linux","password":true,"vac":true,"version":"7932396","steam_id":85568392925397853,"keywords":["nocrits","nodmgspread","payload","uncletopia"],"game_id":440,"stv_port":27046,"stv_name":"Uncletopia | Warsaw | 4 | All Maps | STV","players":null},{"server_id":53,"name":"Uncletopia | Warsaw | 5 | Stopwatch Beta","name_short":"waw-5","host":"waw-1.pl.uncletopia.com","port":27055,"enabled":true,"region":"eu","cc":"pl","latitude":52.2297,"longitude":21.017532,"reserved":0,"last_update":"0001-01-01T00:00:00Z","name_a2s":"Uncletopia | Warsaw | 5 | Stopwatch Beta","protocol":17,"map":"koth_lakeside_final","folder":"tf","game":"Team Fortress","app_id":440,"player_count":0,"max_players":24,"Bots":0,"server_type":"Dedicated","server_os":"Linux","password":true,"vac":true,"version":"7932396","steam_id":85568392925397854,"keywords":["cp","nocrits","nodmgspread","uncletopia"],"game_id":440,"stv_port":27056,"stv_name":"Uncletopia | Warsaw | 5 | Stopwatch Beta | STV","players":null},{"server_id":54,"name":"Uncletopia | Warsaw | 6 | Community","name_short":"waw-6","host":"waw-1.pl.uncletopia.com","port":27065,"enabled":true,"region":"eu","cc":"pl","latitude":52.2297,"longitude":21.017532,"reserved":0,"last_update":"0001-01-01T00:00:00Z","name_a2s":"Uncletopia | Warsaw | 6 | Community","protocol":17,"map":"workshop/koth_ramjam_rc1.ugc459778887","folder":"tf","game":"Team Fortress","app_id":440,"player_count":0,"max_players":24,"Bots":0,"server_type":"Dedicated","server_os":"Linux","password":true,"vac":true,"version":"7932396","steam_id":85568392925397856,"keywords":["cp","nocrits","nodmgspread","uncletopia"],"game_id":440,"stv_port":27066,"stv_name":"Uncletopia | Warsaw | 6 | Community | STV","players":null}]}