{"status":true,"message":"","result":[{"server_id":9,"name":"Uncletopia | Atlanta | 1 | All Maps","name_short":"atl-1","host":"atl-1.us.uncletopia.com","port":27015,"enabled":true,"region":"us-east","cc":"us","latitude":33.753746,"longitude":-84.38633,"reserved":0,"last_update":"0001-01-01T00:00:00Z","name_a2s":"Uncletopia | Atlanta | 1 | All Maps","protocol":17,"map":"cp_dustbowl","folder":"tf","game":"Team Fortress","app_id":440,"player_count":24,"max_players":24,"Bots":0,"server_type":"Dedicated","server_os":"Linux","password":true,"vac":true,"version":"7757534","steam_id":85568392924469982,"keywords":["cp","nocrits","nodmgspread","uncletopia"],"game_id":440,"stv_port":27016,"stv_name":"Uncletopia | Atlanta | 1 | All Maps | STV","players":[{"user_id":597,"name":"BIG HOG","steam_id":76561198079923652,"connected_time":6060000000000,"state":"active","ping":75},{"user_id":653,"name":"∆ê’å—¥∆≥","steam_id":76561198099470277,"connected_time":282000000000,"state":"active","ping":61},{"user_id":590,"name":"lil hog","steam_id":76561199230929836,"connected_time":6375000000000,"state":"active","ping":95},{"user_id":637,"name":"Wingm4n","steam_id":76561198064127012,"connected_time":1703000000000,"state":"active","ping":49},{"user_id":657,"name":"OrangeCrab","steam_id":76561198982248872,"connected_time":185000000000,"state":"active","ping":61},{"user_id":655,"name":"FutabaUchiha","steam_id":76561199436467630,"connected_time":243000000000,"state":"active","ping":85},{"user_id":609,"name":"ATL 1 | Save your wifi","steam_id":76561198286147372,"connected_time":4658000000000,"state":"active","ping":53},{"user_id":648,"name":"Caught a Thundah","steam_id":76561198054495572,"connected_time":870000000000,"state":"active","ping":74},{"user_id":627,"name":"Bottom Trans Cowgirl","steam_id":76561198304239680,"connected_time":2348000000000,"state":"active","ping":77},{"user_id":650,"name":"Stargriefer190","steam_id":76561198996425356,"connected_time":738000000000,"state":"active","ping":73},{"user_id":606,"name":"Broken Cereal‚àö","steam_id":76561198087489795,"connected_time":4679000000000,"state":"active","ping":61},{"user_id":652,"name":"BurnN8or101","steam_id":76561198132668224,"connected_time":368000000000,"state":"active","ping":75},{"user_id":647,"name":"Epic Gamer GUy","steam_id":76561199086366003,"connected_time":1013000000000,"state":"active","ping":83},{"user_id":659,"name":"JasonIsGold79","steam_id":76561198101441539,"connected_time":96000000000,"state":"active","ping":99},{"user_id":608,"name":"shaderoses","steam_id":76561198070800500,"connected_time":4672000000000,"state":"active","ping":66},{"user_id":638,"name":"itsy komodo","steam_id":76561198174806758,"connected_time":1608000000000,"state":"active","ping":75},{"user_id":639,"name":"cola","steam_id":76561198374390458,"connected_time":1606000000000,"state":"active","ping":56},{"user_id":632,"name":"ATL1 | Bandi","steam_id":76561198432036026,"connected_time":2077000000000,"state":"active","ping":57},{"user_id":646,"name":"WOB WOB WOB WUOUOUOUOUOOUB","steam_id":76561198822069026,"connected_time":1069000000000,"state":"active","ping":96},{"user_id":649,"name":"Morgan","steam_id":76561198113977970,"connected_time":869000000000,"state":"active","ping":64},{"user_id":622,"name":"I\u003c3 DUSTBOWL STEEL AND VANGUARD","steam_id":76561198333513882,"connected_time":2923000000000,"state":"active","ping":70},{"user_id":628,"name":"BotchyAlarm8","steam_id":76561198092682129,"connected_time":2348000000000,"state":"active","ping":79},{"user_id":634,"name":"Tay1Qr","steam_id":76561198082809935,"connected_time":2075000000000,"state":"active","ping":62},{"user_id":580,"name":"BambuBabyPackRunner","steam_id":76561198320866421,"connected_time":8562000000000,"state":"active","ping":56}]},{"server_id":400,"name":"Uncletopia | Atlanta | 3 | Community","name_short":"atl-3","host":"atl-1.us.uncletopia.com","port":27035,"enabled":true,"region":"us-east","cc":"us","latitude":33.753746,"longitude":-84.38633,"reserved":0,"last_update":"0001-01-01T00:00:00Z","name_a2s":"Uncletopia | Atlanta | 3 | Community","protocol":17,"map":"workshop/pl_eruption_b9a.ugc2807898013","folder":"tf","game":"Team Fortress","app_id":440,"player_count":24,"max_players":24,"Bots":0,"server_type":"Dedicated","server_os":"Linux","password":true,"vac":true,"version":"7757534","steam_id":85568392924515187,"keywords":["nocrits","nodmgspread","payload","uncletopia"],"game_id":440,"stv_port":27036,"stv_name":"Uncletopia | Atlanta | 3 | Community | STV","players":[{"user_id":239,"name":"Kaluka","steam_id":76561198036861445,"connected_time":465000000000,"state":"active","ping":60},{"user_id":188,"name":"Klav02","steam_id":76561199109999974,"connected_time":5157000000000,"state":"active","ping":139},{"user_id":234,"name":"Flux","steam_id":76561198332266632,"connected_time":918000000000,"state":"active","ping":35},{"user_id":186,"name":"Artificial Unintelligence","steam_id":76561199056745987,"connected_time":5279000000000,"state":"active","ping":137},{"user_id":235,"name":"floofy","steam_id":76561198389769098,"connected_time":850000000000,"state":"active","ping":83},{"user_id":242,"name":"huh?","steam_id":76561198069407799,"connected_time":286000000000,"state":"active","ping":77},{"user_id":243,"name":"the grungler!","steam_id":76561198058485742,"connected_time":275000000000,"state":"active","ping":32},{"user_id":244,"name":"Ghostmeal","steam_id":76561198042380299,"connected_time":258000000000,"state":"active","ping":74},{"user_id":198,"name":"Pyro Gaming","steam_id":76561198291447088,"connected_time":3733000000000,"state":"active","ping":145},{"user_id":245,"name":"FruicyJuit","steam_id":76561198080704911,"connected_time":131000000000,"state":"active","ping":81},{"user_id":246,"name":"fruitymario","steam_id":76561198047190430,"connected_time":127000000000,"state":"active","ping":60},{"user_id":219,"name":"the inventor of Sex, Pisslord","steam_id":76561198074624639,"connected_time":2022000000000,"state":"active","ping":72},{"user_id":214,"name":"Princess Little Piddles","steam_id":76561198430557120,"connected_time":2181000000000,"state":"active","ping":115},{"user_id":207,"name":"All Class Gaming","steam_id":76561198806729611,"connected_time":2506000000000,"state":"active","ping":123},{"user_id":208,"name":"Hard Soap","steam_id":76561198267905614,"connected_time":2421000000000,"state":"active","ping":79},{"user_id":247,"name":"substance","steam_id":76561198050103868,"connected_time":125000000000,"state":"active","ping":124},{"user_id":240,"name":"Duckywinner","steam_id":76561198254828139,"connected_time":430000000000,"state":"active","ping":64},{"user_id":248,"name":"schizophrenicGhost","steam_id":76561198126341923,"connected_time":89000000000,"state":"active","ping":63},{"user_id":230,"name":"fuckoff","steam_id":76561198078738531,"connected_time":1211000000000,"state":"active","ping":94},{"user_id":231,"name":"HoaroBatty","steam_id":76561198120361221,"connected_time":1151000000000,"state":"active","ping":62},{"user_id":249,"name":"Zho Biden","steam_id":76561198079224101,"connected_time":43000000000,"state":"active","ping":40},{"user_id":241,"name":"Âä©„Åë„Å¶„Åè„Å†„Åï„ÅÑÁßÅ„ÅØËêΩ","steam_id":76561198840484105,"connected_time":365000000000,"state":"active","ping":56},{"user_id":251,"name":"2STAR","steam_id":76561198126709382,"connected_time":28000000000,"state":"spawning","ping":547},{"user_id":233,"name":"faze pantalla","steam_id":76561198250215734,"connected_time":1071000000000,"state":"active","ping":91}]},{"server_id":401,"name":"Uncletopia | Atlanta | 4 | No Payload","name_short":"atl-4","host":"atl-1.us.uncletopia.com","port":27045,"enabled":true,"region":"us-east","cc":"us","latitude":33.753746,"longitude":-84.38633,"reserved":0,"last_update":"0001-01-01T00:00:00Z","name_a2s":"","protocol":0,"map":"","folder":"","game":"","app_id":0,"player_count":0,"max_players":0,"Bots":0,"server_type":"","server_os":"","password":false,"vac":false,"version":"","steam_id":0,"keywords":null,"game_id":0,"stv_port":0,"stv_name":"","players":null},{"server_id":2,"name":"Uncletopia | Chicago | 1 | All Maps","name_short":"chi-1","host":"chi-1.us.uncletopia.com","port":27015,"enabled":true,"region":"us-central","cc":"us","latitude":41.881832,"longitude":-87.62318,"reserved":0,"last_update":"0001-01-01T00:00:00Z","name_a2s":"Uncletopia | Chicago | 1 | All Maps","protocol":17,"map":"pl_pier","folder":"tf","game":"Team Fortress","app_id":440,"player_count":23,"max_players":24,"Bots":0,"server_type":"Dedicated","server_os":"Linux","password":true,"vac":true,"version":"7757534","steam_id":85568392924469984,"keywords":["nocrits","nodmgspread","payload","uncletopia"],"game_id":440,"stv_port":27016,"stv_name":"Uncletopia | Chicago | 1 | All Maps | STV","players":[{"user_id":444,"name":"jayzak24","steam_id":76561198354267509,"connected_time":3520000000000,"state":"active","ping":86},{"user_id":410,"name":"Monsterjessy","steam_id":76561198035630985,"connected_time":6591000000000,"state":"active","ping":63},{"user_id":483,"name":"Pinto","steam_id":76561199105386998,"connected_time":239000000000,"state":"active","ping":76},{"user_id":474,"name":"Zizen","steam_id":76561199011832069,"connected_time":766000000000,"state":"active","ping":106},{"user_id":424,"name":"uhooter","steam_id":76561198007829078,"connected_time":4806000000000,"state":"active","ping":55},{"user_id":459,"name":"Brunch","steam_id":76561198045933938,"connected_time":2413000000000,"state":"active","ping":54},{"user_id":475,"name":"otto","steam_id":76561198029585065,"connected_time":750000000000,"state":"active","ping":47},{"user_id":446,"name":"G_Bob","steam_id":76561198098133233,"connected_time":3432000000000,"state":"active","ping":73},{"user_id":460,"name":"Spygie","steam_id":76561198218573049,"connected_time":2352000000000,"state":"active","ping":56},{"user_id":480,"name":"Colonel Chikara","steam_id":76561198010021087,"connected_time":310000000000,"state":"active","ping":98},{"user_id":476,"name":"Luna_Blossom","steam_id":76561198816384987,"connected_time":703000000000,"state":"active","ping":132},{"user_id":481,"name":"Dancio142","steam_id":76561198982410592,"connected_time":274000000000,"state":"active","ping":100},{"user_id":469,"name":"Dabicus Vile","steam_id":76561198272413758,"connected_time":1569000000000,"state":"active","ping":56},{"user_id":477,"name":"Tired","steam_id":76561198072620682,"connected_time":695000000000,"state":"active","ping":90},{"user_id":432,"name":"Temujin","steam_id":76561198030936583,"connected_time":4690000000000,"state":"active","ping":54},{"user_id":478,"name":"Randy \"the Man\" Johnson","steam_id":76561198039124445,"connected_time":671000000000,"state":"active","ping":95},{"user_id":482,"name":"Sveniven","steam_id":76561198118864411,"connected_time":257000000000,"state":"active","ping":76},{"user_id":436,"name":"Dr Smeggman","steam_id":76561197966614845,"connected_time":4511000000000,"state":"active","ping":135},{"user_id":470,"name":"HideOnTate","steam_id":76561198209880837,"connected_time":1177000000000,"state":"active","ping":86},{"user_id":454,"name":"Magnus Rex","steam_id":76561197987091236,"connected_time":2965000000000,"state":"active","ping":84},{"user_id":407,"name":"Thunderous","steam_id":76561198192752793,"connected_time":6682000000000,"state":"active","ping":70},{"user_id":484,"name":"Deliverance2me","steam_id":76561198093825175,"connected_time":188000000000,"state":"active","ping":84},{"user_id":473,"name":"Cyclaw","steam_id":76561198076045689,"connected_time":817000000000,"state":"active","ping":55}]},{"server_id":106,"name":"Uncletopia | Chicago | 2 | All Maps","name_short":"chi-2","host":"chi-1.us.uncletopia.com","port":27025,"enabled":true,"region":"us-central","cc":"us","latitude":41.881832,"longitude":-87.62318,"reserved":0,"last_update":"0001-01-01T00:00:00Z","name_a2s":"Uncletopia | Chicago | 2 | All Maps","protocol":17,"map":"pl_thundermountain","folder":"tf","game":"Team Fortress","app_id":440,"player_count":16,"max_players":24,"Bots":0,"server_type":"Dedicated","server_os":"Linux","password":true,"vac":true,"version":"7757534","steam_id":85568392924469985,"keywords":["nocrits","nodmgspread","payload","uncletopia"],"game_id":440,"stv_port":27026,"stv_name":"Uncletopia | Chicago | 2 | All Maps | STV","players":[{"user_id":748,"name":"Bimbli","steam_id":76561198058948629,"connected_time":612000000000,"state":"active","ping":99},{"user_id":698,"name":"Codo Sapien","steam_id":76561198014206810,"connected_time":4369000000000,"state":"active","ping":30},{"user_id":467,"name":"Phil Collins","steam_id":76561198068868644,"connected_time":15065000000000,"state":"active","ping":105},{"user_id":750,"name":"Elizabeth truss","steam_id":76561198058250979,"connected_time":571000000000,"state":"active","ping":66},{"user_id":515,"name":"deadpixel","steam_id":76561198150249843,"connected_time":12815000000000,"state":"active","ping":57},{"user_id":751,"name":"Lore","steam_id":76561198098407538,"connected_time":526000000000,"state":"active","ping":50},{"user_id":647,"name":"Marisad","steam_id":76561198843890616,"connected_time":8441000000000,"state":"active","ping":82},{"user_id":714,"name":"chicken coup d'√©tat","steam_id":76561198069586736,"connected_time":2288000000000,"state":"active","ping":71},{"user_id":758,"name":"Yongle","steam_id":76561198068591156,"connected_time":436000000000,"state":"active","ping":50},{"user_id":648,"name":"cotton candy thief","steam_id":76561198058998371,"connected_time":8433000000000,"state":"active","ping":58},{"user_id":561,"name":"ApertureCity","steam_id":76561198004153607,"connected_time":10910000000000,"state":"active","ping":81},{"user_id":716,"name":"malarkey","steam_id":76561198084544420,"connected_time":2235000000000,"state":"active","ping":54},{"user_id":752,"name":"Lord Mirror","steam_id":76561198166324507,"connected_time":523000000000,"state":"active","ping":57},{"user_id":759,"name":"ItsTanleyCrunch","steam_id":76561198037915942,"connected_time":402000000000,"state":"active","ping":91},{"user_id":701,"name":"StonedGiant","steam_id":76561197984386932,"connected_time":4328000000000,"state":"active","ping":60},{"user_id":727,"name":"Maxyyt","steam_id":76561198062309005,"connected_time":1309000000000,"state":"active","ping":60}]},{"server_id":402,"name":"Uncletopia | Chicago | 3 | All Maps","name_short":"chi-3","host":"chi-1.us.uncletopia.com","port":27035,"enabled":true,"region":"us-central","cc":"us","latitude":41.881832,"longitude":-87.62318,"reserved":0,"last_update":"0001-01-01T00:00:00Z","name_a2s":"Uncletopia | Chicago | 3 | All Maps","protocol":17,"map":"pl_snowycoast","folder":"tf","game":"Team Fortress","app_id":440,"player_count":24,"max_players":24,"Bots":0,"server_type":"Dedicated","server_os":"Linux","password":true,"vac":true,"version":"7757534","steam_id":85568392924515191,"keywords":["nocrits","nodmgspread","payload","uncletopia"],"game_id":440,"stv_port":27036,"stv_name":"Uncletopia | Chicago | 3 | All Maps | STV","players":[{"user_id":421,"name":"twin","steam_id":76561198055626638,"connected_time":401000000000,"state":"active","ping":89},{"user_id":422,"name":"cringy","steam_id":76561198323000455,"connected_time":393000000000,"state":"active","ping":108},{"user_id":408,"name":"Monky duh luppy","steam_id":76561198035410427,"connected_time":1408000000000,"state":"active","ping":89},{"user_id":423,"name":"Dunxle","steam_id":76561198236630276,"connected_time":375000000000,"state":"active","ping":122},{"user_id":416,"name":"Smegmar \"Meth Monkey\"","steam_id":76561198143476620,"connected_time":1178000000000,"state":"active","ping":72},{"user_id":381,"name":"OrangeSodaMachine","steam_id":76561198079230156,"connected_time":3211000000000,"state":"active","ping":160},{"user_id":424,"name":"Candy Sparkles","steam_id":76561198126871264,"connected_time":249000000000,"state":"active","ping":85},{"user_id":400,"name":"kametro4","steam_id":76561198835430429,"connected_time":2142000000000,"state":"active","ping":82},{"user_id":425,"name":"Sprucelass","steam_id":76561197998391724,"connected_time":209000000000,"state":"active","ping":48},{"user_id":409,"name":"JHLO","steam_id":76561198074359967,"connected_time":1407000000000,"state":"active","ping":79},{"user_id":433,"name":"[‚ù§] Bread Dog","steam_id":76561198864544549,"connected_time":98000000000,"state":"active","ping":121},{"user_id":374,"name":"Nephs","steam_id":76561198136763403,"connected_time":3916000000000,"state":"active","ping":81},{"user_id":419,"name":"Poptart From Mars","steam_id":76561197979930960,"connected_time":786000000000,"state":"active","ping":70},{"user_id":417,"name":"The Down Syndrome Devil","steam_id":76561198119602179,"connected_time":1079000000000,"state":"active","ping":87},{"user_id":432,"name":"[‚ù§] Adry Kitty ‚ô•","steam_id":76561198081975268,"connected_time":146000000000,"state":"active","ping":98},{"user_id":390,"name":"Darth Phrogg","steam_id":76561198150844229,"connected_time":2985000000000,"state":"active","ping":70},{"user_id":420,"name":"monsterkill4567","steam_id":76561198272986367,"connected_time":731000000000,"state":"active","ping":110},{"user_id":393,"name":"[DEEP] Danmar33","steam_id":76561198056453091,"connected_time":2919000000000,"state":"active","ping":56},{"user_id":413,"name":"Enchanced","steam_id":76561198797393854,"connected_time":1380000000000,"state":"active","ping":128},{"user_id":430,"name":"basilberry","steam_id":76561198145275937,"connected_time":192000000000,"state":"active","ping":93},{"user_id":394,"name":"holyward7787","steam_id":76561199164183180,"connected_time":2913000000000,"state":"active","ping":103},{"user_id":398,"name":"Tintin","steam_id":76561198280361925,"connected_time":2358000000000,"state":"active","ping":88},{"user_id":431,"name":"[‚ù§] A Red Folfo","steam_id":76561198291724249,"connected_time":191000000000,"state":"active","ping":117},{"user_id":320,"name":"shadow wizard","steam_id":76561198165212575,"connected_time":7429000000000,"state":"active","ping":74}]},{"server_id":403,"name":"Uncletopia | Chicago | 4 | All Maps","name_short":"chi-4","host":"chi-1.us.uncletopia.com","port":27045,"enabled":true,"region":"us-central","cc":"us","latitude":41.881832,"longitude":-87.62318,"reserved":0,"last_update":"0001-01-01T00:00:00Z","name_a2s":"Uncletopia | Chicago | 4 | All Maps","protocol":17,"map":"pl_pier","folder":"tf","game":"Team Fortress","app_id":440,"player_count":24,"max_players":24,"Bots":0,"server_type":"Dedicated","server_os":"Linux","password":true,"vac":true,"version":"7757534","steam_id":85568392924515193,"keywords":["nocrits","nodmgspread","payload","uncletopia"],"game_id":440,"stv_port":27046,"stv_name":"Uncletopia | Chicago | 4 | All Maps | STV","players":[{"user_id":917,"name":"Sam","steam_id":76561198079393512,"connected_time":2666000000000,"state":"active","ping":78},{"user_id":948,"name":"Gremlin Bird","steam_id":76561198039624549,"connected_time":474000000000,"state":"active","ping":80},{"user_id":945,"name":"SwingDickerson","steam_id":76561198045542926,"connected_time":582000000000,"state":"active","ping":42},{"user_id":831,"name":"years","steam_id":76561197994098627,"connected_time":7093000000000,"state":"active","ping":115},{"user_id":959,"name":"motherfudger","steam_id":76561198114959385,"connected_time":101000000000,"state":"active","ping":73},{"user_id":905,"name":"Spoilt Pudding","steam_id":76561198001195423,"connected_time":3334000000000,"state":"active","ping":80},{"user_id":891,"name":"Theory-ZaZa","steam_id":76561198116419931,"connected_time":4477000000000,"state":"active","ping":116},{"user_id":950,"name":"A Shiny Meat Bicycle","steam_id":76561198358757709,"connected_time":437000000000,"state":"active","ping":96},{"user_id":934,"name":"Mr. Mane T.S.H.A.","steam_id":76561198056728986,"connected_time":1398000000000,"state":"active","ping":58},{"user_id":951,"name":"shadowjango","steam_id":76561198001475833,"connected_time":382000000000,"state":"active","ping":70},{"user_id":918,"name":"Female Gamer","steam_id":76561199366482682,"connected_time":2647000000000,"state":"active","ping":112},{"user_id":960,"name":"Chillin Turt","steam_id":76561198025796849,"connected_time":20000000000,"state":"spawning","ping":100},{"user_id":881,"name":"TheTruthOfTheCessationOfDukkha","steam_id":76561198214370515,"connected_time":5349000000000,"state":"active","ping":54},{"user_id":953,"name":"Juri Han","steam_id":76561198041678517,"connected_time":363000000000,"state":"active","ping":104},{"user_id":906,"name":"drdoofus123","steam_id":76561198016826181,"connected_time":3329000000000,"state":"active","ping":69},{"user_id":955,"name":"BAKA-SAN","steam_id":76561198153697485,"connected_time":327000000000,"state":"active","ping":117},{"user_id":914,"name":"Clemont007","steam_id":76561198030935625,"connected_time":3087000000000,"state":"active","ping":119},{"user_id":910,"name":"puke","steam_id":76561197999279693,"connected_time":3235000000000,"state":"active","ping":75},{"user_id":944,"name":"Dr_Spek","steam_id":76561198128667701,"connected_time":747000000000,"state":"active","ping":64},{"user_id":947,"name":"captainbros","steam_id":76561198370989893,"connected_time":549000000000,"state":"active","ping":88},{"user_id":956,"name":"Madcows","steam_id":76561198021695614,"connected_time":318000000000,"state":"active","ping":104},{"user_id":941,"name":"Viokik","steam_id":76561198408846602,"connected_time":971000000000,"state":"active","ping":64},{"user_id":957,"name":"Veridian","steam_id":76561198096334078,"connected_time":308000000000,"state":"active","ping":62},{"user_id":958,"name":"Psychosis","steam_id":76561198078659070,"connected_time":225000000000,"state":"active","ping":73}]},{"server_id":36,"name":"Uncletopia | Chicago | 5 | All Maps","name_short":"chi-5","host":"chi-2.us.uncletopia.com","port":27015,"enabled":true,"region":"us-central","cc":"us","latitude":41.881832,"longitude":-87.62318,"reserved":0,"last_update":"0001-01-01T00:00:00Z","name_a2s":"Uncletopia | Chicago | 5 | All Maps","protocol":17,"map":"cp_dustbowl","folder":"tf","game":"Team Fortress","app_id":440,"player_count":8,"max_players":24,"Bots":0,"server_type":"Dedicated","server_os":"Linux","password":true,"vac":true,"version":"7757534","steam_id":85568392924866362,"keywords":["cp","nocrits","nodmgspread","uncletopia"],"game_id":440,"stv_port":27016,"stv_name":"Uncletopia | Chicago | 5 | All Maps | STV","players":[{"user_id":87,"name":"Swshbcklr","steam_id":76561197969421355,"connected_time":17322000000000,"state":"active","ping":60},{"user_id":261,"name":"Fargo","steam_id":76561198044703931,"connected_time":399000000000,"state":"active","ping":75},{"user_id":263,"name":"FakeBot","steam_id":76561197961193303,"connected_time":83000000000,"state":"active","ping":118},{"user_id":253,"name":"Treeckogeek","steam_id":76561198453328078,"connected_time":2001000000000,"state":"active","ping":59},{"user_id":172,"name":"Lia_Rein","steam_id":76561198151569597,"connected_time":9865000000000,"state":"active","ping":148},{"user_id":234,"name":"Phillip Jeffries","steam_id":76561198064052174,"connected_time":4625000000000,"state":"active","ping":52},{"user_id":240,"name":"Sonicega","steam_id":76561198044362988,"connected_time":3819000000000,"state":"active","ping":46},{"user_id":254,"name":"prestige worldwide (wide)","steam_id":76561198045655893,"connected_time":1996000000000,"state":"active","ping":60}]},{"server_id":37,"name":"Uncletopia | Chicago | 6 | All Maps","name_short":"chi-6","host":"chi-2.us.uncletopia.com","port":27025,"enabled":true,"region":"us-central","cc":"us","latitude":41.881832,"longitude":-87.62318,"reserved":0,"last_update":"0001-01-01T00:00:00Z","name_a2s":"Uncletopia | Chicago | 6 | All Maps","protocol":17,"map":"pl_borneo","folder":"tf","game":"Team Fortress","app_id":440,"player_count":21,"max_players":24,"Bots":0,"server_type":"Dedicated","server_os":"Linux","password":true,"vac":true,"version":"7757534","steam_id":85568392924866363,"keywords":["nocrits","nodmgspread","payload","uncletopia"],"game_id":440,"stv_port":27026,"stv_name":"Uncletopia | Chicago | 6 | All Maps | STV","players":[{"user_id":726,"name":"[‚ù§] Little Fennec! ‚ô•","steam_id":76561198322853354,"connected_time":1418000000000,"state":"active","ping":176},{"user_id":705,"name":"Tectonic11","steam_id":76561198061169359,"connected_time":2756000000000,"state":"active","ping":69},{"user_id":748,"name":"Derp","steam_id":76561198273609992,"connected_time":39000000000,"state":"active","ping":50},{"user_id":716,"name":"Dr. Dick","steam_id":76561198138011922,"connected_time":2067000000000,"state":"active","ping":77},{"user_id":707,"name":"finkle","steam_id":76561198388089772,"connected_time":2700000000000,"state":"active","ping":82},{"user_id":744,"name":"Lazulf","steam_id":76561198041410859,"connected_time":186000000000,"state":"active","ping":97},{"user_id":746,"name":"Kaya #SaveTF2","steam_id":76561198053907503,"connected_time":127000000000,"state":"active","ping":84},{"user_id":679,"name":"Nodin","steam_id":76561198135757376,"connected_time":5534000000000,"state":"active","ping":59},{"user_id":743,"name":"Sarbanes-Oxley","steam_id":76561197975898479,"connected_time":500000000000,"state":"active","ping":79},{"user_id":728,"name":"pathulhu","steam_id":76561198323941614,"connected_time":1398000000000,"state":"active","ping":70},{"user_id":740,"name":"Quietsharp","steam_id":76561198277968438,"connected_time":757000000000,"state":"active","ping":105},{"user_id":710,"name":"Colin102004","steam_id":76561198202384334,"connected_time":2633000000000,"state":"active","ping":55},{"user_id":729,"name":"SnailYT","steam_id":76561198332040385,"connected_time":1372000000000,"state":"active","ping":117},{"user_id":738,"name":"Pontifex","steam_id":76561198013016489,"connected_time":1109000000000,"state":"active","ping":86},{"user_id":723,"name":"‚òÅHazy‚òÅ","steam_id":76561198034463446,"connected_time":1591000000000,"state":"active","ping":41},{"user_id":718,"name":"Thequirka","steam_id":76561198968058652,"connected_time":2046000000000,"state":"active","ping":98},{"user_id":732,"name":"BernardBull","steam_id":76561198036138813,"connected_time":1335000000000,"state":"active","ping":83},{"user_id":712,"name":"King Cotton","steam_id":76561198292444376,"connected_time":2586000000000,"state":"active","ping":106},{"user_id":733,"name":"The local hobo","steam_id":76561198289650060,"connected_time":1276000000000,"state":"active","ping":85},{"user_id":735,"name":"Fiendish Frog","steam_id":76561198029478821,"connected_time":1261000000000,"state":"active","ping":75},{"user_id":736,"name":"some p40","steam_id":76561199260467614,"connected_time":1261000000000,"state":"active","ping":77}]},{"server_id":38,"name":"Uncletopia | Chicago | 7 | Stopwatch Beta","name_short":"chi-7","host":"chi-2.us.uncletopia.com","port":27035,"enabled":true,"region":"us-central","cc":"us","latitude":41.881832,"longitude":-87.62318,"reserved":0,"last_update":"0001-01-01T00:00:00Z","name_a2s":"Uncletopia | Chicago | 7 | Stopwatch Beta","protocol":17,"map":"koth_lakeside_final","folder":"tf","game":"Team Fortress","app_id":440,"player_count":0,"max_players":24,"Bots":0,"server_type":"Dedicated","server_os":"Linux","password":true,"vac":true,"version":"7757534","steam_id":85568392924866364,"keywords":["cp","nocrits","nodmgspread","uncletopia"],"game_id":440,"stv_port":27036,"stv_name":"Uncletopia | Chicago | 7 | Stopwatch Beta | STV","players":null},{"server_id":39,"name":"Uncletopia | Chicago | 8 | Community","name_short":"chi-8","host":"chi-2.us.uncletopia.com","port":27045,"enabled":true,"region":"us-central","cc":"us","latitude":41.881832,"longitude":-87.62318,"reserved":0,"last_update":"0001-01-01T00:00:00Z","name_a2s":"Uncletopia | Chicago | 8 | Community","protocol":17,"map":"workshop/rd_asteroid_redux_b1.ugc2154902912","folder":"tf","game":"Team Fortress","app_id":440,"player_count":0,"max_players":24,"Bots":0,"server_type":"Dedicated","server_os":"Linux","password":true,"vac":true,"version":"7757534","steam_id":85568392924866365,"keywords":["beta","nocrits","nodmgspread","rd","uncletopia"],"game_id":440,"stv_port":27046,"stv_name":"Uncletopia | Chicago | 8 | Community | STV","players":null},{"server_id":8,"name":"Uncletopia | Dallas | 1 | All Maps","name_short":"dal-1","host":"dal-1.us.uncletopia.com","port":27015,"enabled":true,"region":"us-central","cc":"us","latitude":32.779167,"longitude":-96.80889,"reserved":0,"last_update":"0001-01-01T00:00:00Z","name_a2s":"Uncletopia | Dallas | 1 | All Maps","protocol":17,"map":"cp_dustbowl","folder":"tf","game":"Team Fortress","app_id":440,"player_count":24,"max_players":24,"Bots":0,"server_type":"Dedicated","server_os":"Linux","password":true,"vac":true,"version":"7757534","steam_id":85568392924469986,"keywords":["cp","nocrits","nodmgspread","uncletopia"],"game_id":440,"stv_port":27016,"stv_name":"Uncletopia | Dallas | 1 | All Maps | STV","players":[{"user_id":487,"name":"Shrub Lord","steam_id":76561198091518412,"connected_time":639000000000,"state":"active","ping":60},{"user_id":486,"name":"Crossing Jupiter","steam_id":76561198030126031,"connected_time":802000000000,"state":"active","ping":67},{"user_id":456,"name":"Demianeithor","steam_id":76561198800036537,"connected_time":4275000000000,"state":"active","ping":61},{"user_id":465,"name":"Pleiades, the Sorceror","steam_id":76561198079590693,"connected_time":3693000000000,"state":"active","ping":62},{"user_id":479,"name":"damiankiller1243","steam_id":76561198868885090,"connected_time":2237000000000,"state":"active","ping":56},{"user_id":421,"name":"Ryo31337","steam_id":76561198063083553,"connected_time":8089000000000,"state":"active","ping":59},{"user_id":462,"name":"Etomb","steam_id":76561198210017208,"connected_time":3755000000000,"state":"active","ping":72},{"user_id":414,"name":"Rosemaryüåô ÂπΩÈúä [ 1 9 9 8 ","steam_id":76561198807726226,"connected_time":8620000000000,"state":"active","ping":104},{"user_id":455,"name":"Jelpo","steam_id":76561198406920072,"connected_time":4287000000000,"state":"active","ping":66},{"user_id":451,"name":"[LINUX] Purple Penguin Pybro","steam_id":76561198093538786,"connected_time":5113000000000,"state":"active","ping":47},{"user_id":483,"name":"SPREAD CHRISTMAS CHEER AND JOY","steam_id":76561198800386026,"connected_time":916000000000,"state":"active","ping":97},{"user_id":492,"name":"NOT Susie Deltarune (not real)","steam_id":76561199007365488,"connected_time":431000000000,"state":"active","ping":68},{"user_id":431,"name":"[ŸäŸáŸàÿØŸä] Bill Clinton [◊ê◊ú","steam_id":76561198163291190,"connected_time":6861000000000,"state":"active","ping":89},{"user_id":485,"name":"roma","steam_id":76561198028811916,"connected_time":848000000000,"state":"active","ping":59},{"user_id":476,"name":"Jared In Target","steam_id":76561198372449718,"connected_time":2436000000000,"state":"active","ping":52},{"user_id":480,"name":"ari ‚úø","steam_id":76561198141580065,"connected_time":2189000000000,"state":"active","ping":79},{"user_id":469,"name":"Arcane Flame","steam_id":76561198360024422,"connected_time":3586000000000,"state":"active","ping":94},{"user_id":490,"name":"JZ","steam_id":76561198377029198,"connected_time":608000000000,"state":"active","ping":67},{"user_id":428,"name":"pour","steam_id":76561198127525888,"connected_time":6896000000000,"state":"active","ping":49},{"user_id":459,"name":"Miss Pauling Gaming","steam_id":76561198078479083,"connected_time":4117000000000,"state":"active","ping":70},{"user_id":493,"name":"LunchTrae","steam_id":76561198041578886,"connected_time":400000000000,"state":"active","ping":59},{"user_id":477,"name":"Lichy","steam_id":76561198310682841,"connected_time":2432000000000,"state":"active","ping":75},{"user_id":491,"name":"Nerd, E","steam_id":76561198185873128,"connected_time":602000000000,"state":"active","ping":54},{"user_id":460,"name":"Tako","steam_id":76561199264073138,"connected_time":4117000000000,"state":"active","ping":60}]},{"server_id":108,"name":"Uncletopia | Dallas | 2 | All Maps","name_short":"dal-2","host":"dal-1.us.uncletopia.com","port":27025,"enabled":true,"region":"us-central","cc":"us","latitude":32.779167,"longitude":-96.80889,"reserved":0,"last_update":"0001-01-01T00:00:00Z","name_a2s":"Uncletopia | Dallas | 2 | All Maps","protocol":17,"map":"pl_badwater","folder":"tf","game":"Team Fortress","app_id":440,"player_count":24,"max_players":24,"Bots":0,"server_type":"Dedicated","server_os":"Linux","password":true,"vac":true,"version":"7757534","steam_id":85568392924469988,"keywords":["nocrits","nodmgspread","payload","uncletopia"],"game_id":440,"stv_port":27026,"stv_name":"Uncletopia | Dallas | 2 | All Maps | STV","players":[{"user_id":255,"name":"your mom calls me princess too","steam_id":76561198020400899,"connected_time":6236000000000,"state":"active","ping":55},{"user_id":270,"name":"FearTheJynx","steam_id":76561198136487957,"connected_time":4789000000000,"state":"active","ping":65},{"user_id":307,"name":"Trashgaming","steam_id":76561199184268442,"connected_time":1500000000000,"state":"active","ping":101},{"user_id":266,"name":"Can You Feel It Mr.Krabs","steam_id":76561198128302414,"connected_time":5567000000000,"state":"active","ping":67},{"user_id":319,"name":"Scrombello Portabello","steam_id":76561198193574042,"connected_time":573000000000,"state":"active","ping":100},{"user_id":333,"name":"swam","steam_id":76561198130042600,"connected_time":81000000000,"state":"active","ping":72},{"user_id":321,"name":"Bonk (WHERE?)","steam_id":76561198090666223,"connected_time":486000000000,"state":"active","ping":46},{"user_id":288,"name":"Leviathan","steam_id":76561197997528907,"connected_time":3102000000000,"state":"active","ping":74},{"user_id":305,"name":"Ember The Femboy","steam_id":76561198139630565,"connected_time":1757000000000,"state":"active","ping":166},{"user_id":256,"name":"Poopie Babie","steam_id":76561198047500494,"connected_time":6228000000000,"state":"active","ping":59},{"user_id":322,"name":"shiro‚ùÄ","steam_id":76561198111940278,"connected_time":485000000000,"state":"active","ping":72},{"user_id":303,"name":"DotA Psychologist","steam_id":76561198052171640,"connected_time":2409000000000,"state":"active","ping":77},{"user_id":330,"name":"PTSleepyHead","steam_id":76561198037748705,"connected_time":131000000000,"state":"active","ping":62},{"user_id":306,"name":"TheFallenFox","steam_id":76561199074190919,"connected_time":1685000000000,"state":"active","ping":159},{"user_id":323,"name":"terrorofthedeep","steam_id":76561198071669784,"connected_time":485000000000,"state":"active","ping":71},{"user_id":324,"name":"YourDaddyBigBee","steam_id":76561198111503690,"connected_time":474000000000,"state":"active","ping":93},{"user_id":325,"name":"nap","steam_id":76561198162714624,"connected_time":459000000000,"state":"active","ping":44},{"user_id":310,"name":"bo scrungulus","steam_id":76561198038036122,"connected_time":1443000000000,"state":"active","ping":68},{"user_id":304,"name":"Sup m8","steam_id":76561198081659121,"connected_time":1966000000000,"state":"active","ping":46},{"user_id":302,"name":"NoShen","steam_id":76561198147434663,"connected_time":2793000000000,"state":"active","ping":60},{"user_id":334,"name":"DoomoPelota","steam_id":76561198326462587,"connected_time":33000000000,"state":"active","ping":94},{"user_id":89,"name":"Ghaeril","steam_id":76561198047880019,"connected_time":17937000000000,"state":"active","ping":62},{"user_id":311,"name":"monkey","steam_id":76561198080479697,"connected_time":1443000000000,"state":"active","ping":81},{"user_id":312,"name":"https://en.wikipedia.org/","steam_id":76561198261326806,"connected_time":1440000000000,"state":"active","ping":126}]},{"server_id":5,"name":"Uncletopia | Frankfurt | 1 | All Maps","name_short":"frk-1","host":"frk-1.de.uncletopia.com","port":27015,"enabled":true,"region":"eu","cc":"de","latitude":50.110924,"longitude":8.682127,"reserved":0,"last_update":"0001-01-01T00:00:00Z","name_a2s":"Uncletopia | Frankfurt | 1 | All Maps","protocol":17,"map":"pl_badwater","folder":"tf","game":"Team Fortress","app_id":440,"player_count":0,"max_players":24,"Bots":0,"server_type":"Dedicated","server_os":"Linux","password":true,"vac":true,"version":"7757534","steam_id":85568392924469989,"keywords":["nocrits","nodmgspread","payload","uncletopia"],"game_id":440,"stv_port":27016,"stv_name":"Uncletopia | Frankfurt | 1 | All Maps | STV","players":null},{"server_id":110,"name":"Uncletopia | Frankfurt | 2 | All Maps","name_short":"frk-2","host":"frk-1.de.uncletopia.com","port":27025,"enabled":true,"region":"eu","cc":"de","latitude":50.110924,"longitude":8.682127,"reserved":0,"last_update":"0001-01-01T00:00:00Z","name_a2s":"Uncletopia | Frankfurt | 2 | All Maps","protocol":17,"map":"cp_altitude","folder":"tf","game":"Team Fortress","app_id":440,"player_count":0,"max_players":24,"Bots":0,"server_type":"Dedicated","server_os":"Linux","password":true,"vac":true,"version":"7757534","steam_id":85568392924469990,"keywords":["cp","nocrits","nodmgspread","uncletopia"],"game_id":440,"stv_port":27026,"stv_name":"Uncletopia | Frankfurt | 2 | All Maps | STV","players":null},{"server_id":308,"name":"Uncletopia | Frankfurt | 3 | All Maps","name_short":"frk-3","host":"frk-1.de.uncletopia.com","port":27035,"enabled":true,"region":"eu","cc":"de","latitude":50.110924,"longitude":8.682127,"reserved":0,"last_update":"0001-01-01T00:00:00Z","name_a2s":"Uncletopia | Frankfurt | 3 | All Maps","protocol":17,"map":"pl_borneo","folder":"tf","game":"Team Fortress","app_id":440,"player_count":0,"max_players":24,"Bots":0,"server_type":"Dedicated","server_os":"Linux","password":true,"vac":true,"version":"7757534","steam_id":85568392924504274,"keywords":["nocrits","nodmgspread","payload","uncletopia"],"game_id":440,"stv_port":27036,"stv_name":"Uncletopia | Frankfurt | 3 | All Maps | STV","players":null},{"server_id":309,"name":"Uncletopia | Frankfurt | 4 | All Maps","name_short":"frk-4","host":"frk-1.de.uncletopia.com","port":27045,"enabled":true,"region":"eu","cc":"de","latitude":50.110924,"longitude":8.682127,"reserved":0,"last_update":"0001-01-01T00:00:00Z","name_a2s":"Uncletopia | Frankfurt | 4 | All Maps","protocol":17,"map":"pl_pier","folder":"tf","game":"Team Fortress","app_id":440,"player_count":0,"max_players":24,"Bots":0,"server_type":"Dedicated","server_os":"Linux","password":true,"vac":true,"version":"7757534","steam_id":85568392924504275,"keywords":["nocrits","nodmgspread","payload","uncletopia"],"game_id":440,"stv_port":27046,"stv_name":"Uncletopia | Frankfurt | 4 | All Maps | STV","players":null},{"server_id":310,"name":"Uncletopia | Frankfurt | 5 | All Maps","name_short":"frk-5","host":"frk-1.de.uncletopia.com","port":27055,"enabled":true,"region":"eu","cc":"de","latitude":50.110924,"longitude":8.682127,"reserved":0,"last_update":"0001-01-01T00:00:00Z","name_a2s":"Uncletopia | Frankfurt | 5 | All Maps","protocol":17,"map":"cp_altitude","folder":"tf","game":"Team Fortress","app_id":440,"player_count":0,"max_players":24,"Bots":0,"server_type":"Dedicated","server_os":"Linux","password":true,"vac":true,"version":"7757534","steam_id":85568392924504277,"keywords":["cp","nocrits","nodmgspread","uncletopia"],"game_id":440,"stv_port":27056,"stv_name":"Uncletopia | Frankfurt | 5 | All Maps | STV","players":null},{"server_id":311,"name":"Uncletopia | Frankfurt | 6 | All Maps","name_short":"frk-6","host":"frk-1.de.uncletopia.com","port":27065,"enabled":true,"region":"eu","cc":"de","latitude":50.110924,"longitude":8.682127,"reserved":0,"last_update":"0001-01-01T00:00:00Z","name_a2s":"Uncletopia | Frankfurt | 6 | All Maps","protocol":17,"map":"pl_barnblitz","folder":"tf","game":"Team Fortress","app_id":440,"player_count":0,"max_players":24,"Bots":0,"server_type":"Dedicated","server_os":"Linux","password":true,"vac":true,"version":"7757534","steam_id":85568392924504278,"keywords":["nocrits","nodmgspread","payload","uncletopia"],"game_id":440,"stv_port":27066,"stv_name":"Uncletopia | Frankfurt | 6 | All Maps | STV","players":null},{"server_id":23,"name":"Uncletopia | Frankfurt | 7 | Stopwatch Beta","name_short":"frk-7","host":"frk-1.de.uncletopia.com","port":27075,"enabled":true,"region":"eu","cc":"de","latitude":50.110924,"longitude":8.682127,"reserved":0,"last_update":"0001-01-01T00:00:00Z","name_a2s":"Uncletopia | Frankfurt | 7 | Stopwatch Beta","protocol":17,"map":"pl_borneo","folder":"tf","game":"Team Fortress","app_id":440,"player_count":0,"max_players":24,"Bots":0,"server_type":"Dedicated","server_os":"Linux","password":true,"vac":true,"version":"7757534","steam_id":85568392924742827,"keywords":["nocrits","nodmgspread","payload","uncletopia"],"game_id":440,"stv_port":27076,"stv_name":"Uncletopia | Frankfurt | 7 | Stopwatch Beta | STV","players":null},{"server_id":24,"name":"Uncletopia | Frankfurt | 8 | Community","name_short":"frk-8","host":"frk-1.de.uncletopia.com","port":27085,"enabled":true,"region":"eu","cc":"de","latitude":50.110924,"longitude":8.682127,"reserved":0,"last_update":"0001-01-01T00:00:00Z","name_a2s":"Uncletopia | Frankfurt | 8 | Community","protocol":17,"map":"koth_viaduct","folder":"tf","game":"Team Fortress","app_id":440,"player_count":0,"max_players":24,"Bots":0,"server_type":"Dedicated","server_os":"Linux","password":true,"vac":true,"version":"7757534","steam_id":85568392924742828,"keywords":["cp","nocrits","nodmgspread","uncletopia"],"game_id":440,"stv_port":27086,"stv_name":"Uncletopia | Frankfurt | 8 | Community | STV","players":null},{"server_id":202,"name":"Uncletopia | Hong Kong | 1 | All Maps","name_short":"hgk-1","host":"hgk-1.hk.uncletopia.com","port":27015,"enabled":true,"region":"asia","cc":"hk","latitude":22.302711,"longitude":114.177216,"reserved":0,"last_update":"0001-01-01T00:00:00Z","name_a2s":"Uncletopia | Hong Kong | 1 | All Maps","protocol":17,"map":"cp_snakewater_final1","folder":"tf","game":"Team Fortress","app_id":440,"player_count":0,"max_players":24,"Bots":0,"server_type":"Dedicated","server_os":"Linux","password":true,"vac":true,"version":"7757534","steam_id":85568392924494504,"keywords":["cp","nocrits","nodmgspread","uncletopia"],"game_id":440,"stv_port":27016,"stv_name":"Uncletopia | Hong Kong | 1 | All Maps | STV","players":null},{"server_id":1,"name":"Uncletopia | Los Angeles | 1 | All Maps","name_short":"lax-1","host":"lax-1.us.uncletopia.com","port":27015,"enabled":true,"region":"us-west","cc":"us","latitude":33.94279,"longitude":-118.41004,"reserved":0,"last_update":"0001-01-01T00:00:00Z","name_a2s":"Uncletopia | Los Angeles | 1 | All Maps","protocol":17,"map":"cp_dustbowl","folder":"tf","game":"Team Fortress","app_id":440,"player_count":24,"max_players":24,"Bots":0,"server_type":"Dedicated","server_os":"Linux","password":true,"vac":true,"version":"7757534","steam_id":85568392924469991,"keywords":["cp","nocrits","nodmgspread","uncletopia"],"game_id":440,"stv_port":27016,"stv_name":"Uncletopia | Los Angeles | 1 | All Maps | STV","players":[{"user_id":112,"name":"Demobone Virus","steam_id":76561198044127250,"connected_time":2757000000000,"state":"active","ping":98},{"user_id":119,"name":"Oracle Navi","steam_id":76561198160552593,"connected_time":2526000000000,"state":"active","ping":47},{"user_id":131,"name":"skypad_enjoyer","steam_id":76561198073107739,"connected_time":2153000000000,"state":"active","ping":57},{"user_id":146,"name":"Pez","steam_id":76561199197778137,"connected_time":945000000000,"state":"active","ping":61},{"user_id":108,"name":"Lv. 5 Grunt","steam_id":76561198800334545,"connected_time":2809000000000,"state":"active","ping":45},{"user_id":138,"name":"rusle from half kife alyc","steam_id":76561198190962742,"connected_time":1084000000000,"state":"active","ping":88},{"user_id":120,"name":"Haywood Jablowme","steam_id":76561198097721532,"connected_time":2511000000000,"state":"active","ping":46},{"user_id":133,"name":"michard","steam_id":76561198292362552,"connected_time":1640000000000,"state":"active","ping":45},{"user_id":137,"name":"JIGRON","steam_id":76561197998694076,"connected_time":1102000000000,"state":"active","ping":77},{"user_id":111,"name":"DerpyFlapjack31","steam_id":76561198386322393,"connected_time":2769000000000,"state":"active","ping":97},{"user_id":113,"name":"≈ölimak","steam_id":76561198296476784,"connected_time":2745000000000,"state":"active","ping":82},{"user_id":121,"name":"The Arm","steam_id":76561197983066285,"connected_time":2465000000000,"state":"active","ping":72},{"user_id":148,"name":"Superman123389","steam_id":76561198267472539,"connected_time":642000000000,"state":"active","ping":96},{"user_id":136,"name":"Frosted Lighted Ornament","steam_id":76561197971250619,"connected_time":1306000000000,"state":"active","ping":62},{"user_id":140,"name":"NathanSomething","steam_id":76561198927509821,"connected_time":1080000000000,"state":"active","ping":72},{"user_id":147,"name":"Fractured_Mango","steam_id":76561199013113268,"connected_time":870000000000,"state":"active","ping":71},{"user_id":141,"name":"dax","steam_id":76561198045335319,"connected_time":1053000000000,"state":"active","ping":114},{"user_id":130,"name":"teh mummy","steam_id":76561198044123636,"connected_time":2223000000000,"state":"active","ping":38},{"user_id":124,"name":"Celia [ +/- ] ‚úî","steam_id":76561198067164431,"connected_time":2411000000000,"state":"active","ping":44},{"user_id":142,"name":"Stapler","steam_id":76561198099295077,"connected_time":1033000000000,"state":"active","ping":60},{"user_id":151,"name":"Keamy","steam_id":76561199471434875,"connected_time":118000000000,"state":"active","ping":79},{"user_id":68,"name":"Demopirate Virus","steam_id":76561198050159379,"connected_time":6153000000000,"state":"active","ping":96},{"user_id":145,"name":"donutdagger","steam_id":76561199203048300,"connected_time":1013000000000,"state":"active","ping":69},{"user_id":149,"name":"xs","steam_id":76561198106938500,"connected_time":276000000000,"state":"active","ping":52}]},{"server_id":112,"name":"Uncletopia | Los Angeles | 2 | All Maps","name_short":"lax-2","host":"lax-1.us.uncletopia.com","port":27025,"enabled":true,"region":"us-west","cc":"us","latitude":33.94279,"longitude":-118.41004,"reserved":0,"last_update":"0001-01-01T00:00:00Z","name_a2s":"Uncletopia | Los Angeles | 2 | All Maps","protocol":17,"map":"koth_viaduct","folder":"tf","game":"Team Fortress","app_id":440,"player_count":0,"max_players":24,"Bots":0,"server_type":"Dedicated","server_os":"Linux","password":true,"vac":true,"version":"7757534","steam_id":85568392924469992,"keywords":["cp","nocrits","nodmgspread","uncletopia"],"game_id":440,"stv_port":27026,"stv_name":"Uncletopia | Los Angeles | 2 | All Maps | STV","players":null},{"server_id":324,"name":"Uncletopia | Los Angeles | 3 | All Maps","name_short":"lax-3","host":"lax-1.us.uncletopia.com","port":27035,"enabled":true,"region":"us-west","cc":"us","latitude":33.94279,"longitude":-118.41004,"reserved":0,"last_update":"0001-01-01T00:00:00Z","name_a2s":"Uncletopia | Los Angeles | 3 | All Maps","protocol":17,"map":"pl_swiftwater_final1","folder":"tf","game":"Team Fortress","app_id":440,"player_count":24,"max_players":24,"Bots":0,"server_type":"Dedicated","server_os":"Linux","password":true,"vac":true,"version":"7757534","steam_id":85568392924510198,"keywords":["nocrits","nodmgspread","payload","uncletopia"],"game_id":440,"stv_port":27036,"stv_name":"Uncletopia | Los Angeles | 3 | All Maps | STV","players":[{"user_id":96,"name":"CopperBox","steam_id":76561198068217248,"connected_time":387000000000,"state":"active","ping":59},{"user_id":23,"name":"BroDuck","steam_id":76561198000217789,"connected_time":5051000000000,"state":"active","ping":106},{"user_id":92,"name":"Umami Socks","steam_id":76561198062688146,"connected_time":950000000000,"state":"active","ping":117},{"user_id":94,"name":"coobs","steam_id":76561198118591226,"connected_time":819000000000,"state":"active","ping":37},{"user_id":79,"name":"pretty lady","steam_id":76561198042337127,"connected_time":2362000000000,"state":"active","ping":105},{"user_id":89,"name":"EAT SPIT!","steam_id":76561198096836451,"connected_time":1212000000000,"state":"active","ping":59},{"user_id":90,"name":"Green_GarBear","steam_id":76561199468912415,"connected_time":1208000000000,"state":"active","ping":60},{"user_id":25,"name":"Milk Testing Man","steam_id":76561198013841873,"connected_time":5049000000000,"state":"active","ping":128},{"user_id":26,"name":"Gleepdorf","steam_id":76561198027137460,"connected_time":5037000000000,"state":"active","ping":63},{"user_id":28,"name":"Badfish","steam_id":76561198072396970,"connected_time":4940000000000,"state":"active","ping":70},{"user_id":91,"name":"Smelly Potty","steam_id":76561197963434917,"connected_time":982000000000,"state":"active","ping":57},{"user_id":73,"name":"BreadQuest","steam_id":76561198082425960,"connected_time":2697000000000,"state":"active","ping":77},{"user_id":58,"name":"walterhwhite","steam_id":76561199433675789,"connected_time":3114000000000,"state":"active","ping":62},{"user_id":93,"name":"vanillaiin","steam_id":76561198058617608,"connected_time":947000000000,"state":"active","ping":57},{"user_id":87,"name":"\u003c3 grace","steam_id":76561198087472085,"connected_time":1512000000000,"state":"active","ping":61},{"user_id":88,"name":"Firedust19","steam_id":76561198153238631,"connected_time":1243000000000,"state":"active","ping":70},{"user_id":54,"name":"no trouble at all","steam_id":76561198138221795,"connected_time":3808000000000,"state":"active","ping":107},{"user_id":85,"name":"Fxyne","steam_id":76561198034309811,"connected_time":1571000000000,"state":"active","ping":65},{"user_id":97,"name":"fish","steam_id":76561199072142013,"connected_time":132000000000,"state":"active","ping":76},{"user_id":86,"name":"Dasscoo","steam_id":76561197980369487,"connected_time":1552000000000,"state":"active","ping":53},{"user_id":51,"name":"Serene Salamander","steam_id":76561198001094770,"connected_time":3934000000000,"state":"active","ping":64},{"user_id":80,"name":"B/S/SuperBoofOG","steam_id":76561197992030936,"connected_time":2293000000000,"state":"active","ping":105},{"user_id":44,"name":"OutspokenWeeb","steam_id":76561198062984704,"connected_time":4490000000000,"state":"active","ping":61},{"user_id":69,"name":"Laxoloni","steam_id":76561199197045700,"connected_time":2905000000000,"state":"active","ping":77}]},{"server_id":25,"name":"Uncletopia | Los Angeles | 4 | Stopwatch Beta","name_short":"lax-4","host":"lax-1.us.uncletopia.com","port":27045,"enabled":true,"region":"us-west","cc":"us","latitude":33.94279,"longitude":-118.41004,"reserved":0,"last_update":"0001-01-01T00:00:00Z","name_a2s":"Uncletopia | Los Angeles | 4 | Stopwatch Beta","protocol":17,"map":"cp_dustbowl","folder":"tf","game":"Team Fortress","app_id":440,"player_count":0,"max_players":24,"Bots":0,"server_type":"Dedicated","server_os":"Linux","password":true,"vac":true,"version":"7757534","steam_id":85568392924510199,"keywords":["cp","nocrits","nodmgspread","uncletopia"],"game_id":440,"stv_port":27046,"stv_name":"Uncletopia | Los Angeles | 4 | Stopwatch Beta | STV","players":null},{"server_id":11,"name":"Uncletopia | London | 1 | All Maps","name_short":"lon-1","host":"lon-1.uk.uncletopia.com","port":27015,"enabled":true,"region":"eu","cc":"gb","latitude":51.509865,"longitude":-0.118092,"reserved":0,"last_update":"0001-01-01T00:00:00Z","name_a2s":"Uncletopia | London | 1 | All Maps","protocol":17,"map":"pl_frontier_final","folder":"tf","game":"Team Fortress","app_id":440,"player_count":0,"max_players":24,"Bots":0,"server_type":"Dedicated","server_os":"Linux","password":true,"vac":true,"version":"7757534","steam_id":85568392924367362,"keywords":["nocrits","nodmgspread","payload","uncletopia"],"game_id":440,"stv_port":27016,"stv_name":"Uncletopia | London | 1 | All Maps | STV","players":null},{"server_id":114,"name":"Uncletopia | London | 2 | All Maps","name_short":"lon-2","host":"lon-1.uk.uncletopia.com","port":27025,"enabled":true,"region":"eu","cc":"gb","latitude":51.509865,"longitude":-0.118092,"reserved":0,"last_update":"0001-01-01T00:00:00Z","name_a2s":"Uncletopia | London | 2 | All Maps","protocol":17,"map":"pl_barnblitz","folder":"tf","game":"Team Fortress","app_id":440,"player_count":0,"max_players":24,"Bots":0,"server_type":"Dedicated","server_os":"Linux","password":true,"vac":true,"version":"7757534","steam_id":85568392924470941,"keywords":["nocrits","nodmgspread","payload","uncletopia"],"game_id":440,"stv_port":27026,"stv_name":"Uncletopia | London | 2 | All Maps | STV","players":null},{"server_id":320,"name":"Uncletopia | London | 3 | All Maps","name_short":"lon-3","host":"lon-1.uk.uncletopia.com","port":27035,"enabled":true,"region":"eu","cc":"gb","latitude":51.509865,"longitude":-0.118092,"reserved":0,"last_update":"0001-01-01T00:00:00Z","name_a2s":"Uncletopia | London | 3 | All Maps","protocol":17,"map":"pl_swiftwater_final1","folder":"tf","game":"Team Fortress","app_id":440,"player_count":0,"max_players":24,"Bots":0,"server_type":"Dedicated","server_os":"Linux","password":true,"vac":true,"version":"7757534","steam_id":85568392924510192,"keywords":["nocrits","nodmgspread","payload","uncletopia"],"game_id":440,"stv_port":27036,"stv_name":"Uncletopia | London | 3 | All Maps | STV","players":null},{"server_id":321,"name":"Uncletopia | London | 4 | All Maps","name_short":"lon-4","host":"lon-1.uk.uncletopia.com","port":27045,"enabled":true,"region":"eu","cc":"gb","latitude":51.509865,"longitude":-0.118092,"reserved":0,"last_update":"0001-01-01T00:00:00Z","name_a2s":"Uncletopia | London | 4 | All Maps","protocol":17,"map":"cp_dustbowl","folder":"tf","game":"Team Fortress","app_id":440,"player_count":0,"max_players":24,"Bots":0,"server_type":"Dedicated","server_os":"Linux","password":true,"vac":true,"version":"7757534","steam_id":85568392924510193,"keywords":["cp","nocrits","nodmgspread","uncletopia"],"game_id":440,"stv_port":27046,"stv_name":"Uncletopia | London | 4 | All Maps | STV","players":null},{"server_id":21,"name":"Uncletopia | London | 5 | All Maps","name_short":"lon-5","host":"lon-1.uk.uncletopia.com","port":27055,"enabled":true,"region":"eu","cc":"gb","latitude":51.509865,"longitude":-0.118092,"reserved":0,"last_update":"0001-01-01T00:00:00Z","name_a2s":"Uncletopia | London | 5 | All Maps","protocol":17,"map":"cp_altitude","folder":"tf","game":"Team Fortress","app_id":440,"player_count":0,"max_players":24,"Bots":0,"server_type":"Dedicated","server_os":"Linux","password":true,"vac":true,"version":"7757534","steam_id":85568392924742829,"keywords":["cp","nocrits","nodmgspread","uncletopia"],"game_id":440,"stv_port":27056,"stv_name":"Uncletopia | London | 5 | All Maps | STV","players":null},{"server_id":22,"name":"Uncletopia | London | 6 | All Maps","name_short":"lon-6","host":"lon-1.uk.uncletopia.com","port":27065,"enabled":true,"region":"eu","cc":"gb","latitude":51.509865,"longitude":-0.118092,"reserved":0,"last_update":"0001-01-01T00:00:00Z","name_a2s":"Uncletopia | London | 6 | All Maps","protocol":17,"map":"cp_altitude","folder":"tf","game":"Team Fortress","app_id":440,"player_count":0,"max_players":24,"Bots":0,"server_type":"Dedicated","server_os":"Linux","password":true,"vac":true,"version":"7757534","steam_id":85568392924742830,"keywords":["cp","nocrits","nodmgspread","uncletopia"],"game_id":440,"stv_port":27066,"stv_name":"Uncletopia | London | 6 | All Maps | STV","players":null},{"server_id":40,"name":"Uncletopia | London | 7 | No Payload","name_short":"lon-7","host":"lon-1.uk.uncletopia.com","port":27075,"enabled":true,"region":"eu","cc":"gb","latitude":51.509865,"longitude":-0.118092,"reserved":0,"last_update":"0001-01-01T00:00:00Z","name_a2s":"Uncletopia | London | 7 | No Payload","protocol":17,"map":"koth_highpass","folder":"tf","game":"Team Fortress","app_id":440,"player_count":0,"max_players":24,"Bots":0,"server_type":"Dedicated","server_os":"Linux","password":true,"vac":true,"version":"7757534","steam_id":85568392924964314,"keywords":["cp","nocrits","nodmgspread","uncletopia"],"game_id":440,"stv_port":27076,"stv_name":"Uncletopia | London | 7 | No Payload | STV","players":null},{"server_id":41,"name":"Uncletopia | London | 8 | Community","name_short":"lon-8","host":"lon-1.uk.uncletopia.com","port":27085,"enabled":true,"region":"eu","cc":"gb","latitude":51.509865,"longitude":-0.118092,"reserved":0,"last_update":"0001-01-01T00:00:00Z","name_a2s":"Uncletopia | London | 8 | Community","protocol":17,"map":"workshop/rd_asteroid_redux_b1.ugc2154902912","folder":"tf","game":"Team Fortress","app_id":440,"player_count":0,"max_players":24,"Bots":0,"server_type":"Dedicated","server_os":"Linux","password":true,"vac":true,"version":"7757534","steam_id":85568392924964315,"keywords":["beta","nocrits","nodmgspread","rd","uncletopia"],"game_id":440,"stv_port":27086,"stv_name":"Uncletopia | London | 8 | Community | STV","players":null},{"server_id":300,"name":"Uncletopia | Montr√©al | 1 | All Maps","name_short":"mtl-1","host":"mtl-1.ca.uncletopia.com","port":27015,"enabled":true,"region":"us-east","cc":"ca","latitude":45.50889,"longitude":-73.56167,"reserved":0,"last_update":"0001-01-01T00:00:00Z","name_a2s":"Uncletopia | Montr√©al | 1 | All Maps","protocol":17,"map":"koth_highpass","folder":"tf","game":"Team Fortress","app_id":440,"player_count":0,"max_players":24,"Bots":0,"server_type":"Dedicated","server_os":"Linux","password":true,"vac":true,"version":"7757534","steam_id":85568392924500087,"keywords":["cp","nocrits","nodmgspread","uncletopia"],"game_id":440,"stv_port":27016,"stv_name":"Uncletopia | Montr√©al | 1 | All Maps | STV","players":null},{"server_id":301,"name":"Uncletopia | Montr√©al | 2 | All Maps","name_short":"mtl-2","host":"mtl-1.ca.uncletopia.com","port":27025,"enabled":true,"region":"us-east","cc":"ca","latitude":45.50889,"longitude":-73.56167,"reserved":0,"last_update":"0001-01-01T00:00:00Z","name_a2s":"Uncletopia | Montr√©al | 2 | All Maps","protocol":17,"map":"cp_mountainlab","folder":"tf","game":"Team Fortress","app_id":440,"player_count":0,"max_players":24,"Bots":0,"server_type":"Dedicated","server_os":"Linux","password":true,"vac":true,"version":"7757534","steam_id":85568392924500088,"keywords":["cp","nocrits","nodmgspread","uncletopia"],"game_id":440,"stv_port":27026,"stv_name":"Uncletopia | Montr√©al | 2 | All Maps | STV","players":null},{"server_id":302,"name":"Uncletopia | Montr√©al | 3 | All Maps","name_short":"mtl-3","host":"mtl-1.ca.uncletopia.com","port":27035,"enabled":true,"region":"us-east","cc":"ca","latitude":45.50889,"longitude":-73.56167,"reserved":0,"last_update":"0001-01-01T00:00:00Z","name_a2s":"Uncletopia | Montr√©al | 3 | All Maps","protocol":17,"map":"cp_dustbowl","folder":"tf","game":"Team Fortress","app_id":440,"player_count":0,"max_players":24,"Bots":0,"server_type":"Dedicated","server_os":"Linux","password":true,"vac":true,"version":"7757534","steam_id":85568392924500089,"keywords":["cp","nocrits","nodmgspread","uncletopia"],"game_id":440,"stv_port":27036,"stv_name":"Uncletopia | Montr√©al | 3 | All Maps | STV","players":null},{"server_id":303,"name":"Uncletopia | Montr√©al | 4 | No Payload","name_short":"mtl-4","host":"mtl-1.ca.uncletopia.com","port":27045,"enabled":true,"region":"us-east","cc":"ca","latitude":45.50889,"longitude":-73.56167,"reserved":0,"last_update":"0001-01-01T00:00:00Z","name_a2s":"Uncletopia | Montr√©al | 4 | No Payload","protocol":17,"map":"koth_highpass","folder":"tf","game":"Team Fortress","app_id":440,"player_count":0,"max_players":24,"Bots":0,"server_type":"Dedicated","server_os":"Linux","password":true,"vac":true,"version":"7757534","steam_id":85568392924500090,"keywords":["cp","nocrits","nodmgspread","uncletopia"],"game_id":440,"stv_port":27046,"stv_name":"Uncletopia | Montr√©al | 4 | No Payload | STV","players":null},{"server_id":13,"name":"Uncletopia | New York City | 1 | All Maps","name_short":"nyc-1","host":"nyc-1.us.uncletopia.com","port":27015,"enabled":true,"region":"us-east","cc":"us","latitude":40.73061,"longitude":-73.93524,"reserved":0,"last_update":"0001-01-01T00:00:00Z","name_a2s":"Uncletopia | New York City | 1 | All Maps","protocol":17,"map":"plr_bananabay","folder":"tf","game":"Team Fortress","app_id":440,"player_count":23,"max_players":24,"Bots":0,"server_type":"Dedicated","server_os":"Linux","password":true,"vac":true,"version":"7757534","steam_id":85568392924469993,"keywords":["nocrits","nodmgspread","payload","uncletopia"],"game_id":440,"stv_port":27016,"stv_name":"Uncletopia | New York City | 1 | All Maps | STV","players":[{"user_id":347,"name":"frizzle fried","steam_id":76561198062991744,"connected_time":634000000000,"state":"active","ping":53},{"user_id":330,"name":"Ripley","steam_id":76561198080766916,"connected_time":1574000000000,"state":"active","ping":72},{"user_id":209,"name":"Le Fishe","steam_id":76561198034388243,"connected_time":12444000000000,"state":"active","ping":42},{"user_id":237,"name":"Dross","steam_id":76561198042172372,"connected_time":10447000000000,"state":"active","ping":54},{"user_id":354,"name":"Mrpeagod","steam_id":76561198138985101,"connected_time":345000000000,"state":"active","ping":88},{"user_id":336,"name":"SGT OwO","steam_id":76561198038480911,"connected_time":1132000000000,"state":"active","ping":99},{"user_id":300,"name":"WibbyOne","steam_id":76561198052843846,"connected_time":4686000000000,"state":"active","ping":44},{"user_id":349,"name":"_noodle","steam_id":76561199278361340,"connected_time":558000000000,"state":"active","ping":83},{"user_id":262,"name":"The Necronomiconeconomist","steam_id":76561198010358323,"connected_time":7854000000000,"state":"active","ping":87},{"user_id":340,"name":"NeverAcedIt (Pinnacle -\u003e Pit)","steam_id":76561198406671743,"connected_time":1036000000000,"state":"active","ping":89},{"user_id":350,"name":"Bonk! Atomic Punch Enjoyer","steam_id":76561198144241582,"connected_time":555000000000,"state":"active","ping":65},{"user_id":344,"name":"MAXIMUS","steam_id":76561198085809453,"connected_time":928000000000,"state":"active","ping":81},{"user_id":310,"name":"Horrizan","steam_id":76561197965028480,"connected_time":3855000000000,"state":"active","ping":94},{"user_id":355,"name":"F_L Vision Spire","steam_id":76561198095923905,"connected_time":159000000000,"state":"active","ping":65},{"user_id":329,"name":"Vodka","steam_id":76561198062027586,"connected_time":1696000000000,"state":"active","ping":160},{"user_id":341,"name":"Submissive Subaru","steam_id":76561198078370261,"connected_time":980000000000,"state":"active","ping":87},{"user_id":342,"name":"Antwan","steam_id":76561198246200638,"connected_time":972000000000,"state":"active","ping":80},{"user_id":317,"name":"Yuzu","steam_id":76561198417913035,"connected_time":2726000000000,"state":"active","ping":77},{"user_id":351,"name":"Queenkitty2929","steam_id":76561199089004790,"connected_time":533000000000,"state":"active","ping":176},{"user_id":345,"name":"Lain","steam_id":76561198252784944,"connected_time":911000000000,"state":"active","ping":116},{"user_id":332,"name":"scuttle bucket","steam_id":76561198100910016,"connected_time":1491000000000,"state":"active","ping":115},{"user_id":322,"name":"Antifa Supersoldier","steam_id":76561198141816516,"connected_time":2551000000000,"state":"active","ping":87},{"user_id":353,"name":"Ronanlovesyou","steam_id":76561198261911489,"connected_time":419000000000,"state":"active","ping":130}]},{"server_id":14,"name":"Uncletopia | New York City | 2 | All Maps","name_short":"nyc-2","host":"nyc-1.us.uncletopia.com","port":27025,"enabled":true,"region":"us-east","cc":"us","latitude":40.73061,"longitude":-73.93524,"reserved":0,"last_update":"0001-01-01T00:00:00Z","name_a2s":"Uncletopia | New York City | 2 | All Maps","protocol":17,"map":"pl_barnblitz","folder":"tf","game":"Team Fortress","app_id":440,"player_count":24,"max_players":24,"Bots":0,"server_type":"Dedicated","server_os":"Linux","password":true,"vac":true,"version":"7757534","steam_id":85568392924469994,"keywords":["nocrits","nodmgspread","payload","uncletopia"],"game_id":440,"stv_port":27026,"stv_name":"Uncletopia | New York City | 2 | All Maps | STV","players":[{"user_id":651,"name":"Protato","steam_id":76561198061182563,"connected_time":1714000000000,"state":"active","ping":60},{"user_id":645,"name":"Gustavo_Banana","steam_id":76561198387866587,"connected_time":2349000000000,"state":"active","ping":161},{"user_id":654,"name":"orionEDM","steam_id":76561198986145301,"connected_time":1332000000000,"state":"active","ping":97},{"user_id":649,"name":"M.L.JEW","steam_id":76561198997375055,"connected_time":1987000000000,"state":"active","ping":76},{"user_id":659,"name":"captaincaptain","steam_id":76561198135644587,"connected_time":1164000000000,"state":"active","ping":92},{"user_id":679,"name":"Spike Bones","steam_id":76561198234926120,"connected_time":615000000000,"state":"active","ping":85},{"user_id":656,"name":"broctherock09","steam_id":76561199402909292,"connected_time":1294000000000,"state":"active","ping":104},{"user_id":657,"name":"Iron","steam_id":76561198247918478,"connected_time":1196000000000,"state":"active","ping":76},{"user_id":680,"name":"WitheringLeo","steam_id":76561198046722918,"connected_time":347000000000,"state":"active","ping":59},{"user_id":662,"name":"rip muhammad ali","steam_id":76561198072640720,"connected_time":1023000000000,"state":"active","ping":49},{"user_id":669,"name":"Ping","steam_id":76561199206514106,"connected_time":821000000000,"state":"active","ping":64},{"user_id":667,"name":"KBoneski ‚ô°","steam_id":76561198307409065,"connected_time":960000000000,"state":"active","ping":82},{"user_id":670,"name":"Deep Peepus","steam_id":76561198205395757,"connected_time":800000000000,"state":"active","ping":80},{"user_id":674,"name":"Ëß£ÊîæÈ¶ôÊ∏ØÊó∂‰ª£ÁöÑÈù©ÂëΩ","steam_id":76561198003230524,"connected_time":715000000000,"state":"active","ping":59},{"user_id":640,"name":"Wallem","steam_id":76561198052361822,"connected_time":2693000000000,"state":"active","ping":59},{"user_id":672,"name":"Tuchpi","steam_id":76561197967581205,"connected_time":776000000000,"state":"active","ping":68},{"user_id":641,"name":"wiiblob","steam_id":76561198109106242,"connected_time":2560000000000,"state":"active","ping":136},{"user_id":673,"name":"Ziath","steam_id":76561198094009164,"connected_time":774000000000,"state":"active","ping":50},{"user_id":675,"name":"Big Cat","steam_id":76561198115695203,"connected_time":679000000000,"state":"active","ping":64},{"user_id":676,"name":"the real babytron","steam_id":76561197989627918,"connected_time":671000000000,"state":"active","ping":74},{"user_id":646,"name":"LegendaryMister151","steam_id":76561198064890524,"connected_time":2238000000000,"state":"active","ping":91},{"user_id":677,"name":"Reed.Dook","steam_id":76561198046625664,"connected_time":653000000000,"state":"active","ping":76},{"user_id":678,"name":"baklava","steam_id":76561198124591302,"connected_time":641000000000,"state":"active","ping":45},{"user_id":682,"name":"mystical spy","steam_id":76561198100932886,"connected_time":55000000000,"state":"active","ping":127}]},{"server_id":15,"name":"Uncletopia | New York City | 3 | Stopwatch Beta","name_short":"nyc-3","host":"nyc-1.us.uncletopia.com","port":27035,"enabled":true,"region":"us-east","cc":"us","latitude":40.73061,"longitude":-73.93524,"reserved":0,"last_update":"0001-01-01T00:00:00Z","name_a2s":"Uncletopia | New York City | 3 | Stopwatch Beta","protocol":17,"map":"koth_lakeside_final","folder":"tf","game":"Team Fortress","app_id":440,"player_count":0,"max_players":24,"Bots":0,"server_type":"Dedicated","server_os":"Linux","password":true,"vac":true,"version":"7757534","steam_id":85568392924742820,"keywords":["cp","nocrits","nodmgspread","uncletopia"],"game_id":440,"stv_port":27036,"stv_name":"Uncletopia | New York City | 3 | Stopwatch Beta | STV","players":null},{"server_id":16,"name":"Uncletopia | New York City | 4 | Community","name_short":"nyc-4","host":"nyc-1.us.uncletopia.com","port":27045,"enabled":true,"region":"us-east","cc":"us","latitude":40.73061,"longitude":-73.93524,"reserved":0,"last_update":"0001-01-01T00:00:00Z","name_a2s":"Uncletopia | New York City | 4 | Community","protocol":17,"map":"workshop/cp_propaganda_b18.ugc1603743849","folder":"tf","game":"Team Fortress","app_id":440,"player_count":0,"max_players":24,"Bots":0,"server_type":"Dedicated","server_os":"Linux","password":true,"vac":true,"version":"7757534","steam_id":85568392924742821,"keywords":["cp","nocrits","nodmgspread","uncletopia"],"game_id":440,"stv_port":27046,"stv_name":"Uncletopia | New York City | 4 | Community | STV","players":null},{"server_id":142,"name":"Uncletopia | S√£o Paulo | 1 | All Maps","name_short":"sao-1","host":"sao-1.br.uncletopia.com","port":27015,"enabled":true,"region":"sa","cc":"br","latitude":-23.533773,"longitude":-46.62529,"reserved":0,"last_update":"0001-01-01T00:00:00Z","name_a2s":"Uncletopia | S√£o Paulo | 1 | All Maps","protocol":17,"map":"koth_cascade","folder":"tf","game":"Team Fortress","app_id":440,"player_count":0,"max_players":24,"Bots":0,"server_type":"Dedicated","server_os":"Linux","password":true,"vac":true,"version":"7757534","steam_id":85568392924469996,"keywords":["cp","nocrits","nodmgspread","uncletopia"],"game_id":440,"stv_port":27016,"stv_name":"Uncletopia | S√£o Paulo | 1 | All Maps | STV","players":null},{"server_id":143,"name":"Uncletopia | S√£o Paulo | 2 | All Maps","name_short":"sao-2","host":"sao-2.br.uncletopia.com","port":27015,"enabled":true,"region":"sa","cc":"br","latitude":-23.533773,"longitude":-46.62529,"reserved":0,"last_update":"0001-01-01T00:00:00Z","name_a2s":"Uncletopia | S√£o Paulo | 2 | All Maps","protocol":17,"map":"koth_viaduct","folder":"tf","game":"Team Fortress","app_id":440,"player_count":0,"max_players":24,"Bots":0,"server_type":"Dedicated","server_os":"Linux","password":true,"vac":true,"version":"7757534","steam_id":85568392924485349,"keywords":["cp","nocrits","nodmgspread","uncletopia"],"game_id":440,"stv_port":27016,"stv_name":"Uncletopia | S√£o Paulo | 2 | All Maps | STV","players":null},{"server_id":7,"name":"Uncletopia | Seattle | 1 | All Maps","name_short":"sea-1","host":"sea-1.us.uncletopia.com","port":27015,"enabled":true,"region":"us-west","cc":"us","latitude":47.608013,"longitude":-122.33517,"reserved":0,"last_update":"0001-01-01T00:00:00Z","name_a2s":"Uncletopia | Seattle | 1 | All Maps","protocol":17,"map":"pl_badwater","folder":"tf","game":"Team Fortress","app_id":440,"player_count":24,"max_players":24,"Bots":0,"server_type":"Dedicated","server_os":"Linux","password":true,"vac":true,"version":"7757534","steam_id":85568392924469997,"keywords":["nocrits","nodmgspread","payload","uncletopia"],"game_id":440,"stv_port":27016,"stv_name":"Uncletopia | Seattle | 1 | All Maps | STV","players":[{"user_id":544,"name":"TROY","steam_id":76561197983852176,"connected_time":701000000000,"state":"active","ping":76},{"user_id":522,"name":"WACKY JIM","steam_id":76561198961641122,"connected_time":2794000000000,"state":"active","ping":56},{"user_id":540,"name":"Vile","steam_id":76561198085615710,"connected_time":766000000000,"state":"active","ping":92},{"user_id":537,"name":"Archimedes!","steam_id":76561199446023933,"connected_time":811000000000,"state":"active","ping":85},{"user_id":510,"name":"Reiidaya","steam_id":76561198325306660,"connected_time":5233000000000,"state":"active","ping":48},{"user_id":491,"name":"ORANGE","steam_id":76561198000401769,"connected_time":6372000000000,"state":"active","ping":49},{"user_id":497,"name":"p9 SUNLIT WITCH ANARCHY GATHER","steam_id":76561198131166135,"connected_time":6094000000000,"state":"active","ping":35},{"user_id":523,"name":"brrbrrbrrbrrbrr","steam_id":76561198095480838,"connected_time":2773000000000,"state":"active","ping":47},{"user_id":527,"name":"5392vin","steam_id":76561198880493511,"connected_time":2651000000000,"state":"active","ping":64},{"user_id":547,"name":"Gary, 40, soul sucking 9-5","steam_id":76561198073812888,"connected_time":29000000000,"state":"active","ping":38},{"user_id":524,"name":"Strikerbolt","steam_id":76561199095622897,"connected_time":2763000000000,"state":"active","ping":89},{"user_id":483,"name":"Flyingcat9000","steam_id":76561198179561797,"connected_time":6841000000000,"state":"active","ping":59},{"user_id":536,"name":"S Q U I S H E  T H A T  C A T","steam_id":76561198293865429,"connected_time":976000000000,"state":"active","ping":33},{"user_id":529,"name":"William P. Ennis","steam_id":76561198073464877,"connected_time":2178000000000,"state":"active","ping":90},{"user_id":541,"name":"Ducks","steam_id":76561198130038345,"connected_time":762000000000,"state":"active","ping":67},{"user_id":528,"name":"ice spicee","steam_id":76561198169755734,"connected_time":2649000000000,"state":"active","ping":60},{"user_id":531,"name":"eldin","steam_id":76561198292352586,"connected_time":2005000000000,"state":"active","ping":52},{"user_id":543,"name":"Skabbety","steam_id":76561198168044257,"connected_time":751000000000,"state":"active","ping":45},{"user_id":521,"name":"Cheezbeargur","steam_id":76561198164702899,"connected_time":3877000000000,"state":"active","ping":69},{"user_id":534,"name":"II HASH II 2-6","steam_id":76561198996233677,"connected_time":1499000000000,"state":"active","ping":50},{"user_id":506,"name":"spiderland","steam_id":76561198335992132,"connected_time":5592000000000,"state":"active","ping":45},{"user_id":539,"name":"BIG LIP KICKFLIP","steam_id":76561198343731774,"connected_time":806000000000,"state":"active","ping":121},{"user_id":512,"name":"rat gets the cheese","steam_id":76561198031234032,"connected_time":4832000000000,"state":"active","ping":101},{"user_id":546,"name":"SvicidalBug","steam_id":76561198221390504,"connected_time":503000000000,"state":"active","ping":62}]},{"server_id":119,"name":"Uncletopia | Seattle | 2 | All Maps","name_short":"sea-2","host":"sea-1.us.uncletopia.com","port":27025,"enabled":true,"region":"us-west","cc":"us","latitude":47.608013,"longitude":-122.33517,"reserved":0,"last_update":"0001-01-01T00:00:00Z","name_a2s":"Uncletopia | Seattle | 2 | All Maps","protocol":17,"map":"cp_process_final","folder":"tf","game":"Team Fortress","app_id":440,"player_count":24,"max_players":24,"Bots":0,"server_type":"Dedicated","server_os":"Linux","password":true,"vac":true,"version":"7757534","steam_id":85568392924469998,"keywords":["cp","nocrits","nodmgspread","uncletopia"],"game_id":440,"stv_port":27026,"stv_name":"Uncletopia | Seattle | 2 | All Maps | STV","players":[{"user_id":829,"name":"HAT-WEARING‚Ñ¢ Maggot Gamer Cat","steam_id":76561197973992705,"connected_time":955000000000,"state":"active","ping":81},{"user_id":834,"name":"Cassandra (She/her)","steam_id":76561198094123940,"connected_time":779000000000,"state":"active","ping":108},{"user_id":772,"name":"BBL Sponsor","steam_id":76561199093733603,"connected_time":5447000000000,"state":"active","ping":86},{"user_id":816,"name":"WESTERBROOK#1","steam_id":76561199196821524,"connected_time":2140000000000,"state":"active","ping":51},{"user_id":782,"name":"Algibruh","steam_id":76561199221599415,"connected_time":4414000000000,"state":"active","ping":36},{"user_id":812,"name":"ansoonii","steam_id":76561198092494136,"connected_time":2675000000000,"state":"active","ping":100},{"user_id":828,"name":"Dr. Milker","steam_id":76561198068516964,"connected_time":960000000000,"state":"active","ping":57},{"user_id":835,"name":"mkjoj0","steam_id":76561199015399896,"connected_time":748000000000,"state":"active","ping":131},{"user_id":821,"name":"Master Of Whales","steam_id":76561198349104889,"connected_time":1919000000000,"state":"active","ping":94},{"user_id":778,"name":"Adobe Premiere","steam_id":76561198411025724,"connected_time":4702000000000,"state":"active","ping":83},{"user_id":836,"name":"Banzailizard","steam_id":76561197986785469,"connected_time":747000000000,"state":"active","ping":80},{"user_id":837,"name":"FoodzAreGoodz","steam_id":76561198309262052,"connected_time":664000000000,"state":"active","ping":95},{"user_id":797,"name":"Sweatpants","steam_id":76561198097188001,"connected_time":3483000000000,"state":"active","ping":55},{"user_id":824,"name":"KingTinkerer","steam_id":76561198226856548,"connected_time":1021000000000,"state":"active","ping":76},{"user_id":833,"name":"goldhed","steam_id":76561198051751133,"connected_time":812000000000,"state":"active","ping":56},{"user_id":838,"name":"Apple55","steam_id":76561198802427881,"connected_time":657000000000,"state":"active","ping":117},{"user_id":748,"name":"non menthol newport","steam_id":76561198041907345,"connected_time":8004000000000,"state":"active","ping":87},{"user_id":652,"name":"worker","steam_id":76561198039608940,"connected_time":14847000000000,"state":"active","ping":68},{"user_id":840,"name":"Joshzu","steam_id":76561198200521137,"connected_time":565000000000,"state":"active","ping":54},{"user_id":798,"name":"Useless Information","steam_id":76561198042248161,"connected_time":3435000000000,"state":"active","ping":78},{"user_id":830,"name":"[PINGU‚Ñ¢] Tiny Tuna","steam_id":76561198193611579,"connected_time":942000000000,"state":"active","ping":141},{"user_id":843,"name":"General Fisticuffs","steam_id":76561198255721392,"connected_time":119000000000,"state":"active","ping":113},{"user_id":842,"name":"Sexy Julian","steam_id":76561198024596083,"connected_time":246000000000,"state":"active","ping":53},{"user_id":832,"name":"JZLgaming","steam_id":76561198025472913,"connected_time":908000000000,"state":"active","ping":69}]},{"server_id":406,"name":"Uncletopia | Seattle | 3 | Stopwatch Beta","name_short":"sea-3","host":"sea-1.us.uncletopia.com","port":27035,"enabled":true,"region":"us-west","cc":"us","latitude":47.608013,"longitude":-122.33517,"reserved":0,"last_update":"0001-01-01T00:00:00Z","name_a2s":"Uncletopia | Seattle | 3 | Stopwatch Beta","protocol":17,"map":"koth_highpass","folder":"tf","game":"Team Fortress","app_id":440,"player_count":0,"max_players":24,"Bots":0,"server_type":"Dedicated","server_os":"Linux","password":true,"vac":true,"version":"7757534","steam_id":85568392924515217,"keywords":["cp","nocrits","nodmgspread","uncletopia"],"game_id":440,"stv_port":27036,"stv_name":"Uncletopia | Seattle | 3 | Stopwatch Beta | STV","players":null},{"server_id":17,"name":"Uncletopia | San Francisco | 1 | All Maps","name_short":"sfo-1","host":"sfo-1.us.uncletopia.com","port":27015,"enabled":true,"region":"us-west","cc":"us","latitude":37.77397,"longitude":-122.4313,"reserved":0,"last_update":"0001-01-01T00:00:00Z","name_a2s":"Uncletopia | San Francisco | 1 | All Maps","protocol":17,"map":"koth_viaduct","folder":"tf","game":"Team Fortress","app_id":440,"player_count":23,"max_players":24,"Bots":0,"server_type":"Dedicated","server_os":"Linux","password":true,"vac":true,"version":"7757534","steam_id":85568392924469999,"keywords":["cp","nocrits","nodmgspread","uncletopia"],"game_id":440,"stv_port":27016,"stv_name":"Uncletopia | San Francisco | 1 | All Maps | STV","players":[{"user_id":358,"name":"HanakoToast","steam_id":76561198045233131,"connected_time":240000000000,"state":"active","ping":72},{"user_id":348,"name":"Known Bad Actor | ÂÜÖÁ¨ëÁæéËéâ","steam_id":76561198041569682,"connected_time":1152000000000,"state":"active","ping":68},{"user_id":336,"name":"Amogous Supreme","steam_id":76561198025476774,"connected_time":2284000000000,"state":"active","ping":57},{"user_id":339,"name":"W1CKEDY","steam_id":76561198353447602,"connected_time":2269000000000,"state":"active","ping":133},{"user_id":346,"name":"Grammaring","steam_id":76561198867366139,"connected_time":1169000000000,"state":"active","ping":70},{"user_id":354,"name":"Mr Majesticals","steam_id":76561198015242706,"connected_time":498000000000,"state":"active","ping":59},{"user_id":357,"name":"420blzItM8","steam_id":76561198137983285,"connected_time":339000000000,"state":"active","ping":102},{"user_id":349,"name":"BasedGod","steam_id":76561198061177973,"connected_time":1142000000000,"state":"active","ping":45},{"user_id":262,"name":"Interrobang","steam_id":76561198385044529,"connected_time":5598000000000,"state":"active","ping":104},{"user_id":337,"name":"[Squiddy]","steam_id":76561198027757551,"connected_time":2281000000000,"state":"active","ping":96},{"user_id":350,"name":"mr.meaner","steam_id":76561199468236392,"connected_time":1134000000000,"state":"active","ping":66},{"user_id":343,"name":"dazlimey","steam_id":76561198206922028,"connected_time":2141000000000,"state":"active","ping":60},{"user_id":321,"name":"the fool","steam_id":76561198005769466,"connected_time":3519000000000,"state":"active","ping":84},{"user_id":355,"name":"Pathara44","steam_id":76561198048238620,"connected_time":429000000000,"state":"active","ping":104},{"user_id":353,"name":"navy_jaguar","steam_id":76561198366199909,"connected_time":717000000000,"state":"active","ping":61},{"user_id":338,"name":"yung fujo","steam_id":76561198116908911,"connected_time":2278000000000,"state":"active","ping":120},{"user_id":347,"name":"‡πá‡πá‡πá‡πá‡πá‡πá‡πá‡πá‡πá‡πá","steam_id":76561198101028668,"connected_time":1167000000000,"state":"active","ping":183},{"user_id":308,"name":"rose","steam_id":76561197995200743,"connected_time":4287000000000,"state":"active","ping":47},{"user_id":327,"name":"rmbl","steam_id":76561198150137369,"connected_time":3340000000000,"state":"active","ping":56},{"user_id":351,"name":"Nuk3","steam_id":76561198798608026,"connected_time":951000000000,"state":"active","ping":54},{"user_id":334,"name":"beheeyem","steam_id":76561198042867745,"connected_time":2722000000000,"state":"active","ping":62},{"user_id":356,"name":"selling rice","steam_id":76561198063357023,"connected_time":374000000000,"state":"active","ping":45},{"user_id":333,"name":"hersheybargame","steam_id":76561199162003623,"connected_time":2760000000000,"state":"active","ping":56}]},{"server_id":18,"name":"Uncletopia | San Francisco | 2 | All Maps","name_short":"sfo-2","host":"sfo-1.us.uncletopia.com","port":27025,"enabled":true,"region":"us-west","cc":"us","latitude":37.77397,"longitude":-122.4313,"reserved":0,"last_update":"0001-01-01T00:00:00Z","name_a2s":"Uncletopia | San Francisco | 2 | All Maps","protocol":17,"map":"koth_viaduct","folder":"tf","game":"Team Fortress","app_id":440,"player_count":0,"max_players":24,"Bots":0,"server_type":"Dedicated","server_os":"Linux","password":true,"vac":true,"version":"7757534","steam_id":85568392924470000,"keywords":["cp","nocrits","nodmgspread","uncletopia"],"game_id":440,"stv_port":27026,"stv_name":"Uncletopia | San Francisco | 2 | All Maps | STV","players":null},{"server_id":19,"name":"Uncletopia | San Francisco | 3 | Stopwatch Beta","name_short":"sfo-3","host":"sfo-1.us.uncletopia.com","port":27035,"enabled":true,"region":"us-west","cc":"us","latitude":37.77397,"longitude":-122.4313,"reserved":0,"last_update":"0001-01-01T00:00:00Z","name_a2s":"Uncletopia | San Francisco | 3 | Stopwatch Beta","protocol":17,"map":"koth_lakeside_final","folder":"tf","game":"Team Fortress","app_id":440,"player_count":0,"max_players":24,"Bots":0,"server_type":"Dedicated","server_os":"Linux","password":true,"vac":true,"version":"7757534","steam_id":85568392924742824,"keywords":["cp","nocrits","nodmgspread","uncletopia"],"game_id":440,"stv_port":27036,"stv_name":"Uncletopia | San Francisco | 3 | Stopwatch Beta | STV","players":null},{"server_id":20,"name":"Uncletopia | San Francisco | 4 | Community","name_short":"sfo-4","host":"sfo-1.us.uncletopia.com","port":27045,"enabled":true,"region":"us-west","cc":"us","latitude":37.77397,"longitude":-122.4313,"reserved":0,"last_update":"0001-01-01T00:00:00Z","name_a2s":"Uncletopia | San Francisco | 4 | Community","protocol":17,"map":"workshop/koth_product_final.ugc454272353","folder":"tf","game":"Team Fortress","app_id":440,"player_count":12,"max_players":24,"Bots":0,"server_type":"Dedicated","server_os":"Linux","password":true,"vac":true,"version":"7757534","steam_id":85568392924742826,"keywords":["cp","nocrits","nodmgspread","uncletopia"],"game_id":440,"stv_port":27046,"stv_name":"Uncletopia | San Francisco | 4 | Community | STV","players":[{"user_id":503,"name":"Mr_Some1","steam_id":76561198255761996,"connected_time":203000000000,"state":"active","ping":70},{"user_id":494,"name":"Buswolley","steam_id":76561197995205571,"connected_time":520000000000,"state":"active","ping":41},{"user_id":492,"name":"BoX_hEaD101","steam_id":76561198200875467,"connected_time":763000000000,"state":"active","ping":71},{"user_id":504,"name":"name420","steam_id":76561198129374525,"connected_time":116000000000,"state":"active","ping":93},{"user_id":506,"name":"OH JIMMY I'M HOME #SaveTf2","steam_id":76561198396658806,"connected_time":31000000000,"state":"spawning","ping":124},{"user_id":507,"name":"lunababa","steam_id":76561198112599582,"connected_time":17000000000,"state":"spawning","ping":215},{"user_id":500,"name":"THEAWESOMEMARIO","steam_id":76561199091234980,"connected_time":376000000000,"state":"active","ping":59},{"user_id":483,"name":"lol","steam_id":76561198026491738,"connected_time":1473000000000,"state":"active","ping":60},{"user_id":501,"name":"Dumb Fat Owl","steam_id":76561198298100939,"connected_time":354000000000,"state":"active","ping":111},{"user_id":458,"name":"Irate Gamer Official","steam_id":76561198162688146,"connected_time":2566000000000,"state":"active","ping":57},{"user_id":477,"name":"Fredorando","steam_id":76561198242546842,"connected_time":1735000000000,"state":"active","ping":60},{"user_id":466,"name":"paolobuts","steam_id":76561199047108638,"connected_time":2233000000000,"state":"active","ping":43}]},{"server_id":141,"name":"Uncletopia | Sydney | 1 | All Maps","name_short":"syd-1","host":"syd-1.au.uncletopia.com","port":27015,"enabled":true,"region":"au","cc":"au","latitude":-33.865143,"longitude":151.2099,"reserved":0,"last_update":"0001-01-01T00:00:00Z","name_a2s":"Uncletopia | Sydney | 1 | All Maps","protocol":17,"map":"pl_borneo","folder":"tf","game":"Team Fortress","app_id":440,"player_count":24,"max_players":24,"Bots":0,"server_type":"Dedicated","server_os":"Linux","password":true,"vac":true,"version":"7757534","steam_id":85568392924470001,"keywords":["nocrits","nodmgspread","payload","uncletopia"],"game_id":440,"stv_port":27016,"stv_name":"Uncletopia | Sydney | 1 | All Maps | STV","players":[{"user_id":383,"name":"Mud","steam_id":76561198025524712,"connected_time":82000000000,"state":"active","ping":47},{"user_id":382,"name":"itsnothenry","steam_id":76561197966455767,"connected_time":414000000000,"state":"active","ping":53},{"user_id":282,"name":"Bob Ross","steam_id":76561198081686896,"connected_time":6219000000000,"state":"active","ping":62},{"user_id":381,"name":"JmayTheUnknown","steam_id":76561198217463552,"connected_time":687000000000,"state":"active","ping":71},{"user_id":353,"name":"Del Davis","steam_id":76561199365669004,"connected_time":2597000000000,"state":"active","ping":59},{"user_id":350,"name":"EpicGuy4227","steam_id":76561198094132328,"connected_time":3186000000000,"state":"active","ping":51},{"user_id":347,"name":"Tees","steam_id":76561199174602317,"connected_time":3228000000000,"state":"active","ping":54},{"user_id":372,"name":"Violezine The Fat Scout","steam_id":76561199000502615,"connected_time":1140000000000,"state":"active","ping":139},{"user_id":348,"name":"skinny loser man","steam_id":76561198094041769,"connected_time":3206000000000,"state":"active","ping":29},{"user_id":359,"name":"BruceWillis235","steam_id":76561198884324029,"connected_time":2314000000000,"state":"active","ping":89},{"user_id":365,"name":"Lysergic Acid Diethylamide","steam_id":76561198153006468,"connected_time":1361000000000,"state":"active","ping":67},{"user_id":368,"name":"murmur","steam_id":76561198133867907,"connected_time":1341000000000,"state":"active","ping":71},{"user_id":351,"name":"Sainator","steam_id":76561198202770490,"connected_time":3166000000000,"state":"active","ping":63},{"user_id":367,"name":"Bamooxa","steam_id":76561198067160709,"connected_time":1350000000000,"state":"active","ping":86},{"user_id":292,"name":"Lincoln2603","steam_id":76561198170236666,"connected_time":5520000000000,"state":"active","ping":39},{"user_id":320,"name":"xX_sexhaver_Xx(real)","steam_id":76561199205171109,"connected_time":3884000000000,"state":"active","ping":60},{"user_id":379,"name":"Zelenyy","steam_id":76561198151123472,"connected_time":771000000000,"state":"active","ping":50},{"user_id":378,"name":"Tiger_Tan","steam_id":76561198221733844,"connected_time":929000000000,"state":"active","ping":67},{"user_id":364,"name":"modus","steam_id":76561198025099660,"connected_time":1376000000000,"state":"active","ping":31},{"user_id":370,"name":"pyro webbon ·òõ‚ÅêÃ§·ïê·ê∑","steam_id":76561198061998379,"connected_time":1337000000000,"state":"active","ping":46},{"user_id":355,"name":"Empr","steam_id":76561198024387396,"connected_time":2523000000000,"state":"active","ping":64},{"user_id":300,"name":"calculusfish","steam_id":76561198067205959,"connected_time":5333000000000,"state":"active","ping":69},{"user_id":331,"name":"‚ú™ dwippin","steam_id":76561198099342389,"connected_time":3720000000000,"state":"active","ping":55},{"user_id":380,"name":"Oysenberry","steam_id":76561198125443335,"connected_time":753000000000,"state":"active","ping":44}]},{"server_id":123,"name":"Uncletopia | Sydney | 2 | All Maps","name_short":"syd-2","host":"syd-1.au.uncletopia.com","port":27025,"enabled":true,"region":"au","cc":"au","latitude":-33.865143,"longitude":151.2099,"reserved":0,"last_update":"0001-01-01T00:00:00Z","name_a2s":"Uncletopia | Sydney | 2 | All Maps","protocol":17,"map":"koth_lakeside_final","folder":"tf","game":"Team Fortress","app_id":440,"player_count":0,"max_players":24,"Bots":0,"server_type":"Dedicated","server_os":"Linux","password":true,"vac":true,"version":"7757534","steam_id":85568392924470002,"keywords":["cp","nocrits","nodmgspread","uncletopia"],"game_id":440,"stv_port":27026,"stv_name":"Uncletopia | Sydney | 2 | All Maps | STV","players":null},{"server_id":395,"name":"Uncletopia | Sydney | 3 | All Maps","name_short":"syd-3","host":"syd-1.au.uncletopia.com","port":27035,"enabled":true,"region":"au","cc":"au","latitude":-33.865143,"longitude":151.2099,"reserved":0,"last_update":"0001-01-01T00:00:00Z","name_a2s":"Uncletopia | Sydney | 3 | All Maps","protocol":17,"map":"cp_altitude","folder":"tf","game":"Team Fortress","app_id":440,"player_count":0,"max_players":24,"Bots":0,"server_type":"Dedicated","server_os":"Linux","password":true,"vac":true,"version":"7757534","steam_id":85568392925194467,"keywords":["cp","nocrits","nodmgspread","uncletopia"],"game_id":440,"stv_port":27036,"stv_name":"Uncletopia | Sydney | 3 | All Maps | STV","players":null},{"server_id":396,"name":"Uncletopia | Sydney | 4 | All Maps","name_short":"syd-4","host":"syd-1.au.uncletopia.com","port":27045,"enabled":true,"region":"au","cc":"au","latitude":-33.865143,"longitude":151.2099,"reserved":0,"last_update":"0001-01-01T00:00:00Z","name_a2s":"Uncletopia | Sydney | 4 | All Maps","protocol":17,"map":"koth_lakeside_final","folder":"tf","game":"Team Fortress","app_id":440,"player_count":0,"max_players":24,"Bots":0,"server_type":"Dedicated","server_os":"Linux","password":true,"vac":true,"version":"7757534","steam_id":85568392925397958,"keywords":["cp","nocrits","nodmgspread","uncletopia"],"game_id":440,"stv_port":27046,"stv_name":"Uncletopia | Sydney | 4 | All Maps | STV","players":null},{"server_id":58,"name":"Uncletopia | Sydney | 5 | Stopwatch Beta","name_short":"syd-5","host":"syd-1.au.uncletopia.com","port":27055,"enabled":true,"region":"au","cc":"au","latitude":-33.865143,"longitude":151.2099,"reserved":0,"last_update":"0001-01-01T00:00:00Z","name_a2s":"Uncletopia | Sydney | 5 | Stopwatch Beta","protocol":17,"map":"koth_cascade","folder":"tf","game":"Team Fortress","app_id":440,"player_count":0,"max_players":24,"Bots":0,"server_type":"Dedicated","server_os":"Linux","password":true,"vac":true,"version":"7757534","steam_id":85568392925397959,"keywords":["cp","nocrits","nodmgspread","uncletopia"],"game_id":440,"stv_port":27056,"stv_name":"Uncletopia | Sydney | 5 | Stopwatch Beta | STV","players":null},{"server_id":59,"name":"Uncletopia | Sydney | 6 | Community","name_short":"syd-6","host":"syd-1.au.uncletopia.com","port":27065,"enabled":true,"region":"au","cc":"au","latitude":-33.865143,"longitude":151.2099,"reserved":0,"last_update":"0001-01-01T00:00:00Z","name_a2s":"Uncletopia | Sydney | 6 | Community","protocol":17,"map":"workshop/pl_corrode_rc2.ugc546577989","folder":"tf","game":"Team Fortress","app_id":440,"player_count":0,"max_players":24,"Bots":0,"server_type":"Dedicated","server_os":"Linux","password":true,"vac":true,"version":"7757534","steam_id":85568392925397960,"keywords":["nocrits","nodmgspread","payload","uncletopia"],"game_id":440,"stv_port":27066,"stv_name":"Uncletopia | Sydney | 6 | Community | STV","players":null},{"server_id":49,"name":"Uncletopia | Warsaw | 1 | All Maps","name_short":"waw-1","host":"waw-1.pl.uncletopia.com","port":27015,"enabled":true,"region":"eu","cc":"pl","latitude":52.2297,"longitude":21.017532,"reserved":0,"last_update":"0001-01-01T00:00:00Z","name_a2s":"","protocol":0,"map":"","folder":"","game":"","app_id":0,"player_count":0,"max_players":0,"Bots":0,"server_type":"","server_os":"","password":false,"vac":false,"version":"","steam_id":0,"keywords":null,"game_id":0,"stv_port":0,"stv_name":"","players":null},{"server_id":50,"name":"Uncletopia | Warsaw | 2 | All Maps","name_short":"waw-2","host":"waw-1.pl.uncletopia.com","port":27025,"enabled":true,"region":"eu","cc":"pl","latitude":52.2297,"longitude":21.017532,"reserved":0,"last_update":"0001-01-01T00:00:00Z","name_a2s":"Uncletopia | Warsaw | 2 | All Maps","protocol":17,"map":"pl_upward","folder":"tf","game":"Team Fortress","app_id":440,"player_count":0,"max_players":24,"Bots":0,"server_type":"Dedicated","server_os":"Linux","password":true,"vac":true,"version":"7757534","steam_id":85568392925397851,"keywords":["nocrits","nodmgspread","payload","uncletopia"],"game_id":440,"stv_port":27026,"stv_name":"Uncletopia | Warsaw | 2 | All Maps | STV","players":null},{"server_id":51,"name":"Uncletopia | Warsaw | 3 | All Maps","name_short":"waw-3","host":"waw-1.pl.uncletopia.com","port":27035,"enabled":true,"region":"eu","cc":"pl","latitude":52.2297,"longitude":21.017532,"reserved":0,"last_update":"0001-01-01T00:00:00Z","name_a2s":"Uncletopia | Warsaw | 3 | All Maps","protocol":17,"map":"pl_barnblitz","folder":"tf","game":"Team Fortress","app_id":440,"player_count":0,"max_players":24,"Bots":0,"server_type":"Dedicated","server_os":"Linux","password":true,"vac":true,"version":"7757534","steam_id":85568392925397852,"keywords":["nocrits","nodmgspread","payload","uncletopia"],"game_id":440,"stv_port":27036,"stv_name":"Uncletopia | Warsaw | 3 | All Maps | STV","players":null},{"server_id":52,"name":"Uncletopia | Warsaw | 4 | All Maps","name_short":"waw-4","host":"waw-1.pl.uncletopia.com","port":27045,"enabled":true,"region":"eu","cc":"pl","latitude":52.2297,"longitude":21.017532,"reserved":0,"last_update":"0001-01-01T00:00:00Z","name_a2s":"Uncletopia | Warsaw | 4 | All Maps","protocol":17,"map":"cp_altitude","folder":"tf","game":"Team Fortress","app_id":440,"player_count":0,"max_players":24,"Bots":0,"server_type":"Dedicated","server_os":"Linux","password":true,"vac":true,"version":"7757534","steam_id":85568392925397853,"keywords":["cp","nocrits","nodmgspread","uncletopia"],"game_id":440,"stv_port":27046,"stv_name":"Uncletopia | Warsaw | 4 | All Maps | STV","players":null},{"server_id":53,"name":"Uncletopia | Warsaw | 5 | Stopwatch Beta","name_short":"waw-5","host":"waw-1.pl.uncletopia.com","port":27055,"enabled":true,"region":"eu","cc":"pl","latitude":52.2297,"longitude":21.017532,"reserved":0,"last_update":"0001-01-01T00:00:00Z","name_a2s":"Uncletopia | Warsaw | 5 | Stopwatch Beta","protocol":17,"map":"pl_pier","folder":"tf","game":"Team Fortress","app_id":440,"player_count":0,"max_players":24,"Bots":0,"server_type":"Dedicated","server_os":"Linux","password":true,"vac":true,"version":"7757534","steam_id":85568392925397854,"keywords":["nocrits","nodmgspread","payload","uncletopia"],"game_id":440,"stv_port":27056,"stv_name":"Uncletopia | Warsaw | 5 | Stopwatch Beta | STV","players":null},{"server_id":54,"name":"Uncletopia | Warsaw | 6 | Community","name_short":"waw-6","host":"waw-1.pl.uncletopia.com","port":27065,"enabled":true,"region":"eu","cc":"pl","latitude":52.2297,"longitude":21.017532,"reserved":0,"last_update":"0001-01-01T00:00:00Z","name_a2s":"Uncletopia | Warsaw | 6 | Community","protocol":17,"map":"koth_highpass","folder":"tf","game":"Team Fortress","app_id":440,"player_count":0,"max_players":24,"Bots":0,"server_type":"Dedicated","server_os":"Linux","password":true,"vac":true,"version":"7757534","steam_id":85568392925397856,"keywords":["cp","nocrits","nodmgspread","uncletopia"],"game_id":440,"stv_port":27066,"stv_name":"Uncletopia | Warsaw | 6 | Community | STV","players":null}]}