{"status":true,"message":"","result":[{"server_id":9,"name":"Uncletopia | Atlanta | 1 | All Maps","name_short":"atl-1","host":"atl-1.us.uncletopia.com","port":27015,"enabled":true,"region":"us-east","cc":"us","latitude":33.753746,"longitude":-84.38633,"reserved":0,"last_update":"0001-01-01T00:00:00Z","name_a2s":"Uncletopia | Atlanta | 1 | All Maps","protocol":17,"map":"cp_dustbowl","folder":"tf","game":"Team Fortress","app_id":440,"player_count":24,"max_players":24,"Bots":0,"server_type":"Dedicated","server_os":"Linux","password":true,"vac":true,"version":"7961495","steam_id":85568392924469982,"keywords":["cp","nocrits","nodmgspread","uncletopia"],"game_id":440,"stv_port":27016,"stv_name":"Uncletopia | Atlanta | 1 | All Maps | STV","players":null},{"server_id":104,"name":"Uncletopia | Atlanta | 2 | All Maps","name_short":"atl-2","host":"atl-1.us.uncletopia.com","port":27025,"enabled":true,"region":"us-east","cc":"us","latitude":33.753746,"longitude":-84.38633,"reserved":0,"last_update":"0001-01-01T00:00:00Z","name_a2s":"Uncletopia | Atlanta | 2 | All Maps","protocol":17,"map":"koth_cascade","folder":"tf","game":"Team Fortress","app_id":440,"player_count":0,"max_players":24,"Bots":0,"server_type":"Dedicated","server_os":"Linux","password":true,"vac":true,"version":"7961495","steam_id":85568392924469983,"keywords":["cp","nocrits","nodmgspread","uncletopia"],"game_id":440,"stv_port":27026,"stv_name":"Uncletopia | Atlanta | 2 | All Maps | STV","players":null},{"server_id":400,"name":"Uncletopia | Atlanta | 3 | Stopwatch","name_short":"atl-3","host":"atl-1.us.uncletopia.com","port":27035,"enabled":true,"region":"us-east","cc":"us","latitude":33.753746,"longitude":-84.38633,"reserved":0,"last_update":"0001-01-01T00:00:00Z","name_a2s":"Uncletopia | Atlanta | 3 | Stopwatch","protocol":17,"map":"pl_vigil_rc10","folder":"tf","game":"Team Fortress","app_id":440,"player_count":0,"max_players":24,"Bots":0,"server_type":"Dedicated","server_os":"Linux","password":true,"vac":true,"version":"7961495","steam_id":85568392924515187,"keywords":["nocrits","nodmgspread","payload","uncletopia"],"game_id":440,"stv_port":27036,"stv_name":"Uncletopia | Atlanta | 3 | Stopwatch | STV","players":null},{"server_id":401,"name":"Uncletopia | Atlanta | 4 | Community","name_short":"atl-4","host":"atl-1.us.uncletopia.com","port":27045,"enabled":true,"region":"us-east","cc":"us","latitude":33.753746,"longitude":-84.38633,"reserved":0,"last_update":"0001-01-01T00:00:00Z","name_a2s":"Uncletopia | Atlanta | 4 | Community","protocol":17,"map":"koth_kemptown_rc1","folder":"tf","game":"Team Fortress","app_id":440,"player_count":0,"max_players":24,"Bots":0,"server_type":"Dedicated","server_os":"Linux","password":true,"vac":true,"version":"7961495","steam_id":85568392924515188,"keywords":["cp","nocrits","nodmgspread","uncletopia"],"game_id":440,"stv_port":27046,"stv_name":"Uncletopia | Atlanta | 4 | Community | STV","players":null},{"server_id":2,"name":"Uncletopia | Chicago | 1 | All Maps","name_short":"chi-1","host":"chi-1.us.uncletopia.com","port":27015,"enabled":true,"region":"us-central","cc":"us","latitude":41.881832,"longitude":-87.62318,"reserved":0,"last_update":"0001-01-01T00:00:00Z","name_a2s":"Uncletopia | Chicago | 1 | All Maps","protocol":17,"map":"pl_snowycoast","folder":"tf","game":"Team Fortress","app_id":440,"player_count":24,"max_players":24,"Bots":0,"server_type":"Dedicated","server_os":"Linux","password":true,"vac":true,"version":"7961495","steam_id":85568392924469984,"keywords":["nocrits","nodmgspread","payload","uncletopia"],"game_id":440,"stv_port":27016,"stv_name":"Uncletopia | Chicago | 1 | All Maps | STV","players":[{"user_id":451,"name":"*TyTerminator","steam_id":76561198056450091,"connected_time":149000000000,"state":"active","ping":67},{"user_id":434,"name":"Always Here for You","steam_id":76561198219252313,"connected_time":1655000000000,"state":"active","ping":48},{"user_id":441,"name":"Asha'man","steam_id":76561198057913763,"connected_time":1249000000000,"state":"active","ping":47},{"user_id":435,"name":"A new Player(F2p)","steam_id":76561199388826335,"connected_time":1608000000000,"state":"active","ping":80},{"user_id":387,"name":"Sunflower","steam_id":76561198081223793,"connected_time":4719000000000,"state":"active","ping":58},{"user_id":449,"name":"Whitney","steam_id":76561198341537452,"connected_time":439000000000,"state":"active","ping":77},{"user_id":450,"name":"Goons206","steam_id":76561198071642603,"connected_time":334000000000,"state":"active","ping":113},{"user_id":414,"name":"Hertz","steam_id":76561198245322982,"connected_time":2629000000000,"state":"active","ping":45},{"user_id":445,"name":"Big Herald","steam_id":76561198148859930,"connected_time":955000000000,"state":"active","ping":66},{"user_id":432,"name":"eat Pant","steam_id":76561197974965536,"connected_time":1722000000000,"state":"active","ping":59},{"user_id":398,"name":"Rappitor","steam_id":76561198105613110,"connected_time":3406000000000,"state":"active","ping":52},{"user_id":446,"name":"Do it to em¬≤","steam_id":76561197993975210,"connected_time":874000000000,"state":"active","ping":70},{"user_id":452,"name":"NikoOS (NO SOUND)","steam_id":76561198180020521,"connected_time":141000000000,"state":"active","ping":111},{"user_id":436,"name":"kite","steam_id":76561198346516392,"connected_time":1594000000000,"state":"active","ping":67},{"user_id":438,"name":"Gotta Move That Gear Up","steam_id":76561197993467034,"connected_time":1418000000000,"state":"active","ping":53},{"user_id":439,"name":"rapscallion","steam_id":76561198188722751,"connected_time":1337000000000,"state":"active","ping":104},{"user_id":453,"name":"Andrew","steam_id":76561198070615190,"connected_time":119000000000,"state":"active","ping":60},{"user_id":443,"name":"yomommasabitch","steam_id":76561198323217150,"connected_time":1143000000000,"state":"active","ping":72},{"user_id":423,"name":"Lia_Rein","steam_id":76561198151569597,"connected_time":2050000000000,"state":"active","ping":161},{"user_id":418,"name":"Comfy!","steam_id":76561198008818346,"connected_time":2325000000000,"state":"active","ping":66},{"user_id":411,"name":"soup time","steam_id":76561197961488590,"connected_time":2765000000000,"state":"active","ping":63},{"user_id":442,"name":"Orange Triangle","steam_id":76561198320498182,"connected_time":1206000000000,"state":"active","ping":59},{"user_id":448,"name":"retartcher","steam_id":76561198038110320,"connected_time":537000000000,"state":"active","ping":47},{"user_id":422,"name":"Hyperactivedimwit","steam_id":76561198134221704,"connected_time":2082000000000,"state":"active","ping":51}]},{"server_id":106,"name":"Uncletopia | Chicago | 2 | All Maps","name_short":"chi-2","host":"chi-1.us.uncletopia.com","port":27025,"enabled":true,"region":"us-central","cc":"us","latitude":41.881832,"longitude":-87.62318,"reserved":0,"last_update":"0001-01-01T00:00:00Z","name_a2s":"Uncletopia | Chicago | 2 | All Maps","protocol":17,"map":"cp_dustbowl","folder":"tf","game":"Team Fortress","app_id":440,"player_count":21,"max_players":24,"Bots":0,"server_type":"Dedicated","server_os":"Linux","password":true,"vac":true,"version":"7961495","steam_id":85568392924469985,"keywords":["cp","nocrits","nodmgspread","uncletopia"],"game_id":440,"stv_port":27026,"stv_name":"Uncletopia | Chicago | 2 | All Maps | STV","players":[{"user_id":8,"name":"Bobato Chaps","steam_id":76561198065103552,"connected_time":15919000000000,"state":"active","ping":46},{"user_id":202,"name":"thatguy_luigi","steam_id":76561198968055462,"connected_time":1484000000000,"state":"active","ping":120},{"user_id":220,"name":"Luminous Rain","steam_id":76561198069734805,"connected_time":44000000000,"state":"active","ping":100},{"user_id":211,"name":"HenryFromSkalitz!","steam_id":76561198062139190,"connected_time":380000000000,"state":"active","ping":72},{"user_id":192,"name":"Shady Businessman","steam_id":76561198143855968,"connected_time":2088000000000,"state":"active","ping":91},{"user_id":198,"name":"Guns Blazing","steam_id":76561198379461118,"connected_time":1707000000000,"state":"active","ping":74},{"user_id":190,"name":"NaselPopcorn","steam_id":76561199454333176,"connected_time":2737000000000,"state":"active","ping":101},{"user_id":184,"name":"g00bur","steam_id":76561197993622520,"connected_time":3096000000000,"state":"active","ping":62},{"user_id":193,"name":"Hope","steam_id":76561199201900779,"connected_time":2078000000000,"state":"active","ping":72},{"user_id":201,"name":"knatspray","steam_id":76561198832507482,"connected_time":1511000000000,"state":"active","ping":109},{"user_id":213,"name":"Rein | Comms  Open","steam_id":76561198300340427,"connected_time":250000000000,"state":"active","ping":61},{"user_id":219,"name":"[82DK] Ike","steam_id":76561198135256526,"connected_time":88000000000,"state":"active","ping":63},{"user_id":209,"name":"MikeLovesRabbit","steam_id":76561197997742625,"connected_time":699000000000,"state":"active","ping":57},{"user_id":204,"name":"‚ôÇ boss of this gym ‚ôÇ","steam_id":76561198027102212,"connected_time":1467000000000,"state":"active","ping":75},{"user_id":214,"name":"kimchy101","steam_id":76561198202721584,"connected_time":216000000000,"state":"active","ping":49},{"user_id":216,"name":"Chiki","steam_id":76561198063590320,"connected_time":211000000000,"state":"active","ping":78},{"user_id":217,"name":"Artyom","steam_id":76561198132986712,"connected_time":208000000000,"state":"active","ping":91},{"user_id":188,"name":"Nassu","steam_id":76561198147367577,"connected_time":2800000000000,"state":"active","ping":83},{"user_id":207,"name":"GuyGoom","steam_id":76561198254522178,"connected_time":1419000000000,"state":"active","ping":46},{"user_id":189,"name":"JxyGREED","steam_id":76561198345026653,"connected_time":2791000000000,"state":"active","ping":70}]},{"server_id":402,"name":"Uncletopia | Chicago | 3 | All Maps","name_short":"chi-3","host":"chi-1.us.uncletopia.com","port":27035,"enabled":true,"region":"us-central","cc":"us","latitude":41.881832,"longitude":-87.62318,"reserved":0,"last_update":"0001-01-01T00:00:00Z","name_a2s":"Uncletopia | Chicago | 3 | All Maps","protocol":17,"map":"pl_upward","folder":"tf","game":"Team Fortress","app_id":440,"player_count":24,"max_players":24,"Bots":0,"server_type":"Dedicated","server_os":"Linux","password":true,"vac":true,"version":"7961495","steam_id":85568392924515191,"keywords":["nocrits","nodmgspread","payload","uncletopia"],"game_id":440,"stv_port":27036,"stv_name":"Uncletopia | Chicago | 3 | All Maps | STV","players":[{"user_id":67,"name":"DesertFroggo","steam_id":76561198015607829,"connected_time":450000000000,"state":"active","ping":127},{"user_id":47,"name":"Elevator","steam_id":76561198974286387,"connected_time":1193000000000,"state":"active","ping":72},{"user_id":20,"name":"Spright","steam_id":76561199144266247,"connected_time":3587000000000,"state":"active","ping":84},{"user_id":41,"name":"Pug_9492","steam_id":76561199078217640,"connected_time":1612000000000,"state":"active","ping":123},{"user_id":45,"name":"too funky ·óúÀ¨·óú","steam_id":76561199120399776,"connected_time":1296000000000,"state":"active","ping":85},{"user_id":71,"name":"cucumper","steam_id":76561198079504588,"connected_time":83000000000,"state":"active","ping":73},{"user_id":51,"name":"coms","steam_id":76561198359456881,"connected_time":1068000000000,"state":"active","ping":45},{"user_id":34,"name":"acxeu","steam_id":76561198394435000,"connected_time":1935000000000,"state":"active","ping":62},{"user_id":35,"name":"FlameShake","steam_id":76561198084021005,"connected_time":1833000000000,"state":"active","ping":71},{"user_id":63,"name":"dang it darn it crap","steam_id":76561198204593875,"connected_time":852000000000,"state":"active","ping":61},{"user_id":38,"name":"Hamz","steam_id":76561199287459211,"connected_time":1675000000000,"state":"active","ping":71},{"user_id":70,"name":"Mortal Flame","steam_id":76561198130698418,"connected_time":84000000000,"state":"active","ping":99},{"user_id":40,"name":"yoodle doodle","steam_id":76561198054897884,"connected_time":1652000000000,"state":"active","ping":75},{"user_id":49,"name":"Spyntry Gun","steam_id":76561199186496740,"connected_time":1137000000000,"state":"active","ping":79},{"user_id":50,"name":"professional twelve year old","steam_id":76561198858796870,"connected_time":1127000000000,"state":"active","ping":94},{"user_id":52,"name":"need someone to fix me","steam_id":76561198159866339,"connected_time":1012000000000,"state":"active","ping":71},{"user_id":64,"name":"Kaiju","steam_id":76561198035703156,"connected_time":839000000000,"state":"active","ping":49},{"user_id":54,"name":"ùï≠ùñîùñùùñäùñò","steam_id":76561198892028667,"connected_time":1004000000000,"state":"active","ping":66},{"user_id":55,"name":"Soju","steam_id":76561198044130442,"connected_time":988000000000,"state":"active","ping":76},{"user_id":56,"name":"goofbears","steam_id":76561199100831175,"connected_time":940000000000,"state":"active","ping":74},{"user_id":72,"name":"sunny","steam_id":76561198069380992,"connected_time":67000000000,"state":"active","ping":77},{"user_id":59,"name":"M1C4A3L","steam_id":76561198009980085,"connected_time":912000000000,"state":"active","ping":88},{"user_id":69,"name":"puddles","steam_id":76561198110832624,"connected_time":312000000000,"state":"active","ping":49},{"user_id":68,"name":"munch","steam_id":76561198820480684,"connected_time":368000000000,"state":"active","ping":57}]},{"server_id":403,"name":"Uncletopia | Chicago | 4 | All Maps","name_short":"chi-4","host":"chi-1.us.uncletopia.com","port":27045,"enabled":true,"region":"us-central","cc":"us","latitude":41.881832,"longitude":-87.62318,"reserved":0,"last_update":"0001-01-01T00:00:00Z","name_a2s":"Uncletopia | Chicago | 4 | All Maps","protocol":17,"map":"plr_nightfall_final","folder":"tf","game":"Team Fortress","app_id":440,"player_count":0,"max_players":24,"Bots":0,"server_type":"Dedicated","server_os":"Linux","password":true,"vac":true,"version":"7961495","steam_id":85568392924515193,"keywords":["nocrits","nodmgspread","payload","uncletopia"],"game_id":440,"stv_port":27046,"stv_name":"Uncletopia | Chicago | 4 | All Maps | STV","players":null},{"server_id":36,"name":"Uncletopia | Chicago | 5 | All Maps","name_short":"chi-5","host":"chi-2.us.uncletopia.com","port":27015,"enabled":true,"region":"us-central","cc":"us","latitude":41.881832,"longitude":-87.62318,"reserved":0,"last_update":"0001-01-01T00:00:00Z","name_a2s":"Uncletopia | Chicago | 5 | All Maps","protocol":17,"map":"pl_pier","folder":"tf","game":"Team Fortress","app_id":440,"player_count":24,"max_players":24,"Bots":0,"server_type":"Dedicated","server_os":"Linux","password":true,"vac":true,"version":"7961495","steam_id":85568392924866362,"keywords":["nocrits","nodmgspread","payload","uncletopia"],"game_id":440,"stv_port":27016,"stv_name":"Uncletopia | Chicago | 5 | All Maps | STV","players":[{"user_id":30,"name":"Loaf","steam_id":76561198446378419,"connected_time":3227000000000,"state":"active","ping":85},{"user_id":7,"name":"Keymaster","steam_id":76561198881514228,"connected_time":4314000000000,"state":"active","ping":80},{"user_id":72,"name":"Hey! Listen!","steam_id":76561197983101906,"connected_time":980000000000,"state":"active","ping":60},{"user_id":78,"name":"AkimboAoki","steam_id":76561198158323058,"connected_time":665000000000,"state":"active","ping":93},{"user_id":47,"name":"Bleat","steam_id":76561198138678917,"connected_time":2673000000000,"state":"active","ping":130},{"user_id":83,"name":"Blitz","steam_id":76561199013497267,"connected_time":323000000000,"state":"active","ping":85},{"user_id":79,"name":"Retro Phoenix","steam_id":76561198077176271,"connected_time":633000000000,"state":"active","ping":59},{"user_id":70,"name":"Stultus","steam_id":76561198115116367,"connected_time":1013000000000,"state":"active","ping":70},{"user_id":64,"name":"[NAME-REDACTED]","steam_id":76561198035682975,"connected_time":1683000000000,"state":"active","ping":70},{"user_id":74,"name":"D0VE (real)","steam_id":76561198151618566,"connected_time":967000000000,"state":"active","ping":101},{"user_id":75,"name":"Cigtar","steam_id":76561198079842818,"connected_time":949000000000,"state":"active","ping":79},{"user_id":77,"name":"Salixiola","steam_id":76561198042177809,"connected_time":819000000000,"state":"active","ping":67},{"user_id":71,"name":"morphine","steam_id":76561198072124799,"connected_time":1013000000000,"state":"active","ping":83},{"user_id":22,"name":"feudalism (real)","steam_id":76561198057374871,"connected_time":3470000000000,"state":"active","ping":62},{"user_id":56,"name":"triple_range_merge","steam_id":76561198991225026,"connected_time":1850000000000,"state":"active","ping":82},{"user_id":84,"name":"tg cid","steam_id":76561197961277967,"connected_time":253000000000,"state":"active","ping":82},{"user_id":76,"name":"Buckeye Crusader","steam_id":76561198126115279,"connected_time":920000000000,"state":"active","ping":62},{"user_id":60,"name":"RocketeerJessie","steam_id":76561198829915210,"connected_time":1832000000000,"state":"active","ping":58},{"user_id":67,"name":"Dwarfo","steam_id":76561198119220289,"connected_time":1621000000000,"state":"active","ping":83},{"user_id":37,"name":"Oaky Loafs","steam_id":76561198317179010,"connected_time":3101000000000,"state":"active","ping":129},{"user_id":61,"name":"twizted","steam_id":76561197960407274,"connected_time":1827000000000,"state":"active","ping":68},{"user_id":86,"name":"evil tiger","steam_id":76561198152818418,"connected_time":230000000000,"state":"active","ping":85},{"user_id":44,"name":"Cyndaquil Fan","steam_id":76561198799205521,"connected_time":2835000000000,"state":"active","ping":82},{"user_id":69,"name":"gucky","steam_id":76561198210951041,"connected_time":1458000000000,"state":"active","ping":145}]},{"server_id":37,"name":"Uncletopia | Chicago | 6 | All Maps","name_short":"chi-6","host":"chi-2.us.uncletopia.com","port":27025,"enabled":true,"region":"us-central","cc":"us","latitude":41.881832,"longitude":-87.62318,"reserved":0,"last_update":"0001-01-01T00:00:00Z","name_a2s":"Uncletopia | Chicago | 6 | All Maps","protocol":17,"map":"pl_frontier_final","folder":"tf","game":"Team Fortress","app_id":440,"player_count":0,"max_players":24,"Bots":0,"server_type":"Dedicated","server_os":"Linux","password":true,"vac":true,"version":"7961495","steam_id":85568392924866363,"keywords":["nocrits","nodmgspread","payload","uncletopia"],"game_id":440,"stv_port":27026,"stv_name":"Uncletopia | Chicago | 6 | All Maps | STV","players":null},{"server_id":38,"name":"Uncletopia | Chicago | 7 | Stopwatch","name_short":"chi-7","host":"chi-2.us.uncletopia.com","port":27035,"enabled":true,"region":"us-central","cc":"us","latitude":41.881832,"longitude":-87.62318,"reserved":0,"last_update":"0001-01-01T00:00:00Z","name_a2s":"Uncletopia | Chicago | 7 | Stopwatch","protocol":17,"map":"pl_borneo","folder":"tf","game":"Team Fortress","app_id":440,"player_count":0,"max_players":24,"Bots":0,"server_type":"Dedicated","server_os":"Linux","password":true,"vac":true,"version":"7961495","steam_id":85568392924866364,"keywords":["nocrits","nodmgspread","payload","uncletopia"],"game_id":440,"stv_port":27036,"stv_name":"Uncletopia | Chicago | 7 | Stopwatch | STV","players":null},{"server_id":39,"name":"Uncletopia | Chicago | 8 | Community","name_short":"chi-8","host":"chi-2.us.uncletopia.com","port":27045,"enabled":true,"region":"us-central","cc":"us","latitude":41.881832,"longitude":-87.62318,"reserved":0,"last_update":"0001-01-01T00:00:00Z","name_a2s":"Uncletopia | Chicago | 8 | Community","protocol":17,"map":"workshop/koth_trenchfoot_b1a.ugc731436616","folder":"tf","game":"Team Fortress","app_id":440,"player_count":0,"max_players":24,"Bots":0,"server_type":"Dedicated","server_os":"Linux","password":true,"vac":true,"version":"7961495","steam_id":85568392924866365,"keywords":["cp","nocrits","nodmgspread","uncletopia"],"game_id":440,"stv_port":27046,"stv_name":"Uncletopia | Chicago | 8 | Community | STV","players":null},{"server_id":8,"name":"Uncletopia | Dallas | 1 | All Maps","name_short":"dal-1","host":"dal-1.us.uncletopia.com","port":27015,"enabled":true,"region":"us-central","cc":"us","latitude":32.779167,"longitude":-96.80889,"reserved":0,"last_update":"0001-01-01T00:00:00Z","name_a2s":"Uncletopia | Dallas | 1 | All Maps","protocol":17,"map":"pl_thundermountain","folder":"tf","game":"Team Fortress","app_id":440,"player_count":24,"max_players":24,"Bots":0,"server_type":"Dedicated","server_os":"Linux","password":true,"vac":true,"version":"7961495","steam_id":85568392924469986,"keywords":["nocrits","nodmgspread","payload","uncletopia"],"game_id":440,"stv_port":27016,"stv_name":"Uncletopia | Dallas | 1 | All Maps | STV","players":[{"user_id":65,"name":"Japes","steam_id":76561198079625724,"connected_time":2251000000000,"state":"active","ping":97},{"user_id":62,"name":"Master Of Whales","steam_id":76561198349104889,"connected_time":2759000000000,"state":"active","ping":106},{"user_id":88,"name":"HiddenEgg","steam_id":76561199045105518,"connected_time":1246000000000,"state":"active","ping":80},{"user_id":68,"name":"[FaZe] MLGadult44","steam_id":76561198067232540,"connected_time":2217000000000,"state":"active","ping":90},{"user_id":54,"name":"G R E E N","steam_id":76561198046401833,"connected_time":3573000000000,"state":"active","ping":101},{"user_id":101,"name":"Hmmmmm","steam_id":76561198055620949,"connected_time":477000000000,"state":"active","ping":80},{"user_id":29,"name":"Pork44","steam_id":76561198005773170,"connected_time":4379000000000,"state":"active","ping":54},{"user_id":105,"name":"HummusAndGuac","steam_id":76561199129769262,"connected_time":368000000000,"state":"active","ping":85},{"user_id":95,"name":"Loogus","steam_id":76561198811561721,"connected_time":648000000000,"state":"active","ping":71},{"user_id":102,"name":"‚õßAlkahestry","steam_id":76561198109641497,"connected_time":457000000000,"state":"active","ping":75},{"user_id":104,"name":"Mythical Lag blw.tf","steam_id":76561198347031281,"connected_time":419000000000,"state":"active","ping":57},{"user_id":86,"name":"Cosmic Soup","steam_id":76561198448801117,"connected_time":1517000000000,"state":"active","ping":72},{"user_id":103,"name":"Sleepy Glitch","steam_id":76561199138201483,"connected_time":429000000000,"state":"active","ping":172},{"user_id":79,"name":"Shadowdrake88","steam_id":76561198113085367,"connected_time":1954000000000,"state":"active","ping":179},{"user_id":38,"name":"Nemiel Zaharion","steam_id":76561197999234678,"connected_time":4275000000000,"state":"active","ping":58},{"user_id":56,"name":"Freyja","steam_id":76561198207412177,"connected_time":3479000000000,"state":"active","ping":69},{"user_id":43,"name":"mollusk_obliteration","steam_id":76561198085388962,"connected_time":4211000000000,"state":"active","ping":73},{"user_id":84,"name":"CHINESE SPY BALLOON OF DEATH","steam_id":76561197975975364,"connected_time":1631000000000,"state":"active","ping":86},{"user_id":93,"name":"Cepheid","steam_id":76561198093333511,"connected_time":946000000000,"state":"active","ping":80},{"user_id":82,"name":"the count of badwater last","steam_id":76561198071775268,"connected_time":1739000000000,"state":"active","ping":113},{"user_id":100,"name":"IepicI","steam_id":76561199030987614,"connected_time":524000000000,"state":"active","ping":82},{"user_id":64,"name":"MeMyBongusAndTheGreatOutdoors","steam_id":76561198097708978,"connected_time":2304000000000,"state":"active","ping":67},{"user_id":87,"name":"TF2 Vending Machine","steam_id":76561199105777951,"connected_time":1337000000000,"state":"active","ping":129},{"user_id":96,"name":"replace random crits with smirk","steam_id":76561198268348324,"connected_time":634000000000,"state":"active","ping":108}]},{"server_id":108,"name":"Uncletopia | Dallas | 2 | All Maps","name_short":"dal-2","host":"dal-1.us.uncletopia.com","port":27025,"enabled":true,"region":"us-central","cc":"us","latitude":32.779167,"longitude":-96.80889,"reserved":0,"last_update":"0001-01-01T00:00:00Z","name_a2s":"Uncletopia | Dallas | 2 | All Maps","protocol":17,"map":"koth_nucleus","folder":"tf","game":"Team Fortress","app_id":440,"player_count":24,"max_players":24,"Bots":0,"server_type":"Dedicated","server_os":"Linux","password":true,"vac":true,"version":"7961495","steam_id":85568392924469988,"keywords":["cp","nocrits","nodmgspread","uncletopia"],"game_id":440,"stv_port":27026,"stv_name":"Uncletopia | Dallas | 2 | All Maps | STV","players":[{"user_id":378,"name":"hforce11","steam_id":76561198087647130,"connected_time":481000000000,"state":"active","ping":59},{"user_id":349,"name":"Tommy Provolone","steam_id":76561198170062377,"connected_time":2283000000000,"state":"active","ping":67},{"user_id":372,"name":"Cereal","steam_id":76561198128418112,"connected_time":1149000000000,"state":"active","ping":101},{"user_id":383,"name":"|Wyman|","steam_id":76561199013124535,"connected_time":12000000000,"state":"spawning","ping":64},{"user_id":353,"name":"Beepleton The 3rd","steam_id":76561198081466207,"connected_time":2044000000000,"state":"active","ping":49},{"user_id":354,"name":"Mr. Beast","steam_id":76561198449789858,"connected_time":2020000000000,"state":"active","ping":138},{"user_id":380,"name":"Coptimus10","steam_id":76561199074912882,"connected_time":127000000000,"state":"active","ping":85},{"user_id":318,"name":"Rob","steam_id":76561199187786660,"connected_time":5604000000000,"state":"active","ping":55},{"user_id":367,"name":"Alkimia","steam_id":76561198385763137,"connected_time":1738000000000,"state":"active","ping":122},{"user_id":381,"name":"FIREPOW","steam_id":76561198111259720,"connected_time":125000000000,"state":"active","ping":87},{"user_id":365,"name":"Mellou","steam_id":76561198212048740,"connected_time":1798000000000,"state":"active","ping":49},{"user_id":356,"name":"skyrim guard","steam_id":76561198807091783,"connected_time":2009000000000,"state":"active","ping":54},{"user_id":379,"name":"mkl","steam_id":76561197986401685,"connected_time":220000000000,"state":"active","ping":58},{"user_id":376,"name":"Rowdyshark101","steam_id":76561199019123695,"connected_time":643000000000,"state":"active","ping":50},{"user_id":316,"name":"the","steam_id":76561199026721822,"connected_time":5659000000000,"state":"active","ping":111},{"user_id":375,"name":"muffinoos","steam_id":76561199063285268,"connected_time":900000000000,"state":"active","ping":90},{"user_id":329,"name":"Sollyz","steam_id":76561198081110786,"connected_time":4871000000000,"state":"active","ping":102},{"user_id":377,"name":"schmuck","steam_id":76561198143789773,"connected_time":566000000000,"state":"active","ping":53},{"user_id":382,"name":"olivia","steam_id":76561198051920905,"connected_time":102000000000,"state":"active","ping":60},{"user_id":369,"name":"Humwrecker","steam_id":76561199003607331,"connected_time":1378000000000,"state":"active","ping":88},{"user_id":366,"name":"muck","steam_id":76561198120437909,"connected_time":1794000000000,"state":"active","ping":44},{"user_id":360,"name":"sheep man shaun","steam_id":76561198994349483,"connected_time":1950000000000,"state":"active","ping":92},{"user_id":331,"name":"Kirby.exe","steam_id":76561198242714582,"connected_time":4855000000000,"state":"active","ping":62},{"user_id":336,"name":"Your Dad‚Ñ¢","steam_id":76561198254739340,"connected_time":4741000000000,"state":"active","ping":89}]},{"server_id":404,"name":"Uncletopia | Dallas | 3 | All Maps","name_short":"dal-3","host":"dal-1.us.uncletopia.com","port":27035,"enabled":true,"region":"us-central","cc":"us","latitude":32.779167,"longitude":-96.80889,"reserved":0,"last_update":"0001-01-01T00:00:00Z","name_a2s":"Uncletopia | Dallas | 3 | All Maps","protocol":17,"map":"cp_process_final","folder":"tf","game":"Team Fortress","app_id":440,"player_count":0,"max_players":24,"Bots":0,"server_type":"Dedicated","server_os":"Linux","password":true,"vac":true,"version":"7961495","steam_id":85568392924515219,"keywords":["cp","nocrits","nodmgspread","uncletopia"],"game_id":440,"stv_port":27036,"stv_name":"Uncletopia | Dallas | 3 | All Maps | STV","players":null},{"server_id":405,"name":"Uncletopia | Dallas | 4 | Community","name_short":"dal-4","host":"dal-1.us.uncletopia.com","port":27045,"enabled":true,"region":"us-central","cc":"us","latitude":32.779167,"longitude":-96.80889,"reserved":0,"last_update":"0001-01-01T00:00:00Z","name_a2s":"Uncletopia | Dallas | 4 | Community","protocol":17,"map":"pl_pier","folder":"tf","game":"Team Fortress","app_id":440,"player_count":0,"max_players":24,"Bots":0,"server_type":"Dedicated","server_os":"Linux","password":true,"vac":true,"version":"7961495","steam_id":85568392924515220,"keywords":["nocrits","nodmgspread","payload","uncletopia"],"game_id":440,"stv_port":27046,"stv_name":"Uncletopia | Dallas | 4 | Community | STV","players":null},{"server_id":5,"name":"Uncletopia | Frankfurt | 1 | All Maps","name_short":"frk-1","host":"frk-1.de.uncletopia.com","port":27015,"enabled":true,"region":"eu","cc":"de","latitude":50.110924,"longitude":8.682127,"reserved":0,"last_update":"0001-01-01T00:00:00Z","name_a2s":"Uncletopia | Frankfurt | 1 | All Maps","protocol":17,"map":"pl_upward","folder":"tf","game":"Team Fortress","app_id":440,"player_count":24,"max_players":24,"Bots":0,"server_type":"Dedicated","server_os":"Linux","password":true,"vac":true,"version":"7961495","steam_id":85568392924469989,"keywords":["nocrits","nodmgspread","payload","uncletopia"],"game_id":440,"stv_port":27016,"stv_name":"Uncletopia | Frankfurt | 1 | All Maps | STV","players":[{"user_id":371,"name":"Ceiling fan enthusiast","steam_id":76561197989214268,"connected_time":5501000000000,"state":"active","ping":67},{"user_id":455,"name":"DeBozMann_","steam_id":76561198266876790,"connected_time":1006000000000,"state":"active","ping":48},{"user_id":430,"name":"cheriberry","steam_id":76561198093577036,"connected_time":2076000000000,"state":"active","ping":53},{"user_id":457,"name":"vetzakski","steam_id":76561198988041775,"connected_time":789000000000,"state":"active","ping":74},{"user_id":437,"name":"Federal Republic Of Yugoslavia","steam_id":76561198883033062,"connected_time":1765000000000,"state":"active","ping":96},{"user_id":376,"name":"Venkids","steam_id":76561198086518702,"connected_time":5350000000000,"state":"active","ping":57},{"user_id":461,"name":"shmax","steam_id":76561198889012709,"connected_time":474000000000,"state":"active","ping":88},{"user_id":443,"name":"ericgoodheart","steam_id":76561198871056612,"connected_time":1243000000000,"state":"active","ping":146},{"user_id":403,"name":"Fanta¬Æ","steam_id":76561198416458968,"connected_time":3968000000000,"state":"active","ping":62},{"user_id":431,"name":"elchi","steam_id":76561198009531752,"connected_time":2055000000000,"state":"active","ping":31},{"user_id":450,"name":"Ml√©ƒçn√Ω Cecek","steam_id":76561198138939377,"connected_time":1189000000000,"state":"active","ping":57},{"user_id":420,"name":"Carl","steam_id":76561198045638738,"connected_time":2401000000000,"state":"active","ping":73},{"user_id":459,"name":"CiVillain","steam_id":76561198059617732,"connected_time":743000000000,"state":"active","ping":84},{"user_id":417,"name":"Kirby2Rosy","steam_id":76561198013115723,"connected_time":2991000000000,"state":"active","ping":74},{"user_id":464,"name":"Blar","steam_id":76561198042438229,"connected_time":153000000000,"state":"active","ping":67},{"user_id":454,"name":"Carrot Arc","steam_id":76561198164957006,"connected_time":1034000000000,"state":"active","ping":78},{"user_id":442,"name":"Heng","steam_id":76561198037013871,"connected_time":1279000000000,"state":"active","ping":75},{"user_id":453,"name":"alcoholic 7blak","steam_id":76561198078928120,"connected_time":1062000000000,"state":"active","ping":87},{"user_id":456,"name":"I have no duck and I must quack","steam_id":76561198061920656,"connected_time":997000000000,"state":"active","ping":81},{"user_id":408,"name":"Atsiputelis","steam_id":76561198066201111,"connected_time":3639000000000,"state":"active","ping":59},{"user_id":462,"name":"Dragon","steam_id":76561198163255365,"connected_time":350000000000,"state":"active","ping":105},{"user_id":419,"name":"K.O.wal","steam_id":76561198317737261,"connected_time":2776000000000,"state":"active","ping":57},{"user_id":439,"name":"Osqq :s","steam_id":76561198075465106,"connected_time":1651000000000,"state":"active","ping":74},{"user_id":465,"name":"Sholunan","steam_id":76561198062435739,"connected_time":150000000000,"state":"active","ping":67}]},{"server_id":110,"name":"Uncletopia | Frankfurt | 2 | All Maps","name_short":"frk-2","host":"frk-1.de.uncletopia.com","port":27025,"enabled":true,"region":"eu","cc":"de","latitude":50.110924,"longitude":8.682127,"reserved":0,"last_update":"0001-01-01T00:00:00Z","name_a2s":"Uncletopia | Frankfurt | 2 | All Maps","protocol":17,"map":"pl_swiftwater_final1","folder":"tf","game":"Team Fortress","app_id":440,"player_count":23,"max_players":24,"Bots":0,"server_type":"Dedicated","server_os":"Linux","password":true,"vac":true,"version":"7961495","steam_id":85568392924469990,"keywords":["nocrits","nodmgspread","payload","uncletopia"],"game_id":440,"stv_port":27026,"stv_name":"Uncletopia | Frankfurt | 2 | All Maps | STV","players":[{"user_id":551,"name":"Rai-the-CobaltClaw","steam_id":76561198027741747,"connected_time":616000000000,"state":"active","ping":74},{"user_id":552,"name":"Crasher0711","steam_id":76561198272180359,"connected_time":584000000000,"state":"active","ping":46},{"user_id":532,"name":"Carrotcracker","steam_id":76561198034862396,"connected_time":3016000000000,"state":"active","ping":76},{"user_id":570,"name":"heisenberg","steam_id":76561198988867951,"connected_time":241000000000,"state":"active","ping":71},{"user_id":546,"name":"rez777ka","steam_id":76561198107605938,"connected_time":1610000000000,"state":"active","ping":81},{"user_id":549,"name":"‚àí‚Ä¢‚àí‚Ä¢ ‚Ä¢‚àí ‚àí","steam_id":76561198139398425,"connected_time":666000000000,"state":"active","ping":81},{"user_id":571,"name":"Boris","steam_id":76561198142939843,"connected_time":4000000000,"state":"spawning","ping":52},{"user_id":554,"name":"FoOzTV","steam_id":76561197998636728,"connected_time":567000000000,"state":"active","ping":71},{"user_id":504,"name":"Wild","steam_id":76561198196320754,"connected_time":5312000000000,"state":"active","ping":68},{"user_id":569,"name":"ScampSixteen","steam_id":76561198021771000,"connected_time":308000000000,"state":"active","ping":63},{"user_id":557,"name":"SolarSystem \u003c3","steam_id":76561198264248353,"connected_time":544000000000,"state":"active","ping":92},{"user_id":475,"name":"ÍßÅ‡ºíXenon‡ºíÍßÇ","steam_id":76561198120502313,"connected_time":7084000000000,"state":"active","ping":70},{"user_id":547,"name":"Caliban","steam_id":76561197999696839,"connected_time":1236000000000,"state":"active","ping":105},{"user_id":541,"name":"Û†Å≥‚Åß‚Åß Kruthal","steam_id":76561198245726582,"connected_time":2563000000000,"state":"active","ping":71},{"user_id":497,"name":"Elma Can√≥n del Toro","steam_id":76561198081053203,"connected_time":5798000000000,"state":"active","ping":184},{"user_id":565,"name":"mitical uknown","steam_id":76561198844852761,"connected_time":424000000000,"state":"active","ping":69},{"user_id":498,"name":"eiflA","steam_id":76561198094886044,"connected_time":5788000000000,"state":"active","ping":66},{"user_id":566,"name":"MDK","steam_id":76561198273867302,"connected_time":409000000000,"state":"active","ping":69},{"user_id":548,"name":"Ducks","steam_id":76561198096092510,"connected_time":904000000000,"state":"active","ping":70},{"user_id":511,"name":"r0la","steam_id":76561198128315340,"connected_time":4926000000000,"state":"active","ping":85},{"user_id":568,"name":"Vince","steam_id":76561199103000131,"connected_time":326000000000,"state":"active","ping":75},{"user_id":544,"name":"Voks_","steam_id":76561198159687785,"connected_time":2545000000000,"state":"active","ping":77},{"user_id":502,"name":"King Goomba","steam_id":76561198146467813,"connected_time":5659000000000,"state":"active","ping":83}]},{"server_id":308,"name":"Uncletopia | Frankfurt | 3 | All Maps","name_short":"frk-3","host":"frk-1.de.uncletopia.com","port":27035,"enabled":true,"region":"eu","cc":"de","latitude":50.110924,"longitude":8.682127,"reserved":0,"last_update":"0001-01-01T00:00:00Z","name_a2s":"Uncletopia | Frankfurt | 3 | All Maps","protocol":17,"map":"koth_lakeside_final","folder":"tf","game":"Team Fortress","app_id":440,"player_count":24,"max_players":24,"Bots":0,"server_type":"Dedicated","server_os":"Linux","password":true,"vac":true,"version":"7961495","steam_id":85568392924504274,"keywords":["cp","nocrits","nodmgspread","uncletopia"],"game_id":440,"stv_port":27036,"stv_name":"Uncletopia | Frankfurt | 3 | All Maps | STV","players":[{"user_id":298,"name":"Alice_Neko","steam_id":76561198411388911,"connected_time":7516000000000,"state":"active","ping":109},{"user_id":395,"name":"Gioni","steam_id":76561198395912581,"connected_time":1424000000000,"state":"active","ping":110},{"user_id":392,"name":"Chabad Lubavitch","steam_id":76561198046860581,"connected_time":2111000000000,"state":"active","ping":88},{"user_id":409,"name":"Owenter","steam_id":76561198083201886,"connected_time":403000000000,"state":"active","ping":53},{"user_id":359,"name":"Walking In My Shoes","steam_id":76561198159100379,"connected_time":3255000000000,"state":"active","ping":58},{"user_id":363,"name":"Fox","steam_id":76561198052541711,"connected_time":3034000000000,"state":"active","ping":71},{"user_id":397,"name":"ghenios","steam_id":76561198030011207,"connected_time":1218000000000,"state":"active","ping":95},{"user_id":372,"name":"Advokat","steam_id":76561198307121174,"connected_time":2679000000000,"state":"active","ping":66},{"user_id":413,"name":"MC Stompin","steam_id":76561198061527217,"connected_time":81000000000,"state":"active","ping":61},{"user_id":376,"name":"Kabajsa","steam_id":76561198111264439,"connected_time":2627000000000,"state":"active","ping":74},{"user_id":402,"name":"Explode¬≥","steam_id":76561198060606780,"connected_time":925000000000,"state":"active","ping":69},{"user_id":365,"name":"sneaky snake","steam_id":76561198279965791,"connected_time":2925000000000,"state":"active","ping":111},{"user_id":390,"name":"Hildreth","steam_id":76561197995254867,"connected_time":2222000000000,"state":"active","ping":60},{"user_id":410,"name":"Koli","steam_id":76561197992428783,"connected_time":210000000000,"state":"active","ping":46},{"user_id":388,"name":"squillisky","steam_id":76561198083569327,"connected_time":2284000000000,"state":"active","ping":60},{"user_id":405,"name":"mp1mp2mp3","steam_id":76561198088967665,"connected_time":853000000000,"state":"active","ping":87},{"user_id":394,"name":"Archive","steam_id":76561198071255385,"connected_time":1669000000000,"state":"active","ping":87},{"user_id":403,"name":"Rune","steam_id":76561198066157645,"connected_time":923000000000,"state":"active","ping":52},{"user_id":404,"name":"Gugu","steam_id":76561198161822358,"connected_time":874000000000,"state":"active","ping":57},{"user_id":383,"name":"quarks and stuff","steam_id":76561198137869662,"connected_time":2491000000000,"state":"active","ping":48},{"user_id":384,"name":"Scottish Fox","steam_id":76561198052990270,"connected_time":2470000000000,"state":"active","ping":65},{"user_id":393,"name":"Punker","steam_id":76561198255964089,"connected_time":2077000000000,"state":"active","ping":113},{"user_id":411,"name":"Our Hero","steam_id":76561198132047538,"connected_time":204000000000,"state":"active","ping":80},{"user_id":391,"name":"NG mathhead","steam_id":76561198429138254,"connected_time":2221000000000,"state":"active","ping":60}]},{"server_id":309,"name":"Uncletopia | Frankfurt | 4 | All Maps","name_short":"frk-4","host":"frk-1.de.uncletopia.com","port":27045,"enabled":true,"region":"eu","cc":"de","latitude":50.110924,"longitude":8.682127,"reserved":0,"last_update":"0001-01-01T00:00:00Z","name_a2s":"Uncletopia | Frankfurt | 4 | All Maps","protocol":17,"map":"plr_bananabay","folder":"tf","game":"Team Fortress","app_id":440,"player_count":24,"max_players":24,"Bots":0,"server_type":"Dedicated","server_os":"Linux","password":true,"vac":true,"version":"7961495","steam_id":85568392924504275,"keywords":["nocrits","nodmgspread","payload","uncletopia"],"game_id":440,"stv_port":27046,"stv_name":"Uncletopia | Frankfurt | 4 | All Maps | STV","players":[{"user_id":486,"name":"Lessoz","steam_id":76561199211572036,"connected_time":237000000000,"state":"active","ping":84},{"user_id":464,"name":"Jonyreporter","steam_id":76561198994703457,"connected_time":879000000000,"state":"active","ping":96},{"user_id":466,"name":"ÎßàÏπò","steam_id":76561198263068744,"connected_time":692000000000,"state":"active","ping":87},{"user_id":478,"name":"Hans","steam_id":76561198030061999,"connected_time":496000000000,"state":"active","ping":66},{"user_id":463,"name":"draingangfan0465069500","steam_id":76561198219945364,"connected_time":1093000000000,"state":"active","ping":87},{"user_id":452,"name":"MpJens","steam_id":76561198000347669,"connected_time":1692000000000,"state":"active","ping":46},{"user_id":414,"name":"crazycalumrock","steam_id":76561198049890080,"connected_time":4161000000000,"state":"active","ping":49},{"user_id":479,"name":"K3YRING","steam_id":76561198408597576,"connected_time":486000000000,"state":"active","ping":103},{"user_id":441,"name":"Rick Astley Is A F2P?","steam_id":76561199258805660,"connected_time":2839000000000,"state":"active","ping":137},{"user_id":457,"name":"RainbowLlama","steam_id":76561198132079405,"connected_time":1606000000000,"state":"active","ping":59},{"user_id":487,"name":"ran is running","steam_id":76561199443185667,"connected_time":99000000000,"state":"active","ping":134},{"user_id":415,"name":"Talkkari","steam_id":76561198025327723,"connected_time":4147000000000,"state":"active","ping":60},{"user_id":460,"name":"tesco clubcard","steam_id":76561198345090068,"connected_time":1538000000000,"state":"active","ping":63},{"user_id":488,"name":"fryingpan","steam_id":76561197985655573,"connected_time":93000000000,"state":"active","ping":75},{"user_id":471,"name":"spy main 69420","steam_id":76561199437330739,"connected_time":619000000000,"state":"active","ping":78},{"user_id":480,"name":"Astrya","steam_id":76561198091242337,"connected_time":446000000000,"state":"active","ping":48},{"user_id":474,"name":"viper_7447","steam_id":76561198907209926,"connected_time":584000000000,"state":"active","ping":186},{"user_id":489,"name":"Raime","steam_id":76561198238992444,"connected_time":73000000000,"state":"active","ping":52},{"user_id":481,"name":"Arche","steam_id":76561198000866089,"connected_time":440000000000,"state":"active","ping":60},{"user_id":456,"name":"Danwise Dangee","steam_id":76561197980723749,"connected_time":1612000000000,"state":"active","ping":69},{"user_id":482,"name":"Artificial.Ignorance","steam_id":76561198453090180,"connected_time":440000000000,"state":"active","ping":175},{"user_id":459,"name":"Mopey_HippoTTV","steam_id":76561198040354226,"connected_time":1579000000000,"state":"active","ping":98},{"user_id":483,"name":"BIBOUZ","steam_id":76561198362850416,"connected_time":435000000000,"state":"active","ping":61},{"user_id":485,"name":"BONK","steam_id":76561199120275042,"connected_time":332000000000,"state":"active","ping":56}]},{"server_id":310,"name":"Uncletopia | Frankfurt | 5 | All Maps","name_short":"frk-5","host":"frk-1.de.uncletopia.com","port":27055,"enabled":true,"region":"eu","cc":"de","latitude":50.110924,"longitude":8.682127,"reserved":0,"last_update":"0001-01-01T00:00:00Z","name_a2s":"Uncletopia | Frankfurt | 5 | All Maps","protocol":17,"map":"pl_swiftwater_final1","folder":"tf","game":"Team Fortress","app_id":440,"player_count":24,"max_players":24,"Bots":0,"server_type":"Dedicated","server_os":"Linux","password":true,"vac":true,"version":"7961495","steam_id":85568392924504277,"keywords":["nocrits","nodmgspread","payload","uncletopia"],"game_id":440,"stv_port":27056,"stv_name":"Uncletopia | Frankfurt | 5 | All Maps | STV","players":[{"user_id":508,"name":"Bottle O' Scrumpy","steam_id":76561199244250562,"connected_time":5020000000000,"state":"active","ping":110},{"user_id":586,"name":"Nag","steam_id":76561197970488206,"connected_time":162000000000,"state":"active","ping":80},{"user_id":538,"name":"Lusitana","steam_id":76561198186320802,"connected_time":3648000000000,"state":"active","ping":75},{"user_id":571,"name":"Neo","steam_id":76561199102380010,"connected_time":845000000000,"state":"active","ping":97},{"user_id":578,"name":"Kaslu","steam_id":76561199058102308,"connected_time":535000000000,"state":"active","ping":61},{"user_id":556,"name":"Gijsie_","steam_id":76561198831416559,"connected_time":2037000000000,"state":"active","ping":63},{"user_id":581,"name":"Flippy","steam_id":76561197970181048,"connected_time":354000000000,"state":"active","ping":42},{"user_id":585,"name":"emilydotgg","steam_id":76561198059856976,"connected_time":197000000000,"state":"active","ping":54},{"user_id":583,"name":"gm_construct","steam_id":76561198044219183,"connected_time":323000000000,"state":"active","ping":90},{"user_id":526,"name":"Ozzie","steam_id":76561197992915315,"connected_time":4448000000000,"state":"active","ping":75},{"user_id":579,"name":"NeiroüëΩ·ó©YY ·í™·ó∞·ó©O","steam_id":76561198046743985,"connected_time":524000000000,"state":"active","ping":77},{"user_id":570,"name":"dumbest bitch","steam_id":76561198097712283,"connected_time":942000000000,"state":"active","ping":91},{"user_id":470,"name":"my mom","steam_id":76561199225201569,"connected_time":8248000000000,"state":"active","ping":148},{"user_id":573,"name":"oskar.collins2","steam_id":76561199092232637,"connected_time":821000000000,"state":"active","ping":77},{"user_id":513,"name":"Temka","steam_id":76561198331323738,"connected_time":4956000000000,"state":"active","ping":60},{"user_id":574,"name":"Roland Deschain","steam_id":76561198023296355,"connected_time":808000000000,"state":"active","ping":103},{"user_id":561,"name":"jj","steam_id":76561198079200985,"connected_time":1918000000000,"state":"active","ping":63},{"user_id":515,"name":"Kotlonizator","steam_id":76561198993830128,"connected_time":4948000000000,"state":"active","ping":81},{"user_id":567,"name":"Menty","steam_id":76561198036748212,"connected_time":1293000000000,"state":"active","ping":43},{"user_id":577,"name":"aliweldkhaled","steam_id":76561199494294961,"connected_time":721000000000,"state":"active","ping":181},{"user_id":543,"name":"Sleepy Dummy","steam_id":76561198122108762,"connected_time":3510000000000,"state":"active","ping":52},{"user_id":544,"name":"Moondrop","steam_id":76561199421181719,"connected_time":3501000000000,"state":"active","ping":71},{"user_id":584,"name":"lol","steam_id":76561198091175903,"connected_time":321000000000,"state":"active","ping":75},{"user_id":564,"name":"Silva_mlon","steam_id":76561199310242047,"connected_time":1724000000000,"state":"active","ping":75}]},{"server_id":311,"name":"Uncletopia | Frankfurt | 6 | All Maps","name_short":"frk-6","host":"frk-1.de.uncletopia.com","port":27065,"enabled":true,"region":"eu","cc":"de","latitude":50.110924,"longitude":8.682127,"reserved":0,"last_update":"0001-01-01T00:00:00Z","name_a2s":"Uncletopia | Frankfurt | 6 | All Maps","protocol":17,"map":"cp_sunshine","folder":"tf","game":"Team Fortress","app_id":440,"player_count":0,"max_players":24,"Bots":0,"server_type":"Dedicated","server_os":"Linux","password":true,"vac":true,"version":"7961495","steam_id":85568392924504278,"keywords":["cp","nocrits","nodmgspread","uncletopia"],"game_id":440,"stv_port":27066,"stv_name":"Uncletopia | Frankfurt | 6 | All Maps | STV","players":null},{"server_id":23,"name":"Uncletopia | Frankfurt | 7 | Stopwatch","name_short":"frk-7","host":"frk-1.de.uncletopia.com","port":27075,"enabled":true,"region":"eu","cc":"de","latitude":50.110924,"longitude":8.682127,"reserved":0,"last_update":"0001-01-01T00:00:00Z","name_a2s":"Uncletopia | Frankfurt | 7 | Stopwatch","protocol":17,"map":"workshop/koth_ashville_final.ugc2130459942","folder":"tf","game":"Team Fortress","app_id":440,"player_count":0,"max_players":24,"Bots":0,"server_type":"Dedicated","server_os":"Linux","password":true,"vac":true,"version":"7961495","steam_id":85568392924742827,"keywords":["cp","nocrits","nodmgspread","uncletopia"],"game_id":440,"stv_port":27076,"stv_name":"Uncletopia | Frankfurt | 7 | Stopwatch | STV","players":null},{"server_id":24,"name":"Uncletopia | Frankfurt | 8 | Community","name_short":"frk-8","host":"frk-1.de.uncletopia.com","port":27085,"enabled":true,"region":"eu","cc":"de","latitude":50.110924,"longitude":8.682127,"reserved":0,"last_update":"0001-01-01T00:00:00Z","name_a2s":"Uncletopia | Frankfurt | 8 | Community","protocol":17,"map":"workshop/pl_highwood_b13.ugc1769496557","folder":"tf","game":"Team Fortress","app_id":440,"player_count":22,"max_players":24,"Bots":0,"server_type":"Dedicated","server_os":"Linux","password":true,"vac":true,"version":"7961495","steam_id":85568392924742828,"keywords":["nocrits","nodmgspread","payload","uncletopia"],"game_id":440,"stv_port":27086,"stv_name":"Uncletopia | Frankfurt | 8 | Community | STV","players":[{"user_id":186,"name":"Nor1h_l1zard","steam_id":76561198250011918,"connected_time":1317000000000,"state":"active","ping":70},{"user_id":162,"name":"CMD_God","steam_id":76561198333037007,"connected_time":3855000000000,"state":"active","ping":84},{"user_id":138,"name":"TriR–ò–å","steam_id":76561198119622375,"connected_time":5441000000000,"state":"active","ping":72},{"user_id":183,"name":"nemelex","steam_id":76561198958005865,"connected_time":1417000000000,"state":"active","ping":60},{"user_id":210,"name":"MK-Ultra Violence","steam_id":76561198081328238,"connected_time":89000000000,"state":"active","ping":75},{"user_id":184,"name":"Ziy???","steam_id":76561197995765491,"connected_time":1413000000000,"state":"active","ping":103},{"user_id":185,"name":"awsomemcawsome","steam_id":76561198223232604,"connected_time":1406000000000,"state":"active","ping":82},{"user_id":169,"name":"MR.BLOTTO","steam_id":76561198067920111,"connected_time":3727000000000,"state":"active","ping":48},{"user_id":143,"name":"ScoutPilgrim","steam_id":76561198013007215,"connected_time":5247000000000,"state":"active","ping":49},{"user_id":203,"name":"lord-carlos","steam_id":76561198025150761,"connected_time":521000000000,"state":"active","ping":48},{"user_id":199,"name":"zak","steam_id":76561197998895428,"connected_time":569000000000,"state":"active","ping":49},{"user_id":206,"name":"mud","steam_id":76561198141497461,"connected_time":445000000000,"state":"active","ping":58},{"user_id":192,"name":"Pattis","steam_id":76561198362057972,"connected_time":886000000000,"state":"active","ping":102},{"user_id":182,"name":"hud_saytext_time 0","steam_id":76561198010327228,"connected_time":1506000000000,"state":"active","ping":70},{"user_id":197,"name":"Moskvin","steam_id":76561198089170010,"connected_time":618000000000,"state":"active","ping":61},{"user_id":205,"name":"SAMIL","steam_id":76561198328505819,"connected_time":479000000000,"state":"active","ping":66},{"user_id":209,"name":"LucyLime","steam_id":76561198262258698,"connected_time":286000000000,"state":"active","ping":53},{"user_id":194,"name":"Jeƒçmen","steam_id":76561198051617968,"connected_time":864000000000,"state":"active","ping":63},{"user_id":207,"name":"amdon.art","steam_id":76561198066251000,"connected_time":439000000000,"state":"active","ping":47},{"user_id":208,"name":"dum","steam_id":76561198053386482,"connected_time":435000000000,"state":"active","ping":165},{"user_id":195,"name":"A fucking weed whacker","steam_id":76561198012703379,"connected_time":841000000000,"state":"active","ping":58},{"user_id":201,"name":"Toxic_Cicity","steam_id":76561198165753440,"connected_time":560000000000,"state":"active","ping":90}]},{"server_id":202,"name":"Uncletopia | Hong Kong | 1 | All Maps","name_short":"hgk-1","host":"hgk-1.hk.uncletopia.com","port":27015,"enabled":true,"region":"asia","cc":"hk","latitude":22.302711,"longitude":114.177216,"reserved":0,"last_update":"0001-01-01T00:00:00Z","name_a2s":"Uncletopia | Hong Kong | 1 | All Maps","protocol":17,"map":"cp_mountainlab","folder":"tf","game":"Team Fortress","app_id":440,"player_count":0,"max_players":24,"Bots":0,"server_type":"Dedicated","server_os":"Linux","password":true,"vac":true,"version":"7961495","steam_id":85568392924494504,"keywords":["cp","nocrits","nodmgspread","uncletopia"],"game_id":440,"stv_port":27016,"stv_name":"Uncletopia | Hong Kong | 1 | All Maps | STV","players":null},{"server_id":1,"name":"Uncletopia | Los Angeles | 1 | All Maps","name_short":"lax-1","host":"lax-1.us.uncletopia.com","port":27015,"enabled":true,"region":"us-west","cc":"us","latitude":33.94279,"longitude":-118.41004,"reserved":0,"last_update":"0001-01-01T00:00:00Z","name_a2s":"Uncletopia | Los Angeles | 1 | All Maps","protocol":17,"map":"pl_upward","folder":"tf","game":"Team Fortress","app_id":440,"player_count":0,"max_players":24,"Bots":0,"server_type":"Dedicated","server_os":"Linux","password":true,"vac":true,"version":"7961495","steam_id":85568392924469991,"keywords":["nocrits","nodmgspread","payload","uncletopia"],"game_id":440,"stv_port":27016,"stv_name":"Uncletopia | Los Angeles | 1 | All Maps | STV","players":null},{"server_id":112,"name":"Uncletopia | Los Angeles | 2 | All Maps","name_short":"lax-2","host":"lax-1.us.uncletopia.com","port":27025,"enabled":true,"region":"us-west","cc":"us","latitude":33.94279,"longitude":-118.41004,"reserved":0,"last_update":"0001-01-01T00:00:00Z","name_a2s":"Uncletopia | Los Angeles | 2 | All Maps","protocol":17,"map":"pl_frontier_final","folder":"tf","game":"Team Fortress","app_id":440,"player_count":24,"max_players":24,"Bots":0,"server_type":"Dedicated","server_os":"Linux","password":true,"vac":true,"version":"7961495","steam_id":85568392924469992,"keywords":["nocrits","nodmgspread","payload","uncletopia"],"game_id":440,"stv_port":27026,"stv_name":"Uncletopia | Los Angeles | 2 | All Maps | STV","players":[{"user_id":134,"name":"Ellis","steam_id":76561198993634489,"connected_time":1541000000000,"state":"active","ping":48},{"user_id":130,"name":"sibling wile üü† „ÉÑ","steam_id":76561198125261443,"connected_time":1697000000000,"state":"active","ping":89},{"user_id":131,"name":"moe","steam_id":76561198929586245,"connected_time":1683000000000,"state":"active","ping":40},{"user_id":133,"name":"usedhalfcart","steam_id":76561198072621852,"connected_time":1613000000000,"state":"active","ping":107},{"user_id":158,"name":"Pah-Wraith Gul Dukat","steam_id":76561198033918106,"connected_time":193000000000,"state":"active","ping":46},{"user_id":142,"name":"How To Hear God","steam_id":76561199494996720,"connected_time":1307000000000,"state":"active","ping":54},{"user_id":153,"name":"silly jester","steam_id":76561198079609974,"connected_time":592000000000,"state":"active","ping":61},{"user_id":154,"name":"Nodaymasscare","steam_id":76561199051064272,"connected_time":580000000000,"state":"active","ping":86},{"user_id":129,"name":"Altruisticailuridae","steam_id":76561198335295596,"connected_time":1722000000000,"state":"active","ping":56},{"user_id":150,"name":"Lily Thorn","steam_id":76561198305488625,"connected_time":1054000000000,"state":"active","ping":92},{"user_id":122,"name":"Canadian Toast","steam_id":76561199140338095,"connected_time":2668000000000,"state":"active","ping":34},{"user_id":132,"name":"Chinaski","steam_id":76561198092218594,"connected_time":1633000000000,"state":"active","ping":69},{"user_id":136,"name":"ohmycoffin","steam_id":76561198265200950,"connected_time":1508000000000,"state":"active","ping":87},{"user_id":137,"name":"EpicAlex36o","steam_id":76561198855438458,"connected_time":1499000000000,"state":"active","ping":75},{"user_id":148,"name":"adapt","steam_id":76561198156181017,"connected_time":1137000000000,"state":"active","ping":55},{"user_id":159,"name":"Ryle","steam_id":76561198216682264,"connected_time":192000000000,"state":"active","ping":43},{"user_id":155,"name":"waffle","steam_id":76561198077799844,"connected_time":571000000000,"state":"active","ping":62},{"user_id":140,"name":"Dr. Juvenal","steam_id":76561198114553453,"connected_time":1471000000000,"state":"active","ping":49},{"user_id":141,"name":"LeTonzy","steam_id":76561198005806699,"connected_time":1409000000000,"state":"active","ping":59},{"user_id":127,"name":"Blackbeard","steam_id":76561198046952265,"connected_time":2077000000000,"state":"active","ping":75},{"user_id":157,"name":"squart guy","steam_id":76561199411560141,"connected_time":297000000000,"state":"active","ping":75},{"user_id":156,"name":"Immortal8Reaper","steam_id":76561198297661559,"connected_time":368000000000,"state":"active","ping":138},{"user_id":147,"name":"cthonic cvnt","steam_id":76561198039604491,"connected_time":1149000000000,"state":"active","ping":76},{"user_id":145,"name":"Ironboy","steam_id":76561198421623862,"connected_time":1226000000000,"state":"active","ping":110}]},{"server_id":324,"name":"Uncletopia | Los Angeles | 3 | All Maps","name_short":"lax-3","host":"lax-1.us.uncletopia.com","port":27035,"enabled":true,"region":"us-west","cc":"us","latitude":33.94279,"longitude":-118.41004,"reserved":0,"last_update":"0001-01-01T00:00:00Z","name_a2s":"Uncletopia | Los Angeles | 3 | All Maps","protocol":17,"map":"pl_pier","folder":"tf","game":"Team Fortress","app_id":440,"player_count":0,"max_players":24,"Bots":0,"server_type":"Dedicated","server_os":"Linux","password":true,"vac":true,"version":"7961495","steam_id":85568392924510198,"keywords":["nocrits","nodmgspread","payload","uncletopia"],"game_id":440,"stv_port":27036,"stv_name":"Uncletopia | Los Angeles | 3 | All Maps | STV","players":null},{"server_id":25,"name":"Uncletopia | Los Angeles | 4 | Stopwatch","name_short":"lax-4","host":"lax-1.us.uncletopia.com","port":27045,"enabled":true,"region":"us-west","cc":"us","latitude":33.94279,"longitude":-118.41004,"reserved":0,"last_update":"0001-01-01T00:00:00Z","name_a2s":"Uncletopia | Los Angeles | 4 | Stopwatch","protocol":17,"map":"cp_gullywash_final1","folder":"tf","game":"Team Fortress","app_id":440,"player_count":0,"max_players":24,"Bots":0,"server_type":"Dedicated","server_os":"Linux","password":true,"vac":true,"version":"7961495","steam_id":85568392924510199,"keywords":["cp","nocrits","nodmgspread","uncletopia"],"game_id":440,"stv_port":27046,"stv_name":"Uncletopia | Los Angeles | 4 | Stopwatch | STV","players":null},{"server_id":11,"name":"Uncletopia | London | 1 | All Maps","name_short":"lon-1","host":"lon-1.uk.uncletopia.com","port":27015,"enabled":true,"region":"eu","cc":"gb","latitude":51.509865,"longitude":-0.118092,"reserved":0,"last_update":"0001-01-01T00:00:00Z","name_a2s":"Uncletopia | London | 1 | All Maps","protocol":17,"map":"pl_pier","folder":"tf","game":"Team Fortress","app_id":440,"player_count":24,"max_players":24,"Bots":0,"server_type":"Dedicated","server_os":"Linux","password":true,"vac":true,"version":"7961495","steam_id":85568392924367362,"keywords":["nocrits","nodmgspread","payload","uncletopia"],"game_id":440,"stv_port":27016,"stv_name":"Uncletopia | London | 1 | All Maps | STV","players":[{"user_id":457,"name":"Maveth","steam_id":76561198315021197,"connected_time":5012000000000,"state":"active","ping":138},{"user_id":483,"name":"install gentoo","steam_id":76561198185257982,"connected_time":2052000000000,"state":"active","ping":76},{"user_id":510,"name":"Kahvi","steam_id":76561198723244199,"connected_time":1130000000000,"state":"active","ping":77},{"user_id":481,"name":"Dandolive","steam_id":76561199436592277,"connected_time":2191000000000,"state":"active","ping":76},{"user_id":511,"name":"BreadBubbles","steam_id":76561198174332826,"connected_time":1030000000000,"state":"active","ping":95},{"user_id":492,"name":"Bl√•haj enjoyer (krayy)","steam_id":76561198035037830,"connected_time":1808000000000,"state":"active","ping":52},{"user_id":485,"name":"Krabs","steam_id":76561198161679477,"connected_time":1942000000000,"state":"active","ping":39},{"user_id":469,"name":"After8","steam_id":76561198090750865,"connected_time":3743000000000,"state":"active","ping":68},{"user_id":476,"name":"Castellan","steam_id":76561197994861142,"connected_time":2760000000000,"state":"active","ping":62},{"user_id":463,"name":"Without warning","steam_id":76561199383437138,"connected_time":4027000000000,"state":"active","ping":127},{"user_id":474,"name":"coella","steam_id":76561198442803577,"connected_time":2824000000000,"state":"active","ping":80},{"user_id":473,"name":"Kphi(i)","steam_id":76561198970587061,"connected_time":2923000000000,"state":"active","ping":63},{"user_id":459,"name":"Persephone","steam_id":76561198246467946,"connected_time":4837000000000,"state":"active","ping":78},{"user_id":477,"name":"John0309","steam_id":76561198447428162,"connected_time":2757000000000,"state":"active","ping":89},{"user_id":442,"name":"Slifer the GiantEnemy SkyDragon","steam_id":76561198062255803,"connected_time":5778000000000,"state":"active","ping":74},{"user_id":486,"name":"Ricey","steam_id":76561198832961307,"connected_time":1938000000000,"state":"active","ping":47},{"user_id":509,"name":"AWildTamim","steam_id":76561198048060652,"connected_time":1160000000000,"state":"active","ping":44},{"user_id":380,"name":"Pantroglodytestherapy","steam_id":76561198236015392,"connected_time":10617000000000,"state":"active","ping":116},{"user_id":487,"name":"samoht_belak","steam_id":76561198246536000,"connected_time":1926000000000,"state":"active","ping":57},{"user_id":488,"name":"Nugget","steam_id":76561198338916407,"connected_time":1921000000000,"state":"active","ping":78},{"user_id":506,"name":"dead and gone wish","steam_id":76561198277943630,"connected_time":1468000000000,"state":"active","ping":76},{"user_id":461,"name":"SwLucie","steam_id":76561197969984656,"connected_time":4336000000000,"state":"active","ping":58},{"user_id":504,"name":"One Hop Dis Time *BWRAB*","steam_id":76561198146081601,"connected_time":1551000000000,"state":"active","ping":51},{"user_id":471,"name":"Aaron","steam_id":76561197990046953,"connected_time":3306000000000,"state":"active","ping":45}]},{"server_id":114,"name":"Uncletopia | London | 2 | All Maps","name_short":"lon-2","host":"lon-1.uk.uncletopia.com","port":27025,"enabled":true,"region":"eu","cc":"gb","latitude":51.509865,"longitude":-0.118092,"reserved":0,"last_update":"0001-01-01T00:00:00Z","name_a2s":"Uncletopia | London | 2 | All Maps","protocol":17,"map":"cp_granary","folder":"tf","game":"Team Fortress","app_id":440,"player_count":24,"max_players":24,"Bots":0,"server_type":"Dedicated","server_os":"Linux","password":true,"vac":true,"version":"7961495","steam_id":85568392924470941,"keywords":["cp","nocrits","nodmgspread","uncletopia"],"game_id":440,"stv_port":27026,"stv_name":"Uncletopia | London | 2 | All Maps | STV","players":[{"user_id":159,"name":"Olaf Gasbrigi","steam_id":76561198000618491,"connected_time":223000000000,"state":"active","ping":76},{"user_id":160,"name":"Shadow The Hedgehog","steam_id":76561198323622980,"connected_time":135000000000,"state":"active","ping":89},{"user_id":161,"name":"Task","steam_id":76561198395128774,"connected_time":132000000000,"state":"active","ping":59},{"user_id":122,"name":"TSx* Naxer","steam_id":76561198011986779,"connected_time":1836000000000,"state":"active","ping":72},{"user_id":158,"name":"Buamadoir","steam_id":76561198229417388,"connected_time":235000000000,"state":"active","ping":83},{"user_id":123,"name":"TSx* Osa__PL","steam_id":76561198027016799,"connected_time":1826000000000,"state":"active","ping":76},{"user_id":144,"name":"suriver22","steam_id":76561198231778492,"connected_time":959000000000,"state":"active","ping":157},{"user_id":142,"name":"Legojacob","steam_id":76561198295341648,"connected_time":1035000000000,"state":"active","ping":73},{"user_id":107,"name":"Binah ‚ô†","steam_id":76561198105207050,"connected_time":3789000000000,"state":"active","ping":53},{"user_id":162,"name":"TomRistpt","steam_id":76561198968817946,"connected_time":106000000000,"state":"active","ping":31},{"user_id":153,"name":"Fey","steam_id":76561198039087098,"connected_time":608000000000,"state":"active","ping":59},{"user_id":130,"name":"Cranbury","steam_id":76561198079170457,"connected_time":1643000000000,"state":"active","ping":45},{"user_id":155,"name":"Mr.O","steam_id":76561198039567498,"connected_time":273000000000,"state":"active","ping":53},{"user_id":103,"name":"Mav","steam_id":76561198004403881,"connected_time":4029000000000,"state":"active","ping":63},{"user_id":145,"name":"VampiuS","steam_id":76561197998827007,"connected_time":889000000000,"state":"active","ping":60},{"user_id":154,"name":"Silver","steam_id":76561198175238807,"connected_time":599000000000,"state":"active","ping":64},{"user_id":134,"name":"TSx* Bargal","steam_id":76561198040266872,"connected_time":1590000000000,"state":"active","ping":86},{"user_id":163,"name":"Tichy‚òÜ","steam_id":76561198026218934,"connected_time":43000000000,"state":"active","ping":68},{"user_id":135,"name":"hopefullythisnameisnttaken","steam_id":76561198979277765,"connected_time":1517000000000,"state":"active","ping":55},{"user_id":139,"name":"drunk demo","steam_id":76561199066992831,"connected_time":1247000000000,"state":"active","ping":56},{"user_id":164,"name":"Vyllckart","steam_id":76561198119172997,"connected_time":36000000000,"state":"active","ping":74},{"user_id":148,"name":"absolute swagster","steam_id":76561198280359845,"connected_time":797000000000,"state":"active","ping":94},{"user_id":165,"name":"Tort","steam_id":76561198329646769,"connected_time":0,"state":"spawning","ping":25},{"user_id":150,"name":"REN","steam_id":76561198000596385,"connected_time":749000000000,"state":"active","ping":103}]},{"server_id":320,"name":"Uncletopia | London | 3 | All Maps","name_short":"lon-3","host":"lon-1.uk.uncletopia.com","port":27035,"enabled":true,"region":"eu","cc":"gb","latitude":51.509865,"longitude":-0.118092,"reserved":0,"last_update":"0001-01-01T00:00:00Z","name_a2s":"Uncletopia | London | 3 | All Maps","protocol":17,"map":"pl_borneo","folder":"tf","game":"Team Fortress","app_id":440,"player_count":23,"max_players":24,"Bots":0,"server_type":"Dedicated","server_os":"Linux","password":true,"vac":true,"version":"7961495","steam_id":85568392924510192,"keywords":["nocrits","nodmgspread","payload","uncletopia"],"game_id":440,"stv_port":27036,"stv_name":"Uncletopia | London | 3 | All Maps | STV","players":[{"user_id":327,"name":"ash","steam_id":76561198004728744,"connected_time":1299000000000,"state":"active","ping":59},{"user_id":331,"name":"Merca #savetf2","steam_id":76561198088782472,"connected_time":1109000000000,"state":"active","ping":57},{"user_id":292,"name":"taste Fanta through your balls","steam_id":76561198823497252,"connected_time":3759000000000,"state":"active","ping":60},{"user_id":314,"name":"Soup","steam_id":76561199081651572,"connected_time":2087000000000,"state":"active","ping":56},{"user_id":298,"name":"Olufsen","steam_id":76561198009324148,"connected_time":3203000000000,"state":"active","ping":113},{"user_id":374,"name":"jaime8D","steam_id":76561197980590671,"connected_time":310000000000,"state":"active","ping":76},{"user_id":336,"name":"ROX","steam_id":76561198272289320,"connected_time":943000000000,"state":"active","ping":60},{"user_id":380,"name":"q47tx","steam_id":76561199181333933,"connected_time":126000000000,"state":"active","ping":98},{"user_id":312,"name":"DelaNo","steam_id":76561199125086655,"connected_time":2310000000000,"state":"active","ping":42},{"user_id":330,"name":"HopeAres","steam_id":76561198139524395,"connected_time":1256000000000,"state":"active","ping":58},{"user_id":337,"name":"Jasperatus","steam_id":76561198196733750,"connected_time":930000000000,"state":"active","ping":98},{"user_id":357,"name":"releng0","steam_id":76561198120708390,"connected_time":562000000000,"state":"active","ping":99},{"user_id":341,"name":"Glove Man","steam_id":76561198186899790,"connected_time":760000000000,"state":"active","ping":160},{"user_id":295,"name":"Schiever","steam_id":76561198052136026,"connected_time":3543000000000,"state":"active","ping":57},{"user_id":364,"name":"AnanasGerste","steam_id":76561198133825211,"connected_time":453000000000,"state":"active","ping":45},{"user_id":342,"name":"Sableye","steam_id":76561199060319263,"connected_time":719000000000,"state":"active","ping":132},{"user_id":378,"name":"Explosive Poptart","steam_id":76561198023918830,"connected_time":263000000000,"state":"active","ping":45},{"user_id":344,"name":"Popop","steam_id":76561198004793795,"connected_time":688000000000,"state":"active","ping":46},{"user_id":379,"name":"Karl Marxman","steam_id":76561197988226117,"connected_time":246000000000,"state":"active","ping":77},{"user_id":346,"name":"Amethyst Stardust","steam_id":76561198033683448,"connected_time":667000000000,"state":"active","ping":48},{"user_id":347,"name":"LOBZIK","steam_id":76561198114830120,"connected_time":663000000000,"state":"active","ping":76},{"user_id":348,"name":"ume_ybbuhc","steam_id":76561199482149729,"connected_time":645000000000,"state":"active","ping":113},{"user_id":349,"name":"Toxic√≤","steam_id":76561199031920676,"connected_time":643000000000,"state":"active","ping":85}]},{"server_id":321,"name":"Uncletopia | London | 4 | All Maps","name_short":"lon-4","host":"lon-1.uk.uncletopia.com","port":27045,"enabled":true,"region":"eu","cc":"gb","latitude":51.509865,"longitude":-0.118092,"reserved":0,"last_update":"0001-01-01T00:00:00Z","name_a2s":"Uncletopia | London | 4 | All Maps","protocol":17,"map":"cp_altitude","folder":"tf","game":"Team Fortress","app_id":440,"player_count":24,"max_players":24,"Bots":0,"server_type":"Dedicated","server_os":"Linux","password":true,"vac":true,"version":"7961495","steam_id":85568392924510193,"keywords":["cp","nocrits","nodmgspread","uncletopia"],"game_id":440,"stv_port":27046,"stv_name":"Uncletopia | London | 4 | All Maps | STV","players":[{"user_id":454,"name":"Eoghan","steam_id":76561198095344395,"connected_time":5455000000000,"state":"active","ping":61},{"user_id":522,"name":"theodorc68","steam_id":76561199250592158,"connected_time":2121000000000,"state":"active","ping":75},{"user_id":551,"name":"Emma ‚ù§","steam_id":76561198082018080,"connected_time":397000000000,"state":"active","ping":71},{"user_id":535,"name":"omnibombulator","steam_id":76561198025858897,"connected_time":962000000000,"state":"active","ping":47},{"user_id":513,"name":"Proud Jojo Fan #TF2SP","steam_id":76561198847327216,"connected_time":2714000000000,"state":"active","ping":69},{"user_id":531,"name":"Kiz","steam_id":76561198811732820,"connected_time":1412000000000,"state":"active","ping":63},{"user_id":525,"name":"heallixa","steam_id":76561198167986712,"connected_time":1864000000000,"state":"active","ping":123},{"user_id":549,"name":"Cool Uncle Bean","steam_id":76561199053506366,"connected_time":454000000000,"state":"active","ping":69},{"user_id":483,"name":"worm with a fat ass","steam_id":76561198170026338,"connected_time":4244000000000,"state":"active","ping":71},{"user_id":516,"name":"Mr. Enjoy da money","steam_id":76561198152681460,"connected_time":2338000000000,"state":"active","ping":75},{"user_id":532,"name":"NeonPixel","steam_id":76561198165901066,"connected_time":1139000000000,"state":"active","ping":60},{"user_id":523,"name":"Cowspace","steam_id":76561198072733227,"connected_time":2116000000000,"state":"active","ping":70},{"user_id":554,"name":"Swamp-Cap","steam_id":76561199045984851,"connected_time":314000000000,"state":"active","ping":142},{"user_id":455,"name":"DANDELION","steam_id":76561198038451376,"connected_time":5454000000000,"state":"active","ping":45},{"user_id":555,"name":"emko√ß","steam_id":76561198846782346,"connected_time":279000000000,"state":"active","ping":108},{"user_id":556,"name":"Mike Doe","steam_id":76561198331251922,"connected_time":17000000000,"state":"active","ping":60},{"user_id":527,"name":"Monday","steam_id":76561198348366085,"connected_time":1707000000000,"state":"active","ping":75},{"user_id":518,"name":"hhhhhh","steam_id":76561198031982574,"connected_time":2303000000000,"state":"active","ping":60},{"user_id":515,"name":"Lola bunny","steam_id":76561198214149431,"connected_time":2499000000000,"state":"active","ping":46},{"user_id":478,"name":"2BCD","steam_id":76561198178254946,"connected_time":4476000000000,"state":"active","ping":50},{"user_id":539,"name":"Pirkage #transrights","steam_id":76561198323002691,"connected_time":831000000000,"state":"active","ping":71},{"user_id":533,"name":"UltimateAura","steam_id":76561198338361324,"connected_time":1127000000000,"state":"active","ping":43},{"user_id":546,"name":"MrWeis","steam_id":76561198115443579,"connected_time":615000000000,"state":"active","ping":79},{"user_id":542,"name":"BlaVis","steam_id":76561198045847329,"connected_time":770000000000,"state":"active","ping":70}]},{"server_id":21,"name":"Uncletopia | London | 5 | All Maps","name_short":"lon-5","host":"lon-1.uk.uncletopia.com","port":27055,"enabled":true,"region":"eu","cc":"gb","latitude":51.509865,"longitude":-0.118092,"reserved":0,"last_update":"0001-01-01T00:00:00Z","name_a2s":"Uncletopia | London | 5 | All Maps","protocol":17,"map":"pl_pier","folder":"tf","game":"Team Fortress","app_id":440,"player_count":19,"max_players":24,"Bots":0,"server_type":"Dedicated","server_os":"Linux","password":true,"vac":true,"version":"7961495","steam_id":85568392924742829,"keywords":["nocrits","nodmgspread","payload","uncletopia"],"game_id":440,"stv_port":27056,"stv_name":"Uncletopia | London | 5 | All Maps | STV","players":[{"user_id":408,"name":"The First Banana","steam_id":76561199445100850,"connected_time":3425000000000,"state":"active","ping":129},{"user_id":433,"name":"Bajas","steam_id":76561198179339326,"connected_time":1240000000000,"state":"active","ping":76},{"user_id":376,"name":"Tea","steam_id":76561198799243030,"connected_time":5156000000000,"state":"active","ping":70},{"user_id":345,"name":"t.tv/soarfps","steam_id":76561198010662796,"connected_time":7604000000000,"state":"active","ping":51},{"user_id":427,"name":"a second plane","steam_id":76561199401283123,"connected_time":1512000000000,"state":"active","ping":52},{"user_id":436,"name":"xavier","steam_id":76561198076494034,"connected_time":1113000000000,"state":"active","ping":50},{"user_id":383,"name":"Deimos","steam_id":76561198852007512,"connected_time":4468000000000,"state":"active","ping":67},{"user_id":420,"name":"8 Ball","steam_id":76561197960988736,"connected_time":1864000000000,"state":"active","ping":45},{"user_id":435,"name":"Vershal Smershal","steam_id":76561198116223995,"connected_time":1119000000000,"state":"active","ping":58},{"user_id":441,"name":"sarii ‚òÜ","steam_id":76561199155102111,"connected_time":977000000000,"state":"active","ping":79},{"user_id":424,"name":"mohemmedmokhter2005","steam_id":76561199197650506,"connected_time":1704000000000,"state":"active","ping":114},{"user_id":438,"name":"Finn","steam_id":76561198179960193,"connected_time":1093000000000,"state":"active","ping":45},{"user_id":407,"name":"pipe bomb gaming","steam_id":76561199036776540,"connected_time":3498000000000,"state":"active","ping":57},{"user_id":426,"name":"w+m1","steam_id":76561198010428082,"connected_time":1650000000000,"state":"active","ping":74},{"user_id":446,"name":"Qwerty","steam_id":76561198023525894,"connected_time":670000000000,"state":"active","ping":96},{"user_id":445,"name":"Michael","steam_id":76561198003146906,"connected_time":689000000000,"state":"active","ping":46},{"user_id":404,"name":"niandits","steam_id":76561198419798900,"connected_time":3898000000000,"state":"active","ping":132},{"user_id":414,"name":"ter","steam_id":76561198436549033,"connected_time":2554000000000,"state":"active","ping":98},{"user_id":403,"name":"j√π xiƒì","steam_id":76561198096189399,"connected_time":4065000000000,"state":"active","ping":63}]},{"server_id":22,"name":"Uncletopia | London | 6 | All Maps","name_short":"lon-6","host":"lon-1.uk.uncletopia.com","port":27065,"enabled":true,"region":"eu","cc":"gb","latitude":51.509865,"longitude":-0.118092,"reserved":0,"last_update":"0001-01-01T00:00:00Z","name_a2s":"Uncletopia | London | 6 | All Maps","protocol":17,"map":"cp_process_final","folder":"tf","game":"Team Fortress","app_id":440,"player_count":24,"max_players":24,"Bots":0,"server_type":"Dedicated","server_os":"Linux","password":true,"vac":true,"version":"7961495","steam_id":85568392924742830,"keywords":["cp","nocrits","nodmgspread","uncletopia"],"game_id":440,"stv_port":27066,"stv_name":"Uncletopia | London | 6 | All Maps | STV","players":[{"user_id":28,"name":"Dyld","steam_id":76561197979603871,"connected_time":3260000000000,"state":"active","ping":62},{"user_id":81,"name":"zboro 311","steam_id":76561198855116238,"connected_time":499000000000,"state":"active","ping":76},{"user_id":35,"name":"Lorenzo Lovers","steam_id":76561198073973581,"connected_time":2268000000000,"state":"active","ping":84},{"user_id":90,"name":"ElongatedSpoon","steam_id":76561198057457674,"connected_time":448000000000,"state":"active","ping":57},{"user_id":32,"name":"PidgeonsOfWar","steam_id":76561198849223850,"connected_time":2370000000000,"state":"active","ping":49},{"user_id":61,"name":"Felwo3","steam_id":76561199217352978,"connected_time":1464000000000,"state":"active","ping":98},{"user_id":82,"name":"i love xin","steam_id":76561198071440081,"connected_time":493000000000,"state":"active","ping":90},{"user_id":83,"name":"epickirycerz311","steam_id":76561199003935924,"connected_time":491000000000,"state":"active","ping":82},{"user_id":91,"name":"Egor Pomidor","steam_id":76561199175688390,"connected_time":448000000000,"state":"active","ping":83},{"user_id":40,"name":"Poisonguy","steam_id":76561198158568117,"connected_time":2074000000000,"state":"active","ping":68},{"user_id":63,"name":"R8N - Obismal","steam_id":76561198007482714,"connected_time":1426000000000,"state":"active","ping":78},{"user_id":62,"name":"Caruzon - Obismal","steam_id":76561198036211170,"connected_time":1439000000000,"state":"active","ping":82},{"user_id":95,"name":"60Hz gaming","steam_id":76561198032698137,"connected_time":340000000000,"state":"active","ping":74},{"user_id":65,"name":"Macci - Obismal","steam_id":76561198050485404,"connected_time":1416000000000,"state":"active","ping":84},{"user_id":80,"name":"Duke Nukem Facts!","steam_id":76561199013457963,"connected_time":548000000000,"state":"active","ping":58},{"user_id":96,"name":"IDon'tNeedACoolName","steam_id":76561198013547503,"connected_time":86000000000,"state":"spawning","ping":55},{"user_id":97,"name":"starlightartist","steam_id":76561198050608456,"connected_time":54000000000,"state":"active","ping":57},{"user_id":88,"name":"Carrot","steam_id":76561198119340863,"connected_time":474000000000,"state":"active","ping":40},{"user_id":54,"name":"Beans","steam_id":76561198159189417,"connected_time":1758000000000,"state":"active","ping":71},{"user_id":68,"name":"7 7","steam_id":76561198190663138,"connected_time":1334000000000,"state":"active","ping":102},{"user_id":94,"name":"Nady","steam_id":76561197987691269,"connected_time":428000000000,"state":"active","ping":75},{"user_id":72,"name":"gx71","steam_id":76561198035112358,"connected_time":1119000000000,"state":"active","ping":48},{"user_id":89,"name":"KJohn","steam_id":76561198141334845,"connected_time":473000000000,"state":"active","ping":45},{"user_id":75,"name":"Ragnakai","steam_id":76561198232730536,"connected_time":971000000000,"state":"active","ping":114}]},{"server_id":40,"name":"Uncletopia | London | 7 | Stopwatch","name_short":"lon-7","host":"lon-1.uk.uncletopia.com","port":27075,"enabled":true,"region":"eu","cc":"gb","latitude":51.509865,"longitude":-0.118092,"reserved":0,"last_update":"0001-01-01T00:00:00Z","name_a2s":"Uncletopia | London | 7 | Stopwatch","protocol":17,"map":"workshop/koth_ramjam_rc1.ugc459778887","folder":"tf","game":"Team Fortress","app_id":440,"player_count":0,"max_players":24,"Bots":0,"server_type":"Dedicated","server_os":"Linux","password":true,"vac":true,"version":"7961495","steam_id":85568392924964314,"keywords":["cp","nocrits","nodmgspread","uncletopia"],"game_id":440,"stv_port":27076,"stv_name":"Uncletopia | London | 7 | Stopwatch | STV","players":null},{"server_id":41,"name":"Uncletopia | London | 8 | Community","name_short":"lon-8","host":"lon-1.uk.uncletopia.com","port":27085,"enabled":true,"region":"eu","cc":"gb","latitude":51.509865,"longitude":-0.118092,"reserved":0,"last_update":"0001-01-01T00:00:00Z","name_a2s":"Uncletopia | London | 8 | Community","protocol":17,"map":"workshop/pl_barnblitz_pro7.ugc582280235","folder":"tf","game":"Team Fortress","app_id":440,"player_count":13,"max_players":24,"Bots":0,"server_type":"Dedicated","server_os":"Linux","password":true,"vac":true,"version":"7961495","steam_id":85568392924964315,"keywords":["nocrits","nodmgspread","payload","uncletopia"],"game_id":440,"stv_port":27086,"stv_name":"Uncletopia | London | 8 | Community | STV","players":[{"user_id":39,"name":"ntoni","steam_id":76561198254860581,"connected_time":1604000000000,"state":"active","ping":81},{"user_id":40,"name":"Frat Ro Cazz Beta","steam_id":76561198823529926,"connected_time":1566000000000,"state":"active","ping":72},{"user_id":41,"name":"o","steam_id":76561198217010892,"connected_time":1566000000000,"state":"active","ping":87},{"user_id":42,"name":"salvo91able","steam_id":76561198307465084,"connected_time":1524000000000,"state":"active","ping":75},{"user_id":43,"name":"...","steam_id":76561199024512720,"connected_time":850000000000,"state":"active","ping":52},{"user_id":45,"name":"Wajliii","steam_id":76561199002865510,"connected_time":557000000000,"state":"spawning","ping":186},{"user_id":46,"name":"TF2 Gaming","steam_id":76561198999462280,"connected_time":546000000000,"state":"active","ping":108},{"user_id":47,"name":"cart","steam_id":76561197987025017,"connected_time":501000000000,"state":"active","ping":52},{"user_id":48,"name":"goblin tf2","steam_id":76561198033073709,"connected_time":329000000000,"state":"active","ping":111},{"user_id":49,"name":"Cassaronpa","steam_id":76561198112985518,"connected_time":274000000000,"state":"active","ping":47},{"user_id":50,"name":"eveie0mlets","steam_id":76561198259172011,"connected_time":263000000000,"state":"active","ping":131},{"user_id":51,"name":"Giocafake","steam_id":76561198326872008,"connected_time":226000000000,"state":"active","ping":81},{"user_id":52,"name":"JamyJames","steam_id":76561198027925752,"connected_time":212000000000,"state":"active","ping":45}]},{"server_id":300,"name":"Uncletopia | Montr√©al | 1 | All Maps","name_short":"mtl-1","host":"mtl-1.ca.uncletopia.com","port":27015,"enabled":true,"region":"us-east","cc":"ca","latitude":45.50889,"longitude":-73.56167,"reserved":0,"last_update":"0001-01-01T00:00:00Z","name_a2s":"","protocol":0,"map":"","folder":"","game":"","app_id":0,"player_count":0,"max_players":0,"Bots":0,"server_type":"","server_os":"","password":false,"vac":false,"version":"","steam_id":0,"keywords":null,"game_id":0,"stv_port":0,"stv_name":"","players":null},{"server_id":301,"name":"Uncletopia | Montr√©al | 2 | All Maps","name_short":"mtl-2","host":"mtl-1.ca.uncletopia.com","port":27025,"enabled":true,"region":"us-east","cc":"ca","latitude":45.50889,"longitude":-73.56167,"reserved":0,"last_update":"0001-01-01T00:00:00Z","name_a2s":"","protocol":0,"map":"","folder":"","game":"","app_id":0,"player_count":0,"max_players":0,"Bots":0,"server_type":"","server_os":"","password":false,"vac":false,"version":"","steam_id":0,"keywords":null,"game_id":0,"stv_port":0,"stv_name":"","players":null},{"server_id":302,"name":"Uncletopia | Montr√©al | 3 | All Maps","name_short":"mtl-3","host":"mtl-1.ca.uncletopia.com","port":27035,"enabled":true,"region":"us-east","cc":"ca","latitude":45.50889,"longitude":-73.56167,"reserved":0,"last_update":"0001-01-01T00:00:00Z","name_a2s":"","protocol":0,"map":"","folder":"","game":"","app_id":0,"player_count":14,"max_players":0,"Bots":0,"server_type":"","server_os":"","password":false,"vac":false,"version":"","steam_id":0,"keywords":null,"game_id":0,"stv_port":0,"stv_name":"","players":[{"user_id":10,"name":"Chi of the Na's","steam_id":76561198238859416,"connected_time":855000000000,"state":"active","ping":130},{"user_id":11,"name":"mag","steam_id":76561198004065704,"connected_time":855000000000,"state":"active","ping":121},{"user_id":6,"name":"Yogfan800","steam_id":76561198089699429,"connected_time":1785000000000,"state":"active","ping":55},{"user_id":7,"name":"BoyKisser","steam_id":76561199200969139,"connected_time":1651000000000,"state":"active","ping":129},{"user_id":8,"name":"chair inc.","steam_id":76561198241391166,"connected_time":1542000000000,"state":"active","ping":69},{"user_id":12,"name":"Curse of the Blackened Eye","steam_id":76561198097175164,"connected_time":797000000000,"state":"active","ping":62},{"user_id":13,"name":"BL4CKPL4T3","steam_id":76561198983185163,"connected_time":771000000000,"state":"active","ping":166},{"user_id":14,"name":"Punchy","steam_id":76561198211775985,"connected_time":737000000000,"state":"active","ping":83},{"user_id":25,"name":"Monty","steam_id":76561197993567253,"connected_time":233000000000,"state":"active","ping":115},{"user_id":26,"name":"H0ovy","steam_id":76561198996230924,"connected_time":89000000000,"state":"active","ping":52},{"user_id":23,"name":"killer fish from san diego","steam_id":76561198800084189,"connected_time":391000000000,"state":"active","ping":103},{"user_id":19,"name":"Chris Benoit","steam_id":76561199182717011,"connected_time":485000000000,"state":"active","ping":85},{"user_id":20,"name":"Gerald Jay Sussman","steam_id":76561198114515026,"connected_time":461000000000,"state":"active","ping":51},{"user_id":27,"name":"HOVY GAMING (REAL)","steam_id":76561199210311096,"connected_time":60000000000,"state":"spawning","ping":137}]},{"server_id":303,"name":"Uncletopia | Montr√©al | 4 | No Payload","name_short":"mtl-4","host":"mtl-1.ca.uncletopia.com","port":27045,"enabled":true,"region":"us-east","cc":"ca","latitude":45.50889,"longitude":-73.56167,"reserved":0,"last_update":"0001-01-01T00:00:00Z","name_a2s":"","protocol":0,"map":"","folder":"","game":"","app_id":0,"player_count":0,"max_players":0,"Bots":0,"server_type":"","server_os":"","password":false,"vac":false,"version":"","steam_id":0,"keywords":null,"game_id":0,"stv_port":0,"stv_name":"","players":null},{"server_id":13,"name":"Uncletopia | New York City | 1 | All Maps","name_short":"nyc-1","host":"nyc-1.us.uncletopia.com","port":27015,"enabled":true,"region":"us-east","cc":"us","latitude":40.73061,"longitude":-73.93524,"reserved":0,"last_update":"0001-01-01T00:00:00Z","name_a2s":"Uncletopia | New York City | 1 | All Maps","protocol":17,"map":"koth_king","folder":"tf","game":"Team Fortress","app_id":440,"player_count":23,"max_players":24,"Bots":0,"server_type":"Dedicated","server_os":"Linux","password":true,"vac":true,"version":"7961495","steam_id":85568392924469993,"keywords":["cp","nocrits","nodmgspread","uncletopia"],"game_id":440,"stv_port":27016,"stv_name":"Uncletopia | New York City | 1 | All Maps | STV","players":[{"user_id":107,"name":"dcqwerty","steam_id":76561198964101426,"connected_time":2979000000000,"state":"active","ping":38},{"user_id":159,"name":"Smiles","steam_id":76561198107197973,"connected_time":357000000000,"state":"active","ping":80},{"user_id":157,"name":"shut up","steam_id":76561198139761609,"connected_time":439000000000,"state":"active","ping":79},{"user_id":140,"name":"PippinRope","steam_id":76561198196670873,"connected_time":1484000000000,"state":"active","ping":129},{"user_id":160,"name":"Disco Fever","steam_id":76561198069532215,"connected_time":334000000000,"state":"active","ping":58},{"user_id":150,"name":"TheLonliestThelonius","steam_id":76561198097657243,"connected_time":792000000000,"state":"active","ping":107},{"user_id":139,"name":"SmeagolDaRegal","steam_id":76561198095029807,"connected_time":1579000000000,"state":"active","ping":140},{"user_id":148,"name":"Sir Quacksalot","steam_id":76561198048942777,"connected_time":823000000000,"state":"active","ping":97},{"user_id":100,"name":"H202","steam_id":76561198149361309,"connected_time":3982000000000,"state":"active","ping":84},{"user_id":146,"name":"Braamklauw","steam_id":76561198283287697,"connected_time":1075000000000,"state":"active","ping":141},{"user_id":165,"name":"Boss","steam_id":76561198148606597,"connected_time":142000000000,"state":"active","ping":94},{"user_id":162,"name":"OneTrueCorvid","steam_id":76561199012953221,"connected_time":269000000000,"state":"active","ping":97},{"user_id":163,"name":"Sekt Mafia","steam_id":76561198084334538,"connected_time":212000000000,"state":"active","ping":51},{"user_id":133,"name":"fazaness","steam_id":76561198851525394,"connected_time":1995000000000,"state":"active","ping":69},{"user_id":132,"name":"mothsprings","steam_id":76561198928604937,"connected_time":2030000000000,"state":"active","ping":64},{"user_id":164,"name":"Renota","steam_id":76561198058224488,"connected_time":209000000000,"state":"active","ping":75},{"user_id":142,"name":"MadBanker2","steam_id":76561198108151310,"connected_time":1409000000000,"state":"active","ping":70},{"user_id":101,"name":"Jojoker","steam_id":76561198049833406,"connected_time":3923000000000,"state":"active","ping":72},{"user_id":149,"name":"friendly on uncletopia","steam_id":76561198064194222,"connected_time":817000000000,"state":"active","ping":81},{"user_id":58,"name":"turd ferguson","steam_id":76561198071620782,"connected_time":6428000000000,"state":"active","ping":69},{"user_id":116,"name":"InstantOzone","steam_id":76561198067556825,"connected_time":2626000000000,"state":"active","ping":79},{"user_id":155,"name":"ElBentz","steam_id":76561199059582221,"connected_time":720000000000,"state":"active","ping":107},{"user_id":125,"name":"Headless","steam_id":76561199093367930,"connected_time":2266000000000,"state":"active","ping":186}]},{"server_id":14,"name":"Uncletopia | New York City | 2 | All Maps","name_short":"nyc-2","host":"nyc-1.us.uncletopia.com","port":27025,"enabled":true,"region":"us-east","cc":"us","latitude":40.73061,"longitude":-73.93524,"reserved":0,"last_update":"0001-01-01T00:00:00Z","name_a2s":"Uncletopia | New York City | 2 | All Maps","protocol":17,"map":"cp_snakewater_final1","folder":"tf","game":"Team Fortress","app_id":440,"player_count":21,"max_players":24,"Bots":0,"server_type":"Dedicated","server_os":"Linux","password":true,"vac":true,"version":"7961495","steam_id":85568392924469994,"keywords":["cp","nocrits","nodmgspread","uncletopia"],"game_id":440,"stv_port":27026,"stv_name":"Uncletopia | New York City | 2 | All Maps | STV","players":[{"user_id":279,"name":"Classic 2","steam_id":76561198056190259,"connected_time":18000000000,"state":"spawning","ping":84},{"user_id":276,"name":"Zerk","steam_id":76561198133060530,"connected_time":67000000000,"state":"active","ping":55},{"user_id":257,"name":"unusualnuma","steam_id":76561198856016840,"connected_time":2532000000000,"state":"active","ping":52},{"user_id":263,"name":"P6GN","steam_id":76561198829989043,"connected_time":1551000000000,"state":"active","ping":62},{"user_id":12,"name":"uhooter","steam_id":76561198007829078,"connected_time":21924000000000,"state":"active","ping":60},{"user_id":275,"name":"johnny","steam_id":76561198855841242,"connected_time":230000000000,"state":"active","ping":82},{"user_id":215,"name":"Snoopy","steam_id":76561198273735974,"connected_time":6112000000000,"state":"active","ping":108},{"user_id":277,"name":"suns","steam_id":76561198079583278,"connected_time":53000000000,"state":"active","ping":60},{"user_id":264,"name":"Preacher","steam_id":76561198022215764,"connected_time":1539000000000,"state":"active","ping":54},{"user_id":278,"name":"Warmerfall","steam_id":76561198812218923,"connected_time":39000000000,"state":"active","ping":468},{"user_id":259,"name":"F2P Rights Activist","steam_id":76561199012786293,"connected_time":2527000000000,"state":"active","ping":84},{"user_id":249,"name":"remanedur","steam_id":76561198059459507,"connected_time":3158000000000,"state":"active","ping":63},{"user_id":223,"name":"A Puppy","steam_id":76561198828184456,"connected_time":5816000000000,"state":"active","ping":47},{"user_id":280,"name":"Sgt. Pepper","steam_id":76561198063674627,"connected_time":17000000000,"state":"active","ping":76},{"user_id":281,"name":"Tile(s)","steam_id":76561198196660338,"connected_time":6000000000,"state":"spawning","ping":62},{"user_id":271,"name":"–Ω–µ –±–µ—Ä–∏ –≤ –≥–æ–ª–æ–≤—É","steam_id":76561198066716670,"connected_time":382000000000,"state":"active","ping":65},{"user_id":247,"name":"De","steam_id":76561198206728044,"connected_time":3352000000000,"state":"active","ping":75},{"user_id":104,"name":"Maet","steam_id":76561198030208485,"connected_time":15136000000000,"state":"active","ping":85},{"user_id":154,"name":"googa","steam_id":76561198133130452,"connected_time":11921000000000,"state":"active","ping":46},{"user_id":269,"name":"tsbro40","steam_id":76561199455605580,"connected_time":1218000000000,"state":"active","ping":103},{"user_id":225,"name":"vv","steam_id":76561198134813102,"connected_time":4845000000000,"state":"active","ping":65}]},{"server_id":15,"name":"Uncletopia | New York City | 3 | Stopwatch","name_short":"nyc-3","host":"nyc-1.us.uncletopia.com","port":27035,"enabled":true,"region":"us-east","cc":"us","latitude":40.73061,"longitude":-73.93524,"reserved":0,"last_update":"0001-01-01T00:00:00Z","name_a2s":"Uncletopia | New York City | 3 | Stopwatch","protocol":17,"map":"pl_snowycoast","folder":"tf","game":"Team Fortress","app_id":440,"player_count":0,"max_players":24,"Bots":0,"server_type":"Dedicated","server_os":"Linux","password":true,"vac":true,"version":"7961495","steam_id":85568392924742820,"keywords":["nocrits","nodmgspread","payload","uncletopia"],"game_id":440,"stv_port":27036,"stv_name":"Uncletopia | New York City | 3 | Stopwatch | STV","players":null},{"server_id":16,"name":"Uncletopia | New York City | 4 | Community","name_short":"nyc-4","host":"nyc-1.us.uncletopia.com","port":27045,"enabled":true,"region":"us-east","cc":"us","latitude":40.73061,"longitude":-73.93524,"reserved":0,"last_update":"0001-01-01T00:00:00Z","name_a2s":"Uncletopia | New York City | 4 | Community","protocol":17,"map":"workshop/pl_divulgence_b4b.ugc2884808746","folder":"tf","game":"Team Fortress","app_id":440,"player_count":0,"max_players":24,"Bots":0,"server_type":"Dedicated","server_os":"Linux","password":true,"vac":true,"version":"7961495","steam_id":85568392924742821,"keywords":["nocrits","nodmgspread","payload","uncletopia"],"game_id":440,"stv_port":27046,"stv_name":"Uncletopia | New York City | 4 | Community | STV","players":null},{"server_id":142,"name":"Uncletopia | S√£o Paulo | 1 | All Maps","name_short":"sao-1","host":"sao-1.br.uncletopia.com","port":27015,"enabled":true,"region":"sa","cc":"br","latitude":-23.533773,"longitude":-46.62529,"reserved":0,"last_update":"0001-01-01T00:00:00Z","name_a2s":"Uncletopia | S√£o Paulo | 1 | All Maps","protocol":17,"map":"cp_dustbowl","folder":"tf","game":"Team Fortress","app_id":440,"player_count":0,"max_players":24,"Bots":0,"server_type":"Dedicated","server_os":"Linux","password":true,"vac":true,"version":"7961495","steam_id":85568392924469996,"keywords":["cp","nocrits","nodmgspread","uncletopia"],"game_id":440,"stv_port":27016,"stv_name":"Uncletopia | S√£o Paulo | 1 | All Maps | STV","players":null},{"server_id":143,"name":"Uncletopia | S√£o Paulo | 2 | Community","name_short":"sao-2","host":"sao-2.br.uncletopia.com","port":27015,"enabled":true,"region":"sa","cc":"br","latitude":-23.533773,"longitude":-46.62529,"reserved":0,"last_update":"0001-01-01T00:00:00Z","name_a2s":"Uncletopia | S√£o Paulo | 2 | Community","protocol":17,"map":"workshop/cp_croissant_final.ugc458840209","folder":"tf","game":"Team Fortress","app_id":440,"player_count":0,"max_players":24,"Bots":0,"server_type":"Dedicated","server_os":"Linux","password":true,"vac":true,"version":"7961495","steam_id":85568392924485349,"keywords":["cp","nocrits","nodmgspread","uncletopia"],"game_id":440,"stv_port":27016,"stv_name":"Uncletopia | S√£o Paulo | 2 | Community | STV","players":null},{"server_id":7,"name":"Uncletopia | Seattle | 1 | All Maps","name_short":"sea-1","host":"sea-1.us.uncletopia.com","port":27015,"enabled":true,"region":"us-west","cc":"us","latitude":47.608013,"longitude":-122.33517,"reserved":0,"last_update":"0001-01-01T00:00:00Z","name_a2s":"Uncletopia | Seattle | 1 | All Maps","protocol":17,"map":"pl_upward","folder":"tf","game":"Team Fortress","app_id":440,"player_count":24,"max_players":24,"Bots":0,"server_type":"Dedicated","server_os":"Linux","password":true,"vac":true,"version":"7961495","steam_id":85568392924469997,"keywords":["nocrits","nodmgspread","payload","uncletopia"],"game_id":440,"stv_port":27016,"stv_name":"Uncletopia | Seattle | 1 | All Maps | STV","players":[{"user_id":248,"name":"duke8714","steam_id":76561199229982201,"connected_time":703000000000,"state":"active","ping":96},{"user_id":185,"name":"‚ú´P‚àÄnck‚àà‚ú´","steam_id":76561198050163618,"connected_time":6603000000000,"state":"active","ping":68},{"user_id":242,"name":"Greskrendtregk","steam_id":76561197969553142,"connected_time":1585000000000,"state":"active","ping":50},{"user_id":233,"name":"FlamingManiac","steam_id":76561198361996837,"connected_time":2070000000000,"state":"active","ping":117},{"user_id":239,"name":"Fh","steam_id":76561198000903511,"connected_time":1794000000000,"state":"active","ping":59},{"user_id":250,"name":"Bailster","steam_id":76561198091530428,"connected_time":599000000000,"state":"active","ping":81},{"user_id":246,"name":"cat woman yuri","steam_id":76561198004916219,"connected_time":820000000000,"state":"active","ping":88},{"user_id":252,"name":"John Smith","steam_id":76561198185776555,"connected_time":366000000000,"state":"active","ping":32},{"user_id":197,"name":"Grassman (Cc)","steam_id":76561198026488532,"connected_time":4800000000000,"state":"active","ping":64},{"user_id":253,"name":"Saint Pablo","steam_id":76561198083300159,"connected_time":360000000000,"state":"active","ping":73},{"user_id":235,"name":"gorlab","steam_id":76561198025089694,"connected_time":2019000000000,"state":"active","ping":60},{"user_id":208,"name":"funkeymonkey15","steam_id":76561198930961042,"connected_time":4026000000000,"state":"active","ping":103},{"user_id":237,"name":"jayeskae","steam_id":76561198144220801,"connected_time":2006000000000,"state":"active","ping":45},{"user_id":227,"name":"MxProf","steam_id":76561198044519572,"connected_time":3317000000000,"state":"active","ping":60},{"user_id":241,"name":"SnoDot","steam_id":76561198062209970,"connected_time":1606000000000,"state":"active","ping":40},{"user_id":229,"name":"Sailor","steam_id":76561199081983517,"connected_time":3189000000000,"state":"active","ping":105},{"user_id":249,"name":"Johnson, Navin R.","steam_id":76561197961107982,"connected_time":645000000000,"state":"active","ping":67},{"user_id":215,"name":"DamerDoozle","steam_id":76561199121686201,"connected_time":3764000000000,"state":"active","ping":110},{"user_id":225,"name":"Pneumo.","steam_id":76561197987911883,"connected_time":3398000000000,"state":"active","ping":68},{"user_id":228,"name":"Truffles","steam_id":76561198095868800,"connected_time":3275000000000,"state":"active","ping":114},{"user_id":243,"name":"BlazedBunny","steam_id":76561198243610560,"connected_time":1420000000000,"state":"active","ping":70},{"user_id":244,"name":"TendedKibbles0","steam_id":76561198320304516,"connected_time":1378000000000,"state":"active","ping":145},{"user_id":247,"name":"dewey.","steam_id":76561198138325039,"connected_time":814000000000,"state":"active","ping":46},{"user_id":222,"name":"Princess Bootylicious","steam_id":76561198334977151,"connected_time":3569000000000,"state":"active","ping":282}]},{"server_id":119,"name":"Uncletopia | Seattle | 2 | All Maps","name_short":"sea-2","host":"sea-1.us.uncletopia.com","port":27025,"enabled":true,"region":"us-west","cc":"us","latitude":47.608013,"longitude":-122.33517,"reserved":0,"last_update":"0001-01-01T00:00:00Z","name_a2s":"Uncletopia | Seattle | 2 | All Maps","protocol":17,"map":"pl_snowycoast","folder":"tf","game":"Team Fortress","app_id":440,"player_count":9,"max_players":24,"Bots":0,"server_type":"Dedicated","server_os":"Linux","password":true,"vac":true,"version":"7961495","steam_id":85568392924469998,"keywords":["nocrits","nodmgspread","payload","uncletopia"],"game_id":440,"stv_port":27026,"stv_name":"Uncletopia | Seattle | 2 | All Maps | STV","players":[{"user_id":7,"name":"StrayGuitarist","steam_id":76561198091315714,"connected_time":524000000000,"state":"active","ping":56},{"user_id":8,"name":"¬øsoup?","steam_id":76561198121042852,"connected_time":450000000000,"state":"active","ping":55},{"user_id":9,"name":"REDACTED_banana_887","steam_id":76561199224406093,"connected_time":425000000000,"state":"active","ping":192},{"user_id":10,"name":"Grug gaming","steam_id":76561198108062629,"connected_time":418000000000,"state":"active","ping":74},{"user_id":11,"name":"GollyColly","steam_id":76561198140549487,"connected_time":408000000000,"state":"active","ping":44},{"user_id":12,"name":"The Professor","steam_id":76561198046165617,"connected_time":327000000000,"state":"active","ping":97},{"user_id":13,"name":"Rabblerouser","steam_id":76561198127930963,"connected_time":287000000000,"state":"active","ping":81},{"user_id":14,"name":"GameBreaker","steam_id":76561198836171572,"connected_time":153000000000,"state":"active","ping":54},{"user_id":15,"name":"Samson","steam_id":76561199087226038,"connected_time":129000000000,"state":"active","ping":115}]},{"server_id":406,"name":"Uncletopia | Seattle | 3 | Stopwatch","name_short":"sea-3","host":"sea-1.us.uncletopia.com","port":27035,"enabled":true,"region":"us-west","cc":"us","latitude":47.608013,"longitude":-122.33517,"reserved":0,"last_update":"0001-01-01T00:00:00Z","name_a2s":"Uncletopia | Seattle | 3 | Stopwatch","protocol":17,"map":"koth_lakeside_final","folder":"tf","game":"Team Fortress","app_id":440,"player_count":0,"max_players":24,"Bots":0,"server_type":"Dedicated","server_os":"Linux","password":true,"vac":true,"version":"7961495","steam_id":85568392924515217,"keywords":["cp","nocrits","nodmgspread","uncletopia"],"game_id":440,"stv_port":27036,"stv_name":"Uncletopia | Seattle | 3 | Stopwatch | STV","players":null},{"server_id":17,"name":"Uncletopia | San Francisco | 1 | All Maps","name_short":"sfo-1","host":"sfo-1.us.uncletopia.com","port":27015,"enabled":true,"region":"us-west","cc":"us","latitude":37.77397,"longitude":-122.4313,"reserved":0,"last_update":"0001-01-01T00:00:00Z","name_a2s":"Uncletopia | San Francisco | 1 | All Maps","protocol":17,"map":"koth_cascade","folder":"tf","game":"Team Fortress","app_id":440,"player_count":0,"max_players":24,"Bots":0,"server_type":"Dedicated","server_os":"Linux","password":true,"vac":true,"version":"7961495","steam_id":85568392924469999,"keywords":["cp","nocrits","nodmgspread","uncletopia"],"game_id":440,"stv_port":27016,"stv_name":"Uncletopia | San Francisco | 1 | All Maps | STV","players":null},{"server_id":18,"name":"Uncletopia | San Francisco | 2 | All Maps","name_short":"sfo-2","host":"sfo-1.us.uncletopia.com","port":27025,"enabled":true,"region":"us-west","cc":"us","latitude":37.77397,"longitude":-122.4313,"reserved":0,"last_update":"0001-01-01T00:00:00Z","name_a2s":"Uncletopia | San Francisco | 2 | All Maps","protocol":17,"map":"cp_altitude","folder":"tf","game":"Team Fortress","app_id":440,"player_count":23,"max_players":24,"Bots":0,"server_type":"Dedicated","server_os":"Linux","password":true,"vac":true,"version":"7961495","steam_id":85568392924470000,"keywords":["cp","nocrits","nodmgspread","uncletopia"],"game_id":440,"stv_port":27026,"stv_name":"Uncletopia | San Francisco | 2 | All Maps | STV","players":[{"user_id":223,"name":"Imagine being trash at Medic","steam_id":76561197986530028,"connected_time":1761000000000,"state":"active","ping":92},{"user_id":183,"name":"Keamy","steam_id":76561199471434875,"connected_time":3731000000000,"state":"active","ping":56},{"user_id":196,"name":"culruldoh","steam_id":76561199467334502,"connected_time":2698000000000,"state":"active","ping":47},{"user_id":184,"name":"Lili W.","steam_id":76561199391478575,"connected_time":3413000000000,"state":"active","ping":83},{"user_id":148,"name":"I GOT LAID AT SHEN YUN 2023","steam_id":76561198844003641,"connected_time":6190000000000,"state":"active","ping":55},{"user_id":228,"name":"Spruce","steam_id":76561198081684676,"connected_time":133000000000,"state":"active","ping":83},{"user_id":217,"name":"Dirt Road","steam_id":76561198210372012,"connected_time":2211000000000,"state":"active","ping":137},{"user_id":226,"name":"oil","steam_id":76561198099980149,"connected_time":405000000000,"state":"active","ping":60},{"user_id":187,"name":"mattmungus224","steam_id":76561199494809185,"connected_time":3191000000000,"state":"active","ping":140},{"user_id":199,"name":"JC The Dumb","steam_id":76561199186185567,"connected_time":2584000000000,"state":"active","ping":62},{"user_id":201,"name":"Big Jack","steam_id":76561198132755619,"connected_time":2515000000000,"state":"active","ping":47},{"user_id":136,"name":"FizzleWizard","steam_id":76561198045990868,"connected_time":7347000000000,"state":"active","ping":124},{"user_id":231,"name":"biblically accurate angel","steam_id":76561198095121758,"connected_time":66000000000,"state":"active","ping":38},{"user_id":220,"name":"gayest MF DOOM fan","steam_id":76561198065801979,"connected_time":2050000000000,"state":"active","ping":119},{"user_id":225,"name":"spacetoven","steam_id":76561198115821131,"connected_time":620000000000,"state":"active","ping":48},{"user_id":219,"name":"Kintsugi","steam_id":76561198301867054,"connected_time":2157000000000,"state":"active","ping":52},{"user_id":232,"name":"motherofdragons96","steam_id":76561198864779097,"connected_time":34000000000,"state":"active","ping":80},{"user_id":216,"name":"Blue Jackal","steam_id":76561198139235071,"connected_time":2252000000000,"state":"active","ping":103},{"user_id":172,"name":"SLEEPY-Class NHP","steam_id":76561198064583865,"connected_time":5041000000000,"state":"active","ping":113},{"user_id":205,"name":"KaosInfinite","steam_id":76561198009126350,"connected_time":2435000000000,"state":"active","ping":59},{"user_id":206,"name":"Largedong McGillicuddy","steam_id":76561198082955430,"connected_time":2419000000000,"state":"active","ping":39},{"user_id":227,"name":"lol","steam_id":76561198026491738,"connected_time":198000000000,"state":"active","ping":67},{"user_id":222,"name":"Kaluka","steam_id":76561198036861445,"connected_time":1886000000000,"state":"active","ping":120}]},{"server_id":19,"name":"Uncletopia | San Francisco | 3 | Stopwatch","name_short":"sfo-3","host":"sfo-1.us.uncletopia.com","port":27035,"enabled":true,"region":"us-west","cc":"us","latitude":37.77397,"longitude":-122.4313,"reserved":0,"last_update":"0001-01-01T00:00:00Z","name_a2s":"Uncletopia | San Francisco | 3 | Stopwatch","protocol":17,"map":"workshop/cp_reckoner_rc6.ugc674719999","folder":"tf","game":"Team Fortress","app_id":440,"player_count":0,"max_players":24,"Bots":0,"server_type":"Dedicated","server_os":"Linux","password":true,"vac":true,"version":"7961495","steam_id":85568392924742824,"keywords":["cp","nocrits","nodmgspread","uncletopia"],"game_id":440,"stv_port":27036,"stv_name":"Uncletopia | San Francisco | 3 | Stopwatch | STV","players":null},{"server_id":20,"name":"Uncletopia | San Francisco | 4 | Community","name_short":"sfo-4","host":"sfo-1.us.uncletopia.com","port":27045,"enabled":true,"region":"us-west","cc":"us","latitude":37.77397,"longitude":-122.4313,"reserved":0,"last_update":"0001-01-01T00:00:00Z","name_a2s":"Uncletopia | San Francisco | 4 | Community","protocol":17,"map":"pl_pier","folder":"tf","game":"Team Fortress","app_id":440,"player_count":0,"max_players":24,"Bots":0,"server_type":"Dedicated","server_os":"Linux","password":true,"vac":true,"version":"7961495","steam_id":85568392924742826,"keywords":["nocrits","nodmgspread","payload","uncletopia"],"game_id":440,"stv_port":27046,"stv_name":"Uncletopia | San Francisco | 4 | Community | STV","players":null},{"server_id":141,"name":"Uncletopia | Sydney | 1 | All Maps","name_short":"syd-1","host":"syd-1.au.uncletopia.com","port":27015,"enabled":true,"region":"au","cc":"au","latitude":-33.865143,"longitude":151.2099,"reserved":0,"last_update":"0001-01-01T00:00:00Z","name_a2s":"Uncletopia | Sydney | 1 | All Maps","protocol":17,"map":"koth_viaduct","folder":"tf","game":"Team Fortress","app_id":440,"player_count":0,"max_players":24,"Bots":0,"server_type":"Dedicated","server_os":"Linux","password":true,"vac":true,"version":"7961495","steam_id":85568392924470001,"keywords":["cp","nocrits","nodmgspread","uncletopia"],"game_id":440,"stv_port":27016,"stv_name":"Uncletopia | Sydney | 1 | All Maps | STV","players":null},{"server_id":123,"name":"Uncletopia | Sydney | 2 | All Maps","name_short":"syd-2","host":"syd-1.au.uncletopia.com","port":27025,"enabled":true,"region":"au","cc":"au","latitude":-33.865143,"longitude":151.2099,"reserved":0,"last_update":"0001-01-01T00:00:00Z","name_a2s":"Uncletopia | Sydney | 2 | All Maps","protocol":17,"map":"koth_lakeside_final","folder":"tf","game":"Team Fortress","app_id":440,"player_count":0,"max_players":24,"Bots":0,"server_type":"Dedicated","server_os":"Linux","password":true,"vac":true,"version":"7961495","steam_id":85568392924470002,"keywords":["cp","nocrits","nodmgspread","uncletopia"],"game_id":440,"stv_port":27026,"stv_name":"Uncletopia | Sydney | 2 | All Maps | STV","players":null},{"server_id":395,"name":"Uncletopia | Sydney | 3 | All Maps","name_short":"syd-3","host":"syd-1.au.uncletopia.com","port":27035,"enabled":true,"region":"au","cc":"au","latitude":-33.865143,"longitude":151.2099,"reserved":0,"last_update":"0001-01-01T00:00:00Z","name_a2s":"Uncletopia | Sydney | 3 | All Maps","protocol":17,"map":"pl_frontier_final","folder":"tf","game":"Team Fortress","app_id":440,"player_count":0,"max_players":24,"Bots":0,"server_type":"Dedicated","server_os":"Linux","password":true,"vac":true,"version":"7961495","steam_id":85568392925194467,"keywords":["nocrits","nodmgspread","payload","uncletopia"],"game_id":440,"stv_port":27036,"stv_name":"Uncletopia | Sydney | 3 | All Maps | STV","players":null},{"server_id":396,"name":"Uncletopia | Sydney | 4 | All Maps","name_short":"syd-4","host":"syd-1.au.uncletopia.com","port":27045,"enabled":true,"region":"au","cc":"au","latitude":-33.865143,"longitude":151.2099,"reserved":0,"last_update":"0001-01-01T00:00:00Z","name_a2s":"Uncletopia | Sydney | 4 | All Maps","protocol":17,"map":"cp_process_final","folder":"tf","game":"Team Fortress","app_id":440,"player_count":0,"max_players":24,"Bots":0,"server_type":"Dedicated","server_os":"Linux","password":true,"vac":true,"version":"7961495","steam_id":85568392925397958,"keywords":["cp","nocrits","nodmgspread","uncletopia"],"game_id":440,"stv_port":27046,"stv_name":"Uncletopia | Sydney | 4 | All Maps | STV","players":null},{"server_id":58,"name":"Uncletopia | Sydney | 5 | Stopwatch","name_short":"syd-5","host":"syd-1.au.uncletopia.com","port":27055,"enabled":true,"region":"au","cc":"au","latitude":-33.865143,"longitude":151.2099,"reserved":0,"last_update":"0001-01-01T00:00:00Z","name_a2s":"Uncletopia | Sydney | 5 | Stopwatch","protocol":17,"map":"pl_frontier_final","folder":"tf","game":"Team Fortress","app_id":440,"player_count":0,"max_players":24,"Bots":0,"server_type":"Dedicated","server_os":"Linux","password":true,"vac":true,"version":"7961495","steam_id":85568392925397959,"keywords":["nocrits","nodmgspread","payload","uncletopia"],"game_id":440,"stv_port":27056,"stv_name":"Uncletopia | Sydney | 5 | Stopwatch | STV","players":null},{"server_id":59,"name":"Uncletopia | Sydney | 6 | Community","name_short":"syd-6","host":"syd-1.au.uncletopia.com","port":27065,"enabled":true,"region":"au","cc":"au","latitude":-33.865143,"longitude":151.2099,"reserved":0,"last_update":"0001-01-01T00:00:00Z","name_a2s":"Uncletopia | Sydney | 6 | Community","protocol":17,"map":"cp_sunshine","folder":"tf","game":"Team Fortress","app_id":440,"player_count":0,"max_players":24,"Bots":0,"server_type":"Dedicated","server_os":"Linux","password":true,"vac":true,"version":"7961495","steam_id":85568392925397960,"keywords":["cp","nocrits","nodmgspread","uncletopia"],"game_id":440,"stv_port":27066,"stv_name":"Uncletopia | Sydney | 6 | Community | STV","players":null},{"server_id":49,"name":"Uncletopia | Warsaw | 1 | All Maps","name_short":"waw-1","host":"waw-1.pl.uncletopia.com","port":27015,"enabled":true,"region":"eu","cc":"pl","latitude":52.2297,"longitude":21.017532,"reserved":0,"last_update":"0001-01-01T00:00:00Z","name_a2s":"Uncletopia | Warsaw | 1 | All Maps","protocol":17,"map":"koth_highpass","folder":"tf","game":"Team Fortress","app_id":440,"player_count":0,"max_players":24,"Bots":0,"server_type":"Dedicated","server_os":"Linux","password":true,"vac":true,"version":"7961495","steam_id":85568392925397850,"keywords":["cp","nocrits","nodmgspread","uncletopia"],"game_id":440,"stv_port":27016,"stv_name":"Uncletopia | Warsaw | 1 | All Maps | STV","players":null},{"server_id":50,"name":"Uncletopia | Warsaw | 2 | All Maps","name_short":"waw-2","host":"waw-1.pl.uncletopia.com","port":27025,"enabled":true,"region":"eu","cc":"pl","latitude":52.2297,"longitude":21.017532,"reserved":0,"last_update":"0001-01-01T00:00:00Z","name_a2s":"Uncletopia | Warsaw | 2 | All Maps","protocol":17,"map":"koth_highpass","folder":"tf","game":"Team Fortress","app_id":440,"player_count":0,"max_players":24,"Bots":0,"server_type":"Dedicated","server_os":"Linux","password":true,"vac":true,"version":"7961495","steam_id":85568392925397851,"keywords":["cp","nocrits","nodmgspread","uncletopia"],"game_id":440,"stv_port":27026,"stv_name":"Uncletopia | Warsaw | 2 | All Maps | STV","players":null},{"server_id":51,"name":"Uncletopia | Warsaw | 3 | All Maps","name_short":"waw-3","host":"waw-1.pl.uncletopia.com","port":27035,"enabled":true,"region":"eu","cc":"pl","latitude":52.2297,"longitude":21.017532,"reserved":0,"last_update":"0001-01-01T00:00:00Z","name_a2s":"Uncletopia | Warsaw | 3 | All Maps","protocol":17,"map":"cp_process_final","folder":"tf","game":"Team Fortress","app_id":440,"player_count":2,"max_players":24,"Bots":0,"server_type":"Dedicated","server_os":"Linux","password":true,"vac":true,"version":"7961495","steam_id":85568392925397852,"keywords":["cp","nocrits","nodmgspread","uncletopia"],"game_id":440,"stv_port":27036,"stv_name":"Uncletopia | Warsaw | 3 | All Maps | STV","players":[{"user_id":24,"name":"Kodutu Kalevipoeg","steam_id":76561198236441040,"connected_time":727000000000,"state":"active","ping":80},{"user_id":25,"name":"Stock woman.","steam_id":76561199407698465,"connected_time":692000000000,"state":"active","ping":61}]},{"server_id":52,"name":"Uncletopia | Warsaw | 4 | All Maps","name_short":"waw-4","host":"waw-1.pl.uncletopia.com","port":27045,"enabled":true,"region":"eu","cc":"pl","latitude":52.2297,"longitude":21.017532,"reserved":0,"last_update":"0001-01-01T00:00:00Z","name_a2s":"Uncletopia | Warsaw | 4 | All Maps","protocol":17,"map":"cp_altitude","folder":"tf","game":"Team Fortress","app_id":440,"player_count":0,"max_players":24,"Bots":0,"server_type":"Dedicated","server_os":"Linux","password":true,"vac":true,"version":"7961495","steam_id":85568392925397853,"keywords":["cp","nocrits","nodmgspread","uncletopia"],"game_id":440,"stv_port":27046,"stv_name":"Uncletopia | Warsaw | 4 | All Maps | STV","players":null},{"server_id":53,"name":"Uncletopia | Warsaw | 5 | Stopwatch","name_short":"waw-5","host":"waw-1.pl.uncletopia.com","port":27055,"enabled":true,"region":"eu","cc":"pl","latitude":52.2297,"longitude":21.017532,"reserved":0,"last_update":"0001-01-01T00:00:00Z","name_a2s":"Uncletopia | Warsaw | 5 | Stopwatch","protocol":17,"map":"cp_granary","folder":"tf","game":"Team Fortress","app_id":440,"player_count":0,"max_players":24,"Bots":0,"server_type":"Dedicated","server_os":"Linux","password":true,"vac":true,"version":"7961495","steam_id":85568392925397854,"keywords":["cp","nocrits","nodmgspread","uncletopia"],"game_id":440,"stv_port":27056,"stv_name":"Uncletopia | Warsaw | 5 | Stopwatch | STV","players":null},{"server_id":54,"name":"Uncletopia | Warsaw | 6 | Community","name_short":"waw-6","host":"waw-1.pl.uncletopia.com","port":27065,"enabled":true,"region":"eu","cc":"pl","latitude":52.2297,"longitude":21.017532,"reserved":0,"last_update":"0001-01-01T00:00:00Z","name_a2s":"Uncletopia | Warsaw | 6 | Community","protocol":17,"map":"workshop/cp_hazyfort_rc6.ugc1365963729","folder":"tf","game":"Team Fortress","app_id":440,"player_count":0,"max_players":24,"Bots":0,"server_type":"Dedicated","server_os":"Linux","password":true,"vac":true,"version":"7961495","steam_id":85568392925397856,"keywords":["cp","nocrits","nodmgspread","uncletopia"],"game_id":440,"stv_port":27066,"stv_name":"Uncletopia | Warsaw | 6 | Community | STV","players":null}]}