{"status":true,"message":"","result":[{"server_id":9,"name":"Uncletopia | Atlanta | 1 | All Maps","name_short":"atl-1","host":"atl-1.us.uncletopia.com","port":27015,"enabled":true,"region":"us-east","cc":"us","latitude":33.753746,"longitude":-84.38633,"reserved":0,"last_update":"0001-01-01T00:00:00Z","name_a2s":"Uncletopia | Atlanta | 1 | All Maps","protocol":17,"map":"pl_barnblitz","folder":"tf","game":"Team Fortress","app_id":440,"player_count":24,"max_players":24,"Bots":0,"server_type":"Dedicated","server_os":"Linux","password":true,"vac":true,"version":"7882260","steam_id":85568392924469982,"keywords":["nocrits","nodmgspread","payload","uncletopia"],"game_id":440,"stv_port":27016,"stv_name":"Uncletopia | Atlanta | 1 | All Maps | STV","players":[{"user_id":89,"name":"king10100000000","steam_id":76561199074676352,"connected_time":599000000000,"state":"active","ping":80},{"user_id":96,"name":"YetiMan","steam_id":76561198222039440,"connected_time":192000000000,"state":"active","ping":46},{"user_id":39,"name":"KFC Rat","steam_id":76561198135128086,"connected_time":2529000000000,"state":"active","ping":115},{"user_id":44,"name":"Gender Sponge","steam_id":76561198039188307,"connected_time":2473000000000,"state":"active","ping":75},{"user_id":95,"name":"FI LO","steam_id":76561198976530881,"connected_time":483000000000,"state":"active","ping":90},{"user_id":91,"name":"Zing","steam_id":76561198097160898,"connected_time":506000000000,"state":"active","ping":78},{"user_id":54,"name":"Jesse","steam_id":76561198157305426,"connected_time":1893000000000,"state":"active","ping":49},{"user_id":92,"name":"Korshal","steam_id":76561198819036121,"connected_time":505000000000,"state":"active","ping":68},{"user_id":85,"name":"Cup o' Water","steam_id":76561198881038234,"connected_time":902000000000,"state":"active","ping":131},{"user_id":58,"name":"Ekuseebia","steam_id":76561198037504112,"connected_time":1779000000000,"state":"active","ping":85},{"user_id":93,"name":"Zillers","steam_id":76561198095248744,"connected_time":503000000000,"state":"active","ping":70},{"user_id":86,"name":"D.E.O","steam_id":76561198096992957,"connected_time":890000000000,"state":"active","ping":116},{"user_id":26,"name":"metalfan666","steam_id":76561198386344068,"connected_time":2984000000000,"state":"active","ping":75},{"user_id":84,"name":"BIG HOG","steam_id":76561198079923652,"connected_time":927000000000,"state":"active","ping":63},{"user_id":87,"name":"Just PYE","steam_id":76561199439622967,"connected_time":673000000000,"state":"active","ping":74},{"user_id":30,"name":"highschool drop-out","steam_id":76561198366299848,"connected_time":2819000000000,"state":"active","ping":59},{"user_id":41,"name":"AlcoholicDad454","steam_id":76561198157414556,"connected_time":2518000000000,"state":"active","ping":72},{"user_id":32,"name":"alchemist","steam_id":76561198042595246,"connected_time":2768000000000,"state":"active","ping":75},{"user_id":35,"name":"sssaturn","steam_id":76561198118761367,"connected_time":2692000000000,"state":"active","ping":52},{"user_id":94,"name":"FHC | Nyle","steam_id":76561198045652639,"connected_time":503000000000,"state":"active","ping":121},{"user_id":38,"name":"Wigl","steam_id":76561198019324464,"connected_time":2583000000000,"state":"active","ping":65},{"user_id":43,"name":"That70sDog","steam_id":76561198119396142,"connected_time":2495000000000,"state":"active","ping":79},{"user_id":50,"name":"custodian","steam_id":76561198058793778,"connected_time":2223000000000,"state":"active","ping":75},{"user_id":83,"name":"freyja","steam_id":76561198249206656,"connected_time":1007000000000,"state":"active","ping":89}]},{"server_id":104,"name":"Uncletopia | Atlanta | 2 | All Maps","name_short":"atl-2","host":"atl-1.us.uncletopia.com","port":27025,"enabled":true,"region":"us-east","cc":"us","latitude":33.753746,"longitude":-84.38633,"reserved":0,"last_update":"0001-01-01T00:00:00Z","name_a2s":"Uncletopia | Atlanta | 2 | All Maps","protocol":17,"map":"koth_highpass","folder":"tf","game":"Team Fortress","app_id":440,"player_count":0,"max_players":24,"Bots":0,"server_type":"Dedicated","server_os":"Linux","password":true,"vac":true,"version":"7882260","steam_id":85568392924469983,"keywords":["cp","nocrits","nodmgspread","uncletopia"],"game_id":440,"stv_port":27026,"stv_name":"Uncletopia | Atlanta | 2 | All Maps | STV","players":null},{"server_id":400,"name":"Uncletopia | Atlanta | 3 | Community","name_short":"atl-3","host":"atl-1.us.uncletopia.com","port":27035,"enabled":true,"region":"us-east","cc":"us","latitude":33.753746,"longitude":-84.38633,"reserved":0,"last_update":"0001-01-01T00:00:00Z","name_a2s":"Uncletopia | Atlanta | 3 | Community","protocol":17,"map":"workshop/pl_cactuscanyon_redux_final2.ugc2579644293","folder":"tf","game":"Team Fortress","app_id":440,"player_count":24,"max_players":24,"Bots":0,"server_type":"Dedicated","server_os":"Linux","password":true,"vac":true,"version":"7882260","steam_id":85568392924515187,"keywords":["nocrits","nodmgspread","payload","uncletopia"],"game_id":440,"stv_port":27036,"stv_name":"Uncletopia | Atlanta | 3 | Community | STV","players":[{"user_id":190,"name":"W.iLd","steam_id":76561198026362836,"connected_time":1199000000000,"state":"active","ping":142},{"user_id":204,"name":"hatchetax","steam_id":76561199013337543,"connected_time":769000000000,"state":"active","ping":54},{"user_id":189,"name":"CrazyxxGian","steam_id":76561199174621620,"connected_time":1206000000000,"state":"active","ping":58},{"user_id":214,"name":"Potion seller (They/Them)","steam_id":76561199078306687,"connected_time":373000000000,"state":"active","ping":49},{"user_id":196,"name":"primordialheath","steam_id":76561199386942638,"connected_time":953000000000,"state":"active","ping":81},{"user_id":197,"name":"Marvelzombie","steam_id":76561198129951058,"connected_time":942000000000,"state":"active","ping":78},{"user_id":215,"name":"McSmitten","steam_id":76561198022358379,"connected_time":346000000000,"state":"active","ping":55},{"user_id":221,"name":"Eosson","steam_id":76561198108642113,"connected_time":142000000000,"state":"active","ping":88},{"user_id":220,"name":"ðŸ¤¨","steam_id":76561199365672047,"connected_time":263000000000,"state":"active","ping":89},{"user_id":217,"name":"MellowBoy-2354","steam_id":76561199080630632,"connected_time":319000000000,"state":"active","ping":75},{"user_id":185,"name":"CyberSpaceGaming","steam_id":76561198991830883,"connected_time":1302000000000,"state":"active","ping":90},{"user_id":125,"name":"[TSG] Turner's Chocolate Milk","steam_id":76561198058963288,"connected_time":6578000000000,"state":"active","ping":68},{"user_id":193,"name":"qonfi","steam_id":76561199184264297,"connected_time":1157000000000,"state":"active","ping":90},{"user_id":213,"name":"troll","steam_id":76561198040890252,"connected_time":416000000000,"state":"active","ping":46},{"user_id":216,"name":"LG_Fridge_User","steam_id":76561198977815014,"connected_time":330000000000,"state":"active","ping":114},{"user_id":200,"name":"ian","steam_id":76561198119616750,"connected_time":878000000000,"state":"active","ping":114},{"user_id":222,"name":"Guwop","steam_id":76561197970425737,"connected_time":27000000000,"state":"active","ping":76},{"user_id":93,"name":"Doomagedden","steam_id":76561198272589475,"connected_time":7766000000000,"state":"active","ping":74},{"user_id":201,"name":"Sir_of_the_night","steam_id":76561199186227837,"connected_time":868000000000,"state":"active","ping":150},{"user_id":210,"name":"can","steam_id":76561198090531755,"connected_time":574000000000,"state":"active","ping":74},{"user_id":203,"name":"cass","steam_id":76561198074502046,"connected_time":805000000000,"state":"active","ping":103},{"user_id":219,"name":"Sanic_Bum","steam_id":76561198094179822,"connected_time":297000000000,"state":"active","ping":58},{"user_id":218,"name":"crashymicsplody","steam_id":76561198213916765,"connected_time":310000000000,"state":"active","ping":97},{"user_id":206,"name":"Havok","steam_id":76561198063455003,"connected_time":748000000000,"state":"active","ping":80}]},{"server_id":401,"name":"Uncletopia | Atlanta | 4 | No Payload","name_short":"atl-4","host":"atl-1.us.uncletopia.com","port":27045,"enabled":true,"region":"us-east","cc":"us","latitude":33.753746,"longitude":-84.38633,"reserved":0,"last_update":"0001-01-01T00:00:00Z","name_a2s":"","protocol":0,"map":"","folder":"","game":"","app_id":0,"player_count":0,"max_players":0,"Bots":0,"server_type":"","server_os":"","password":false,"vac":false,"version":"","steam_id":0,"keywords":null,"game_id":0,"stv_port":0,"stv_name":"","players":null},{"server_id":2,"name":"Uncletopia | Chicago | 1 | All Maps","name_short":"chi-1","host":"chi-1.us.uncletopia.com","port":27015,"enabled":true,"region":"us-central","cc":"us","latitude":41.881832,"longitude":-87.62318,"reserved":0,"last_update":"0001-01-01T00:00:00Z","name_a2s":"Uncletopia | Chicago | 1 | All Maps","protocol":17,"map":"pl_barnblitz","folder":"tf","game":"Team Fortress","app_id":440,"player_count":24,"max_players":24,"Bots":0,"server_type":"Dedicated","server_os":"Linux","password":true,"vac":true,"version":"7882260","steam_id":85568392924469984,"keywords":["nocrits","nodmgspread","payload","uncletopia"],"game_id":440,"stv_port":27016,"stv_name":"Uncletopia | Chicago | 1 | All Maps | STV","players":[{"user_id":293,"name":"Indigolake","steam_id":76561198202215807,"connected_time":1100000000000,"state":"active","ping":87},{"user_id":289,"name":"Mank","steam_id":76561198189421005,"connected_time":1160000000000,"state":"active","ping":59},{"user_id":282,"name":"The Entire Population of Canada","steam_id":76561198090187112,"connected_time":1435000000000,"state":"active","ping":65},{"user_id":291,"name":"Notsocreative","steam_id":76561198236372202,"connected_time":1135000000000,"state":"active","ping":79},{"user_id":292,"name":"riverfiend","steam_id":76561198031993771,"connected_time":1128000000000,"state":"active","ping":59},{"user_id":280,"name":"Ark","steam_id":76561198053000340,"connected_time":1559000000000,"state":"active","ping":62},{"user_id":270,"name":"YourFriendJessie #savetf2","steam_id":76561198176883097,"connected_time":1744000000000,"state":"active","ping":55},{"user_id":271,"name":"Snom","steam_id":76561198333827920,"connected_time":1744000000000,"state":"active","ping":94},{"user_id":241,"name":"Tavros","steam_id":76561198297961039,"connected_time":4047000000000,"state":"active","ping":61},{"user_id":290,"name":"NovusOrdoDux","steam_id":76561198271936289,"connected_time":1144000000000,"state":"active","ping":140},{"user_id":294,"name":"resident frog","steam_id":76561198397981670,"connected_time":1062000000000,"state":"active","ping":43},{"user_id":295,"name":"Maverick","steam_id":76561198322829814,"connected_time":1011000000000,"state":"active","ping":78},{"user_id":275,"name":"Specter the Unchained","steam_id":76561198348354629,"connected_time":1722000000000,"state":"active","ping":110},{"user_id":279,"name":"Rornir","steam_id":76561198081829615,"connected_time":1599000000000,"state":"active","ping":40},{"user_id":268,"name":"dr peppah chug!","steam_id":76561198068835693,"connected_time":1761000000000,"state":"active","ping":89},{"user_id":274,"name":"anonion","steam_id":76561198056477584,"connected_time":1723000000000,"state":"active","ping":84},{"user_id":296,"name":"00110000","steam_id":76561199124717794,"connected_time":995000000000,"state":"active","ping":60},{"user_id":297,"name":"Gek Ambassador","steam_id":76561199080135821,"connected_time":782000000000,"state":"active","ping":88},{"user_id":277,"name":"Crispy","steam_id":76561198037481161,"connected_time":1686000000000,"state":"active","ping":79},{"user_id":259,"name":"PKBEAST_7","steam_id":76561198177136537,"connected_time":2948000000000,"state":"active","ping":95},{"user_id":286,"name":"SeaBass","steam_id":76561197982949108,"connected_time":1312000000000,"state":"active","ping":70},{"user_id":260,"name":"doglover39","steam_id":76561198869058885,"connected_time":2930000000000,"state":"active","ping":58},{"user_id":261,"name":"waku waku","steam_id":76561197999151676,"connected_time":2846000000000,"state":"active","ping":67},{"user_id":288,"name":"The Zoidberg Medic","steam_id":76561197994285087,"connected_time":1215000000000,"state":"active","ping":60}]},{"server_id":106,"name":"Uncletopia | Chicago | 2 | All Maps","name_short":"chi-2","host":"chi-1.us.uncletopia.com","port":27025,"enabled":true,"region":"us-central","cc":"us","latitude":41.881832,"longitude":-87.62318,"reserved":0,"last_update":"0001-01-01T00:00:00Z","name_a2s":"Uncletopia | Chicago | 2 | All Maps","protocol":17,"map":"pl_swiftwater_final1","folder":"tf","game":"Team Fortress","app_id":440,"player_count":24,"max_players":24,"Bots":0,"server_type":"Dedicated","server_os":"Linux","password":true,"vac":true,"version":"7882260","steam_id":85568392924469985,"keywords":["nocrits","nodmgspread","payload","uncletopia"],"game_id":440,"stv_port":27026,"stv_name":"Uncletopia | Chicago | 2 | All Maps | STV","players":[{"user_id":8,"name":"Triples_","steam_id":76561198094249561,"connected_time":3268000000000,"state":"active","ping":55},{"user_id":10,"name":"DragonHunter994","steam_id":76561199076203907,"connected_time":2700000000000,"state":"active","ping":78},{"user_id":33,"name":"Tannerdino","steam_id":76561198238169678,"connected_time":1263000000000,"state":"active","ping":80},{"user_id":12,"name":"B R O W N","steam_id":76561198084016173,"connected_time":2291000000000,"state":"active","ping":69},{"user_id":13,"name":"Deadhax","steam_id":76561198296581175,"connected_time":2240000000000,"state":"active","ping":65},{"user_id":26,"name":"vv","steam_id":76561198134813102,"connected_time":1593000000000,"state":"active","ping":58},{"user_id":20,"name":"El Wiwi","steam_id":76561199107383718,"connected_time":1712000000000,"state":"active","ping":58},{"user_id":51,"name":"go touch keyboard","steam_id":76561198197388678,"connected_time":573000000000,"state":"active","ping":75},{"user_id":29,"name":"jlsimon911","steam_id":76561199404849068,"connected_time":1399000000000,"state":"active","ping":106},{"user_id":47,"name":"touhou2010@gmail.com","steam_id":76561198045844070,"connected_time":895000000000,"state":"active","ping":76},{"user_id":45,"name":"Draconic Ballad","steam_id":76561198027191515,"connected_time":942000000000,"state":"active","ping":45},{"user_id":27,"name":"Sartupial","steam_id":76561198443169940,"connected_time":1551000000000,"state":"active","ping":72},{"user_id":54,"name":"Ninja Steave","steam_id":76561197985884951,"connected_time":139000000000,"state":"active","ping":61},{"user_id":53,"name":"Tanya Forger","steam_id":76561198889997809,"connected_time":379000000000,"state":"active","ping":91},{"user_id":34,"name":"avantime","steam_id":76561199203175541,"connected_time":1190000000000,"state":"active","ping":90},{"user_id":35,"name":"GLaDOS Simp","steam_id":76561198084849541,"connected_time":1161000000000,"state":"active","ping":60},{"user_id":36,"name":"TJGSASQUATCH","steam_id":76561198077806921,"connected_time":1138000000000,"state":"active","ping":74},{"user_id":37,"name":"PsychicCellar","steam_id":76561198045923020,"connected_time":1135000000000,"state":"active","ping":60},{"user_id":44,"name":"Grease Monkey","steam_id":76561199073112578,"connected_time":989000000000,"state":"active","ping":87},{"user_id":39,"name":"raw potatos","steam_id":76561199084421394,"connected_time":1105000000000,"state":"active","ping":92},{"user_id":52,"name":"Charlie Mops","steam_id":76561198028550499,"connected_time":492000000000,"state":"active","ping":104},{"user_id":41,"name":"BreakfastTacos","steam_id":76561198847620442,"connected_time":1084000000000,"state":"active","ping":99},{"user_id":42,"name":"Gizmo","steam_id":76561198112511045,"connected_time":1003000000000,"state":"active","ping":94},{"user_id":43,"name":"Ripheart","steam_id":76561198089661561,"connected_time":1002000000000,"state":"active","ping":55}]},{"server_id":402,"name":"Uncletopia | Chicago | 3 | All Maps","name_short":"chi-3","host":"chi-1.us.uncletopia.com","port":27035,"enabled":true,"region":"us-central","cc":"us","latitude":41.881832,"longitude":-87.62318,"reserved":0,"last_update":"0001-01-01T00:00:00Z","name_a2s":"Uncletopia | Chicago | 3 | All Maps","protocol":17,"map":"pl_upward","folder":"tf","game":"Team Fortress","app_id":440,"player_count":0,"max_players":24,"Bots":0,"server_type":"Dedicated","server_os":"Linux","password":true,"vac":true,"version":"7882260","steam_id":85568392924515191,"keywords":["nocrits","nodmgspread","payload","uncletopia"],"game_id":440,"stv_port":27036,"stv_name":"Uncletopia | Chicago | 3 | All Maps | STV","players":null},{"server_id":403,"name":"Uncletopia | Chicago | 4 | All Maps","name_short":"chi-4","host":"chi-1.us.uncletopia.com","port":27045,"enabled":true,"region":"us-central","cc":"us","latitude":41.881832,"longitude":-87.62318,"reserved":0,"last_update":"0001-01-01T00:00:00Z","name_a2s":"Uncletopia | Chicago | 4 | All Maps","protocol":17,"map":"koth_lakeside_final","folder":"tf","game":"Team Fortress","app_id":440,"player_count":1,"max_players":24,"Bots":0,"server_type":"Dedicated","server_os":"Linux","password":true,"vac":true,"version":"7882260","steam_id":85568392924515193,"keywords":["cp","nocrits","nodmgspread","uncletopia"],"game_id":440,"stv_port":27046,"stv_name":"Uncletopia | Chicago | 4 | All Maps | STV","players":[{"user_id":4,"name":"TankDozer","steam_id":76561199073510041,"connected_time":79000000000,"state":"active","ping":50}]},{"server_id":36,"name":"Uncletopia | Chicago | 5 | All Maps","name_short":"chi-5","host":"chi-2.us.uncletopia.com","port":27015,"enabled":true,"region":"us-central","cc":"us","latitude":41.881832,"longitude":-87.62318,"reserved":0,"last_update":"0001-01-01T00:00:00Z","name_a2s":"Uncletopia | Chicago | 5 | All Maps","protocol":17,"map":"pl_swiftwater_final1","folder":"tf","game":"Team Fortress","app_id":440,"player_count":0,"max_players":24,"Bots":0,"server_type":"Dedicated","server_os":"Linux","password":true,"vac":true,"version":"7882260","steam_id":85568392924866362,"keywords":["nocrits","nodmgspread","payload","uncletopia"],"game_id":440,"stv_port":27016,"stv_name":"Uncletopia | Chicago | 5 | All Maps | STV","players":null},{"server_id":37,"name":"Uncletopia | Chicago | 6 | All Maps","name_short":"chi-6","host":"chi-2.us.uncletopia.com","port":27025,"enabled":true,"region":"us-central","cc":"us","latitude":41.881832,"longitude":-87.62318,"reserved":0,"last_update":"0001-01-01T00:00:00Z","name_a2s":"Uncletopia | Chicago | 6 | All Maps","protocol":17,"map":"cp_altitude","folder":"tf","game":"Team Fortress","app_id":440,"player_count":0,"max_players":24,"Bots":0,"server_type":"Dedicated","server_os":"Linux","password":true,"vac":true,"version":"7882260","steam_id":85568392924866363,"keywords":["cp","nocrits","nodmgspread","uncletopia"],"game_id":440,"stv_port":27026,"stv_name":"Uncletopia | Chicago | 6 | All Maps | STV","players":null},{"server_id":38,"name":"Uncletopia | Chicago | 7 | Stopwatch Beta","name_short":"chi-7","host":"chi-2.us.uncletopia.com","port":27035,"enabled":true,"region":"us-central","cc":"us","latitude":41.881832,"longitude":-87.62318,"reserved":0,"last_update":"0001-01-01T00:00:00Z","name_a2s":"Uncletopia | Chicago | 7 | Stopwatch Beta","protocol":17,"map":"pl_upward","folder":"tf","game":"Team Fortress","app_id":440,"player_count":0,"max_players":24,"Bots":0,"server_type":"Dedicated","server_os":"Linux","password":true,"vac":true,"version":"7882260","steam_id":85568392924866364,"keywords":["nocrits","nodmgspread","payload","uncletopia"],"game_id":440,"stv_port":27036,"stv_name":"Uncletopia | Chicago | 7 | Stopwatch Beta | STV","players":null},{"server_id":39,"name":"Uncletopia | Chicago | 8 | Community","name_short":"chi-8","host":"chi-2.us.uncletopia.com","port":27045,"enabled":true,"region":"us-central","cc":"us","latitude":41.881832,"longitude":-87.62318,"reserved":0,"last_update":"0001-01-01T00:00:00Z","name_a2s":"Uncletopia | Chicago | 8 | Community","protocol":17,"map":"pl_badwater","folder":"tf","game":"Team Fortress","app_id":440,"player_count":0,"max_players":24,"Bots":0,"server_type":"Dedicated","server_os":"Linux","password":true,"vac":true,"version":"7882260","steam_id":85568392924866365,"keywords":["nocrits","nodmgspread","payload","uncletopia"],"game_id":440,"stv_port":27046,"stv_name":"Uncletopia | Chicago | 8 | Community | STV","players":null},{"server_id":8,"name":"Uncletopia | Dallas | 1 | All Maps","name_short":"dal-1","host":"dal-1.us.uncletopia.com","port":27015,"enabled":true,"region":"us-central","cc":"us","latitude":32.779167,"longitude":-96.80889,"reserved":0,"last_update":"0001-01-01T00:00:00Z","name_a2s":"Uncletopia | Dallas | 1 | All Maps","protocol":17,"map":"cp_process_final","folder":"tf","game":"Team Fortress","app_id":440,"player_count":0,"max_players":24,"Bots":0,"server_type":"Dedicated","server_os":"Linux","password":true,"vac":true,"version":"7882260","steam_id":85568392924469986,"keywords":["cp","nocrits","nodmgspread","uncletopia"],"game_id":440,"stv_port":27016,"stv_name":"Uncletopia | Dallas | 1 | All Maps | STV","players":null},{"server_id":108,"name":"Uncletopia | Dallas | 2 | All Maps","name_short":"dal-2","host":"dal-1.us.uncletopia.com","port":27025,"enabled":true,"region":"us-central","cc":"us","latitude":32.779167,"longitude":-96.80889,"reserved":0,"last_update":"0001-01-01T00:00:00Z","name_a2s":"Uncletopia | Dallas | 2 | All Maps","protocol":17,"map":"cp_snakewater_final1","folder":"tf","game":"Team Fortress","app_id":440,"player_count":0,"max_players":24,"Bots":0,"server_type":"Dedicated","server_os":"Linux","password":true,"vac":true,"version":"7882260","steam_id":85568392924469988,"keywords":["cp","nocrits","nodmgspread","uncletopia"],"game_id":440,"stv_port":27026,"stv_name":"Uncletopia | Dallas | 2 | All Maps | STV","players":null},{"server_id":5,"name":"Uncletopia | Frankfurt | 1 | All Maps","name_short":"frk-1","host":"frk-1.de.uncletopia.com","port":27015,"enabled":true,"region":"eu","cc":"de","latitude":50.110924,"longitude":8.682127,"reserved":0,"last_update":"0001-01-01T00:00:00Z","name_a2s":"Uncletopia | Frankfurt | 1 | All Maps","protocol":17,"map":"cp_altitude","folder":"tf","game":"Team Fortress","app_id":440,"player_count":24,"max_players":24,"Bots":0,"server_type":"Dedicated","server_os":"Linux","password":true,"vac":true,"version":"7882260","steam_id":85568392924469989,"keywords":["cp","nocrits","nodmgspread","uncletopia"],"game_id":440,"stv_port":27016,"stv_name":"Uncletopia | Frankfurt | 1 | All Maps | STV","players":[{"user_id":303,"name":"ÐšÑ€Ð¾ÐºÐ¾Ð´Ð¸Ð»","steam_id":76561199040797074,"connected_time":2908000000000,"state":"active","ping":89},{"user_id":330,"name":"Ross from F.R.I.E.N.D.S.","steam_id":76561198008511665,"connected_time":685000000000,"state":"active","ping":59},{"user_id":298,"name":"Ruffles","steam_id":76561198104896547,"connected_time":3291000000000,"state":"active","ping":74},{"user_id":333,"name":"Recurracy","steam_id":76561197993421597,"connected_time":481000000000,"state":"active","ping":45},{"user_id":339,"name":"BloodFuel","steam_id":76561198146340825,"connected_time":274000000000,"state":"active","ping":111},{"user_id":340,"name":"mp1mp2mp3","steam_id":76561198088967665,"connected_time":221000000000,"state":"active","ping":97},{"user_id":335,"name":"James","steam_id":76561198168882012,"connected_time":334000000000,"state":"active","ping":69},{"user_id":275,"name":"LordTrap.exe","steam_id":76561198318089716,"connected_time":5654000000000,"state":"active","ping":62},{"user_id":325,"name":"Josh","steam_id":76561198274546904,"connected_time":826000000000,"state":"active","ping":142},{"user_id":234,"name":"s a i","steam_id":76561197970379754,"connected_time":8899000000000,"state":"active","ping":47},{"user_id":326,"name":"Itai","steam_id":76561198804555329,"connected_time":818000000000,"state":"active","ping":99},{"user_id":332,"name":"M76030","steam_id":76561198046651252,"connected_time":515000000000,"state":"active","ping":56},{"user_id":327,"name":"fyodor","steam_id":76561199384813153,"connected_time":814000000000,"state":"active","ping":62},{"user_id":328,"name":"Zzziiighghmuund","steam_id":76561198798167787,"connected_time":811000000000,"state":"active","ping":68},{"user_id":309,"name":"Witch","steam_id":76561198212059683,"connected_time":2089000000000,"state":"active","ping":67},{"user_id":342,"name":"Ryde","steam_id":76561198296670426,"connected_time":162000000000,"state":"active","ping":76},{"user_id":293,"name":"modavak","steam_id":76561198946290908,"connected_time":4051000000000,"state":"active","ping":106},{"user_id":317,"name":"Appelflap64","steam_id":76561198012819017,"connected_time":1464000000000,"state":"active","ping":69},{"user_id":310,"name":"elliot","steam_id":76561198055010039,"connected_time":2055000000000,"state":"active","ping":64},{"user_id":343,"name":"Amandus","steam_id":76561198036281079,"connected_time":124000000000,"state":"active","ping":62},{"user_id":338,"name":"LOBZIK","steam_id":76561198114830120,"connected_time":310000000000,"state":"active","ping":75},{"user_id":294,"name":"Fish 'n' Chips","steam_id":76561198033476886,"connected_time":3997000000000,"state":"active","ping":45},{"user_id":262,"name":"quagdingo","steam_id":76561198049312442,"connected_time":7147000000000,"state":"active","ping":63},{"user_id":329,"name":"quickfast","steam_id":76561199438900919,"connected_time":776000000000,"state":"active","ping":63}]},{"server_id":110,"name":"Uncletopia | Frankfurt | 2 | All Maps","name_short":"frk-2","host":"frk-1.de.uncletopia.com","port":27025,"enabled":true,"region":"eu","cc":"de","latitude":50.110924,"longitude":8.682127,"reserved":0,"last_update":"0001-01-01T00:00:00Z","name_a2s":"Uncletopia | Frankfurt | 2 | All Maps","protocol":17,"map":"pl_borneo","folder":"tf","game":"Team Fortress","app_id":440,"player_count":1,"max_players":24,"Bots":0,"server_type":"Dedicated","server_os":"Linux","password":true,"vac":true,"version":"7882260","steam_id":85568392924469990,"keywords":["nocrits","nodmgspread","payload","uncletopia"],"game_id":440,"stv_port":27026,"stv_name":"Uncletopia | Frankfurt | 2 | All Maps | STV","players":[{"user_id":23,"name":"tallen","steam_id":76561198061708595,"connected_time":258000000000,"state":"active","ping":66}]},{"server_id":308,"name":"Uncletopia | Frankfurt | 3 | All Maps","name_short":"frk-3","host":"frk-1.de.uncletopia.com","port":27035,"enabled":true,"region":"eu","cc":"de","latitude":50.110924,"longitude":8.682127,"reserved":0,"last_update":"0001-01-01T00:00:00Z","name_a2s":"Uncletopia | Frankfurt | 3 | All Maps","protocol":17,"map":"pl_swiftwater_final1","folder":"tf","game":"Team Fortress","app_id":440,"player_count":24,"max_players":24,"Bots":0,"server_type":"Dedicated","server_os":"Linux","password":true,"vac":true,"version":"7882260","steam_id":85568392924504274,"keywords":["nocrits","nodmgspread","payload","uncletopia"],"game_id":440,"stv_port":27036,"stv_name":"Uncletopia | Frankfurt | 3 | All Maps | STV","players":[{"user_id":6,"name":"Acheron #evilsorcerergang","steam_id":76561198306593373,"connected_time":7536000000000,"state":"active","ping":75},{"user_id":7,"name":"zapdos981","steam_id":76561198119674397,"connected_time":7490000000000,"state":"active","ping":69},{"user_id":114,"name":"Dragon","steam_id":76561198163255365,"connected_time":2220000000000,"state":"active","ping":96},{"user_id":147,"name":"LaskavaKvitka","steam_id":76561198186227578,"connected_time":322000000000,"state":"active","ping":77},{"user_id":143,"name":"PROFILE NAME","steam_id":76561198180056982,"connected_time":618000000000,"state":"active","ping":62},{"user_id":137,"name":"MISTERDJD","steam_id":76561198171447254,"connected_time":1264000000000,"state":"active","ping":106},{"user_id":128,"name":"disposablesuperbread","steam_id":76561199074703607,"connected_time":1687000000000,"state":"active","ping":72},{"user_id":74,"name":"SlwoFÃ¸","steam_id":76561198049663931,"connected_time":3274000000000,"state":"active","ping":57},{"user_id":145,"name":"AL Jardinet","steam_id":76561198126723721,"connected_time":546000000000,"state":"active","ping":64},{"user_id":50,"name":"eva.","steam_id":76561198054474684,"connected_time":4430000000000,"state":"active","ping":74},{"user_id":118,"name":"CAMON ENGELAND","steam_id":76561198054301125,"connected_time":2122000000000,"state":"active","ping":88},{"user_id":138,"name":"Odyssey","steam_id":76561198085086145,"connected_time":1229000000000,"state":"active","ping":59},{"user_id":53,"name":"Peskyplumber64","steam_id":76561198044458330,"connected_time":4315000000000,"state":"active","ping":78},{"user_id":144,"name":"Leche","steam_id":76561198816888764,"connected_time":586000000000,"state":"active","ping":66},{"user_id":54,"name":"soop","steam_id":76561199031638932,"connected_time":4315000000000,"state":"active","ping":84},{"user_id":99,"name":"Senpai Sharpe","steam_id":76561198102226037,"connected_time":2844000000000,"state":"active","ping":81},{"user_id":112,"name":"band-aid copyright infringement","steam_id":76561199027095451,"connected_time":2363000000000,"state":"active","ping":85},{"user_id":141,"name":"daniel.novikov","steam_id":76561199172189811,"connected_time":655000000000,"state":"active","ping":117},{"user_id":139,"name":"Ð–Ð¼Ñ‹Ñ…","steam_id":76561198984346408,"connected_time":1004000000000,"state":"active","ping":69},{"user_id":101,"name":"Master Of Noob","steam_id":76561198217926783,"connected_time":2828000000000,"state":"active","ping":67},{"user_id":102,"name":"Venenakki","steam_id":76561198311526482,"connected_time":2821000000000,"state":"active","ping":67},{"user_id":127,"name":"Tree","steam_id":76561198054795379,"connected_time":1694000000000,"state":"active","ping":58},{"user_id":148,"name":"fmdi","steam_id":76561199433879329,"connected_time":308000000000,"state":"active","ping":99},{"user_id":134,"name":"Purple","steam_id":76561199032365015,"connected_time":1362000000000,"state":"active","ping":87}]},{"server_id":309,"name":"Uncletopia | Frankfurt | 4 | All Maps","name_short":"frk-4","host":"frk-1.de.uncletopia.com","port":27045,"enabled":true,"region":"eu","cc":"de","latitude":50.110924,"longitude":8.682127,"reserved":0,"last_update":"0001-01-01T00:00:00Z","name_a2s":"Uncletopia | Frankfurt | 4 | All Maps","protocol":17,"map":"pl_swiftwater_final1","folder":"tf","game":"Team Fortress","app_id":440,"player_count":18,"max_players":24,"Bots":0,"server_type":"Dedicated","server_os":"Linux","password":true,"vac":true,"version":"7882260","steam_id":85568392924504275,"keywords":["nocrits","nodmgspread","payload","uncletopia"],"game_id":440,"stv_port":27046,"stv_name":"Uncletopia | Frankfurt | 4 | All Maps | STV","players":[{"user_id":266,"name":"Avarage Gnome Enjoyer","steam_id":76561199422569282,"connected_time":679000000000,"state":"active","ping":138},{"user_id":270,"name":"Dave The Sloth","steam_id":76561199135831355,"connected_time":381000000000,"state":"active","ping":63},{"user_id":265,"name":"Ð•Ð¼Ð½Ðµ_Ð“Ñ€Ð¾Ð²","steam_id":76561198079990237,"connected_time":733000000000,"state":"active","ping":117},{"user_id":264,"name":"Andy","steam_id":76561198136364381,"connected_time":782000000000,"state":"active","ping":60},{"user_id":236,"name":"AmssoBador Spacelot","steam_id":76561197993444617,"connected_time":3594000000000,"state":"active","ping":88},{"user_id":268,"name":"FingerMan","steam_id":76561198004040091,"connected_time":520000000000,"state":"active","ping":60},{"user_id":237,"name":"ossop","steam_id":76561198045271499,"connected_time":3583000000000,"state":"active","ping":70},{"user_id":276,"name":"Warped","steam_id":76561197989916494,"connected_time":28000000000,"state":"active","ping":52},{"user_id":272,"name":"Mr. Mundy","steam_id":76561198132008918,"connected_time":258000000000,"state":"active","ping":72},{"user_id":273,"name":"dumdum","steam_id":76561198069430083,"connected_time":202000000000,"state":"active","ping":83},{"user_id":274,"name":"guru{Bishop_45}","steam_id":76561197983245285,"connected_time":144000000000,"state":"active","ping":54},{"user_id":251,"name":"Scrample","steam_id":76561198040422830,"connected_time":2842000000000,"state":"active","ping":46},{"user_id":275,"name":"\u003e:3","steam_id":76561198368312026,"connected_time":127000000000,"state":"active","ping":78},{"user_id":277,"name":"dolo","steam_id":76561198206672297,"connected_time":18000000000,"state":"active","ping":49},{"user_id":263,"name":"YOU ARE SHITTING YOUR SELF","steam_id":76561198371719058,"connected_time":1155000000000,"state":"active","ping":73},{"user_id":253,"name":"faze girldick","steam_id":76561199044306780,"connected_time":2708000000000,"state":"active","ping":83},{"user_id":260,"name":"Rai","steam_id":76561199408923294,"connected_time":1637000000000,"state":"active","ping":86},{"user_id":258,"name":"Ghyros","steam_id":76561198035449643,"connected_time":2262000000000,"state":"active","ping":76}]},{"server_id":310,"name":"Uncletopia | Frankfurt | 5 | All Maps","name_short":"frk-5","host":"frk-1.de.uncletopia.com","port":27055,"enabled":true,"region":"eu","cc":"de","latitude":50.110924,"longitude":8.682127,"reserved":0,"last_update":"0001-01-01T00:00:00Z","name_a2s":"Uncletopia | Frankfurt | 5 | All Maps","protocol":17,"map":"pl_barnblitz","folder":"tf","game":"Team Fortress","app_id":440,"player_count":24,"max_players":24,"Bots":0,"server_type":"Dedicated","server_os":"Linux","password":true,"vac":true,"version":"7882260","steam_id":85568392924504277,"keywords":["nocrits","nodmgspread","payload","uncletopia"],"game_id":440,"stv_port":27056,"stv_name":"Uncletopia | Frankfurt | 5 | All Maps | STV","players":[{"user_id":176,"name":"Leibeigener","steam_id":76561199275478305,"connected_time":1695000000000,"state":"active","ping":38},{"user_id":155,"name":"Kiha","steam_id":76561198031408608,"connected_time":2808000000000,"state":"active","ping":58},{"user_id":202,"name":"foursixsixseven","steam_id":76561199123727043,"connected_time":567000000000,"state":"active","ping":63},{"user_id":203,"name":"JGV","steam_id":76561198094654971,"connected_time":267000000000,"state":"active","ping":82},{"user_id":185,"name":"â™›perry the platypusâ™›","steam_id":76561199379159771,"connected_time":1458000000000,"state":"active","ping":151},{"user_id":199,"name":"richie","steam_id":76561198124159344,"connected_time":720000000000,"state":"active","ping":53},{"user_id":187,"name":"Adorable Animal","steam_id":76561198002451113,"connected_time":1278000000000,"state":"active","ping":105},{"user_id":175,"name":"B3Y0NDTH3M1ND","steam_id":76561198262637389,"connected_time":1730000000000,"state":"active","ping":83},{"user_id":197,"name":"I'm past the point of insanity","steam_id":76561198800954471,"connected_time":1009000000000,"state":"active","ping":85},{"user_id":188,"name":"Augiz","steam_id":76561198332529555,"connected_time":1257000000000,"state":"active","ping":94},{"user_id":204,"name":"Noco","steam_id":76561198217108419,"connected_time":256000000000,"state":"active","ping":70},{"user_id":152,"name":"MpJens","steam_id":76561198000347669,"connected_time":3103000000000,"state":"active","ping":50},{"user_id":161,"name":"Smaug [Ger]","steam_id":76561198853461583,"connected_time":2657000000000,"state":"active","ping":69},{"user_id":205,"name":"æ­£çµ±æ´¾ãƒ©ãƒ“ ãƒ“ãƒ«ãƒ»ã‚¯ãƒª","steam_id":76561198123475157,"connected_time":15000000000,"state":"active","ping":78},{"user_id":200,"name":"oriano","steam_id":76561198099916327,"connected_time":719000000000,"state":"active","ping":60},{"user_id":190,"name":"LemonLeCitron","steam_id":76561198215545267,"connected_time":1232000000000,"state":"active","ping":73},{"user_id":201,"name":"sHIFTINGvORTEX","steam_id":76561198231648332,"connected_time":709000000000,"state":"active","ping":75},{"user_id":35,"name":"Vegetable","steam_id":76561199088284199,"connected_time":10361000000000,"state":"active","ping":59},{"user_id":195,"name":"air arrow legacy","steam_id":76561198180361759,"connected_time":1064000000000,"state":"active","ping":58},{"user_id":165,"name":"Vâ˜…ren","steam_id":76561198063138371,"connected_time":2532000000000,"state":"active","ping":73},{"user_id":192,"name":"Borat","steam_id":76561198122226417,"connected_time":1184000000000,"state":"active","ping":50},{"user_id":148,"name":"miiq130","steam_id":76561198188010666,"connected_time":3699000000000,"state":"active","ping":75},{"user_id":183,"name":"Bayoyo","steam_id":76561199069591774,"connected_time":1556000000000,"state":"active","ping":75},{"user_id":193,"name":"Light601","steam_id":76561198134998492,"connected_time":1172000000000,"state":"active","ping":96}]},{"server_id":311,"name":"Uncletopia | Frankfurt | 6 | All Maps","name_short":"frk-6","host":"frk-1.de.uncletopia.com","port":27065,"enabled":true,"region":"eu","cc":"de","latitude":50.110924,"longitude":8.682127,"reserved":0,"last_update":"0001-01-01T00:00:00Z","name_a2s":"Uncletopia | Frankfurt | 6 | All Maps","protocol":17,"map":"koth_highpass","folder":"tf","game":"Team Fortress","app_id":440,"player_count":4,"max_players":24,"Bots":0,"server_type":"Dedicated","server_os":"Linux","password":true,"vac":true,"version":"7882260","steam_id":85568392924504278,"keywords":["cp","nocrits","nodmgspread","uncletopia"],"game_id":440,"stv_port":27066,"stv_name":"Uncletopia | Frankfurt | 6 | All Maps | STV","players":[{"user_id":11,"name":"idrinkfromshower","steam_id":76561199012442414,"connected_time":1415000000000,"state":"active","ping":117},{"user_id":15,"name":"Sandvich man from sandvich land","steam_id":76561199230379349,"connected_time":1213000000000,"state":"active","ping":59},{"user_id":19,"name":"Jason.Tumble.2017","steam_id":76561198164877219,"connected_time":760000000000,"state":"active","ping":51},{"user_id":20,"name":"KrazyD","steam_id":76561198331101678,"connected_time":737000000000,"state":"active","ping":118}]},{"server_id":23,"name":"Uncletopia | Frankfurt | 7 | Stopwatch Beta","name_short":"frk-7","host":"frk-1.de.uncletopia.com","port":27075,"enabled":true,"region":"eu","cc":"de","latitude":50.110924,"longitude":8.682127,"reserved":0,"last_update":"0001-01-01T00:00:00Z","name_a2s":"Uncletopia | Frankfurt | 7 | Stopwatch Beta","protocol":17,"map":"koth_lakeside_final","folder":"tf","game":"Team Fortress","app_id":440,"player_count":0,"max_players":24,"Bots":0,"server_type":"Dedicated","server_os":"Linux","password":true,"vac":true,"version":"7882260","steam_id":85568392924742827,"keywords":["cp","nocrits","nodmgspread","uncletopia"],"game_id":440,"stv_port":27076,"stv_name":"Uncletopia | Frankfurt | 7 | Stopwatch Beta | STV","players":null},{"server_id":24,"name":"Uncletopia | Frankfurt | 8 | Community","name_short":"frk-8","host":"frk-1.de.uncletopia.com","port":27085,"enabled":true,"region":"eu","cc":"de","latitude":50.110924,"longitude":8.682127,"reserved":0,"last_update":"0001-01-01T00:00:00Z","name_a2s":"Uncletopia | Frankfurt | 8 | Community","protocol":17,"map":"workshop/koth_product_final.ugc454272353","folder":"tf","game":"Team Fortress","app_id":440,"player_count":0,"max_players":24,"Bots":0,"server_type":"Dedicated","server_os":"Linux","password":true,"vac":true,"version":"7882260","steam_id":85568392924742828,"keywords":["cp","nocrits","nodmgspread","uncletopia"],"game_id":440,"stv_port":27086,"stv_name":"Uncletopia | Frankfurt | 8 | Community | STV","players":null},{"server_id":202,"name":"Uncletopia | Hong Kong | 1 | All Maps","name_short":"hgk-1","host":"hgk-1.hk.uncletopia.com","port":27015,"enabled":true,"region":"asia","cc":"hk","latitude":22.302711,"longitude":114.177216,"reserved":0,"last_update":"0001-01-01T00:00:00Z","name_a2s":"Uncletopia | Hong Kong | 1 | All Maps","protocol":17,"map":"koth_cascade","folder":"tf","game":"Team Fortress","app_id":440,"player_count":3,"max_players":24,"Bots":0,"server_type":"Dedicated","server_os":"Linux","password":true,"vac":true,"version":"7882260","steam_id":85568392924494504,"keywords":["cp","nocrits","nodmgspread","uncletopia"],"game_id":440,"stv_port":27016,"stv_name":"Uncletopia | Hong Kong | 1 | All Maps | STV","players":[{"user_id":308,"name":"YourNansFlipFlops","steam_id":76561199363301288,"connected_time":3553000000000,"state":"active","ping":343},{"user_id":309,"name":"konnie031","steam_id":76561198815939590,"connected_time":2029000000000,"state":"active","ping":71},{"user_id":218,"name":"Vortex Swagger","steam_id":76561198833527091,"connected_time":15073000000000,"state":"active","ping":93}]},{"server_id":1,"name":"Uncletopia | Los Angeles | 1 | All Maps","name_short":"lax-1","host":"lax-1.us.uncletopia.com","port":27015,"enabled":true,"region":"us-west","cc":"us","latitude":33.94279,"longitude":-118.41004,"reserved":0,"last_update":"0001-01-01T00:00:00Z","name_a2s":"Uncletopia | Los Angeles | 1 | All Maps","protocol":17,"map":"pl_badwater","folder":"tf","game":"Team Fortress","app_id":440,"player_count":0,"max_players":24,"Bots":0,"server_type":"Dedicated","server_os":"Linux","password":true,"vac":true,"version":"7882260","steam_id":85568392924469991,"keywords":["nocrits","nodmgspread","payload","uncletopia"],"game_id":440,"stv_port":27016,"stv_name":"Uncletopia | Los Angeles | 1 | All Maps | STV","players":null},{"server_id":112,"name":"Uncletopia | Los Angeles | 2 | All Maps","name_short":"lax-2","host":"lax-1.us.uncletopia.com","port":27025,"enabled":true,"region":"us-west","cc":"us","latitude":33.94279,"longitude":-118.41004,"reserved":0,"last_update":"0001-01-01T00:00:00Z","name_a2s":"Uncletopia | Los Angeles | 2 | All Maps","protocol":17,"map":"cp_sunshine","folder":"tf","game":"Team Fortress","app_id":440,"player_count":0,"max_players":24,"Bots":0,"server_type":"Dedicated","server_os":"Linux","password":true,"vac":true,"version":"7882260","steam_id":85568392924469992,"keywords":["cp","nocrits","nodmgspread","uncletopia"],"game_id":440,"stv_port":27026,"stv_name":"Uncletopia | Los Angeles | 2 | All Maps | STV","players":null},{"server_id":324,"name":"Uncletopia | Los Angeles | 3 | All Maps","name_short":"lax-3","host":"lax-1.us.uncletopia.com","port":27035,"enabled":true,"region":"us-west","cc":"us","latitude":33.94279,"longitude":-118.41004,"reserved":0,"last_update":"0001-01-01T00:00:00Z","name_a2s":"Uncletopia | Los Angeles | 3 | All Maps","protocol":17,"map":"pl_swiftwater_final1","folder":"tf","game":"Team Fortress","app_id":440,"player_count":0,"max_players":24,"Bots":0,"server_type":"Dedicated","server_os":"Linux","password":true,"vac":true,"version":"7882260","steam_id":85568392924510198,"keywords":["nocrits","nodmgspread","payload","uncletopia"],"game_id":440,"stv_port":27036,"stv_name":"Uncletopia | Los Angeles | 3 | All Maps | STV","players":null},{"server_id":25,"name":"Uncletopia | Los Angeles | 4 | Stopwatch Beta","name_short":"lax-4","host":"lax-1.us.uncletopia.com","port":27045,"enabled":true,"region":"us-west","cc":"us","latitude":33.94279,"longitude":-118.41004,"reserved":0,"last_update":"0001-01-01T00:00:00Z","name_a2s":"Uncletopia | Los Angeles | 4 | Stopwatch Beta","protocol":17,"map":"koth_viaduct","folder":"tf","game":"Team Fortress","app_id":440,"player_count":0,"max_players":24,"Bots":0,"server_type":"Dedicated","server_os":"Linux","password":true,"vac":true,"version":"7882260","steam_id":85568392924510199,"keywords":["cp","nocrits","nodmgspread","uncletopia"],"game_id":440,"stv_port":27046,"stv_name":"Uncletopia | Los Angeles | 4 | Stopwatch Beta | STV","players":null},{"server_id":11,"name":"Uncletopia | London | 1 | All Maps","name_short":"lon-1","host":"lon-1.uk.uncletopia.com","port":27015,"enabled":true,"region":"eu","cc":"gb","latitude":51.509865,"longitude":-0.118092,"reserved":0,"last_update":"0001-01-01T00:00:00Z","name_a2s":"Uncletopia | London | 1 | All Maps","protocol":17,"map":"pl_frontier_final","folder":"tf","game":"Team Fortress","app_id":440,"player_count":24,"max_players":24,"Bots":0,"server_type":"Dedicated","server_os":"Linux","password":true,"vac":true,"version":"7882260","steam_id":85568392924367362,"keywords":["nocrits","nodmgspread","payload","uncletopia"],"game_id":440,"stv_port":27016,"stv_name":"Uncletopia | London | 1 | All Maps | STV","players":[{"user_id":1156,"name":"Lessoz","steam_id":76561199211572036,"connected_time":1335000000000,"state":"active","ping":85},{"user_id":1142,"name":"Fizzing Fool","steam_id":76561198425415033,"connected_time":2531000000000,"state":"active","ping":87},{"user_id":1172,"name":"Lampinen","steam_id":76561198004936228,"connected_time":21000000000,"state":"active","ping":94},{"user_id":1160,"name":"e9","steam_id":76561198890193313,"connected_time":1033000000000,"state":"active","ping":55},{"user_id":1147,"name":"nevim","steam_id":76561199120843402,"connected_time":2285000000000,"state":"active","ping":62},{"user_id":1167,"name":"Jam","steam_id":76561198090409013,"connected_time":482000000000,"state":"active","ping":86},{"user_id":1137,"name":"papu","steam_id":76561198363864295,"connected_time":3074000000000,"state":"active","ping":77},{"user_id":1148,"name":"fregaropa","steam_id":76561198150806166,"connected_time":2255000000000,"state":"active","ping":82},{"user_id":1136,"name":"Jylppy","steam_id":76561198063544131,"connected_time":3090000000000,"state":"active","ping":78},{"user_id":1170,"name":"JOHN GAMING (#1 gunspy)","steam_id":76561199085822219,"connected_time":188000000000,"state":"active","ping":90},{"user_id":1171,"name":"limbicsystem","steam_id":76561198025612680,"connected_time":185000000000,"state":"active","ping":77},{"user_id":1149,"name":"Å½ena v nejlepÅ¡Ã­ch letech","steam_id":76561198086090119,"connected_time":2165000000000,"state":"active","ping":65},{"user_id":1152,"name":"holykyckling","steam_id":76561198040661615,"connected_time":1885000000000,"state":"active","ping":75},{"user_id":1061,"name":"Snake-chan","steam_id":76561199044755854,"connected_time":8403000000000,"state":"active","ping":74},{"user_id":1151,"name":"Biggest Boss [Knockout]","steam_id":76561198044387120,"connected_time":1930000000000,"state":"active","ping":91},{"user_id":1165,"name":"Priceybay","steam_id":76561198055389492,"connected_time":827000000000,"state":"active","ping":42},{"user_id":1108,"name":"The Puncher","steam_id":76561198360395476,"connected_time":4434000000000,"state":"active","ping":55},{"user_id":1154,"name":"TeaFlavouredCoffee","steam_id":76561198925306032,"connected_time":1520000000000,"state":"active","ping":67},{"user_id":1132,"name":"ahmed1mustafa","steam_id":76561198087437472,"connected_time":3218000000000,"state":"active","ping":60},{"user_id":1028,"name":"something","steam_id":76561198198581615,"connected_time":9945000000000,"state":"active","ping":64},{"user_id":1135,"name":"Wail","steam_id":76561199083647054,"connected_time":3139000000000,"state":"active","ping":94},{"user_id":1138,"name":"Shovelhalfrusty","steam_id":76561198346447513,"connected_time":3041000000000,"state":"active","ping":72},{"user_id":1157,"name":"Methanol Slurper","steam_id":76561198804835507,"connected_time":1237000000000,"state":"active","ping":84},{"user_id":1159,"name":"Evix","steam_id":76561198418450671,"connected_time":1126000000000,"state":"active","ping":71}]},{"server_id":114,"name":"Uncletopia | London | 2 | All Maps","name_short":"lon-2","host":"lon-1.uk.uncletopia.com","port":27025,"enabled":true,"region":"eu","cc":"gb","latitude":51.509865,"longitude":-0.118092,"reserved":0,"last_update":"0001-01-01T00:00:00Z","name_a2s":"Uncletopia | London | 2 | All Maps","protocol":17,"map":"pl_barnblitz","folder":"tf","game":"Team Fortress","app_id":440,"player_count":24,"max_players":24,"Bots":0,"server_type":"Dedicated","server_os":"Linux","password":true,"vac":true,"version":"7882260","steam_id":85568392924470941,"keywords":["nocrits","nodmgspread","payload","uncletopia"],"game_id":440,"stv_port":27026,"stv_name":"Uncletopia | London | 2 | All Maps | STV","players":[{"user_id":337,"name":"Shork","steam_id":76561198130195469,"connected_time":5909000000000,"state":"active","ping":86},{"user_id":405,"name":"Official The Last Thing You Saw","steam_id":76561198139023460,"connected_time":1622000000000,"state":"active","ping":53},{"user_id":410,"name":"Umbraprism","steam_id":76561197984504910,"connected_time":1423000000000,"state":"active","ping":55},{"user_id":400,"name":"W","steam_id":76561198273623211,"connected_time":1744000000000,"state":"active","ping":87},{"user_id":417,"name":"p1dgeon ã‚·","steam_id":76561199109713313,"connected_time":1162000000000,"state":"active","ping":45},{"user_id":418,"name":"haemir","steam_id":76561198050051516,"connected_time":1140000000000,"state":"active","ping":69},{"user_id":422,"name":"Yozeb","steam_id":76561198035000345,"connected_time":155000000000,"state":"active","ping":70},{"user_id":374,"name":"Cyberpsycho","steam_id":76561198013528365,"connected_time":2757000000000,"state":"active","ping":61},{"user_id":399,"name":"Monky","steam_id":76561198167413545,"connected_time":1811000000000,"state":"active","ping":54},{"user_id":421,"name":"Trendyboy","steam_id":76561197994908436,"connected_time":656000000000,"state":"active","ping":77},{"user_id":409,"name":"zombee","steam_id":76561198869651716,"connected_time":1540000000000,"state":"active","ping":55},{"user_id":419,"name":"Dan86130","steam_id":76561199187190436,"connected_time":1127000000000,"state":"active","ping":68},{"user_id":334,"name":"hot guy","steam_id":76561198083063005,"connected_time":6250000000000,"state":"active","ping":33},{"user_id":411,"name":"first ever nonbinary","steam_id":76561199181821779,"connected_time":1402000000000,"state":"active","ping":63},{"user_id":377,"name":"Shark","steam_id":76561198205226501,"connected_time":2569000000000,"state":"active","ping":156},{"user_id":404,"name":"Nyrgon","steam_id":76561198269206916,"connected_time":1692000000000,"state":"active","ping":71},{"user_id":301,"name":"[O\u0026O]YaboiDucki","steam_id":76561198195976589,"connected_time":8052000000000,"state":"active","ping":76},{"user_id":416,"name":"testikal","steam_id":76561199049633351,"connected_time":1200000000000,"state":"active","ping":71},{"user_id":415,"name":"mi cara cuando","steam_id":76561199387584010,"connected_time":1356000000000,"state":"active","ping":83},{"user_id":309,"name":"myko","steam_id":76561198889987634,"connected_time":7738000000000,"state":"active","ping":75},{"user_id":420,"name":"GabGame","steam_id":76561198105631808,"connected_time":1098000000000,"state":"active","ping":62},{"user_id":358,"name":"Hydrone","steam_id":76561198046485365,"connected_time":4030000000000,"state":"active","ping":55},{"user_id":407,"name":"wibe","steam_id":76561198002519060,"connected_time":1604000000000,"state":"active","ping":89},{"user_id":408,"name":"Godly Medic","steam_id":76561198148359093,"connected_time":1602000000000,"state":"active","ping":34}]},{"server_id":320,"name":"Uncletopia | London | 3 | All Maps","name_short":"lon-3","host":"lon-1.uk.uncletopia.com","port":27035,"enabled":true,"region":"eu","cc":"gb","latitude":51.509865,"longitude":-0.118092,"reserved":0,"last_update":"0001-01-01T00:00:00Z","name_a2s":"Uncletopia | London | 3 | All Maps","protocol":17,"map":"pl_upward","folder":"tf","game":"Team Fortress","app_id":440,"player_count":24,"max_players":24,"Bots":0,"server_type":"Dedicated","server_os":"Linux","password":true,"vac":true,"version":"7882260","steam_id":85568392924510192,"keywords":["nocrits","nodmgspread","payload","uncletopia"],"game_id":440,"stv_port":27036,"stv_name":"Uncletopia | London | 3 | All Maps | STV","players":[{"user_id":486,"name":"Fat Pigeon","steam_id":76561198817940142,"connected_time":137000000000,"state":"active","ping":46},{"user_id":487,"name":"Kahvi","steam_id":76561198723244199,"connected_time":133000000000,"state":"active","ping":77},{"user_id":463,"name":"germinator","steam_id":76561199387893648,"connected_time":2248000000000,"state":"active","ping":104},{"user_id":411,"name":"Lubrsi","steam_id":76561198040208195,"connected_time":5872000000000,"state":"active","ping":48},{"user_id":488,"name":"B.batt","steam_id":76561198998684199,"connected_time":95000000000,"state":"active","ping":120},{"user_id":489,"name":"Omyskull","steam_id":76561198131711758,"connected_time":86000000000,"state":"active","ping":65},{"user_id":490,"name":"Innu","steam_id":76561198232704060,"connected_time":70000000000,"state":"active","ping":125},{"user_id":491,"name":"Xriasp","steam_id":76561198104721321,"connected_time":60000000000,"state":"active","ping":91},{"user_id":492,"name":"Sakari","steam_id":76561197997811299,"connected_time":34000000000,"state":"active","ping":63},{"user_id":472,"name":"Well, off to hang myself","steam_id":76561198053374944,"connected_time":1642000000000,"state":"active","ping":66},{"user_id":493,"name":"Yeets3er","steam_id":76561199137127757,"connected_time":24000000000,"state":"active","ping":62},{"user_id":485,"name":"Dwevy","steam_id":76561198090379437,"connected_time":232000000000,"state":"active","ping":50},{"user_id":477,"name":"Fasj.","steam_id":76561198049975379,"connected_time":1275000000000,"state":"active","ping":50},{"user_id":425,"name":"Yuzu","steam_id":76561198121694613,"connected_time":5140000000000,"state":"active","ping":46},{"user_id":494,"name":"Aro","steam_id":76561198067247630,"connected_time":21000000000,"state":"active","ping":78},{"user_id":495,"name":"ZagreusNoMoney","steam_id":76561198996162089,"connected_time":16000000000,"state":"spawning","ping":63},{"user_id":445,"name":"Winter","steam_id":76561198134805479,"connected_time":3047000000000,"state":"active","ping":46},{"user_id":467,"name":"reformed i swear","steam_id":76561198152392309,"connected_time":1981000000000,"state":"active","ping":52},{"user_id":479,"name":"wal","steam_id":76561198066043883,"connected_time":1189000000000,"state":"active","ping":59},{"user_id":461,"name":"Suolainen","steam_id":76561198133341026,"connected_time":2429000000000,"state":"active","ping":92},{"user_id":468,"name":"doopsuiker","steam_id":76561198025916703,"connected_time":1840000000000,"state":"active","ping":63},{"user_id":496,"name":"OutOfDucks","steam_id":76561198166376227,"connected_time":10000000000,"state":"active","ping":69},{"user_id":444,"name":"Bambi","steam_id":76561198166972711,"connected_time":3602000000000,"state":"active","ping":48},{"user_id":475,"name":"ONDRASEKCUKROUSEK","steam_id":76561198254030118,"connected_time":1393000000000,"state":"active","ping":60}]},{"server_id":321,"name":"Uncletopia | London | 4 | All Maps","name_short":"lon-4","host":"lon-1.uk.uncletopia.com","port":27045,"enabled":true,"region":"eu","cc":"gb","latitude":51.509865,"longitude":-0.118092,"reserved":0,"last_update":"0001-01-01T00:00:00Z","name_a2s":"Uncletopia | London | 4 | All Maps","protocol":17,"map":"pl_frontier_final","folder":"tf","game":"Team Fortress","app_id":440,"player_count":24,"max_players":24,"Bots":0,"server_type":"Dedicated","server_os":"Linux","password":true,"vac":true,"version":"7882260","steam_id":85568392924510193,"keywords":["nocrits","nodmgspread","payload","uncletopia"],"game_id":440,"stv_port":27046,"stv_name":"Uncletopia | London | 4 | All Maps | STV","players":[{"user_id":76,"name":"Maldom","steam_id":76561198000687053,"connected_time":4199000000000,"state":"active","ping":53},{"user_id":104,"name":"Wujek Cacek","steam_id":76561198010267943,"connected_time":1065000000000,"state":"active","ping":75},{"user_id":115,"name":"JustNo.","steam_id":76561199025402885,"connected_time":464000000000,"state":"active","ping":45},{"user_id":113,"name":"DarthPaul8181","steam_id":76561198373050455,"connected_time":504000000000,"state":"active","ping":44},{"user_id":111,"name":"Even RÃ¼Ã¼d","steam_id":76561197981144291,"connected_time":876000000000,"state":"active","ping":72},{"user_id":116,"name":"BenteBent","steam_id":76561198297920637,"connected_time":438000000000,"state":"active","ping":33},{"user_id":117,"name":"hedon/","steam_id":76561198249832770,"connected_time":435000000000,"state":"active","ping":47},{"user_id":118,"name":"Mr. Oak","steam_id":76561198331315713,"connected_time":422000000000,"state":"active","ping":75},{"user_id":75,"name":"ÐÐ½Ð´Ñ€ÐµÑ‰_CZ","steam_id":76561198312530456,"connected_time":4286000000000,"state":"active","ping":83},{"user_id":89,"name":"Dr. Mike","steam_id":76561197991205793,"connected_time":2808000000000,"state":"active","ping":76},{"user_id":103,"name":"kreeekz","steam_id":76561198014431602,"connected_time":1102000000000,"state":"active","ping":75},{"user_id":119,"name":"spooky buisness","steam_id":76561199065599888,"connected_time":420000000000,"state":"active","ping":61},{"user_id":129,"name":"The.Real.Genesis","steam_id":76561198999652040,"connected_time":5000000000,"state":"spawning","ping":57},{"user_id":121,"name":"fshfkr","steam_id":76561198095979282,"connected_time":385000000000,"state":"active","ping":33},{"user_id":114,"name":"Fishsick lord","steam_id":76561198887904255,"connected_time":504000000000,"state":"active","ping":161},{"user_id":122,"name":"Gunvald","steam_id":76561198020195322,"connected_time":380000000000,"state":"active","ping":80},{"user_id":123,"name":"WhoCares","steam_id":76561198041848948,"connected_time":357000000000,"state":"active","ping":64},{"user_id":124,"name":"Townsend And Sons","steam_id":76561199072698153,"connected_time":348000000000,"state":"active","ping":70},{"user_id":110,"name":"Krefa12","steam_id":76561198268375393,"connected_time":884000000000,"state":"active","ping":94},{"user_id":97,"name":"Bullet magnet (FIN)","steam_id":76561197975715220,"connected_time":2033000000000,"state":"active","ping":91},{"user_id":109,"name":"kallerannar","steam_id":76561199095701143,"connected_time":902000000000,"state":"active","ping":85},{"user_id":112,"name":"Exe_Red","steam_id":76561198154952759,"connected_time":577000000000,"state":"active","ping":82},{"user_id":127,"name":"Mussolini","steam_id":76561198218384865,"connected_time":161000000000,"state":"active","ping":103},{"user_id":72,"name":"Dr Crow","steam_id":76561198138444201,"connected_time":4542000000000,"state":"active","ping":49}]},{"server_id":21,"name":"Uncletopia | London | 5 | All Maps","name_short":"lon-5","host":"lon-1.uk.uncletopia.com","port":27055,"enabled":true,"region":"eu","cc":"gb","latitude":51.509865,"longitude":-0.118092,"reserved":0,"last_update":"0001-01-01T00:00:00Z","name_a2s":"Uncletopia | London | 5 | All Maps","protocol":17,"map":"koth_harvest_final","folder":"tf","game":"Team Fortress","app_id":440,"player_count":22,"max_players":24,"Bots":0,"server_type":"Dedicated","server_os":"Linux","password":true,"vac":true,"version":"7882260","steam_id":85568392924742829,"keywords":["cp","nocrits","nodmgspread","uncletopia"],"game_id":440,"stv_port":27056,"stv_name":"Uncletopia | London | 5 | All Maps | STV","players":[{"user_id":99,"name":"the greep","steam_id":76561199065909635,"connected_time":278000000000,"state":"active","ping":60},{"user_id":100,"name":"rajAs","steam_id":76561198035928111,"connected_time":274000000000,"state":"active","ping":86},{"user_id":47,"name":"soliD","steam_id":76561198164480210,"connected_time":3110000000000,"state":"active","ping":47},{"user_id":101,"name":"PASS","steam_id":76561198042006569,"connected_time":259000000000,"state":"active","ping":78},{"user_id":48,"name":"Egtu","steam_id":76561198013757235,"connected_time":3046000000000,"state":"active","ping":60},{"user_id":70,"name":"cold","steam_id":76561198068081430,"connected_time":1691000000000,"state":"active","ping":43},{"user_id":82,"name":"Dr.Nefario","steam_id":76561198874586020,"connected_time":1135000000000,"state":"active","ping":73},{"user_id":102,"name":"FrogInShorts","steam_id":76561198081903213,"connected_time":257000000000,"state":"active","ping":131},{"user_id":109,"name":"legendarius6","steam_id":76561199380091608,"connected_time":80000000000,"state":"active","ping":54},{"user_id":103,"name":"Sensei","steam_id":76561198383582429,"connected_time":186000000000,"state":"active","ping":91},{"user_id":110,"name":"Hamz","steam_id":76561198797555170,"connected_time":65000000000,"state":"active","ping":53},{"user_id":104,"name":"glow","steam_id":76561198086654069,"connected_time":164000000000,"state":"active","ping":68},{"user_id":29,"name":"Ankle Dane","steam_id":76561198134378108,"connected_time":3963000000000,"state":"active","ping":84},{"user_id":69,"name":"ran is running","steam_id":76561199443185667,"connected_time":1985000000000,"state":"active","ping":130},{"user_id":94,"name":"=","steam_id":76561198184881255,"connected_time":743000000000,"state":"active","ping":62},{"user_id":43,"name":"BORGETENNISCLUB","steam_id":76561198049343723,"connected_time":3378000000000,"state":"active","ping":59},{"user_id":111,"name":"Italian Peter","steam_id":76561199121436388,"connected_time":54000000000,"state":"active","ping":85},{"user_id":37,"name":"ultra lox","steam_id":76561199427318825,"connected_time":3777000000000,"state":"active","ping":175},{"user_id":59,"name":"Trupp","steam_id":76561198115884227,"connected_time":2519000000000,"state":"active","ping":80},{"user_id":112,"name":"Irish (Hamz Hater)","steam_id":76561199423438785,"connected_time":40000000000,"state":"active","ping":50},{"user_id":40,"name":"Saihtama","steam_id":76561198067497192,"connected_time":3734000000000,"state":"active","ping":86},{"user_id":63,"name":"â¤Daurâ˜® #SaveTF2","steam_id":76561198114595380,"connected_time":2373000000000,"state":"active","ping":86}]},{"server_id":22,"name":"Uncletopia | London | 6 | All Maps","name_short":"lon-6","host":"lon-1.uk.uncletopia.com","port":27065,"enabled":true,"region":"eu","cc":"gb","latitude":51.509865,"longitude":-0.118092,"reserved":0,"last_update":"0001-01-01T00:00:00Z","name_a2s":"Uncletopia | London | 6 | All Maps","protocol":17,"map":"koth_lakeside_final","folder":"tf","game":"Team Fortress","app_id":440,"player_count":0,"max_players":24,"Bots":0,"server_type":"Dedicated","server_os":"Linux","password":true,"vac":true,"version":"7882260","steam_id":85568392924742830,"keywords":["cp","nocrits","nodmgspread","uncletopia"],"game_id":440,"stv_port":27066,"stv_name":"Uncletopia | London | 6 | All Maps | STV","players":null},{"server_id":40,"name":"Uncletopia | London | 7 | No Payload","name_short":"lon-7","host":"lon-1.uk.uncletopia.com","port":27075,"enabled":true,"region":"eu","cc":"gb","latitude":51.509865,"longitude":-0.118092,"reserved":0,"last_update":"0001-01-01T00:00:00Z","name_a2s":"Uncletopia | London | 7 | No Payload","protocol":17,"map":"pl_upward","folder":"tf","game":"Team Fortress","app_id":440,"player_count":0,"max_players":24,"Bots":0,"server_type":"Dedicated","server_os":"Linux","password":true,"vac":true,"version":"7882260","steam_id":85568392924964314,"keywords":["nocrits","nodmgspread","payload","uncletopia"],"game_id":440,"stv_port":27076,"stv_name":"Uncletopia | London | 7 | No Payload | STV","players":null},{"server_id":41,"name":"Uncletopia | London | 8 | Community","name_short":"lon-8","host":"lon-1.uk.uncletopia.com","port":27085,"enabled":true,"region":"eu","cc":"gb","latitude":51.509865,"longitude":-0.118092,"reserved":0,"last_update":"0001-01-01T00:00:00Z","name_a2s":"Uncletopia | London | 8 | Community","protocol":17,"map":"workshop/koth_ramjam_rc1.ugc459778887","folder":"tf","game":"Team Fortress","app_id":440,"player_count":0,"max_players":24,"Bots":0,"server_type":"Dedicated","server_os":"Linux","password":true,"vac":true,"version":"7882260","steam_id":85568392924964315,"keywords":["cp","nocrits","nodmgspread","uncletopia"],"game_id":440,"stv_port":27086,"stv_name":"Uncletopia | London | 8 | Community | STV","players":null},{"server_id":300,"name":"Uncletopia | MontrÃ©al | 1 | All Maps","name_short":"mtl-1","host":"mtl-1.ca.uncletopia.com","port":27015,"enabled":true,"region":"us-east","cc":"ca","latitude":45.50889,"longitude":-73.56167,"reserved":0,"last_update":"0001-01-01T00:00:00Z","name_a2s":"Uncletopia | MontrÃ©al | 1 | All Maps","protocol":17,"map":"koth_cascade","folder":"tf","game":"Team Fortress","app_id":440,"player_count":0,"max_players":24,"Bots":0,"server_type":"Dedicated","server_os":"Linux","password":true,"vac":true,"version":"7882260","steam_id":85568392924500087,"keywords":["cp","nocrits","nodmgspread","uncletopia"],"game_id":440,"stv_port":27016,"stv_name":"Uncletopia | MontrÃ©al | 1 | All Maps | STV","players":null},{"server_id":301,"name":"Uncletopia | MontrÃ©al | 2 | All Maps","name_short":"mtl-2","host":"mtl-1.ca.uncletopia.com","port":27025,"enabled":true,"region":"us-east","cc":"ca","latitude":45.50889,"longitude":-73.56167,"reserved":0,"last_update":"0001-01-01T00:00:00Z","name_a2s":"Uncletopia | MontrÃ©al | 2 | All Maps","protocol":17,"map":"pl_swiftwater_final1","folder":"tf","game":"Team Fortress","app_id":440,"player_count":0,"max_players":24,"Bots":0,"server_type":"Dedicated","server_os":"Linux","password":true,"vac":true,"version":"7882260","steam_id":85568392924500088,"keywords":["nocrits","nodmgspread","payload","uncletopia"],"game_id":440,"stv_port":27026,"stv_name":"Uncletopia | MontrÃ©al | 2 | All Maps | STV","players":null},{"server_id":302,"name":"Uncletopia | MontrÃ©al | 3 | All Maps","name_short":"mtl-3","host":"mtl-1.ca.uncletopia.com","port":27035,"enabled":true,"region":"us-east","cc":"ca","latitude":45.50889,"longitude":-73.56167,"reserved":0,"last_update":"0001-01-01T00:00:00Z","name_a2s":"Uncletopia | MontrÃ©al | 3 | All Maps","protocol":17,"map":"koth_highpass","folder":"tf","game":"Team Fortress","app_id":440,"player_count":0,"max_players":24,"Bots":0,"server_type":"Dedicated","server_os":"Linux","password":true,"vac":true,"version":"7882260","steam_id":85568392924500089,"keywords":["cp","nocrits","nodmgspread","uncletopia"],"game_id":440,"stv_port":27036,"stv_name":"Uncletopia | MontrÃ©al | 3 | All Maps | STV","players":null},{"server_id":303,"name":"Uncletopia | MontrÃ©al | 4 | No Payload","name_short":"mtl-4","host":"mtl-1.ca.uncletopia.com","port":27045,"enabled":true,"region":"us-east","cc":"ca","latitude":45.50889,"longitude":-73.56167,"reserved":0,"last_update":"0001-01-01T00:00:00Z","name_a2s":"Uncletopia | MontrÃ©al | 4 | No Payload","protocol":17,"map":"koth_highpass","folder":"tf","game":"Team Fortress","app_id":440,"player_count":0,"max_players":24,"Bots":0,"server_type":"Dedicated","server_os":"Linux","password":true,"vac":true,"version":"7882260","steam_id":85568392924500090,"keywords":["cp","nocrits","nodmgspread","uncletopia"],"game_id":440,"stv_port":27046,"stv_name":"Uncletopia | MontrÃ©al | 4 | No Payload | STV","players":null},{"server_id":13,"name":"Uncletopia | New York City | 1 | All Maps","name_short":"nyc-1","host":"nyc-1.us.uncletopia.com","port":27015,"enabled":true,"region":"us-east","cc":"us","latitude":40.73061,"longitude":-73.93524,"reserved":0,"last_update":"0001-01-01T00:00:00Z","name_a2s":"Uncletopia | New York City | 1 | All Maps","protocol":17,"map":"pl_swiftwater_final1","folder":"tf","game":"Team Fortress","app_id":440,"player_count":24,"max_players":24,"Bots":0,"server_type":"Dedicated","server_os":"Linux","password":true,"vac":true,"version":"7882260","steam_id":85568392924469993,"keywords":["nocrits","nodmgspread","payload","uncletopia"],"game_id":440,"stv_port":27016,"stv_name":"Uncletopia | New York City | 1 | All Maps | STV","players":[{"user_id":10,"name":"Gentoo Linux Gaming","steam_id":76561197999657118,"connected_time":5049000000000,"state":"active","ping":64},{"user_id":53,"name":"sphinxmagoo","steam_id":76561198057001653,"connected_time":2119000000000,"state":"active","ping":50},{"user_id":84,"name":"Epicus Lusor","steam_id":76561198271981088,"connected_time":902000000000,"state":"active","ping":66},{"user_id":89,"name":"Kronk","steam_id":76561198063092125,"connected_time":588000000000,"state":"active","ping":70},{"user_id":72,"name":"pigfarmer.gov","steam_id":76561199071167548,"connected_time":1531000000000,"state":"active","ping":80},{"user_id":94,"name":"Whirblewind","steam_id":76561197964722449,"connected_time":323000000000,"state":"active","ping":75},{"user_id":93,"name":"Reversinator","steam_id":76561198028935735,"connected_time":402000000000,"state":"active","ping":88},{"user_id":68,"name":"J.G. Klaus","steam_id":76561198001111196,"connected_time":1616000000000,"state":"active","ping":90},{"user_id":91,"name":"Grass type","steam_id":76561198096860013,"connected_time":468000000000,"state":"active","ping":42},{"user_id":65,"name":"Voodo133","steam_id":76561198042670351,"connected_time":1731000000000,"state":"active","ping":80},{"user_id":92,"name":"-W3E- grim10465","steam_id":76561198045698581,"connected_time":445000000000,"state":"active","ping":30},{"user_id":77,"name":"StuartBell511","steam_id":76561198060931721,"connected_time":1379000000000,"state":"active","ping":74},{"user_id":44,"name":"Chezaus","steam_id":76561198317397837,"connected_time":3134000000000,"state":"active","ping":69},{"user_id":73,"name":"McDonald Dipped Cone","steam_id":76561198167974713,"connected_time":1503000000000,"state":"active","ping":67},{"user_id":83,"name":"OWOverkill","steam_id":76561198120569764,"connected_time":1024000000000,"state":"active","ping":70},{"user_id":86,"name":"Lucille_Bluth","steam_id":76561198206133916,"connected_time":870000000000,"state":"active","ping":67},{"user_id":74,"name":"Ender","steam_id":76561198823871973,"connected_time":1469000000000,"state":"active","ping":83},{"user_id":75,"name":"Yato","steam_id":76561198084100335,"connected_time":1466000000000,"state":"active","ping":76},{"user_id":87,"name":":/","steam_id":76561199058469259,"connected_time":836000000000,"state":"active","ping":62},{"user_id":79,"name":"MilkingRocks","steam_id":76561198106169545,"connected_time":1309000000000,"state":"active","ping":73},{"user_id":80,"name":"crayonnipple","steam_id":76561198070253331,"connected_time":1300000000000,"state":"active","ping":73},{"user_id":37,"name":"papi perro","steam_id":76561198021649180,"connected_time":3429000000000,"state":"active","ping":37},{"user_id":88,"name":"just like a cokey cola","steam_id":76561198046111695,"connected_time":826000000000,"state":"active","ping":73},{"user_id":82,"name":"Greencoffee","steam_id":76561198842090589,"connected_time":1189000000000,"state":"active","ping":143}]},{"server_id":14,"name":"Uncletopia | New York City | 2 | All Maps","name_short":"nyc-2","host":"nyc-1.us.uncletopia.com","port":27025,"enabled":true,"region":"us-east","cc":"us","latitude":40.73061,"longitude":-73.93524,"reserved":0,"last_update":"0001-01-01T00:00:00Z","name_a2s":"Uncletopia | New York City | 2 | All Maps","protocol":17,"map":"koth_viaduct","folder":"tf","game":"Team Fortress","app_id":440,"player_count":0,"max_players":24,"Bots":0,"server_type":"Dedicated","server_os":"Linux","password":true,"vac":true,"version":"7882260","steam_id":85568392924469994,"keywords":["cp","nocrits","nodmgspread","uncletopia"],"game_id":440,"stv_port":27026,"stv_name":"Uncletopia | New York City | 2 | All Maps | STV","players":null},{"server_id":15,"name":"Uncletopia | New York City | 3 | Stopwatch Beta","name_short":"nyc-3","host":"nyc-1.us.uncletopia.com","port":27035,"enabled":true,"region":"us-east","cc":"us","latitude":40.73061,"longitude":-73.93524,"reserved":0,"last_update":"0001-01-01T00:00:00Z","name_a2s":"Uncletopia | New York City | 3 | Stopwatch Beta","protocol":17,"map":"pl_borneo","folder":"tf","game":"Team Fortress","app_id":440,"player_count":0,"max_players":24,"Bots":0,"server_type":"Dedicated","server_os":"Linux","password":true,"vac":true,"version":"7882260","steam_id":85568392924742820,"keywords":["nocrits","nodmgspread","payload","uncletopia"],"game_id":440,"stv_port":27036,"stv_name":"Uncletopia | New York City | 3 | Stopwatch Beta | STV","players":null},{"server_id":16,"name":"Uncletopia | New York City | 4 | Community","name_short":"nyc-4","host":"nyc-1.us.uncletopia.com","port":27045,"enabled":true,"region":"us-east","cc":"us","latitude":40.73061,"longitude":-73.93524,"reserved":0,"last_update":"0001-01-01T00:00:00Z","name_a2s":"Uncletopia | New York City | 4 | Community","protocol":17,"map":"workshop/cp_overgrown_rc7b.ugc503939302","folder":"tf","game":"Team Fortress","app_id":440,"player_count":0,"max_players":24,"Bots":0,"server_type":"Dedicated","server_os":"Linux","password":true,"vac":true,"version":"7882260","steam_id":85568392924742821,"keywords":["cp","nocrits","nodmgspread","uncletopia"],"game_id":440,"stv_port":27046,"stv_name":"Uncletopia | New York City | 4 | Community | STV","players":null},{"server_id":142,"name":"Uncletopia | SÃ£o Paulo | 1 | All Maps","name_short":"sao-1","host":"sao-1.br.uncletopia.com","port":27015,"enabled":true,"region":"sa","cc":"br","latitude":-23.533773,"longitude":-46.62529,"reserved":0,"last_update":"0001-01-01T00:00:00Z","name_a2s":"Uncletopia | SÃ£o Paulo | 1 | All Maps","protocol":17,"map":"koth_viaduct","folder":"tf","game":"Team Fortress","app_id":440,"player_count":0,"max_players":24,"Bots":0,"server_type":"Dedicated","server_os":"Linux","password":true,"vac":true,"version":"7882260","steam_id":85568392924469996,"keywords":["cp","nocrits","nodmgspread","uncletopia"],"game_id":440,"stv_port":27016,"stv_name":"Uncletopia | SÃ£o Paulo | 1 | All Maps | STV","players":null},{"server_id":143,"name":"Uncletopia | SÃ£o Paulo | 2 | All Maps","name_short":"sao-2","host":"sao-2.br.uncletopia.com","port":27015,"enabled":true,"region":"sa","cc":"br","latitude":-23.533773,"longitude":-46.62529,"reserved":0,"last_update":"0001-01-01T00:00:00Z","name_a2s":"Uncletopia | SÃ£o Paulo | 2 | All Maps","protocol":17,"map":"koth_viaduct","folder":"tf","game":"Team Fortress","app_id":440,"player_count":0,"max_players":24,"Bots":0,"server_type":"Dedicated","server_os":"Linux","password":true,"vac":true,"version":"7882260","steam_id":85568392924485349,"keywords":["cp","nocrits","nodmgspread","uncletopia"],"game_id":440,"stv_port":27016,"stv_name":"Uncletopia | SÃ£o Paulo | 2 | All Maps | STV","players":null},{"server_id":7,"name":"Uncletopia | Seattle | 1 | All Maps","name_short":"sea-1","host":"sea-1.us.uncletopia.com","port":27015,"enabled":true,"region":"us-west","cc":"us","latitude":47.608013,"longitude":-122.33517,"reserved":0,"last_update":"0001-01-01T00:00:00Z","name_a2s":"Uncletopia | Seattle | 1 | All Maps","protocol":17,"map":"pl_frontier_final","folder":"tf","game":"Team Fortress","app_id":440,"player_count":24,"max_players":24,"Bots":0,"server_type":"Dedicated","server_os":"Linux","password":true,"vac":true,"version":"7882260","steam_id":85568392924469997,"keywords":["nocrits","nodmgspread","payload","uncletopia"],"game_id":440,"stv_port":27016,"stv_name":"Uncletopia | Seattle | 1 | All Maps | STV","players":[{"user_id":211,"name":"ChefBunny","steam_id":76561198243610560,"connected_time":263000000000,"state":"active","ping":76},{"user_id":175,"name":"Goldensliv","steam_id":76561198161673891,"connected_time":3715000000000,"state":"active","ping":66},{"user_id":186,"name":"Yam Jazzy Jim","steam_id":76561198000788950,"connected_time":3214000000000,"state":"active","ping":114},{"user_id":188,"name":"SAD MOSCOVIA","steam_id":76561198101081520,"connected_time":2996000000000,"state":"active","ping":69},{"user_id":176,"name":"Overcast Raven","steam_id":76561198299900402,"connected_time":3653000000000,"state":"active","ping":130},{"user_id":22,"name":"lox","steam_id":76561198288531493,"connected_time":15173000000000,"state":"active","ping":54},{"user_id":208,"name":"Jovo","steam_id":76561197993265970,"connected_time":939000000000,"state":"active","ping":45},{"user_id":192,"name":"Gm_Trash","steam_id":76561199445091548,"connected_time":2381000000000,"state":"active","ping":67},{"user_id":198,"name":"Gaiduk","steam_id":76561198112323877,"connected_time":1985000000000,"state":"active","ping":123},{"user_id":181,"name":"Bombat","steam_id":76561198083096946,"connected_time":3475000000000,"state":"active","ping":98},{"user_id":210,"name":"jayeskae","steam_id":76561198144220801,"connected_time":318000000000,"state":"active","ping":48},{"user_id":204,"name":"pylot","steam_id":76561198119460618,"connected_time":1504000000000,"state":"active","ping":87},{"user_id":179,"name":"Dude Guy Bruh","steam_id":76561198006569710,"connected_time":3567000000000,"state":"active","ping":133},{"user_id":201,"name":"JohnnyDev","steam_id":76561198210288963,"connected_time":1575000000000,"state":"active","ping":110},{"user_id":162,"name":"Dad 2","steam_id":76561198138546187,"connected_time":4840000000000,"state":"active","ping":121},{"user_id":209,"name":"Jacob Hornberger 2016","steam_id":76561198204549723,"connected_time":918000000000,"state":"active","ping":117},{"user_id":196,"name":"Bishuhp","steam_id":76561198015062850,"connected_time":2067000000000,"state":"active","ping":52},{"user_id":187,"name":"ãµã‚ãµã‚æ¯›å¸ƒ","steam_id":76561198088403016,"connected_time":3170000000000,"state":"active","ping":180},{"user_id":206,"name":"Bandana Bullet","steam_id":76561198397347120,"connected_time":1448000000000,"state":"active","ping":102},{"user_id":212,"name":"Ronnie Pickering!","steam_id":76561198041842118,"connected_time":108000000000,"state":"active","ping":90},{"user_id":141,"name":"KonJac","steam_id":76561198027812652,"connected_time":6210000000000,"state":"active","ping":76},{"user_id":145,"name":"CollDragon","steam_id":76561198067534450,"connected_time":6006000000000,"state":"active","ping":130},{"user_id":213,"name":"sexypringle","steam_id":76561198401282091,"connected_time":5000000000,"state":"spawning","ping":59},{"user_id":205,"name":"dnaak","steam_id":76561197960489193,"connected_time":1498000000000,"state":"active","ping":105}]},{"server_id":119,"name":"Uncletopia | Seattle | 2 | All Maps","name_short":"sea-2","host":"sea-1.us.uncletopia.com","port":27025,"enabled":true,"region":"us-west","cc":"us","latitude":47.608013,"longitude":-122.33517,"reserved":0,"last_update":"0001-01-01T00:00:00Z","name_a2s":"Uncletopia | Seattle | 2 | All Maps","protocol":17,"map":"plr_bananabay","folder":"tf","game":"Team Fortress","app_id":440,"player_count":0,"max_players":24,"Bots":0,"server_type":"Dedicated","server_os":"Linux","password":true,"vac":true,"version":"7882260","steam_id":85568392924469998,"keywords":["nocrits","nodmgspread","payload","uncletopia"],"game_id":440,"stv_port":27026,"stv_name":"Uncletopia | Seattle | 2 | All Maps | STV","players":null},{"server_id":406,"name":"Uncletopia | Seattle | 3 | Stopwatch Beta","name_short":"sea-3","host":"sea-1.us.uncletopia.com","port":27035,"enabled":true,"region":"us-west","cc":"us","latitude":47.608013,"longitude":-122.33517,"reserved":0,"last_update":"0001-01-01T00:00:00Z","name_a2s":"Uncletopia | Seattle | 3 | Stopwatch Beta","protocol":17,"map":"koth_viaduct","folder":"tf","game":"Team Fortress","app_id":440,"player_count":0,"max_players":24,"Bots":0,"server_type":"Dedicated","server_os":"Linux","password":true,"vac":true,"version":"7882260","steam_id":85568392924515217,"keywords":["cp","nocrits","nodmgspread","uncletopia"],"game_id":440,"stv_port":27036,"stv_name":"Uncletopia | Seattle | 3 | Stopwatch Beta | STV","players":null},{"server_id":17,"name":"Uncletopia | San Francisco | 1 | All Maps","name_short":"sfo-1","host":"sfo-1.us.uncletopia.com","port":27015,"enabled":true,"region":"us-west","cc":"us","latitude":37.77397,"longitude":-122.4313,"reserved":0,"last_update":"0001-01-01T00:00:00Z","name_a2s":"Uncletopia | San Francisco | 1 | All Maps","protocol":17,"map":"pl_frontier_final","folder":"tf","game":"Team Fortress","app_id":440,"player_count":5,"max_players":24,"Bots":0,"server_type":"Dedicated","server_os":"Linux","password":true,"vac":true,"version":"7882260","steam_id":85568392924469999,"keywords":["nocrits","nodmgspread","payload","uncletopia"],"game_id":440,"stv_port":27016,"stv_name":"Uncletopia | San Francisco | 1 | All Maps | STV","players":[{"user_id":100,"name":"PyroManiac","steam_id":76561198005988491,"connected_time":655000000000,"state":"active","ping":66},{"user_id":105,"name":"ï¼²ï¼¥ï¼¤","steam_id":76561198030282308,"connected_time":176000000000,"state":"active","ping":54},{"user_id":101,"name":"Buff Nuts","steam_id":76561199376015852,"connected_time":536000000000,"state":"active","ping":115},{"user_id":106,"name":"Drog0nXV","steam_id":76561198864720623,"connected_time":173000000000,"state":"active","ping":62},{"user_id":97,"name":"wafflehamster2000","steam_id":76561198849161820,"connected_time":1816000000000,"state":"active","ping":117}]},{"server_id":18,"name":"Uncletopia | San Francisco | 2 | All Maps","name_short":"sfo-2","host":"sfo-1.us.uncletopia.com","port":27025,"enabled":true,"region":"us-west","cc":"us","latitude":37.77397,"longitude":-122.4313,"reserved":0,"last_update":"0001-01-01T00:00:00Z","name_a2s":"Uncletopia | San Francisco | 2 | All Maps","protocol":17,"map":"pl_frontier_final","folder":"tf","game":"Team Fortress","app_id":440,"player_count":0,"max_players":24,"Bots":0,"server_type":"Dedicated","server_os":"Linux","password":true,"vac":true,"version":"7882260","steam_id":85568392924470000,"keywords":["nocrits","nodmgspread","payload","uncletopia"],"game_id":440,"stv_port":27026,"stv_name":"Uncletopia | San Francisco | 2 | All Maps | STV","players":null},{"server_id":19,"name":"Uncletopia | San Francisco | 3 | Stopwatch Beta","name_short":"sfo-3","host":"sfo-1.us.uncletopia.com","port":27035,"enabled":true,"region":"us-west","cc":"us","latitude":37.77397,"longitude":-122.4313,"reserved":0,"last_update":"0001-01-01T00:00:00Z","name_a2s":"Uncletopia | San Francisco | 3 | Stopwatch Beta","protocol":17,"map":"pl_snowycoast","folder":"tf","game":"Team Fortress","app_id":440,"player_count":0,"max_players":24,"Bots":0,"server_type":"Dedicated","server_os":"Linux","password":true,"vac":true,"version":"7882260","steam_id":85568392924742824,"keywords":["nocrits","nodmgspread","payload","uncletopia"],"game_id":440,"stv_port":27036,"stv_name":"Uncletopia | San Francisco | 3 | Stopwatch Beta | STV","players":null},{"server_id":20,"name":"Uncletopia | San Francisco | 4 | Community","name_short":"sfo-4","host":"sfo-1.us.uncletopia.com","port":27045,"enabled":true,"region":"us-west","cc":"us","latitude":37.77397,"longitude":-122.4313,"reserved":0,"last_update":"0001-01-01T00:00:00Z","name_a2s":"Uncletopia | San Francisco | 4 | Community","protocol":17,"map":"pl_swiftwater_final1","folder":"tf","game":"Team Fortress","app_id":440,"player_count":0,"max_players":24,"Bots":0,"server_type":"Dedicated","server_os":"Linux","password":true,"vac":true,"version":"7882260","steam_id":85568392924742826,"keywords":["nocrits","nodmgspread","payload","uncletopia"],"game_id":440,"stv_port":27046,"stv_name":"Uncletopia | San Francisco | 4 | Community | STV","players":null},{"server_id":141,"name":"Uncletopia | Sydney | 1 | All Maps","name_short":"syd-1","host":"syd-1.au.uncletopia.com","port":27015,"enabled":true,"region":"au","cc":"au","latitude":-33.865143,"longitude":151.2099,"reserved":0,"last_update":"0001-01-01T00:00:00Z","name_a2s":"Uncletopia | Sydney | 1 | All Maps","protocol":17,"map":"koth_highpass","folder":"tf","game":"Team Fortress","app_id":440,"player_count":0,"max_players":24,"Bots":0,"server_type":"Dedicated","server_os":"Linux","password":true,"vac":true,"version":"7882260","steam_id":85568392924470001,"keywords":["cp","nocrits","nodmgspread","uncletopia"],"game_id":440,"stv_port":27016,"stv_name":"Uncletopia | Sydney | 1 | All Maps | STV","players":null},{"server_id":123,"name":"Uncletopia | Sydney | 2 | All Maps","name_short":"syd-2","host":"syd-1.au.uncletopia.com","port":27025,"enabled":true,"region":"au","cc":"au","latitude":-33.865143,"longitude":151.2099,"reserved":0,"last_update":"0001-01-01T00:00:00Z","name_a2s":"Uncletopia | Sydney | 2 | All Maps","protocol":17,"map":"pl_borneo","folder":"tf","game":"Team Fortress","app_id":440,"player_count":0,"max_players":24,"Bots":0,"server_type":"Dedicated","server_os":"Linux","password":true,"vac":true,"version":"7882260","steam_id":85568392924470002,"keywords":["nocrits","nodmgspread","payload","uncletopia"],"game_id":440,"stv_port":27026,"stv_name":"Uncletopia | Sydney | 2 | All Maps | STV","players":null},{"server_id":395,"name":"Uncletopia | Sydney | 3 | All Maps","name_short":"syd-3","host":"syd-1.au.uncletopia.com","port":27035,"enabled":true,"region":"au","cc":"au","latitude":-33.865143,"longitude":151.2099,"reserved":0,"last_update":"0001-01-01T00:00:00Z","name_a2s":"Uncletopia | Sydney | 3 | All Maps","protocol":17,"map":"koth_lakeside_final","folder":"tf","game":"Team Fortress","app_id":440,"player_count":0,"max_players":24,"Bots":0,"server_type":"Dedicated","server_os":"Linux","password":true,"vac":true,"version":"7882260","steam_id":85568392925194467,"keywords":["cp","nocrits","nodmgspread","uncletopia"],"game_id":440,"stv_port":27036,"stv_name":"Uncletopia | Sydney | 3 | All Maps | STV","players":null},{"server_id":396,"name":"Uncletopia | Sydney | 4 | All Maps","name_short":"syd-4","host":"syd-1.au.uncletopia.com","port":27045,"enabled":true,"region":"au","cc":"au","latitude":-33.865143,"longitude":151.2099,"reserved":0,"last_update":"0001-01-01T00:00:00Z","name_a2s":"Uncletopia | Sydney | 4 | All Maps","protocol":17,"map":"pl_frontier_final","folder":"tf","game":"Team Fortress","app_id":440,"player_count":0,"max_players":24,"Bots":0,"server_type":"Dedicated","server_os":"Linux","password":true,"vac":true,"version":"7882260","steam_id":85568392925397958,"keywords":["nocrits","nodmgspread","payload","uncletopia"],"game_id":440,"stv_port":27046,"stv_name":"Uncletopia | Sydney | 4 | All Maps | STV","players":null},{"server_id":58,"name":"Uncletopia | Sydney | 5 | Stopwatch Beta","name_short":"syd-5","host":"syd-1.au.uncletopia.com","port":27055,"enabled":true,"region":"au","cc":"au","latitude":-33.865143,"longitude":151.2099,"reserved":0,"last_update":"0001-01-01T00:00:00Z","name_a2s":"Uncletopia | Sydney | 5 | Stopwatch Beta","protocol":17,"map":"koth_viaduct","folder":"tf","game":"Team Fortress","app_id":440,"player_count":0,"max_players":24,"Bots":0,"server_type":"Dedicated","server_os":"Linux","password":true,"vac":true,"version":"7882260","steam_id":85568392925397959,"keywords":["cp","nocrits","nodmgspread","uncletopia"],"game_id":440,"stv_port":27056,"stv_name":"Uncletopia | Sydney | 5 | Stopwatch Beta | STV","players":null},{"server_id":59,"name":"Uncletopia | Sydney | 6 | Community","name_short":"syd-6","host":"syd-1.au.uncletopia.com","port":27065,"enabled":true,"region":"au","cc":"au","latitude":-33.865143,"longitude":151.2099,"reserved":0,"last_update":"0001-01-01T00:00:00Z","name_a2s":"Uncletopia | Sydney | 6 | Community","protocol":17,"map":"workshop/koth_product_final.ugc454272353","folder":"tf","game":"Team Fortress","app_id":440,"player_count":0,"max_players":24,"Bots":0,"server_type":"Dedicated","server_os":"Linux","password":true,"vac":true,"version":"7882260","steam_id":85568392925397960,"keywords":["cp","nocrits","nodmgspread","uncletopia"],"game_id":440,"stv_port":27066,"stv_name":"Uncletopia | Sydney | 6 | Community | STV","players":null},{"server_id":49,"name":"Uncletopia | Warsaw | 1 | All Maps","name_short":"waw-1","host":"waw-1.pl.uncletopia.com","port":27015,"enabled":true,"region":"eu","cc":"pl","latitude":52.2297,"longitude":21.017532,"reserved":0,"last_update":"0001-01-01T00:00:00Z","name_a2s":"","protocol":0,"map":"","folder":"","game":"","app_id":0,"player_count":0,"max_players":0,"Bots":0,"server_type":"","server_os":"","password":false,"vac":false,"version":"","steam_id":0,"keywords":null,"game_id":0,"stv_port":0,"stv_name":"","players":null},{"server_id":50,"name":"Uncletopia | Warsaw | 2 | All Maps","name_short":"waw-2","host":"waw-1.pl.uncletopia.com","port":27025,"enabled":true,"region":"eu","cc":"pl","latitude":52.2297,"longitude":21.017532,"reserved":0,"last_update":"0001-01-01T00:00:00Z","name_a2s":"Uncletopia | Warsaw | 2 | All Maps","protocol":17,"map":"koth_viaduct","folder":"tf","game":"Team Fortress","app_id":440,"player_count":0,"max_players":24,"Bots":0,"server_type":"Dedicated","server_os":"Linux","password":true,"vac":true,"version":"7882260","steam_id":85568392925397851,"keywords":["cp","nocrits","nodmgspread","uncletopia"],"game_id":440,"stv_port":27026,"stv_name":"Uncletopia | Warsaw | 2 | All Maps | STV","players":null},{"server_id":51,"name":"Uncletopia | Warsaw | 3 | All Maps","name_short":"waw-3","host":"waw-1.pl.uncletopia.com","port":27035,"enabled":true,"region":"eu","cc":"pl","latitude":52.2297,"longitude":21.017532,"reserved":0,"last_update":"0001-01-01T00:00:00Z","name_a2s":"Uncletopia | Warsaw | 3 | All Maps","protocol":17,"map":"cp_process_final","folder":"tf","game":"Team Fortress","app_id":440,"player_count":0,"max_players":24,"Bots":0,"server_type":"Dedicated","server_os":"Linux","password":true,"vac":true,"version":"7882260","steam_id":85568392925397852,"keywords":["cp","nocrits","nodmgspread","uncletopia"],"game_id":440,"stv_port":27036,"stv_name":"Uncletopia | Warsaw | 3 | All Maps | STV","players":null},{"server_id":52,"name":"Uncletopia | Warsaw | 4 | All Maps","name_short":"waw-4","host":"waw-1.pl.uncletopia.com","port":27045,"enabled":true,"region":"eu","cc":"pl","latitude":52.2297,"longitude":21.017532,"reserved":0,"last_update":"0001-01-01T00:00:00Z","name_a2s":"Uncletopia | Warsaw | 4 | All Maps","protocol":17,"map":"koth_cascade","folder":"tf","game":"Team Fortress","app_id":440,"player_count":0,"max_players":24,"Bots":0,"server_type":"Dedicated","server_os":"Linux","password":true,"vac":true,"version":"7882260","steam_id":85568392925397853,"keywords":["cp","nocrits","nodmgspread","uncletopia"],"game_id":440,"stv_port":27046,"stv_name":"Uncletopia | Warsaw | 4 | All Maps | STV","players":null},{"server_id":53,"name":"Uncletopia | Warsaw | 5 | Stopwatch Beta","name_short":"waw-5","host":"waw-1.pl.uncletopia.com","port":27055,"enabled":true,"region":"eu","cc":"pl","latitude":52.2297,"longitude":21.017532,"reserved":0,"last_update":"0001-01-01T00:00:00Z","name_a2s":"Uncletopia | Warsaw | 5 | Stopwatch Beta","protocol":17,"map":"cp_dustbowl","folder":"tf","game":"Team Fortress","app_id":440,"player_count":0,"max_players":24,"Bots":0,"server_type":"Dedicated","server_os":"Linux","password":true,"vac":true,"version":"7882260","steam_id":85568392925397854,"keywords":["cp","nocrits","nodmgspread","uncletopia"],"game_id":440,"stv_port":27056,"stv_name":"Uncletopia | Warsaw | 5 | Stopwatch Beta | STV","players":null},{"server_id":54,"name":"Uncletopia | Warsaw | 6 | Community","name_short":"waw-6","host":"waw-1.pl.uncletopia.com","port":27065,"enabled":true,"region":"eu","cc":"pl","latitude":52.2297,"longitude":21.017532,"reserved":0,"last_update":"0001-01-01T00:00:00Z","name_a2s":"Uncletopia | Warsaw | 6 | Community","protocol":17,"map":"workshop/cp_caldera_rc2.ugc2834196889","folder":"tf","game":"Team Fortress","app_id":440,"player_count":0,"max_players":24,"Bots":0,"server_type":"Dedicated","server_os":"Linux","password":true,"vac":true,"version":"7882260","steam_id":85568392925397856,"keywords":["cp","nocrits","nodmgspread","uncletopia"],"game_id":440,"stv_port":27066,"stv_name":"Uncletopia | Warsaw | 6 | Community | STV","players":null}]}