{"status":true,"message":"","result":[{"server_id":9,"name":"Uncletopia | Atlanta | 1 | All Maps","name_short":"atl-1","host":"atl-1.us.uncletopia.com","port":27015,"enabled":true,"region":"us-east","cc":"us","latitude":33.753746,"longitude":-84.38633,"reserved":0,"last_update":"0001-01-01T00:00:00Z","name_a2s":"Uncletopia | Atlanta | 1 | All Maps","protocol":17,"map":"koth_harvest_final","folder":"tf","game":"Team Fortress","app_id":440,"player_count":24,"max_players":24,"Bots":0,"server_type":"Dedicated","server_os":"Linux","password":true,"vac":true,"version":"7882260","steam_id":85568392924469982,"keywords":["cp","nocrits","nodmgspread","uncletopia"],"game_id":440,"stv_port":27016,"stv_name":"Uncletopia | Atlanta | 1 | All Maps | STV","players":[{"user_id":109,"name":"William Wallace","steam_id":76561199343316814,"connected_time":6637000000000,"state":"active","ping":59},{"user_id":185,"name":"Cassius","steam_id":76561198146163328,"connected_time":85000000000,"state":"active","ping":66},{"user_id":182,"name":"idk man","steam_id":76561198065543771,"connected_time":411000000000,"state":"active","ping":78},{"user_id":153,"name":"KaleScrooge","steam_id":76561199229442595,"connected_time":2576000000000,"state":"active","ping":150},{"user_id":162,"name":"Partark","steam_id":76561198010265825,"connected_time":1738000000000,"state":"active","ping":45},{"user_id":115,"name":"chubbbo","steam_id":76561198943598378,"connected_time":6335000000000,"state":"active","ping":41},{"user_id":28,"name":"oak","steam_id":76561198092135570,"connected_time":11505000000000,"state":"active","ping":56},{"user_id":148,"name":"kimchi","steam_id":76561198041348890,"connected_time":3047000000000,"state":"active","ping":63},{"user_id":184,"name":"milkshakedoodles","steam_id":76561198849952659,"connected_time":109000000000,"state":"active","ping":145},{"user_id":172,"name":"Oopsie Daisy ‚ùã","steam_id":76561198042144492,"connected_time":1356000000000,"state":"active","ping":58},{"user_id":167,"name":"kite","steam_id":76561198346516392,"connected_time":1683000000000,"state":"active","ping":86},{"user_id":156,"name":"‚ô°Alyx‚ô°","steam_id":76561198024303978,"connected_time":2422000000000,"state":"active","ping":57},{"user_id":126,"name":"kingjeffry2012@hotmail.com","steam_id":76561198314104415,"connected_time":5184000000000,"state":"active","ping":57},{"user_id":177,"name":"kohlhagen","steam_id":76561198120440587,"connected_time":715000000000,"state":"active","ping":46},{"user_id":146,"name":"Margo_Rae","steam_id":76561198035046430,"connected_time":3080000000000,"state":"active","ping":71},{"user_id":171,"name":"stockhack","steam_id":76561198050220225,"connected_time":1580000000000,"state":"active","ping":75},{"user_id":178,"name":"Webus","steam_id":76561198378076756,"connected_time":713000000000,"state":"active","ping":58},{"user_id":106,"name":"Cosmic Torgue","steam_id":76561198828724945,"connected_time":6655000000000,"state":"active","ping":94},{"user_id":181,"name":"Dixxy","steam_id":76561198010760019,"connected_time":483000000000,"state":"active","ping":60},{"user_id":131,"name":"alset333","steam_id":76561198405345260,"connected_time":5063000000000,"state":"active","ping":61},{"user_id":170,"name":"Diarrhea Gaming","steam_id":76561198090589784,"connected_time":1659000000000,"state":"active","ping":85},{"user_id":187,"name":"Morgster","steam_id":76561198131697761,"connected_time":23000000000,"state":"active","ping":60},{"user_id":175,"name":"JOVA(no HUD/audio)","steam_id":76561198090333536,"connected_time":855000000000,"state":"active","ping":62},{"user_id":147,"name":"ilady","steam_id":76561198139802458,"connected_time":3080000000000,"state":"active","ping":76}]},{"server_id":104,"name":"Uncletopia | Atlanta | 2 | All Maps","name_short":"atl-2","host":"atl-1.us.uncletopia.com","port":27025,"enabled":true,"region":"us-east","cc":"us","latitude":33.753746,"longitude":-84.38633,"reserved":0,"last_update":"0001-01-01T00:00:00Z","name_a2s":"Uncletopia | Atlanta | 2 | All Maps","protocol":17,"map":"pl_frontier_final","folder":"tf","game":"Team Fortress","app_id":440,"player_count":0,"max_players":24,"Bots":0,"server_type":"Dedicated","server_os":"Linux","password":true,"vac":true,"version":"7882260","steam_id":85568392924469983,"keywords":["nocrits","nodmgspread","payload","uncletopia"],"game_id":440,"stv_port":27026,"stv_name":"Uncletopia | Atlanta | 2 | All Maps | STV","players":null},{"server_id":400,"name":"Uncletopia | Atlanta | 3 | Community","name_short":"atl-3","host":"atl-1.us.uncletopia.com","port":27035,"enabled":true,"region":"us-east","cc":"us","latitude":33.753746,"longitude":-84.38633,"reserved":0,"last_update":"0001-01-01T00:00:00Z","name_a2s":"Uncletopia | Atlanta | 3 | Community","protocol":17,"map":"workshop/pl_barnblitz_pro7.ugc582280235","folder":"tf","game":"Team Fortress","app_id":440,"player_count":0,"max_players":24,"Bots":0,"server_type":"Dedicated","server_os":"Linux","password":true,"vac":true,"version":"7882260","steam_id":85568392924515187,"keywords":["nocrits","nodmgspread","payload","uncletopia"],"game_id":440,"stv_port":27036,"stv_name":"Uncletopia | Atlanta | 3 | Community | STV","players":null},{"server_id":401,"name":"Uncletopia | Atlanta | 4 | No Payload","name_short":"atl-4","host":"atl-1.us.uncletopia.com","port":27045,"enabled":true,"region":"us-east","cc":"us","latitude":33.753746,"longitude":-84.38633,"reserved":0,"last_update":"0001-01-01T00:00:00Z","name_a2s":"","protocol":0,"map":"","folder":"","game":"","app_id":0,"player_count":0,"max_players":0,"Bots":0,"server_type":"","server_os":"","password":false,"vac":false,"version":"","steam_id":0,"keywords":null,"game_id":0,"stv_port":0,"stv_name":"","players":null},{"server_id":2,"name":"Uncletopia | Chicago | 1 | All Maps","name_short":"chi-1","host":"chi-1.us.uncletopia.com","port":27015,"enabled":true,"region":"us-central","cc":"us","latitude":41.881832,"longitude":-87.62318,"reserved":0,"last_update":"0001-01-01T00:00:00Z","name_a2s":"Uncletopia | Chicago | 1 | All Maps","protocol":17,"map":"pl_thundermountain","folder":"tf","game":"Team Fortress","app_id":440,"player_count":24,"max_players":24,"Bots":0,"server_type":"Dedicated","server_os":"Linux","password":true,"vac":true,"version":"7882260","steam_id":85568392924469984,"keywords":["nocrits","nodmgspread","payload","uncletopia"],"game_id":440,"stv_port":27016,"stv_name":"Uncletopia | Chicago | 1 | All Maps | STV","players":[{"user_id":276,"name":"Emder","steam_id":76561198260747931,"connected_time":255000000000,"state":"active","ping":57},{"user_id":270,"name":"TJGSASQUATCH","steam_id":76561198077806921,"connected_time":1083000000000,"state":"active","ping":76},{"user_id":217,"name":"Vincent Van Bro","steam_id":76561197966919802,"connected_time":4983000000000,"state":"active","ping":108},{"user_id":141,"name":"Pa-Py-ro-ni","steam_id":76561198139054162,"connected_time":9666000000000,"state":"active","ping":75},{"user_id":227,"name":"Mehman","steam_id":76561199020244051,"connected_time":4549000000000,"state":"active","ping":95},{"user_id":278,"name":"Willy Wonker","steam_id":76561198082944789,"connected_time":200000000000,"state":"active","ping":90},{"user_id":257,"name":"supergamer1992","steam_id":76561198218012140,"connected_time":1548000000000,"state":"active","ping":60},{"user_id":269,"name":"viagra addict","steam_id":76561198017705248,"connected_time":1097000000000,"state":"active","ping":47},{"user_id":279,"name":"AwesomeAEA","steam_id":76561198303978260,"connected_time":129000000000,"state":"active","ping":80},{"user_id":239,"name":"organic kale","steam_id":76561198101506575,"connected_time":3344000000000,"state":"active","ping":67},{"user_id":258,"name":"ThatOneKnight","steam_id":76561198388583650,"connected_time":1547000000000,"state":"active","ping":60},{"user_id":271,"name":"Maverick","steam_id":76561198322829814,"connected_time":428000000000,"state":"active","ping":78},{"user_id":259,"name":"Drew P. Sack","steam_id":76561198036201738,"connected_time":1547000000000,"state":"active","ping":54},{"user_id":280,"name":"Ash_Follow3","steam_id":76561199150479264,"connected_time":43000000000,"state":"active","ping":192},{"user_id":242,"name":"keffers","steam_id":76561198202338796,"connected_time":3304000000000,"state":"active","ping":72},{"user_id":260,"name":"LVL 4 Dispenser Gaming","steam_id":76561198044244547,"connected_time":1546000000000,"state":"active","ping":77},{"user_id":210,"name":"bobcats0da","steam_id":76561198123056791,"connected_time":5644000000000,"state":"active","ping":73},{"user_id":213,"name":"frongus","steam_id":76561198276140573,"connected_time":5392000000000,"state":"active","ping":70},{"user_id":267,"name":"Herr Doktor","steam_id":76561198025473302,"connected_time":1492000000000,"state":"active","ping":87},{"user_id":232,"name":"Toottoot","steam_id":76561197992404836,"connected_time":3944000000000,"state":"active","ping":44},{"user_id":244,"name":"Missing Minus","steam_id":76561198120822928,"connected_time":3291000000000,"state":"active","ping":63},{"user_id":272,"name":"Jerry Bondle","steam_id":76561198337512213,"connected_time":428000000000,"state":"active","ping":67},{"user_id":251,"name":"Bear of the Polar Variety","steam_id":76561198370330710,"connected_time":1685000000000,"state":"active","ping":53},{"user_id":275,"name":"Baked Beans","steam_id":76561198090419068,"connected_time":324000000000,"state":"active","ping":127}]},{"server_id":106,"name":"Uncletopia | Chicago | 2 | All Maps","name_short":"chi-2","host":"chi-1.us.uncletopia.com","port":27025,"enabled":true,"region":"us-central","cc":"us","latitude":41.881832,"longitude":-87.62318,"reserved":0,"last_update":"0001-01-01T00:00:00Z","name_a2s":"Uncletopia | Chicago | 2 | All Maps","protocol":17,"map":"pl_barnblitz","folder":"tf","game":"Team Fortress","app_id":440,"player_count":24,"max_players":24,"Bots":0,"server_type":"Dedicated","server_os":"Linux","password":true,"vac":true,"version":"7882260","steam_id":85568392924469985,"keywords":["nocrits","nodmgspread","payload","uncletopia"],"game_id":440,"stv_port":27026,"stv_name":"Uncletopia | Chicago | 2 | All Maps | STV","players":[{"user_id":223,"name":"Keirb","steam_id":76561198027031567,"connected_time":739000000000,"state":"active","ping":112},{"user_id":210,"name":"spud stealer 2000","steam_id":76561199264293695,"connected_time":1454000000000,"state":"active","ping":66},{"user_id":151,"name":"Aviyarn","steam_id":76561199074194652,"connected_time":6786000000000,"state":"active","ping":75},{"user_id":196,"name":"Dr. Ôº¥ÔΩâÔΩçÔΩìÔΩãÔΩÅ","steam_id":76561198272075712,"connected_time":3585000000000,"state":"active","ping":80},{"user_id":220,"name":"God (real)","steam_id":76561198131089513,"connected_time":1102000000000,"state":"active","ping":50},{"user_id":177,"name":"‚ù§Breadshot (She)‚ù§","steam_id":76561199005756738,"connected_time":4655000000000,"state":"active","ping":50},{"user_id":226,"name":"doghouse","steam_id":76561198000319035,"connected_time":523000000000,"state":"active","ping":102},{"user_id":208,"name":"Cheese Master","steam_id":76561198189176634,"connected_time":1489000000000,"state":"active","ping":69},{"user_id":193,"name":"Tahm Selleck","steam_id":76561198138083134,"connected_time":3622000000000,"state":"active","ping":77},{"user_id":219,"name":"lanoc","steam_id":76561198055415367,"connected_time":1135000000000,"state":"active","ping":59},{"user_id":207,"name":"Admiral Crumbs","steam_id":76561198108791583,"connected_time":1502000000000,"state":"active","ping":64},{"user_id":214,"name":"leafs fan eternal suffering","steam_id":76561198011329825,"connected_time":1378000000000,"state":"active","ping":61},{"user_id":202,"name":"bruh","steam_id":76561198062763756,"connected_time":3053000000000,"state":"active","ping":45},{"user_id":224,"name":"pim","steam_id":76561198095163441,"connected_time":704000000000,"state":"active","ping":72},{"user_id":206,"name":"yomommasabitch","steam_id":76561198323217150,"connected_time":2703000000000,"state":"active","ping":60},{"user_id":217,"name":"cheese toes","steam_id":76561198000564263,"connected_time":1173000000000,"state":"active","ping":69},{"user_id":215,"name":"Superman123389","steam_id":76561198267472539,"connected_time":1297000000000,"state":"active","ping":89},{"user_id":227,"name":"coaster14","steam_id":76561198043862237,"connected_time":508000000000,"state":"active","ping":58},{"user_id":228,"name":"Provocator","steam_id":76561197961830410,"connected_time":51000000000,"state":"active","ping":74},{"user_id":222,"name":"African Despot","steam_id":76561198169966346,"connected_time":922000000000,"state":"active","ping":74},{"user_id":225,"name":"uufyfuu","steam_id":76561198142787212,"connected_time":575000000000,"state":"active","ping":75},{"user_id":209,"name":"Artemy \"The Haruspex\" Burakh","steam_id":76561198257038275,"connected_time":1486000000000,"state":"active","ping":77},{"user_id":190,"name":"Oh, it's Zach","steam_id":76561198103309672,"connected_time":3674000000000,"state":"active","ping":57},{"user_id":213,"name":"NormalGuy","steam_id":76561199063911485,"connected_time":1406000000000,"state":"active","ping":180}]},{"server_id":402,"name":"Uncletopia | Chicago | 3 | All Maps","name_short":"chi-3","host":"chi-1.us.uncletopia.com","port":27035,"enabled":true,"region":"us-central","cc":"us","latitude":41.881832,"longitude":-87.62318,"reserved":0,"last_update":"0001-01-01T00:00:00Z","name_a2s":"Uncletopia | Chicago | 3 | All Maps","protocol":17,"map":"pl_frontier_final","folder":"tf","game":"Team Fortress","app_id":440,"player_count":24,"max_players":24,"Bots":0,"server_type":"Dedicated","server_os":"Linux","password":true,"vac":true,"version":"7882260","steam_id":85568392924515191,"keywords":["nocrits","nodmgspread","payload","uncletopia"],"game_id":440,"stv_port":27036,"stv_name":"Uncletopia | Chicago | 3 | All Maps | STV","players":[{"user_id":151,"name":"Lunacy","steam_id":76561199386273760,"connected_time":334000000000,"state":"active","ping":104},{"user_id":105,"name":"Furrio","steam_id":76561198174104607,"connected_time":2390000000000,"state":"active","ping":70},{"user_id":111,"name":"PhaserLazer","steam_id":76561198407341298,"connected_time":2099000000000,"state":"active","ping":89},{"user_id":119,"name":"Poop_toast","steam_id":76561199251933053,"connected_time":1437000000000,"state":"active","ping":82},{"user_id":116,"name":"atmBomb","steam_id":76561198055557988,"connected_time":1929000000000,"state":"active","ping":60},{"user_id":143,"name":"Project_Counter","steam_id":76561198152786076,"connected_time":565000000000,"state":"active","ping":73},{"user_id":149,"name":"PyroEagle","steam_id":76561198296434231,"connected_time":444000000000,"state":"active","ping":114},{"user_id":136,"name":"Strigby","steam_id":76561198004116353,"connected_time":689000000000,"state":"active","ping":53},{"user_id":152,"name":"cow","steam_id":76561198117331762,"connected_time":202000000000,"state":"active","ping":46},{"user_id":127,"name":"bought this cart for 15 dollars","steam_id":76561198253731826,"connected_time":948000000000,"state":"active","ping":55},{"user_id":141,"name":"Shizi","steam_id":76561198333900749,"connected_time":586000000000,"state":"active","ping":57},{"user_id":128,"name":"I'm in your walls","steam_id":76561198153502981,"connected_time":947000000000,"state":"active","ping":60},{"user_id":153,"name":"A Rubber Duck","steam_id":76561198278965023,"connected_time":162000000000,"state":"active","ping":104},{"user_id":107,"name":"TheHopeBunny","steam_id":76561198804861687,"connected_time":2343000000000,"state":"active","ping":108},{"user_id":142,"name":"AkimboAoki","steam_id":76561198158323058,"connected_time":583000000000,"state":"active","ping":91},{"user_id":135,"name":"starcrayfish839","steam_id":76561199133901013,"connected_time":766000000000,"state":"active","ping":61},{"user_id":145,"name":"alrs921","steam_id":76561199180508348,"connected_time":545000000000,"state":"active","ping":96},{"user_id":112,"name":"dabcity22","steam_id":76561198119826352,"connected_time":2099000000000,"state":"active","ping":75},{"user_id":121,"name":"Spinch","steam_id":76561198296224166,"connected_time":1208000000000,"state":"active","ping":88},{"user_id":72,"name":"Barlon","steam_id":76561198023717515,"connected_time":4317000000000,"state":"active","ping":76},{"user_id":132,"name":"s a d b o y s","steam_id":76561198037481669,"connected_time":891000000000,"state":"active","ping":66},{"user_id":115,"name":"Zombie Rehabilitation","steam_id":76561197962848916,"connected_time":2032000000000,"state":"active","ping":86},{"user_id":134,"name":"that cs cart got me bhopping","steam_id":76561198255827013,"connected_time":801000000000,"state":"active","ping":134},{"user_id":148,"name":"Mythical Lag","steam_id":76561198347031281,"connected_time":480000000000,"state":"active","ping":109}]},{"server_id":403,"name":"Uncletopia | Chicago | 4 | All Maps","name_short":"chi-4","host":"chi-1.us.uncletopia.com","port":27045,"enabled":true,"region":"us-central","cc":"us","latitude":41.881832,"longitude":-87.62318,"reserved":0,"last_update":"0001-01-01T00:00:00Z","name_a2s":"Uncletopia | Chicago | 4 | All Maps","protocol":17,"map":"cp_dustbowl","folder":"tf","game":"Team Fortress","app_id":440,"player_count":22,"max_players":24,"Bots":0,"server_type":"Dedicated","server_os":"Linux","password":true,"vac":true,"version":"7882260","steam_id":85568392924515193,"keywords":["cp","nocrits","nodmgspread","uncletopia"],"game_id":440,"stv_port":27046,"stv_name":"Uncletopia | Chicago | 4 | All Maps | STV","players":[{"user_id":10,"name":"Tezubyss","steam_id":76561198159171531,"connected_time":2637000000000,"state":"active","ping":69},{"user_id":20,"name":"Driving Cat Orange (can drive)","steam_id":76561199067771554,"connected_time":967000000000,"state":"active","ping":82},{"user_id":21,"name":"F0restFerret","steam_id":76561199112458876,"connected_time":655000000000,"state":"active","ping":68},{"user_id":13,"name":"Mr. Dick‚Ñ¢","steam_id":76561198047309044,"connected_time":1861000000000,"state":"active","ping":61},{"user_id":22,"name":"VoldyTheMoldy","steam_id":76561198845502915,"connected_time":644000000000,"state":"active","ping":78},{"user_id":23,"name":"wafflehamster2000","steam_id":76561198849161820,"connected_time":475000000000,"state":"active","ping":70},{"user_id":24,"name":"A Trigger Happy Chipmunk","steam_id":76561198013608736,"connected_time":461000000000,"state":"active","ping":59},{"user_id":27,"name":"I'm Sleepy","steam_id":76561198879929343,"connected_time":341000000000,"state":"active","ping":70},{"user_id":28,"name":"engiqueer69","steam_id":76561199153261850,"connected_time":285000000000,"state":"active","ping":106},{"user_id":32,"name":"Atlas (Skylar)","steam_id":76561198041531774,"connected_time":183000000000,"state":"active","ping":46},{"user_id":30,"name":"PheebsyDeebsy","steam_id":76561198101509436,"connected_time":211000000000,"state":"active","ping":91},{"user_id":31,"name":"M4L1C3","steam_id":76561198282839695,"connected_time":205000000000,"state":"active","ping":90},{"user_id":33,"name":"wgbubl","steam_id":76561199133004884,"connected_time":95000000000,"state":"active","ping":174},{"user_id":34,"name":"mantis","steam_id":76561198303349370,"connected_time":54000000000,"state":"active","ping":61},{"user_id":36,"name":"Glitch","steam_id":76561199087819185,"connected_time":47000000000,"state":"active","ping":63},{"user_id":37,"name":"BasicPeaches","steam_id":76561198190890150,"connected_time":46000000000,"state":"active","ping":86},{"user_id":38,"name":"Rhea","steam_id":76561198066626240,"connected_time":43000000000,"state":"active","ping":75},{"user_id":39,"name":"Buttons :)","steam_id":76561198139478534,"connected_time":38000000000,"state":"active","ping":130},{"user_id":40,"name":"stall","steam_id":76561199152861652,"connected_time":34000000000,"state":"active","ping":48},{"user_id":41,"name":"RileyNiko","steam_id":76561198162093639,"connected_time":32000000000,"state":"active","ping":61},{"user_id":43,"name":"pp","steam_id":76561198057158117,"connected_time":17000000000,"state":"active","ping":46},{"user_id":44,"name":"Greenie","steam_id":76561198081998064,"connected_time":5000000000,"state":"spawning","ping":83}]},{"server_id":36,"name":"Uncletopia | Chicago | 5 | All Maps","name_short":"chi-5","host":"chi-2.us.uncletopia.com","port":27015,"enabled":true,"region":"us-central","cc":"us","latitude":41.881832,"longitude":-87.62318,"reserved":0,"last_update":"0001-01-01T00:00:00Z","name_a2s":"Uncletopia | Chicago | 5 | All Maps","protocol":17,"map":"pl_snowycoast","folder":"tf","game":"Team Fortress","app_id":440,"player_count":0,"max_players":24,"Bots":0,"server_type":"Dedicated","server_os":"Linux","password":true,"vac":true,"version":"7882260","steam_id":85568392924866362,"keywords":["nocrits","nodmgspread","payload","uncletopia"],"game_id":440,"stv_port":27016,"stv_name":"Uncletopia | Chicago | 5 | All Maps | STV","players":null},{"server_id":37,"name":"Uncletopia | Chicago | 6 | All Maps","name_short":"chi-6","host":"chi-2.us.uncletopia.com","port":27025,"enabled":true,"region":"us-central","cc":"us","latitude":41.881832,"longitude":-87.62318,"reserved":0,"last_update":"0001-01-01T00:00:00Z","name_a2s":"Uncletopia | Chicago | 6 | All Maps","protocol":17,"map":"koth_cascade","folder":"tf","game":"Team Fortress","app_id":440,"player_count":0,"max_players":24,"Bots":0,"server_type":"Dedicated","server_os":"Linux","password":true,"vac":true,"version":"7882260","steam_id":85568392924866363,"keywords":["cp","nocrits","nodmgspread","uncletopia"],"game_id":440,"stv_port":27026,"stv_name":"Uncletopia | Chicago | 6 | All Maps | STV","players":null},{"server_id":38,"name":"Uncletopia | Chicago | 7 | Stopwatch Beta","name_short":"chi-7","host":"chi-2.us.uncletopia.com","port":27035,"enabled":true,"region":"us-central","cc":"us","latitude":41.881832,"longitude":-87.62318,"reserved":0,"last_update":"0001-01-01T00:00:00Z","name_a2s":"Uncletopia | Chicago | 7 | Stopwatch Beta","protocol":17,"map":"pl_borneo","folder":"tf","game":"Team Fortress","app_id":440,"player_count":0,"max_players":24,"Bots":0,"server_type":"Dedicated","server_os":"Linux","password":true,"vac":true,"version":"7882260","steam_id":85568392924866364,"keywords":["nocrits","nodmgspread","payload","uncletopia"],"game_id":440,"stv_port":27036,"stv_name":"Uncletopia | Chicago | 7 | Stopwatch Beta | STV","players":null},{"server_id":39,"name":"Uncletopia | Chicago | 8 | Community","name_short":"chi-8","host":"chi-2.us.uncletopia.com","port":27045,"enabled":true,"region":"us-central","cc":"us","latitude":41.881832,"longitude":-87.62318,"reserved":0,"last_update":"0001-01-01T00:00:00Z","name_a2s":"Uncletopia | Chicago | 8 | Community","protocol":17,"map":"cp_snakewater_final1","folder":"tf","game":"Team Fortress","app_id":440,"player_count":0,"max_players":24,"Bots":0,"server_type":"Dedicated","server_os":"Linux","password":true,"vac":true,"version":"7882260","steam_id":85568392924866365,"keywords":["cp","nocrits","nodmgspread","uncletopia"],"game_id":440,"stv_port":27046,"stv_name":"Uncletopia | Chicago | 8 | Community | STV","players":null},{"server_id":8,"name":"Uncletopia | Dallas | 1 | All Maps","name_short":"dal-1","host":"dal-1.us.uncletopia.com","port":27015,"enabled":true,"region":"us-central","cc":"us","latitude":32.779167,"longitude":-96.80889,"reserved":0,"last_update":"0001-01-01T00:00:00Z","name_a2s":"Uncletopia | Dallas | 1 | All Maps","protocol":17,"map":"cp_snakewater_final1","folder":"tf","game":"Team Fortress","app_id":440,"player_count":24,"max_players":24,"Bots":0,"server_type":"Dedicated","server_os":"Linux","password":true,"vac":true,"version":"7882260","steam_id":85568392924469986,"keywords":["cp","nocrits","nodmgspread","uncletopia"],"game_id":440,"stv_port":27016,"stv_name":"Uncletopia | Dallas | 1 | All Maps | STV","players":[{"user_id":300,"name":"Darling","steam_id":76561198127525888,"connected_time":4549000000000,"state":"active","ping":53},{"user_id":334,"name":"Aerobro","steam_id":76561198033530996,"connected_time":1360000000000,"state":"active","ping":64},{"user_id":315,"name":"Tyler\u0026Fingers","steam_id":76561198085154485,"connected_time":3134000000000,"state":"active","ping":88},{"user_id":328,"name":"Sea raider","steam_id":76561198123982355,"connected_time":1509000000000,"state":"active","ping":74},{"user_id":329,"name":"Doomagedden","steam_id":76561198272589475,"connected_time":1501000000000,"state":"active","ping":54},{"user_id":331,"name":"Animaljamfan126","steam_id":76561199013267492,"connected_time":1411000000000,"state":"active","ping":71},{"user_id":332,"name":"Rain","steam_id":76561198032318897,"connected_time":1385000000000,"state":"active","ping":102},{"user_id":345,"name":"Punks","steam_id":76561199140940650,"connected_time":633000000000,"state":"active","ping":75},{"user_id":306,"name":"Imrgrim","steam_id":76561198135866481,"connected_time":3690000000000,"state":"active","ping":69},{"user_id":290,"name":"ùïÆùñÜùñíùñäùñóùñîùñì \ufffd\ufffd","steam_id":76561198045826628,"connected_time":5375000000000,"state":"active","ping":81},{"user_id":280,"name":"floofy","steam_id":76561198389769098,"connected_time":5985000000000,"state":"active","ping":86},{"user_id":340,"name":"a hedgehog","steam_id":76561198019010682,"connected_time":1151000000000,"state":"active","ping":62},{"user_id":321,"name":"bogus binted","steam_id":76561198203329842,"connected_time":2733000000000,"state":"active","ping":85},{"user_id":336,"name":"Lunaul","steam_id":76561198169208358,"connected_time":1322000000000,"state":"active","ping":78},{"user_id":337,"name":"J.G. Klaus","steam_id":76561198001111196,"connected_time":1293000000000,"state":"active","ping":50},{"user_id":314,"name":"the spy from team fortress 2","steam_id":76561198047797306,"connected_time":3229000000000,"state":"active","ping":75},{"user_id":292,"name":"Lohskyl","steam_id":76561199193237621,"connected_time":5121000000000,"state":"active","ping":85},{"user_id":344,"name":"Resistance","steam_id":76561198146782074,"connected_time":816000000000,"state":"active","ping":80},{"user_id":343,"name":"Nico The Cheese","steam_id":76561199065272792,"connected_time":901000000000,"state":"active","ping":83},{"user_id":261,"name":"Jimmy","steam_id":76561198857959855,"connected_time":7609000000000,"state":"active","ping":81},{"user_id":341,"name":"Cliff Uppercut","steam_id":76561197999439391,"connected_time":1130000000000,"state":"active","ping":88},{"user_id":342,"name":"Cream Corn","steam_id":76561198043791586,"connected_time":1063000000000,"state":"active","ping":89},{"user_id":293,"name":"Yolo","steam_id":76561198156406777,"connected_time":5109000000000,"state":"active","ping":165},{"user_id":295,"name":"Sup m8","steam_id":76561198081659121,"connected_time":5027000000000,"state":"active","ping":46}]},{"server_id":108,"name":"Uncletopia | Dallas | 2 | All Maps","name_short":"dal-2","host":"dal-1.us.uncletopia.com","port":27025,"enabled":true,"region":"us-central","cc":"us","latitude":32.779167,"longitude":-96.80889,"reserved":0,"last_update":"0001-01-01T00:00:00Z","name_a2s":"Uncletopia | Dallas | 2 | All Maps","protocol":17,"map":"plr_bananabay","folder":"tf","game":"Team Fortress","app_id":440,"player_count":24,"max_players":24,"Bots":0,"server_type":"Dedicated","server_os":"Linux","password":true,"vac":true,"version":"7882260","steam_id":85568392924469988,"keywords":["nocrits","nodmgspread","payload","uncletopia"],"game_id":440,"stv_port":27026,"stv_name":"Uncletopia | Dallas | 2 | All Maps | STV","players":[{"user_id":199,"name":"milk master","steam_id":76561198127851014,"connected_time":3875000000000,"state":"active","ping":47},{"user_id":224,"name":"2 for $3.50 McChickens","steam_id":76561198089908660,"connected_time":1139000000000,"state":"active","ping":61},{"user_id":204,"name":"Meh but good","steam_id":76561199005772246,"connected_time":3138000000000,"state":"active","ping":62},{"user_id":239,"name":"Arc","steam_id":76561198057246982,"connected_time":139000000000,"state":"active","ping":56},{"user_id":221,"name":"Squiliam","steam_id":76561198025278006,"connected_time":1653000000000,"state":"active","ping":47},{"user_id":206,"name":"yes","steam_id":76561199082385125,"connected_time":2976000000000,"state":"active","ping":77},{"user_id":225,"name":"Bam","steam_id":76561198047904568,"connected_time":1136000000000,"state":"active","ping":66},{"user_id":226,"name":"Budde1911","steam_id":76561197970640000,"connected_time":1120000000000,"state":"active","ping":63},{"user_id":217,"name":"Fishy","steam_id":76561198819316173,"connected_time":2053000000000,"state":"active","ping":112},{"user_id":227,"name":"Tomato","steam_id":76561198070911114,"connected_time":1098000000000,"state":"active","ping":86},{"user_id":236,"name":"Xyk","steam_id":76561198023268899,"connected_time":728000000000,"state":"active","ping":92},{"user_id":231,"name":"DVD Copy of Men in Black II","steam_id":76561198080067715,"connected_time":928000000000,"state":"active","ping":75},{"user_id":218,"name":"gum bum","steam_id":76561199195104977,"connected_time":2040000000000,"state":"active","ping":80},{"user_id":228,"name":"CollegeBabes","steam_id":76561198346710167,"connected_time":1074000000000,"state":"active","ping":92},{"user_id":219,"name":"Mellou","steam_id":76561198212048740,"connected_time":2032000000000,"state":"active","ping":41},{"user_id":207,"name":"Hiser","steam_id":76561198308193624,"connected_time":2849000000000,"state":"active","ping":66},{"user_id":230,"name":"Mecha","steam_id":76561198014927379,"connected_time":948000000000,"state":"active","ping":100},{"user_id":87,"name":"SeaBass","steam_id":76561197982949108,"connected_time":11732000000000,"state":"active","ping":66},{"user_id":136,"name":"skegeton","steam_id":76561198095581099,"connected_time":8732000000000,"state":"active","ping":54},{"user_id":208,"name":"BaRs","steam_id":76561198981717009,"connected_time":2703000000000,"state":"active","ping":59},{"user_id":213,"name":"Lo-Pan","steam_id":76561198085670133,"connected_time":2516000000000,"state":"active","ping":60},{"user_id":232,"name":"PadrePockets","steam_id":76561197993251606,"connected_time":922000000000,"state":"active","ping":83},{"user_id":238,"name":"ZimuxNowChock","steam_id":76561198799942265,"connected_time":324000000000,"state":"active","ping":100},{"user_id":241,"name":"CreepyCook","steam_id":76561198242874622,"connected_time":27000000000,"state":"active","ping":83}]},{"server_id":5,"name":"Uncletopia | Frankfurt | 1 | All Maps","name_short":"frk-1","host":"frk-1.de.uncletopia.com","port":27015,"enabled":true,"region":"eu","cc":"de","latitude":50.110924,"longitude":8.682127,"reserved":0,"last_update":"0001-01-01T00:00:00Z","name_a2s":"Uncletopia | Frankfurt | 1 | All Maps","protocol":17,"map":"pl_badwater","folder":"tf","game":"Team Fortress","app_id":440,"player_count":0,"max_players":24,"Bots":0,"server_type":"Dedicated","server_os":"Linux","password":true,"vac":true,"version":"7882260","steam_id":85568392924469989,"keywords":["nocrits","nodmgspread","payload","uncletopia"],"game_id":440,"stv_port":27016,"stv_name":"Uncletopia | Frankfurt | 1 | All Maps | STV","players":null},{"server_id":110,"name":"Uncletopia | Frankfurt | 2 | All Maps","name_short":"frk-2","host":"frk-1.de.uncletopia.com","port":27025,"enabled":true,"region":"eu","cc":"de","latitude":50.110924,"longitude":8.682127,"reserved":0,"last_update":"0001-01-01T00:00:00Z","name_a2s":"Uncletopia | Frankfurt | 2 | All Maps","protocol":17,"map":"cp_process_final","folder":"tf","game":"Team Fortress","app_id":440,"player_count":24,"max_players":24,"Bots":0,"server_type":"Dedicated","server_os":"Linux","password":true,"vac":true,"version":"7882260","steam_id":85568392924469990,"keywords":["cp","nocrits","nodmgspread","uncletopia"],"game_id":440,"stv_port":27026,"stv_name":"Uncletopia | Frankfurt | 2 | All Maps | STV","players":[{"user_id":489,"name":"local shower shitter","steam_id":76561198140627349,"connected_time":2502000000000,"state":"active","ping":155},{"user_id":516,"name":"Rarky","steam_id":76561198054398642,"connected_time":1107000000000,"state":"active","ping":55},{"user_id":523,"name":"Sofia v. Boergersatt","steam_id":76561197968530671,"connected_time":954000000000,"state":"active","ping":46},{"user_id":524,"name":"Banzar1","steam_id":76561198170325423,"connected_time":939000000000,"state":"active","ping":129},{"user_id":528,"name":"hananamanna","steam_id":76561198006570285,"connected_time":455000000000,"state":"active","ping":109},{"user_id":486,"name":"‚ôõperry the platypus‚ôõ","steam_id":76561199379159771,"connected_time":2884000000000,"state":"active","ping":152},{"user_id":529,"name":"‚úûhe joy of recycling","steam_id":76561198415564349,"connected_time":216000000000,"state":"active","ping":60},{"user_id":525,"name":"xavier","steam_id":76561198076494034,"connected_time":842000000000,"state":"active","ping":57},{"user_id":519,"name":"Markein","steam_id":76561198360754280,"connected_time":1058000000000,"state":"active","ping":47},{"user_id":461,"name":"skindiver376","steam_id":76561198056533071,"connected_time":4698000000000,"state":"active","ping":58},{"user_id":518,"name":"Buddy","steam_id":76561198050185582,"connected_time":1085000000000,"state":"active","ping":70},{"user_id":508,"name":"lyudmilakh","steam_id":76561198362779878,"connected_time":1603000000000,"state":"active","ping":91},{"user_id":454,"name":"Devil","steam_id":76561198129721935,"connected_time":5095000000000,"state":"active","ping":85},{"user_id":492,"name":"Tison","steam_id":76561199127635841,"connected_time":2337000000000,"state":"active","ping":40},{"user_id":527,"name":"medicinal man","steam_id":76561198202668788,"connected_time":726000000000,"state":"active","ping":62},{"user_id":505,"name":"strohkopf9","steam_id":76561198059349860,"connected_time":1709000000000,"state":"active","ping":70},{"user_id":513,"name":"Catsanddogs123","steam_id":76561198030868386,"connected_time":1367000000000,"state":"active","ping":123},{"user_id":522,"name":"Pilaarius","steam_id":76561198120273212,"connected_time":1012000000000,"state":"active","ping":90},{"user_id":514,"name":"Asa Mitaka","steam_id":76561198361723475,"connected_time":1317000000000,"state":"active","ping":67},{"user_id":526,"name":"PlayDest87","steam_id":76561198173782017,"connected_time":808000000000,"state":"active","ping":69},{"user_id":515,"name":"Fish 'n' Chips","steam_id":76561198033476886,"connected_time":1302000000000,"state":"active","ping":46},{"user_id":510,"name":"Virigos","steam_id":76561198322441994,"connected_time":1518000000000,"state":"active","ping":61},{"user_id":472,"name":"HelwiiHill","steam_id":76561198066730552,"connected_time":3940000000000,"state":"active","ping":87},{"user_id":481,"name":"romos","steam_id":76561199123161420,"connected_time":3290000000000,"state":"active","ping":59}]},{"server_id":308,"name":"Uncletopia | Frankfurt | 3 | All Maps","name_short":"frk-3","host":"frk-1.de.uncletopia.com","port":27035,"enabled":true,"region":"eu","cc":"de","latitude":50.110924,"longitude":8.682127,"reserved":0,"last_update":"0001-01-01T00:00:00Z","name_a2s":"Uncletopia | Frankfurt | 3 | All Maps","protocol":17,"map":"cp_sunshine","folder":"tf","game":"Team Fortress","app_id":440,"player_count":24,"max_players":24,"Bots":0,"server_type":"Dedicated","server_os":"Linux","password":true,"vac":true,"version":"7882260","steam_id":85568392924504274,"keywords":["cp","nocrits","nodmgspread","uncletopia"],"game_id":440,"stv_port":27036,"stv_name":"Uncletopia | Frankfurt | 3 | All Maps | STV","players":[{"user_id":169,"name":"powej","steam_id":76561198056381418,"connected_time":175000000000,"state":"active","ping":48},{"user_id":121,"name":"Felwo3","steam_id":76561199217352978,"connected_time":3767000000000,"state":"active","ping":102},{"user_id":65,"name":"Ketich","steam_id":76561198021772703,"connected_time":7110000000000,"state":"active","ping":68},{"user_id":158,"name":"Mananasi","steam_id":76561198102870211,"connected_time":612000000000,"state":"active","ping":49},{"user_id":156,"name":"Zero","steam_id":76561198939711234,"connected_time":636000000000,"state":"active","ping":128},{"user_id":157,"name":"F","steam_id":76561199149462792,"connected_time":625000000000,"state":"active","ping":67},{"user_id":161,"name":"Dzan50","steam_id":76561198059758591,"connected_time":488000000000,"state":"active","ping":94},{"user_id":139,"name":"—Ç–æ–ª—è","steam_id":76561199098518615,"connected_time":2162000000000,"state":"active","ping":74},{"user_id":159,"name":"Wujek Cacek","steam_id":76561198010267943,"connected_time":611000000000,"state":"active","ping":60},{"user_id":122,"name":"Gryphus","steam_id":76561198041457191,"connected_time":3763000000000,"state":"active","ping":51},{"user_id":160,"name":"autism's strongest sodlier.","steam_id":76561198317434881,"connected_time":611000000000,"state":"active","ping":56},{"user_id":154,"name":"Karlo","steam_id":76561198969778584,"connected_time":795000000000,"state":"active","ping":95},{"user_id":162,"name":"Kiwi_qaq","steam_id":76561199259353499,"connected_time":446000000000,"state":"active","ping":75},{"user_id":144,"name":"Clint Eastwood","steam_id":76561198021552128,"connected_time":2097000000000,"state":"active","ping":100},{"user_id":138,"name":"D√•vid","steam_id":76561198184135755,"connected_time":2177000000000,"state":"active","ping":58},{"user_id":123,"name":"rand()","steam_id":76561198034812781,"connected_time":3743000000000,"state":"active","ping":58},{"user_id":163,"name":"Dom","steam_id":76561198056086416,"connected_time":426000000000,"state":"active","ping":57},{"user_id":167,"name":"Ataraxia","steam_id":76561198086654069,"connected_time":337000000000,"state":"active","ping":70},{"user_id":132,"name":"YuraGreek","steam_id":76561198050182252,"connected_time":3311000000000,"state":"active","ping":75},{"user_id":164,"name":"Jughead","steam_id":76561198000355410,"connected_time":403000000000,"state":"active","ping":60},{"user_id":136,"name":"LivEssense","steam_id":76561198052476979,"connected_time":2741000000000,"state":"active","ping":75},{"user_id":170,"name":"znunney","steam_id":76561199438501613,"connected_time":8000000000,"state":"spawning","ping":76},{"user_id":166,"name":"Phantom","steam_id":76561198268168199,"connected_time":379000000000,"state":"active","ping":57},{"user_id":148,"name":"Charged","steam_id":76561199127215130,"connected_time":1545000000000,"state":"active","ping":100}]},{"server_id":309,"name":"Uncletopia | Frankfurt | 4 | All Maps","name_short":"frk-4","host":"frk-1.de.uncletopia.com","port":27045,"enabled":true,"region":"eu","cc":"de","latitude":50.110924,"longitude":8.682127,"reserved":0,"last_update":"0001-01-01T00:00:00Z","name_a2s":"Uncletopia | Frankfurt | 4 | All Maps","protocol":17,"map":"cp_process_final","folder":"tf","game":"Team Fortress","app_id":440,"player_count":23,"max_players":24,"Bots":0,"server_type":"Dedicated","server_os":"Linux","password":true,"vac":true,"version":"7882260","steam_id":85568392924504275,"keywords":["cp","nocrits","nodmgspread","uncletopia"],"game_id":440,"stv_port":27046,"stv_name":"Uncletopia | Frankfurt | 4 | All Maps | STV","players":[{"user_id":10,"name":"Reyasmus","steam_id":76561199107253208,"connected_time":7276000000000,"state":"active","ping":73},{"user_id":108,"name":"transgender e-girl","steam_id":76561198168589809,"connected_time":18000000000,"state":"active","ping":68},{"user_id":102,"name":"jim","steam_id":76561198172003783,"connected_time":293000000000,"state":"active","ping":96},{"user_id":68,"name":"JC","steam_id":76561198029213352,"connected_time":2660000000000,"state":"active","ping":45},{"user_id":58,"name":"Osney","steam_id":76561197992746707,"connected_time":3056000000000,"state":"active","ping":48},{"user_id":88,"name":"Agartha Dweller","steam_id":76561198076881381,"connected_time":896000000000,"state":"active","ping":68},{"user_id":101,"name":"Nithle","steam_id":76561198025372740,"connected_time":306000000000,"state":"active","ping":45},{"user_id":87,"name":"Gordon","steam_id":76561198303652059,"connected_time":945000000000,"state":"active","ping":69},{"user_id":99,"name":"Lilac","steam_id":76561199483835107,"connected_time":353000000000,"state":"active","ping":77},{"user_id":109,"name":"LegoBoy","steam_id":76561197983095579,"connected_time":8000000000,"state":"spawning","ping":248},{"user_id":106,"name":"Nipsu","steam_id":76561198127660207,"connected_time":61000000000,"state":"active","ping":73},{"user_id":82,"name":"John","steam_id":76561198903255436,"connected_time":1789000000000,"state":"active","ping":45},{"user_id":103,"name":"Egor Pomidor","steam_id":76561199175688390,"connected_time":203000000000,"state":"active","ping":75},{"user_id":61,"name":"Din Javel","steam_id":76561198043018352,"connected_time":2863000000000,"state":"active","ping":70},{"user_id":105,"name":"Znoz","steam_id":76561198012093928,"connected_time":180000000000,"state":"active","ping":89},{"user_id":104,"name":"DRIXENNNNN;1","steam_id":76561198056810212,"connected_time":193000000000,"state":"active","ping":67},{"user_id":80,"name":"Dor_atar","steam_id":76561198973980542,"connected_time":1860000000000,"state":"active","ping":68},{"user_id":44,"name":"Potato_Face","steam_id":76561198881381640,"connected_time":3759000000000,"state":"active","ping":94},{"user_id":45,"name":"stozzy","steam_id":76561198085809880,"connected_time":3757000000000,"state":"active","ping":139},{"user_id":92,"name":"trobin120","steam_id":76561199122420273,"connected_time":834000000000,"state":"active","ping":139},{"user_id":69,"name":"notMe","steam_id":76561198040429367,"connected_time":2659000000000,"state":"active","ping":70},{"user_id":107,"name":"hud_saytext_time 0","steam_id":76561198010327228,"connected_time":50000000000,"state":"active","ping":56},{"user_id":95,"name":"FanFish","steam_id":76561199389558024,"connected_time":744000000000,"state":"active","ping":65}]},{"server_id":310,"name":"Uncletopia | Frankfurt | 5 | All Maps","name_short":"frk-5","host":"frk-1.de.uncletopia.com","port":27055,"enabled":true,"region":"eu","cc":"de","latitude":50.110924,"longitude":8.682127,"reserved":0,"last_update":"0001-01-01T00:00:00Z","name_a2s":"Uncletopia | Frankfurt | 5 | All Maps","protocol":17,"map":"koth_viaduct","folder":"tf","game":"Team Fortress","app_id":440,"player_count":0,"max_players":24,"Bots":0,"server_type":"Dedicated","server_os":"Linux","password":true,"vac":true,"version":"7882260","steam_id":85568392924504277,"keywords":["cp","nocrits","nodmgspread","uncletopia"],"game_id":440,"stv_port":27056,"stv_name":"Uncletopia | Frankfurt | 5 | All Maps | STV","players":null},{"server_id":311,"name":"Uncletopia | Frankfurt | 6 | All Maps","name_short":"frk-6","host":"frk-1.de.uncletopia.com","port":27065,"enabled":true,"region":"eu","cc":"de","latitude":50.110924,"longitude":8.682127,"reserved":0,"last_update":"0001-01-01T00:00:00Z","name_a2s":"Uncletopia | Frankfurt | 6 | All Maps","protocol":17,"map":"pl_borneo","folder":"tf","game":"Team Fortress","app_id":440,"player_count":24,"max_players":24,"Bots":0,"server_type":"Dedicated","server_os":"Linux","password":true,"vac":true,"version":"7882260","steam_id":85568392924504278,"keywords":["nocrits","nodmgspread","payload","uncletopia"],"game_id":440,"stv_port":27066,"stv_name":"Uncletopia | Frankfurt | 6 | All Maps | STV","players":[{"user_id":315,"name":"The Blue Engineer","steam_id":76561198397503718,"connected_time":488000000000,"state":"active","ping":71},{"user_id":300,"name":"ALARM","steam_id":76561198120686521,"connected_time":1752000000000,"state":"active","ping":55},{"user_id":317,"name":"3igen3ggy","steam_id":76561197989548015,"connected_time":217000000000,"state":"active","ping":65},{"user_id":285,"name":"Mayor Wank from Wanker Town","steam_id":76561197998253588,"connected_time":2708000000000,"state":"active","ping":47},{"user_id":277,"name":"Hat Lover","steam_id":76561198312283433,"connected_time":3436000000000,"state":"active","ping":82},{"user_id":184,"name":"√ÉNVS DR√ÉNVS","steam_id":76561198138733015,"connected_time":9752000000000,"state":"active","ping":111},{"user_id":249,"name":"Spectral Sloth","steam_id":76561198170083139,"connected_time":5535000000000,"state":"active","ping":82},{"user_id":305,"name":"ereh","steam_id":76561198061239823,"connected_time":953000000000,"state":"active","ping":67},{"user_id":284,"name":"St√ºmpy","steam_id":76561198255904077,"connected_time":2793000000000,"state":"active","ping":68},{"user_id":312,"name":"Bella","steam_id":76561198214004331,"connected_time":621000000000,"state":"active","ping":75},{"user_id":273,"name":"Rimx","steam_id":76561198053034840,"connected_time":3486000000000,"state":"active","ping":90},{"user_id":301,"name":"dollar foot long","steam_id":76561199250808808,"connected_time":1694000000000,"state":"active","ping":76},{"user_id":136,"name":"wasps","steam_id":76561198049485054,"connected_time":12340000000000,"state":"active","ping":78},{"user_id":302,"name":"Locke","steam_id":76561198339408300,"connected_time":1499000000000,"state":"active","ping":75},{"user_id":281,"name":"Toasty5050","steam_id":76561198073540881,"connected_time":3309000000000,"state":"active","ping":47},{"user_id":191,"name":"neJ","steam_id":76561198003397488,"connected_time":8876000000000,"state":"active","ping":74},{"user_id":316,"name":"Thors","steam_id":76561197968739075,"connected_time":342000000000,"state":"active","ping":52},{"user_id":268,"name":"modavak","steam_id":76561198946290908,"connected_time":4669000000000,"state":"active","ping":92},{"user_id":292,"name":"D0kai","steam_id":76561198389271720,"connected_time":2178000000000,"state":"active","ping":61},{"user_id":252,"name":"Lyncurion","steam_id":76561199260022725,"connected_time":5370000000000,"state":"active","ping":80},{"user_id":297,"name":"jawA","steam_id":76561198070341774,"connected_time":2049000000000,"state":"active","ping":83},{"user_id":313,"name":"peso enjoyer","steam_id":76561198798177799,"connected_time":621000000000,"state":"active","ping":70},{"user_id":291,"name":"Mr.Fix","steam_id":76561199017362445,"connected_time":2236000000000,"state":"active","ping":111},{"user_id":298,"name":"mt","steam_id":76561197961319303,"connected_time":2044000000000,"state":"active","ping":54}]},{"server_id":23,"name":"Uncletopia | Frankfurt | 7 | Stopwatch Beta","name_short":"frk-7","host":"frk-1.de.uncletopia.com","port":27075,"enabled":true,"region":"eu","cc":"de","latitude":50.110924,"longitude":8.682127,"reserved":0,"last_update":"0001-01-01T00:00:00Z","name_a2s":"Uncletopia | Frankfurt | 7 | Stopwatch Beta","protocol":17,"map":"workshop/koth_ashville_final.ugc2130459942","folder":"tf","game":"Team Fortress","app_id":440,"player_count":0,"max_players":24,"Bots":0,"server_type":"Dedicated","server_os":"Linux","password":true,"vac":true,"version":"7882260","steam_id":85568392924742827,"keywords":["cp","nocrits","nodmgspread","uncletopia"],"game_id":440,"stv_port":27076,"stv_name":"Uncletopia | Frankfurt | 7 | Stopwatch Beta | STV","players":null},{"server_id":24,"name":"Uncletopia | Frankfurt | 8 | Community","name_short":"frk-8","host":"frk-1.de.uncletopia.com","port":27085,"enabled":true,"region":"eu","cc":"de","latitude":50.110924,"longitude":8.682127,"reserved":0,"last_update":"0001-01-01T00:00:00Z","name_a2s":"Uncletopia | Frankfurt | 8 | Community","protocol":17,"map":"koth_cascade","folder":"tf","game":"Team Fortress","app_id":440,"player_count":0,"max_players":24,"Bots":0,"server_type":"Dedicated","server_os":"Linux","password":true,"vac":true,"version":"7882260","steam_id":85568392924742828,"keywords":["cp","nocrits","nodmgspread","uncletopia"],"game_id":440,"stv_port":27086,"stv_name":"Uncletopia | Frankfurt | 8 | Community | STV","players":null},{"server_id":202,"name":"Uncletopia | Hong Kong | 1 | All Maps","name_short":"hgk-1","host":"hgk-1.hk.uncletopia.com","port":27015,"enabled":true,"region":"asia","cc":"hk","latitude":22.302711,"longitude":114.177216,"reserved":0,"last_update":"0001-01-01T00:00:00Z","name_a2s":"Uncletopia | Hong Kong | 1 | All Maps","protocol":17,"map":"koth_lakeside_final","folder":"tf","game":"Team Fortress","app_id":440,"player_count":0,"max_players":24,"Bots":0,"server_type":"Dedicated","server_os":"Linux","password":true,"vac":true,"version":"7882260","steam_id":85568392924494504,"keywords":["cp","nocrits","nodmgspread","uncletopia"],"game_id":440,"stv_port":27016,"stv_name":"Uncletopia | Hong Kong | 1 | All Maps | STV","players":null},{"server_id":1,"name":"Uncletopia | Los Angeles | 1 | All Maps","name_short":"lax-1","host":"lax-1.us.uncletopia.com","port":27015,"enabled":true,"region":"us-west","cc":"us","latitude":33.94279,"longitude":-118.41004,"reserved":0,"last_update":"0001-01-01T00:00:00Z","name_a2s":"Uncletopia | Los Angeles | 1 | All Maps","protocol":17,"map":"pl_upward","folder":"tf","game":"Team Fortress","app_id":440,"player_count":4,"max_players":24,"Bots":0,"server_type":"Dedicated","server_os":"Linux","password":true,"vac":true,"version":"7882260","steam_id":85568392924469991,"keywords":["nocrits","nodmgspread","payload","uncletopia"],"game_id":440,"stv_port":27016,"stv_name":"Uncletopia | Los Angeles | 1 | All Maps | STV","players":[{"user_id":17,"name":"Nibotshooter","steam_id":76561199284825579,"connected_time":325000000000,"state":"active","ping":80},{"user_id":18,"name":"meszaros1293","steam_id":76561198168201600,"connected_time":146000000000,"state":"active","ping":57},{"user_id":19,"name":"ATATDRIVER","steam_id":76561198262816771,"connected_time":106000000000,"state":"active","ping":81},{"user_id":20,"name":"G‡∂ûMER","steam_id":76561198340389876,"connected_time":22000000000,"state":"spawning","ping":56}]},{"server_id":112,"name":"Uncletopia | Los Angeles | 2 | All Maps","name_short":"lax-2","host":"lax-1.us.uncletopia.com","port":27025,"enabled":true,"region":"us-west","cc":"us","latitude":33.94279,"longitude":-118.41004,"reserved":0,"last_update":"0001-01-01T00:00:00Z","name_a2s":"Uncletopia | Los Angeles | 2 | All Maps","protocol":17,"map":"koth_viaduct","folder":"tf","game":"Team Fortress","app_id":440,"player_count":0,"max_players":24,"Bots":0,"server_type":"Dedicated","server_os":"Linux","password":true,"vac":true,"version":"7882260","steam_id":85568392924469992,"keywords":["cp","nocrits","nodmgspread","uncletopia"],"game_id":440,"stv_port":27026,"stv_name":"Uncletopia | Los Angeles | 2 | All Maps | STV","players":null},{"server_id":324,"name":"Uncletopia | Los Angeles | 3 | All Maps","name_short":"lax-3","host":"lax-1.us.uncletopia.com","port":27035,"enabled":true,"region":"us-west","cc":"us","latitude":33.94279,"longitude":-118.41004,"reserved":0,"last_update":"0001-01-01T00:00:00Z","name_a2s":"Uncletopia | Los Angeles | 3 | All Maps","protocol":17,"map":"koth_cascade","folder":"tf","game":"Team Fortress","app_id":440,"player_count":0,"max_players":24,"Bots":0,"server_type":"Dedicated","server_os":"Linux","password":true,"vac":true,"version":"7882260","steam_id":85568392924510198,"keywords":["cp","nocrits","nodmgspread","uncletopia"],"game_id":440,"stv_port":27036,"stv_name":"Uncletopia | Los Angeles | 3 | All Maps | STV","players":null},{"server_id":25,"name":"Uncletopia | Los Angeles | 4 | Stopwatch Beta","name_short":"lax-4","host":"lax-1.us.uncletopia.com","port":27045,"enabled":true,"region":"us-west","cc":"us","latitude":33.94279,"longitude":-118.41004,"reserved":0,"last_update":"0001-01-01T00:00:00Z","name_a2s":"Uncletopia | Los Angeles | 4 | Stopwatch Beta","protocol":17,"map":"cp_snakewater_final1","folder":"tf","game":"Team Fortress","app_id":440,"player_count":0,"max_players":24,"Bots":0,"server_type":"Dedicated","server_os":"Linux","password":true,"vac":true,"version":"7882260","steam_id":85568392924510199,"keywords":["cp","nocrits","nodmgspread","uncletopia"],"game_id":440,"stv_port":27046,"stv_name":"Uncletopia | Los Angeles | 4 | Stopwatch Beta | STV","players":null},{"server_id":11,"name":"Uncletopia | London | 1 | All Maps","name_short":"lon-1","host":"lon-1.uk.uncletopia.com","port":27015,"enabled":true,"region":"eu","cc":"gb","latitude":51.509865,"longitude":-0.118092,"reserved":0,"last_update":"0001-01-01T00:00:00Z","name_a2s":"Uncletopia | London | 1 | All Maps","protocol":17,"map":"cp_steel","folder":"tf","game":"Team Fortress","app_id":440,"player_count":24,"max_players":24,"Bots":0,"server_type":"Dedicated","server_os":"Linux","password":true,"vac":true,"version":"7882260","steam_id":85568392924367362,"keywords":["cp","nocrits","nodmgspread","uncletopia"],"game_id":440,"stv_port":27016,"stv_name":"Uncletopia | London | 1 | All Maps | STV","players":[{"user_id":454,"name":"Yargƒ±√ß","steam_id":76561199147152361,"connected_time":7018000000000,"state":"active","ping":107},{"user_id":557,"name":"NuGs","steam_id":76561198305550934,"connected_time":308000000000,"state":"active","ping":45},{"user_id":540,"name":"Watermelon","steam_id":76561198078349914,"connected_time":1583000000000,"state":"active","ping":46},{"user_id":565,"name":"CarBombEnthusiast","steam_id":76561199448185434,"connected_time":166000000000,"state":"active","ping":67},{"user_id":559,"name":"madijo","steam_id":76561198012617400,"connected_time":297000000000,"state":"active","ping":60},{"user_id":564,"name":"Burek","steam_id":76561198012498891,"connected_time":216000000000,"state":"active","ping":97},{"user_id":543,"name":"CaptiaNNooBS437","steam_id":76561198844010921,"connected_time":1437000000000,"state":"active","ping":74},{"user_id":545,"name":"Cosmetic brain","steam_id":76561198055936410,"connected_time":1386000000000,"state":"active","ping":89},{"user_id":496,"name":"zvekan","steam_id":76561198381101196,"connected_time":3774000000000,"state":"active","ping":72},{"user_id":434,"name":"VampiuS","steam_id":76561197998827007,"connected_time":8243000000000,"state":"active","ping":61},{"user_id":448,"name":"MEDiUM","steam_id":76561198112328561,"connected_time":7247000000000,"state":"active","ping":87},{"user_id":562,"name":"dec","steam_id":76561198009660168,"connected_time":245000000000,"state":"active","ping":60},{"user_id":529,"name":"Aaron","steam_id":76561197990046953,"connected_time":2383000000000,"state":"active","ping":59},{"user_id":535,"name":"Jinx my beloved","steam_id":76561198819986745,"connected_time":1846000000000,"state":"active","ping":100},{"user_id":549,"name":"howabe","steam_id":76561197996486818,"connected_time":1323000000000,"state":"active","ping":61},{"user_id":513,"name":"Ultraspeed7","steam_id":76561198092488322,"connected_time":3209000000000,"state":"active","ping":63},{"user_id":523,"name":"chilimario","steam_id":76561198282257201,"connected_time":2858000000000,"state":"active","ping":109},{"user_id":546,"name":"g-mecha","steam_id":76561198037361321,"connected_time":1372000000000,"state":"active","ping":68},{"user_id":556,"name":"JOHN GAMING (#1 gunspy)","steam_id":76561199085822219,"connected_time":1174000000000,"state":"active","ping":88},{"user_id":482,"name":"Chad Slav","steam_id":76561198160103841,"connected_time":4462000000000,"state":"active","ping":72},{"user_id":563,"name":"Joseph Stalin","steam_id":76561198033199746,"connected_time":240000000000,"state":"active","ping":47},{"user_id":487,"name":"UltimateAura","steam_id":76561198338361324,"connected_time":4289000000000,"state":"active","ping":44},{"user_id":532,"name":"Phoenix Heanix civilnetworks.ne","steam_id":76561199089243074,"connected_time":2292000000000,"state":"active","ping":92}]},{"server_id":114,"name":"Uncletopia | London | 2 | All Maps","name_short":"lon-2","host":"lon-1.uk.uncletopia.com","port":27025,"enabled":true,"region":"eu","cc":"gb","latitude":51.509865,"longitude":-0.118092,"reserved":0,"last_update":"0001-01-01T00:00:00Z","name_a2s":"Uncletopia | London | 2 | All Maps","protocol":17,"map":"pl_goldrush","folder":"tf","game":"Team Fortress","app_id":440,"player_count":23,"max_players":24,"Bots":0,"server_type":"Dedicated","server_os":"Linux","password":true,"vac":true,"version":"7882260","steam_id":85568392924470941,"keywords":["nocrits","nodmgspread","payload","uncletopia"],"game_id":440,"stv_port":27026,"stv_name":"Uncletopia | London | 2 | All Maps | STV","players":[{"user_id":249,"name":"whyamialive","steam_id":76561199070008862,"connected_time":736000000000,"state":"active","ping":35},{"user_id":156,"name":"Milosz52","steam_id":76561199060940204,"connected_time":7321000000000,"state":"active","ping":95},{"user_id":252,"name":"MAKENTAKEN","steam_id":76561199127359587,"connected_time":617000000000,"state":"active","ping":97},{"user_id":217,"name":"JaneDoe","steam_id":76561198067081506,"connected_time":3681000000000,"state":"active","ping":84},{"user_id":255,"name":"lester","steam_id":76561199305518744,"connected_time":494000000000,"state":"active","ping":179},{"user_id":237,"name":"Breizbuc","steam_id":76561198118220633,"connected_time":1963000000000,"state":"active","ping":63},{"user_id":246,"name":"stickurr","steam_id":76561198089536805,"connected_time":826000000000,"state":"active","ping":45},{"user_id":250,"name":"Drovecz_Hun","steam_id":76561198054703214,"connected_time":716000000000,"state":"active","ping":83},{"user_id":195,"name":"Asfreild","steam_id":76561198055901120,"connected_time":4849000000000,"state":"active","ping":70},{"user_id":253,"name":"Umbro","steam_id":76561198087930438,"connected_time":616000000000,"state":"active","ping":75},{"user_id":219,"name":"hedon/","steam_id":76561198249832770,"connected_time":3529000000000,"state":"active","ping":47},{"user_id":107,"name":"Bob.","steam_id":76561198330093822,"connected_time":11073000000000,"state":"active","ping":89},{"user_id":260,"name":"Michael","steam_id":76561198003146906,"connected_time":143000000000,"state":"active","ping":45},{"user_id":224,"name":"LemonLeCitron","steam_id":76561198215545267,"connected_time":2919000000000,"state":"active","ping":70},{"user_id":257,"name":"idc","steam_id":76561198322087870,"connected_time":230000000000,"state":"active","ping":111},{"user_id":262,"name":"dragoon","steam_id":76561198241320498,"connected_time":95000000000,"state":"active","ping":58},{"user_id":223,"name":"hmscole09","steam_id":76561198811362788,"connected_time":2971000000000,"state":"active","ping":61},{"user_id":236,"name":"Angry Andrew","steam_id":76561197989996830,"connected_time":2075000000000,"state":"active","ping":127},{"user_id":243,"name":"ThatTFguy","steam_id":76561198056794321,"connected_time":1415000000000,"state":"active","ping":56},{"user_id":233,"name":"Farmercy","steam_id":76561198000038039,"connected_time":2189000000000,"state":"active","ping":75},{"user_id":210,"name":"LiterallyRyanGosling","steam_id":76561199017856691,"connected_time":3923000000000,"state":"active","ping":52},{"user_id":235,"name":"Valkyr","steam_id":76561197994049208,"connected_time":2148000000000,"state":"active","ping":67},{"user_id":245,"name":"BrownBreadMan","steam_id":76561199092834214,"connected_time":1388000000000,"state":"active","ping":51}]},{"server_id":320,"name":"Uncletopia | London | 3 | All Maps","name_short":"lon-3","host":"lon-1.uk.uncletopia.com","port":27035,"enabled":true,"region":"eu","cc":"gb","latitude":51.509865,"longitude":-0.118092,"reserved":0,"last_update":"0001-01-01T00:00:00Z","name_a2s":"Uncletopia | London | 3 | All Maps","protocol":17,"map":"pl_thundermountain","folder":"tf","game":"Team Fortress","app_id":440,"player_count":24,"max_players":24,"Bots":0,"server_type":"Dedicated","server_os":"Linux","password":true,"vac":true,"version":"7882260","steam_id":85568392924510192,"keywords":["nocrits","nodmgspread","payload","uncletopia"],"game_id":440,"stv_port":27036,"stv_name":"Uncletopia | London | 3 | All Maps | STV","players":[{"user_id":550,"name":":3","steam_id":76561198169471853,"connected_time":7862000000000,"state":"active","ping":43},{"user_id":624,"name":"Mr gnash","steam_id":76561198007410990,"connected_time":2147000000000,"state":"active","ping":68},{"user_id":647,"name":"Minimi","steam_id":76561198873850443,"connected_time":267000000000,"state":"active","ping":54},{"user_id":650,"name":"Deacon Dracul","steam_id":76561198046880663,"connected_time":151000000000,"state":"active","ping":94},{"user_id":634,"name":"Russenluster","steam_id":76561198118016220,"connected_time":1465000000000,"state":"active","ping":60},{"user_id":651,"name":"-gunripp0r^be / Obelix^","steam_id":76561197999306879,"connected_time":37000000000,"state":"active","ping":93},{"user_id":645,"name":"Enjoy the process","steam_id":76561198136959681,"connected_time":542000000000,"state":"active","ping":54},{"user_id":637,"name":"FoxyTheFish","steam_id":76561199074190919,"connected_time":1452000000000,"state":"active","ping":79},{"user_id":641,"name":"MaksingTape","steam_id":76561198827103130,"connected_time":1206000000000,"state":"active","ping":47},{"user_id":631,"name":"Guru","steam_id":76561198093853069,"connected_time":1480000000000,"state":"active","ping":64},{"user_id":610,"name":"darkwater","steam_id":76561197986978738,"connected_time":2714000000000,"state":"active","ping":59},{"user_id":635,"name":"Providence","steam_id":76561198003920270,"connected_time":1465000000000,"state":"active","ping":73},{"user_id":544,"name":"Aroo","steam_id":76561198132601368,"connected_time":8234000000000,"state":"active","ping":77},{"user_id":632,"name":"After8","steam_id":76561198090750865,"connected_time":1480000000000,"state":"active","ping":70},{"user_id":648,"name":"0","steam_id":76561199084809092,"connected_time":262000000000,"state":"active","ping":109},{"user_id":619,"name":"porngamer","steam_id":76561198204620491,"connected_time":2382000000000,"state":"active","ping":34},{"user_id":649,"name":"Tekky","steam_id":76561197990987315,"connected_time":218000000000,"state":"active","ping":108},{"user_id":639,"name":"Mak≈Çowicz","steam_id":76561198281831506,"connected_time":1224000000000,"state":"active","ping":95},{"user_id":630,"name":"DiscountIvy(Mike)","steam_id":76561199046004620,"connected_time":1590000000000,"state":"active","ping":121},{"user_id":623,"name":"Ted Kaczynski","steam_id":76561198064795519,"connected_time":2216000000000,"state":"active","ping":61},{"user_id":638,"name":"Accident","steam_id":76561198115160396,"connected_time":1298000000000,"state":"active","ping":76},{"user_id":629,"name":"Tea","steam_id":76561198799243030,"connected_time":2014000000000,"state":"active","ping":80},{"user_id":585,"name":"RuneShine","steam_id":76561198007098323,"connected_time":5356000000000,"state":"active","ping":51},{"user_id":603,"name":"Haydn","steam_id":76561198014665457,"connected_time":2895000000000,"state":"active","ping":55}]},{"server_id":321,"name":"Uncletopia | London | 4 | All Maps","name_short":"lon-4","host":"lon-1.uk.uncletopia.com","port":27045,"enabled":true,"region":"eu","cc":"gb","latitude":51.509865,"longitude":-0.118092,"reserved":0,"last_update":"0001-01-01T00:00:00Z","name_a2s":"Uncletopia | London | 4 | All Maps","protocol":17,"map":"koth_highpass","folder":"tf","game":"Team Fortress","app_id":440,"player_count":24,"max_players":24,"Bots":0,"server_type":"Dedicated","server_os":"Linux","password":true,"vac":true,"version":"7882260","steam_id":85568392924510193,"keywords":["cp","nocrits","nodmgspread","uncletopia"],"game_id":440,"stv_port":27046,"stv_name":"Uncletopia | London | 4 | All Maps | STV","players":[{"user_id":257,"name":"Making Coffee","steam_id":76561198138281039,"connected_time":1143000000000,"state":"active","ping":77},{"user_id":237,"name":"Loupombear","steam_id":76561198115905860,"connected_time":3791000000000,"state":"active","ping":47},{"user_id":260,"name":"Jan.","steam_id":76561197974066329,"connected_time":1124000000000,"state":"active","ping":68},{"user_id":275,"name":"Core2Duo","steam_id":76561199484297625,"connected_time":210000000000,"state":"active","ping":62},{"user_id":150,"name":"Saul Goodman","steam_id":76561198346169853,"connected_time":8534000000000,"state":"active","ping":102},{"user_id":273,"name":"Malai","steam_id":76561198062537014,"connected_time":349000000000,"state":"active","ping":72},{"user_id":266,"name":"Storm's Foreshadow","steam_id":76561198098462526,"connected_time":1080000000000,"state":"active","ping":72},{"user_id":246,"name":"M2rtRa","steam_id":76561198111036466,"connected_time":3069000000000,"state":"active","ping":76},{"user_id":274,"name":"skitarii enjoyer","steam_id":76561198220245604,"connected_time":244000000000,"state":"active","ping":68},{"user_id":276,"name":"Summer ‚ô•","steam_id":76561198047723907,"connected_time":124000000000,"state":"active","ping":37},{"user_id":278,"name":"Bird Up!","steam_id":76561198868587060,"connected_time":14000000000,"state":"spawning","ping":38},{"user_id":263,"name":"Penology","steam_id":76561198192805279,"connected_time":1112000000000,"state":"active","ping":89},{"user_id":268,"name":"PASTAMAN!!!","steam_id":76561198995641765,"connected_time":838000000000,"state":"active","ping":63},{"user_id":141,"name":"Envy","steam_id":76561198132723219,"connected_time":9097000000000,"state":"active","ping":102},{"user_id":229,"name":"Ott","steam_id":76561198276464481,"connected_time":4571000000000,"state":"active","ping":78},{"user_id":277,"name":"WolfmanCZ","steam_id":76561199157141414,"connected_time":99000000000,"state":"active","ping":88},{"user_id":258,"name":"jimjam707","steam_id":76561198023756261,"connected_time":1136000000000,"state":"active","ping":43},{"user_id":259,"name":"Stayprone","steam_id":76561197963491785,"connected_time":1136000000000,"state":"active","ping":69},{"user_id":270,"name":"Truegear","steam_id":76561198059511386,"connected_time":626000000000,"state":"active","ping":66},{"user_id":217,"name":"Jesus Enjoyer","steam_id":76561198840259819,"connected_time":5005000000000,"state":"active","ping":74},{"user_id":264,"name":"fuckbuddyfuckbuddyfuckbuddy","steam_id":76561197988733568,"connected_time":1110000000000,"state":"active","ping":58},{"user_id":267,"name":"philippoliverCat","steam_id":76561198877008415,"connected_time":1004000000000,"state":"active","ping":80},{"user_id":244,"name":"deva uor","steam_id":76561198168251125,"connected_time":3393000000000,"state":"active","ping":76},{"user_id":272,"name":"gojoel","steam_id":76561198251181946,"connected_time":461000000000,"state":"active","ping":43}]},{"server_id":21,"name":"Uncletopia | London | 5 | All Maps","name_short":"lon-5","host":"lon-1.uk.uncletopia.com","port":27055,"enabled":true,"region":"eu","cc":"gb","latitude":51.509865,"longitude":-0.118092,"reserved":0,"last_update":"0001-01-01T00:00:00Z","name_a2s":"Uncletopia | London | 5 | All Maps","protocol":17,"map":"cp_process_final","folder":"tf","game":"Team Fortress","app_id":440,"player_count":24,"max_players":24,"Bots":0,"server_type":"Dedicated","server_os":"Linux","password":true,"vac":true,"version":"7882260","steam_id":85568392924742829,"keywords":["cp","nocrits","nodmgspread","uncletopia"],"game_id":440,"stv_port":27056,"stv_name":"Uncletopia | London | 5 | All Maps | STV","players":[{"user_id":285,"name":"FZStick","steam_id":76561198086617223,"connected_time":116000000000,"state":"active","ping":54},{"user_id":286,"name":"elli","steam_id":76561198279637513,"connected_time":111000000000,"state":"active","ping":65},{"user_id":278,"name":"Spoofr","steam_id":76561199267825043,"connected_time":1267000000000,"state":"active","ping":60},{"user_id":287,"name":"christoph","steam_id":76561198862617811,"connected_time":102000000000,"state":"active","ping":76},{"user_id":288,"name":"Shwal","steam_id":76561198138840448,"connected_time":91000000000,"state":"active","ping":150},{"user_id":281,"name":"Pita Bread","steam_id":76561198095600582,"connected_time":633000000000,"state":"active","ping":73},{"user_id":239,"name":"Real photograph of me","steam_id":76561198236015392,"connected_time":4109000000000,"state":"active","ping":113},{"user_id":289,"name":"alex jones gaming","steam_id":76561199090730414,"connected_time":56000000000,"state":"active","ping":95},{"user_id":274,"name":"Demoknight tf2","steam_id":76561198133041874,"connected_time":1956000000000,"state":"active","ping":56},{"user_id":290,"name":"Mr. Shadow | Folfie","steam_id":76561198037028507,"connected_time":45000000000,"state":"active","ping":68},{"user_id":291,"name":"Cak3","steam_id":76561198012633295,"connected_time":38000000000,"state":"active","ping":59},{"user_id":292,"name":"U1F","steam_id":76561198053700703,"connected_time":37000000000,"state":"active","ping":37},{"user_id":293,"name":"gus","steam_id":76561198876303958,"connected_time":23000000000,"state":"spawning","ping":117},{"user_id":279,"name":"Lag","steam_id":76561198159360376,"connected_time":1249000000000,"state":"active","ping":50},{"user_id":267,"name":"Gio'sMonkey","steam_id":76561198892432223,"connected_time":2400000000000,"state":"active","ping":68},{"user_id":272,"name":"SpaceCees","steam_id":76561198128756659,"connected_time":1992000000000,"state":"active","ping":47},{"user_id":214,"name":"HerrMyrddin","steam_id":76561198045778215,"connected_time":5718000000000,"state":"active","ping":70},{"user_id":256,"name":"Famous Anus","steam_id":76561198413675639,"connected_time":3487000000000,"state":"active","ping":73},{"user_id":282,"name":"LeonIsMooi","steam_id":76561198041524085,"connected_time":442000000000,"state":"active","ping":61},{"user_id":280,"name":"ddchdrn","steam_id":76561198024358566,"connected_time":1245000000000,"state":"active","ping":61},{"user_id":253,"name":"Mobster Tortoise","steam_id":76561199036837091,"connected_time":3832000000000,"state":"active","ping":87},{"user_id":283,"name":"Engi-Nearing","steam_id":76561199221172552,"connected_time":419000000000,"state":"active","ping":75},{"user_id":268,"name":"Floris Kakadoris","steam_id":76561198258458741,"connected_time":2396000000000,"state":"active","ping":56},{"user_id":237,"name":"Son Goku","steam_id":76561199383437138,"connected_time":4431000000000,"state":"active","ping":124}]},{"server_id":22,"name":"Uncletopia | London | 6 | All Maps","name_short":"lon-6","host":"lon-1.uk.uncletopia.com","port":27065,"enabled":true,"region":"eu","cc":"gb","latitude":51.509865,"longitude":-0.118092,"reserved":0,"last_update":"0001-01-01T00:00:00Z","name_a2s":"Uncletopia | London | 6 | All Maps","protocol":17,"map":"cp_mountainlab","folder":"tf","game":"Team Fortress","app_id":440,"player_count":0,"max_players":24,"Bots":0,"server_type":"Dedicated","server_os":"Linux","password":true,"vac":true,"version":"7882260","steam_id":85568392924742830,"keywords":["cp","nocrits","nodmgspread","uncletopia"],"game_id":440,"stv_port":27066,"stv_name":"Uncletopia | London | 6 | All Maps | STV","players":null},{"server_id":40,"name":"Uncletopia | London | 7 | No Payload","name_short":"lon-7","host":"lon-1.uk.uncletopia.com","port":27075,"enabled":true,"region":"eu","cc":"gb","latitude":51.509865,"longitude":-0.118092,"reserved":0,"last_update":"0001-01-01T00:00:00Z","name_a2s":"Uncletopia | London | 7 | No Payload","protocol":17,"map":"cp_fastlane","folder":"tf","game":"Team Fortress","app_id":440,"player_count":0,"max_players":24,"Bots":0,"server_type":"Dedicated","server_os":"Linux","password":true,"vac":true,"version":"7882260","steam_id":85568392924964314,"keywords":["cp","nocrits","nodmgspread","uncletopia"],"game_id":440,"stv_port":27076,"stv_name":"Uncletopia | London | 7 | No Payload | STV","players":null},{"server_id":41,"name":"Uncletopia | London | 8 | Community","name_short":"lon-8","host":"lon-1.uk.uncletopia.com","port":27085,"enabled":true,"region":"eu","cc":"gb","latitude":51.509865,"longitude":-0.118092,"reserved":0,"last_update":"0001-01-01T00:00:00Z","name_a2s":"Uncletopia | London | 8 | Community","protocol":17,"map":"workshop/cp_snowbase_b18.ugc2081770490","folder":"tf","game":"Team Fortress","app_id":440,"player_count":0,"max_players":24,"Bots":0,"server_type":"Dedicated","server_os":"Linux","password":true,"vac":true,"version":"7882260","steam_id":85568392924964315,"keywords":["cp","nocrits","nodmgspread","uncletopia"],"game_id":440,"stv_port":27086,"stv_name":"Uncletopia | London | 8 | Community | STV","players":null},{"server_id":300,"name":"Uncletopia | Montr√©al | 1 | All Maps","name_short":"mtl-1","host":"mtl-1.ca.uncletopia.com","port":27015,"enabled":true,"region":"us-east","cc":"ca","latitude":45.50889,"longitude":-73.56167,"reserved":0,"last_update":"0001-01-01T00:00:00Z","name_a2s":"Uncletopia | Montr√©al | 1 | All Maps","protocol":17,"map":"pl_snowycoast","folder":"tf","game":"Team Fortress","app_id":440,"player_count":0,"max_players":24,"Bots":0,"server_type":"Dedicated","server_os":"Linux","password":true,"vac":true,"version":"7882260","steam_id":85568392924500087,"keywords":["nocrits","nodmgspread","payload","uncletopia"],"game_id":440,"stv_port":27016,"stv_name":"Uncletopia | Montr√©al | 1 | All Maps | STV","players":null},{"server_id":301,"name":"Uncletopia | Montr√©al | 2 | All Maps","name_short":"mtl-2","host":"mtl-1.ca.uncletopia.com","port":27025,"enabled":true,"region":"us-east","cc":"ca","latitude":45.50889,"longitude":-73.56167,"reserved":0,"last_update":"0001-01-01T00:00:00Z","name_a2s":"Uncletopia | Montr√©al | 2 | All Maps","protocol":17,"map":"koth_highpass","folder":"tf","game":"Team Fortress","app_id":440,"player_count":0,"max_players":24,"Bots":0,"server_type":"Dedicated","server_os":"Linux","password":true,"vac":true,"version":"7882260","steam_id":85568392924500088,"keywords":["cp","nocrits","nodmgspread","uncletopia"],"game_id":440,"stv_port":27026,"stv_name":"Uncletopia | Montr√©al | 2 | All Maps | STV","players":null},{"server_id":302,"name":"Uncletopia | Montr√©al | 3 | All Maps","name_short":"mtl-3","host":"mtl-1.ca.uncletopia.com","port":27035,"enabled":true,"region":"us-east","cc":"ca","latitude":45.50889,"longitude":-73.56167,"reserved":0,"last_update":"0001-01-01T00:00:00Z","name_a2s":"Uncletopia | Montr√©al | 3 | All Maps","protocol":17,"map":"pl_swiftwater_final1","folder":"tf","game":"Team Fortress","app_id":440,"player_count":0,"max_players":24,"Bots":0,"server_type":"Dedicated","server_os":"Linux","password":true,"vac":true,"version":"7882260","steam_id":85568392924500089,"keywords":["nocrits","nodmgspread","payload","uncletopia"],"game_id":440,"stv_port":27036,"stv_name":"Uncletopia | Montr√©al | 3 | All Maps | STV","players":null},{"server_id":303,"name":"Uncletopia | Montr√©al | 4 | No Payload","name_short":"mtl-4","host":"mtl-1.ca.uncletopia.com","port":27045,"enabled":true,"region":"us-east","cc":"ca","latitude":45.50889,"longitude":-73.56167,"reserved":0,"last_update":"0001-01-01T00:00:00Z","name_a2s":"Uncletopia | Montr√©al | 4 | No Payload","protocol":17,"map":"cp_sunshine","folder":"tf","game":"Team Fortress","app_id":440,"player_count":0,"max_players":24,"Bots":0,"server_type":"Dedicated","server_os":"Linux","password":true,"vac":true,"version":"7882260","steam_id":85568392924500090,"keywords":["cp","nocrits","nodmgspread","uncletopia"],"game_id":440,"stv_port":27046,"stv_name":"Uncletopia | Montr√©al | 4 | No Payload | STV","players":null},{"server_id":13,"name":"Uncletopia | New York City | 1 | All Maps","name_short":"nyc-1","host":"nyc-1.us.uncletopia.com","port":27015,"enabled":true,"region":"us-east","cc":"us","latitude":40.73061,"longitude":-73.93524,"reserved":0,"last_update":"0001-01-01T00:00:00Z","name_a2s":"Uncletopia | New York City | 1 | All Maps","protocol":17,"map":"pl_snowycoast","folder":"tf","game":"Team Fortress","app_id":440,"player_count":24,"max_players":24,"Bots":0,"server_type":"Dedicated","server_os":"Linux","password":true,"vac":true,"version":"7882260","steam_id":85568392924469993,"keywords":["nocrits","nodmgspread","payload","uncletopia"],"game_id":440,"stv_port":27016,"stv_name":"Uncletopia | New York City | 1 | All Maps | STV","players":[{"user_id":71,"name":"MondoDong","steam_id":76561197991400109,"connected_time":1401000000000,"state":"active","ping":53},{"user_id":73,"name":"Nigel Powers","steam_id":76561198107382571,"connected_time":1240000000000,"state":"active","ping":145},{"user_id":70,"name":"DO NOT call me BART SIMPSON!!","steam_id":76561198069113375,"connected_time":1482000000000,"state":"active","ping":61},{"user_id":42,"name":"Blitzy","steam_id":76561198149472890,"connected_time":2563000000000,"state":"active","ping":90},{"user_id":85,"name":"Constellar Nova","steam_id":76561198868215392,"connected_time":208000000000,"state":"active","ping":52},{"user_id":77,"name":"BurningKev","steam_id":76561198057688837,"connected_time":1084000000000,"state":"active","ping":90},{"user_id":83,"name":"LemonHazel","steam_id":76561198148806690,"connected_time":262000000000,"state":"active","ping":64},{"user_id":63,"name":"denzell05","steam_id":76561198086987061,"connected_time":1871000000000,"state":"active","ping":151},{"user_id":51,"name":"Furrybuttsniffer","steam_id":76561198369227367,"connected_time":2430000000000,"state":"active","ping":166},{"user_id":84,"name":"you forgot the sauce","steam_id":76561198387016713,"connected_time":220000000000,"state":"active","ping":60},{"user_id":69,"name":"ratie","steam_id":76561198059399661,"connected_time":1544000000000,"state":"active","ping":91},{"user_id":86,"name":"dedededinside73","steam_id":76561198442156880,"connected_time":207000000000,"state":"active","ping":71},{"user_id":57,"name":"Nickson1","steam_id":76561198175839309,"connected_time":2115000000000,"state":"active","ping":73},{"user_id":66,"name":"thepokeyen","steam_id":76561198236847572,"connected_time":1662000000000,"state":"active","ping":85},{"user_id":40,"name":"DrMisteryous2","steam_id":76561198336307012,"connected_time":2602000000000,"state":"active","ping":197},{"user_id":78,"name":"honk","steam_id":76561198050398028,"connected_time":951000000000,"state":"active","ping":75},{"user_id":87,"name":"Bing Bong","steam_id":76561198101042701,"connected_time":198000000000,"state":"active","ping":82},{"user_id":88,"name":"Mr.noob","steam_id":76561199200442395,"connected_time":182000000000,"state":"active","ping":148},{"user_id":89,"name":"Slazzer","steam_id":76561198404351844,"connected_time":118000000000,"state":"active","ping":66},{"user_id":46,"name":"notdbone","steam_id":76561198045890038,"connected_time":2473000000000,"state":"active","ping":76},{"user_id":64,"name":"Jt","steam_id":76561198049853548,"connected_time":1726000000000,"state":"active","ping":46},{"user_id":58,"name":"truebosnianking","steam_id":76561199440060597,"connected_time":2108000000000,"state":"active","ping":148},{"user_id":50,"name":"snowblind","steam_id":76561198101469857,"connected_time":2444000000000,"state":"active","ping":102},{"user_id":62,"name":"goblino","steam_id":76561198068260422,"connected_time":1953000000000,"state":"active","ping":74}]},{"server_id":14,"name":"Uncletopia | New York City | 2 | All Maps","name_short":"nyc-2","host":"nyc-1.us.uncletopia.com","port":27025,"enabled":true,"region":"us-east","cc":"us","latitude":40.73061,"longitude":-73.93524,"reserved":0,"last_update":"0001-01-01T00:00:00Z","name_a2s":"Uncletopia | New York City | 2 | All Maps","protocol":17,"map":"cp_process_final","folder":"tf","game":"Team Fortress","app_id":440,"player_count":24,"max_players":24,"Bots":0,"server_type":"Dedicated","server_os":"Linux","password":true,"vac":true,"version":"7882260","steam_id":85568392924469994,"keywords":["cp","nocrits","nodmgspread","uncletopia"],"game_id":440,"stv_port":27026,"stv_name":"Uncletopia | New York City | 2 | All Maps | STV","players":[{"user_id":74,"name":"a table","steam_id":76561198158461279,"connected_time":2316000000000,"state":"active","ping":65},{"user_id":76,"name":"pylot","steam_id":76561198119460618,"connected_time":2215000000000,"state":"active","ping":101},{"user_id":105,"name":"Mimiu the Mimiga","steam_id":76561197976714577,"connected_time":108000000000,"state":"active","ping":83},{"user_id":99,"name":"Dread Pierat Squeaks","steam_id":76561198413602368,"connected_time":741000000000,"state":"active","ping":47},{"user_id":12,"name":"lycoris","steam_id":76561199113965768,"connected_time":7087000000000,"state":"active","ping":79},{"user_id":93,"name":"MMCI Ty!","steam_id":76561198132068284,"connected_time":982000000000,"state":"active","ping":54},{"user_id":101,"name":"[BBW] Justario","steam_id":76561198016095410,"connected_time":551000000000,"state":"active","ping":45},{"user_id":77,"name":"Flores","steam_id":76561198106938500,"connected_time":2214000000000,"state":"active","ping":105},{"user_id":102,"name":"Jeff the 19th","steam_id":76561198189315491,"connected_time":278000000000,"state":"active","ping":76},{"user_id":92,"name":"Piss Scoundrel","steam_id":76561197995562098,"connected_time":1132000000000,"state":"active","ping":67},{"user_id":84,"name":"Creamy","steam_id":76561198063907478,"connected_time":1621000000000,"state":"active","ping":133},{"user_id":67,"name":"The Poopshitter","steam_id":76561198870068763,"connected_time":3411000000000,"state":"active","ping":112},{"user_id":106,"name":"supamajikunicorn","steam_id":76561198152596322,"connected_time":85000000000,"state":"active","ping":74},{"user_id":83,"name":"Scalie with Soup","steam_id":76561198126745958,"connected_time":1669000000000,"state":"active","ping":126},{"user_id":88,"name":"trans rights","steam_id":76561198044183038,"connected_time":1567000000000,"state":"active","ping":75},{"user_id":78,"name":"Bombat","steam_id":76561198083096946,"connected_time":2206000000000,"state":"active","ping":111},{"user_id":103,"name":"Primal","steam_id":76561197983118203,"connected_time":151000000000,"state":"active","ping":86},{"user_id":104,"name":"rainbow sonic","steam_id":76561198015123424,"connected_time":138000000000,"state":"active","ping":126},{"user_id":107,"name":"highschool drop-out","steam_id":76561198366299848,"connected_time":77000000000,"state":"active","ping":65},{"user_id":80,"name":"YOUNG UPGRADE","steam_id":76561198035474725,"connected_time":2170000000000,"state":"active","ping":63},{"user_id":85,"name":"sploingnar","steam_id":76561198904516992,"connected_time":1618000000000,"state":"active","ping":85},{"user_id":48,"name":"Super Ghostbusters (Full Album)","steam_id":76561198057415490,"connected_time":5007000000000,"state":"active","ping":77},{"user_id":98,"name":"inclinedtoserve","steam_id":76561198049947541,"connected_time":939000000000,"state":"active","ping":45},{"user_id":109,"name":"Zhenaj","steam_id":76561199209016136,"connected_time":64000000000,"state":"active","ping":61}]},{"server_id":15,"name":"Uncletopia | New York City | 3 | Stopwatch Beta","name_short":"nyc-3","host":"nyc-1.us.uncletopia.com","port":27035,"enabled":true,"region":"us-east","cc":"us","latitude":40.73061,"longitude":-73.93524,"reserved":0,"last_update":"0001-01-01T00:00:00Z","name_a2s":"Uncletopia | New York City | 3 | Stopwatch Beta","protocol":17,"map":"workshop/koth_bagel_rc6.ugc2514036946","folder":"tf","game":"Team Fortress","app_id":440,"player_count":0,"max_players":24,"Bots":0,"server_type":"Dedicated","server_os":"Linux","password":true,"vac":true,"version":"7882260","steam_id":85568392924742820,"keywords":["cp","nocrits","nodmgspread","uncletopia"],"game_id":440,"stv_port":27036,"stv_name":"Uncletopia | New York City | 3 | Stopwatch Beta | STV","players":null},{"server_id":16,"name":"Uncletopia | New York City | 4 | Community","name_short":"nyc-4","host":"nyc-1.us.uncletopia.com","port":27045,"enabled":true,"region":"us-east","cc":"us","latitude":40.73061,"longitude":-73.93524,"reserved":0,"last_update":"0001-01-01T00:00:00Z","name_a2s":"Uncletopia | New York City | 4 | Community","protocol":17,"map":"workshop/cp_sulfur_rc2.ugc619869471","folder":"tf","game":"Team Fortress","app_id":440,"player_count":0,"max_players":24,"Bots":0,"server_type":"Dedicated","server_os":"Linux","password":true,"vac":true,"version":"7882260","steam_id":85568392924742821,"keywords":["cp","nocrits","nodmgspread","uncletopia"],"game_id":440,"stv_port":27046,"stv_name":"Uncletopia | New York City | 4 | Community | STV","players":null},{"server_id":142,"name":"Uncletopia | S√£o Paulo | 1 | All Maps","name_short":"sao-1","host":"sao-1.br.uncletopia.com","port":27015,"enabled":true,"region":"sa","cc":"br","latitude":-23.533773,"longitude":-46.62529,"reserved":0,"last_update":"0001-01-01T00:00:00Z","name_a2s":"Uncletopia | S√£o Paulo | 1 | All Maps","protocol":17,"map":"koth_lakeside_final","folder":"tf","game":"Team Fortress","app_id":440,"player_count":0,"max_players":24,"Bots":0,"server_type":"Dedicated","server_os":"Linux","password":true,"vac":true,"version":"7882260","steam_id":85568392924469996,"keywords":["cp","nocrits","nodmgspread","uncletopia"],"game_id":440,"stv_port":27016,"stv_name":"Uncletopia | S√£o Paulo | 1 | All Maps | STV","players":null},{"server_id":143,"name":"Uncletopia | S√£o Paulo | 2 | All Maps","name_short":"sao-2","host":"sao-2.br.uncletopia.com","port":27015,"enabled":true,"region":"sa","cc":"br","latitude":-23.533773,"longitude":-46.62529,"reserved":0,"last_update":"0001-01-01T00:00:00Z","name_a2s":"Uncletopia | S√£o Paulo | 2 | All Maps","protocol":17,"map":"pl_frontier_final","folder":"tf","game":"Team Fortress","app_id":440,"player_count":2,"max_players":24,"Bots":0,"server_type":"Dedicated","server_os":"Linux","password":true,"vac":true,"version":"7882260","steam_id":85568392924485349,"keywords":["nocrits","nodmgspread","payload","uncletopia"],"game_id":440,"stv_port":27016,"stv_name":"Uncletopia | S√£o Paulo | 2 | All Maps | STV","players":[{"user_id":15,"name":"Vieltoor","steam_id":76561198090587011,"connected_time":96000000000,"state":"active","ping":84},{"user_id":16,"name":"Lies \u0026 Deceit","steam_id":76561199171525002,"connected_time":62000000000,"state":"active","ping":193}]},{"server_id":7,"name":"Uncletopia | Seattle | 1 | All Maps","name_short":"sea-1","host":"sea-1.us.uncletopia.com","port":27015,"enabled":true,"region":"us-west","cc":"us","latitude":47.608013,"longitude":-122.33517,"reserved":0,"last_update":"0001-01-01T00:00:00Z","name_a2s":"Uncletopia | Seattle | 1 | All Maps","protocol":17,"map":"pl_pier","folder":"tf","game":"Team Fortress","app_id":440,"player_count":24,"max_players":24,"Bots":0,"server_type":"Dedicated","server_os":"Linux","password":true,"vac":true,"version":"7882260","steam_id":85568392924469997,"keywords":["nocrits","nodmgspread","payload","uncletopia"],"game_id":440,"stv_port":27016,"stv_name":"Uncletopia | Seattle | 1 | All Maps | STV","players":[{"user_id":306,"name":"Solidus Joe","steam_id":76561198452540197,"connected_time":11000000000,"state":"spawning","ping":34},{"user_id":304,"name":"‚Ä∫ Pavvy","steam_id":76561197998662839,"connected_time":269000000000,"state":"active","ping":76},{"user_id":287,"name":"Level 99 Mudcrab","steam_id":76561198077452771,"connected_time":2131000000000,"state":"active","ping":54},{"user_id":284,"name":"R.Mop‚Ñ¢","steam_id":76561198082879210,"connected_time":2162000000000,"state":"active","ping":66},{"user_id":239,"name":"Kaeo","steam_id":76561198066244086,"connected_time":5504000000000,"state":"active","ping":62},{"user_id":293,"name":"Noid","steam_id":76561198227804500,"connected_time":1826000000000,"state":"active","ping":140},{"user_id":289,"name":"Drapph","steam_id":76561199384213314,"connected_time":1957000000000,"state":"active","ping":104},{"user_id":279,"name":"Ruben","steam_id":76561198048508642,"connected_time":2590000000000,"state":"active","ping":48},{"user_id":288,"name":"Shark Sandwich","steam_id":76561198025007938,"connected_time":2059000000000,"state":"active","ping":56},{"user_id":302,"name":"Konrad Vilulf","steam_id":76561198111124481,"connected_time":672000000000,"state":"active","ping":148},{"user_id":303,"name":"imtoofadedicantevendapuup","steam_id":76561198180372310,"connected_time":439000000000,"state":"active","ping":60},{"user_id":285,"name":"Monarch of Glass","steam_id":76561198165638237,"connected_time":2157000000000,"state":"active","ping":44},{"user_id":300,"name":"goopuffer","steam_id":76561198118644686,"connected_time":1374000000000,"state":"active","ping":79},{"user_id":299,"name":"dirty30","steam_id":76561198021226566,"connected_time":1456000000000,"state":"active","ping":53},{"user_id":298,"name":"Dirt Road","steam_id":76561198210372012,"connected_time":1549000000000,"state":"active","ping":129},{"user_id":290,"name":"hovietchil","steam_id":76561198880622567,"connected_time":1902000000000,"state":"active","ping":138},{"user_id":301,"name":"PopcornBucketGames","steam_id":76561199089562026,"connected_time":795000000000,"state":"active","ping":62},{"user_id":231,"name":"oo","steam_id":76561198119626492,"connected_time":5998000000000,"state":"active","ping":68},{"user_id":286,"name":"4logan","steam_id":76561198835163155,"connected_time":2155000000000,"state":"active","ping":39},{"user_id":296,"name":"Sleempreem","steam_id":76561198131987251,"connected_time":1783000000000,"state":"active","ping":68},{"user_id":276,"name":"Mr.Bady","steam_id":76561199094651706,"connected_time":3162000000000,"state":"active","ping":134},{"user_id":278,"name":"The Moon","steam_id":76561198082926682,"connected_time":3003000000000,"state":"active","ping":69},{"user_id":259,"name":"Enzo","steam_id":76561197975076681,"connected_time":4372000000000,"state":"active","ping":103},{"user_id":295,"name":"jumpman","steam_id":76561198046796883,"connected_time":1811000000000,"state":"active","ping":121}]},{"server_id":119,"name":"Uncletopia | Seattle | 2 | All Maps","name_short":"sea-2","host":"sea-1.us.uncletopia.com","port":27025,"enabled":true,"region":"us-west","cc":"us","latitude":47.608013,"longitude":-122.33517,"reserved":0,"last_update":"0001-01-01T00:00:00Z","name_a2s":"Uncletopia | Seattle | 2 | All Maps","protocol":17,"map":"pl_swiftwater_final1","folder":"tf","game":"Team Fortress","app_id":440,"player_count":0,"max_players":24,"Bots":0,"server_type":"Dedicated","server_os":"Linux","password":true,"vac":true,"version":"7882260","steam_id":85568392924469998,"keywords":["nocrits","nodmgspread","payload","uncletopia"],"game_id":440,"stv_port":27026,"stv_name":"Uncletopia | Seattle | 2 | All Maps | STV","players":null},{"server_id":406,"name":"Uncletopia | Seattle | 3 | Stopwatch Beta","name_short":"sea-3","host":"sea-1.us.uncletopia.com","port":27035,"enabled":true,"region":"us-west","cc":"us","latitude":47.608013,"longitude":-122.33517,"reserved":0,"last_update":"0001-01-01T00:00:00Z","name_a2s":"Uncletopia | Seattle | 3 | Stopwatch Beta","protocol":17,"map":"cp_mountainlab","folder":"tf","game":"Team Fortress","app_id":440,"player_count":0,"max_players":24,"Bots":0,"server_type":"Dedicated","server_os":"Linux","password":true,"vac":true,"version":"7882260","steam_id":85568392924515217,"keywords":["cp","nocrits","nodmgspread","uncletopia"],"game_id":440,"stv_port":27036,"stv_name":"Uncletopia | Seattle | 3 | Stopwatch Beta | STV","players":null},{"server_id":17,"name":"Uncletopia | San Francisco | 1 | All Maps","name_short":"sfo-1","host":"sfo-1.us.uncletopia.com","port":27015,"enabled":true,"region":"us-west","cc":"us","latitude":37.77397,"longitude":-122.4313,"reserved":0,"last_update":"0001-01-01T00:00:00Z","name_a2s":"Uncletopia | San Francisco | 1 | All Maps","protocol":17,"map":"cp_process_final","folder":"tf","game":"Team Fortress","app_id":440,"player_count":0,"max_players":24,"Bots":0,"server_type":"Dedicated","server_os":"Linux","password":true,"vac":true,"version":"7757534","steam_id":85568392924469999,"keywords":["cp","nocrits","nodmgspread","uncletopia"],"game_id":440,"stv_port":27016,"stv_name":"Uncletopia | San Francisco | 1 | All Maps | STV","players":null},{"server_id":18,"name":"Uncletopia | San Francisco | 2 | All Maps","name_short":"sfo-2","host":"sfo-1.us.uncletopia.com","port":27025,"enabled":true,"region":"us-west","cc":"us","latitude":37.77397,"longitude":-122.4313,"reserved":0,"last_update":"0001-01-01T00:00:00Z","name_a2s":"Uncletopia | San Francisco | 2 | All Maps","protocol":17,"map":"koth_highpass","folder":"tf","game":"Team Fortress","app_id":440,"player_count":0,"max_players":24,"Bots":0,"server_type":"Dedicated","server_os":"Linux","password":true,"vac":true,"version":"7757534","steam_id":85568392924470000,"keywords":["cp","nocrits","nodmgspread","uncletopia"],"game_id":440,"stv_port":27026,"stv_name":"Uncletopia | San Francisco | 2 | All Maps | STV","players":null},{"server_id":19,"name":"Uncletopia | San Francisco | 3 | Stopwatch Beta","name_short":"sfo-3","host":"sfo-1.us.uncletopia.com","port":27035,"enabled":true,"region":"us-west","cc":"us","latitude":37.77397,"longitude":-122.4313,"reserved":0,"last_update":"0001-01-01T00:00:00Z","name_a2s":"Uncletopia | San Francisco | 3 | Stopwatch Beta","protocol":17,"map":"koth_lakeside_final","folder":"tf","game":"Team Fortress","app_id":440,"player_count":0,"max_players":24,"Bots":0,"server_type":"Dedicated","server_os":"Linux","password":true,"vac":true,"version":"7757534","steam_id":85568392924742824,"keywords":["cp","nocrits","nodmgspread","uncletopia"],"game_id":440,"stv_port":27036,"stv_name":"Uncletopia | San Francisco | 3 | Stopwatch Beta | STV","players":null},{"server_id":20,"name":"Uncletopia | San Francisco | 4 | Community","name_short":"sfo-4","host":"sfo-1.us.uncletopia.com","port":27045,"enabled":true,"region":"us-west","cc":"us","latitude":37.77397,"longitude":-122.4313,"reserved":0,"last_update":"0001-01-01T00:00:00Z","name_a2s":"Uncletopia | San Francisco | 4 | Community","protocol":17,"map":"cp_altitude","folder":"tf","game":"Team Fortress","app_id":440,"player_count":0,"max_players":24,"Bots":0,"server_type":"Dedicated","server_os":"Linux","password":true,"vac":true,"version":"7757534","steam_id":85568392924742826,"keywords":["cp","nocrits","nodmgspread","uncletopia"],"game_id":440,"stv_port":27046,"stv_name":"Uncletopia | San Francisco | 4 | Community | STV","players":null},{"server_id":141,"name":"Uncletopia | Sydney | 1 | All Maps","name_short":"syd-1","host":"syd-1.au.uncletopia.com","port":27015,"enabled":true,"region":"au","cc":"au","latitude":-33.865143,"longitude":151.2099,"reserved":0,"last_update":"0001-01-01T00:00:00Z","name_a2s":"Uncletopia | Sydney | 1 | All Maps","protocol":17,"map":"cp_snakewater_final1","folder":"tf","game":"Team Fortress","app_id":440,"player_count":0,"max_players":24,"Bots":0,"server_type":"Dedicated","server_os":"Linux","password":true,"vac":true,"version":"7882260","steam_id":85568392924470001,"keywords":["cp","nocrits","nodmgspread","uncletopia"],"game_id":440,"stv_port":27016,"stv_name":"Uncletopia | Sydney | 1 | All Maps | STV","players":null},{"server_id":123,"name":"Uncletopia | Sydney | 2 | All Maps","name_short":"syd-2","host":"syd-1.au.uncletopia.com","port":27025,"enabled":true,"region":"au","cc":"au","latitude":-33.865143,"longitude":151.2099,"reserved":0,"last_update":"0001-01-01T00:00:00Z","name_a2s":"Uncletopia | Sydney | 2 | All Maps","protocol":17,"map":"pl_barnblitz","folder":"tf","game":"Team Fortress","app_id":440,"player_count":0,"max_players":24,"Bots":0,"server_type":"Dedicated","server_os":"Linux","password":true,"vac":true,"version":"7882260","steam_id":85568392924470002,"keywords":["nocrits","nodmgspread","payload","uncletopia"],"game_id":440,"stv_port":27026,"stv_name":"Uncletopia | Sydney | 2 | All Maps | STV","players":null},{"server_id":395,"name":"Uncletopia | Sydney | 3 | All Maps","name_short":"syd-3","host":"syd-1.au.uncletopia.com","port":27035,"enabled":true,"region":"au","cc":"au","latitude":-33.865143,"longitude":151.2099,"reserved":0,"last_update":"0001-01-01T00:00:00Z","name_a2s":"Uncletopia | Sydney | 3 | All Maps","protocol":17,"map":"pl_badwater","folder":"tf","game":"Team Fortress","app_id":440,"player_count":0,"max_players":24,"Bots":0,"server_type":"Dedicated","server_os":"Linux","password":true,"vac":true,"version":"7882260","steam_id":85568392925194467,"keywords":["nocrits","nodmgspread","payload","uncletopia"],"game_id":440,"stv_port":27036,"stv_name":"Uncletopia | Sydney | 3 | All Maps | STV","players":null},{"server_id":396,"name":"Uncletopia | Sydney | 4 | All Maps","name_short":"syd-4","host":"syd-1.au.uncletopia.com","port":27045,"enabled":true,"region":"au","cc":"au","latitude":-33.865143,"longitude":151.2099,"reserved":0,"last_update":"0001-01-01T00:00:00Z","name_a2s":"Uncletopia | Sydney | 4 | All Maps","protocol":17,"map":"cp_dustbowl","folder":"tf","game":"Team Fortress","app_id":440,"player_count":0,"max_players":24,"Bots":0,"server_type":"Dedicated","server_os":"Linux","password":true,"vac":true,"version":"7882260","steam_id":85568392925397958,"keywords":["cp","nocrits","nodmgspread","uncletopia"],"game_id":440,"stv_port":27046,"stv_name":"Uncletopia | Sydney | 4 | All Maps | STV","players":null},{"server_id":58,"name":"Uncletopia | Sydney | 5 | Stopwatch Beta","name_short":"syd-5","host":"syd-1.au.uncletopia.com","port":27055,"enabled":true,"region":"au","cc":"au","latitude":-33.865143,"longitude":151.2099,"reserved":0,"last_update":"0001-01-01T00:00:00Z","name_a2s":"Uncletopia | Sydney | 5 | Stopwatch Beta","protocol":17,"map":"cp_snakewater_final1","folder":"tf","game":"Team Fortress","app_id":440,"player_count":0,"max_players":24,"Bots":0,"server_type":"Dedicated","server_os":"Linux","password":true,"vac":true,"version":"7882260","steam_id":85568392925397959,"keywords":["cp","nocrits","nodmgspread","uncletopia"],"game_id":440,"stv_port":27056,"stv_name":"Uncletopia | Sydney | 5 | Stopwatch Beta | STV","players":null},{"server_id":59,"name":"Uncletopia | Sydney | 6 | Community","name_short":"syd-6","host":"syd-1.au.uncletopia.com","port":27065,"enabled":true,"region":"au","cc":"au","latitude":-33.865143,"longitude":151.2099,"reserved":0,"last_update":"0001-01-01T00:00:00Z","name_a2s":"Uncletopia | Sydney | 6 | Community","protocol":17,"map":"pl_snowycoast","folder":"tf","game":"Team Fortress","app_id":440,"player_count":0,"max_players":24,"Bots":0,"server_type":"Dedicated","server_os":"Linux","password":true,"vac":true,"version":"7882260","steam_id":85568392925397960,"keywords":["nocrits","nodmgspread","payload","uncletopia"],"game_id":440,"stv_port":27066,"stv_name":"Uncletopia | Sydney | 6 | Community | STV","players":null},{"server_id":49,"name":"Uncletopia | Warsaw | 1 | All Maps","name_short":"waw-1","host":"waw-1.pl.uncletopia.com","port":27015,"enabled":true,"region":"eu","cc":"pl","latitude":52.2297,"longitude":21.017532,"reserved":0,"last_update":"0001-01-01T00:00:00Z","name_a2s":"","protocol":0,"map":"","folder":"","game":"","app_id":0,"player_count":0,"max_players":0,"Bots":0,"server_type":"","server_os":"","password":false,"vac":false,"version":"","steam_id":0,"keywords":null,"game_id":0,"stv_port":0,"stv_name":"","players":null},{"server_id":50,"name":"Uncletopia | Warsaw | 2 | All Maps","name_short":"waw-2","host":"waw-1.pl.uncletopia.com","port":27025,"enabled":true,"region":"eu","cc":"pl","latitude":52.2297,"longitude":21.017532,"reserved":0,"last_update":"0001-01-01T00:00:00Z","name_a2s":"Uncletopia | Warsaw | 2 | All Maps","protocol":17,"map":"cp_altitude","folder":"tf","game":"Team Fortress","app_id":440,"player_count":23,"max_players":24,"Bots":0,"server_type":"Dedicated","server_os":"Linux","password":true,"vac":true,"version":"7882260","steam_id":85568392925397851,"keywords":["cp","nocrits","nodmgspread","uncletopia"],"game_id":440,"stv_port":27026,"stv_name":"Uncletopia | Warsaw | 2 | All Maps | STV","players":[{"user_id":8,"name":"UwUlric","steam_id":76561198136794751,"connected_time":7158000000000,"state":"active","ping":104},{"user_id":83,"name":"mgorniak78","steam_id":76561198296464555,"connected_time":306000000000,"state":"active","ping":55},{"user_id":36,"name":"A Bl√•haj Fan","steam_id":76561199029212388,"connected_time":4675000000000,"state":"active","ping":44},{"user_id":71,"name":"Jirro","steam_id":76561198193581143,"connected_time":1979000000000,"state":"active","ping":46},{"user_id":84,"name":"gremlin GOD","steam_id":76561198169972571,"connected_time":279000000000,"state":"active","ping":79},{"user_id":88,"name":"LOBZIK","steam_id":76561198114830120,"connected_time":192000000000,"state":"active","ping":49},{"user_id":72,"name":"Kocham Wode z Filtra","steam_id":76561198016042113,"connected_time":1954000000000,"state":"active","ping":52},{"user_id":79,"name":"Flint","steam_id":76561197995920776,"connected_time":1301000000000,"state":"active","ping":60},{"user_id":37,"name":"Walter Hartwell White","steam_id":76561198833826885,"connected_time":4615000000000,"state":"active","ping":105},{"user_id":75,"name":"Charmedelf","steam_id":76561197993611881,"connected_time":1365000000000,"state":"active","ping":61},{"user_id":53,"name":"Phased_Loona","steam_id":76561199121955165,"connected_time":4075000000000,"state":"active","ping":97},{"user_id":90,"name":"Shekelstein","steam_id":76561198874759252,"connected_time":68000000000,"state":"active","ping":105},{"user_id":86,"name":"TheIrishbong","steam_id":76561198189590453,"connected_time":239000000000,"state":"active","ping":99},{"user_id":92,"name":"midlpsyzl47","steam_id":76561199475972637,"connected_time":0,"state":"spawning","ping":51},{"user_id":45,"name":"Rstan","steam_id":76561198066328811,"connected_time":4377000000000,"state":"active","ping":91},{"user_id":64,"name":"LasagneMan","steam_id":76561198971904377,"connected_time":3595000000000,"state":"active","ping":79},{"user_id":40,"name":"sniorridys","steam_id":76561198402798353,"connected_time":4521000000000,"state":"active","ping":109},{"user_id":91,"name":"Garry_G","steam_id":76561198362834902,"connected_time":49000000000,"state":"active","ping":98},{"user_id":38,"name":"someone","steam_id":76561198377208758,"connected_time":4613000000000,"state":"active","ping":97},{"user_id":82,"name":"Team Fortress","steam_id":76561198058722801,"connected_time":958000000000,"state":"active","ping":62},{"user_id":89,"name":"Yahram Qiehpah","steam_id":76561198049533385,"connected_time":180000000000,"state":"active","ping":90},{"user_id":70,"name":"69 ME 2NITE","steam_id":76561199124261801,"connected_time":2184000000000,"state":"active","ping":63},{"user_id":66,"name":"BlinkedUp","steam_id":76561198249985618,"connected_time":2848000000000,"state":"active","ping":52}]},{"server_id":51,"name":"Uncletopia | Warsaw | 3 | All Maps","name_short":"waw-3","host":"waw-1.pl.uncletopia.com","port":27035,"enabled":true,"region":"eu","cc":"pl","latitude":52.2297,"longitude":21.017532,"reserved":0,"last_update":"0001-01-01T00:00:00Z","name_a2s":"Uncletopia | Warsaw | 3 | All Maps","protocol":17,"map":"koth_viaduct","folder":"tf","game":"Team Fortress","app_id":440,"player_count":0,"max_players":24,"Bots":0,"server_type":"Dedicated","server_os":"Linux","password":true,"vac":true,"version":"7882260","steam_id":85568392925397852,"keywords":["cp","nocrits","nodmgspread","uncletopia"],"game_id":440,"stv_port":27036,"stv_name":"Uncletopia | Warsaw | 3 | All Maps | STV","players":null},{"server_id":52,"name":"Uncletopia | Warsaw | 4 | All Maps","name_short":"waw-4","host":"waw-1.pl.uncletopia.com","port":27045,"enabled":true,"region":"eu","cc":"pl","latitude":52.2297,"longitude":21.017532,"reserved":0,"last_update":"0001-01-01T00:00:00Z","name_a2s":"Uncletopia | Warsaw | 4 | All Maps","protocol":17,"map":"koth_highpass","folder":"tf","game":"Team Fortress","app_id":440,"player_count":0,"max_players":24,"Bots":0,"server_type":"Dedicated","server_os":"Linux","password":true,"vac":true,"version":"7882260","steam_id":85568392925397853,"keywords":["cp","nocrits","nodmgspread","uncletopia"],"game_id":440,"stv_port":27046,"stv_name":"Uncletopia | Warsaw | 4 | All Maps | STV","players":null},{"server_id":53,"name":"Uncletopia | Warsaw | 5 | Stopwatch Beta","name_short":"waw-5","host":"waw-1.pl.uncletopia.com","port":27055,"enabled":true,"region":"eu","cc":"pl","latitude":52.2297,"longitude":21.017532,"reserved":0,"last_update":"0001-01-01T00:00:00Z","name_a2s":"Uncletopia | Warsaw | 5 | Stopwatch Beta","protocol":17,"map":"workshop/koth_ramjam_rc1.ugc459778887","folder":"tf","game":"Team Fortress","app_id":440,"player_count":0,"max_players":24,"Bots":0,"server_type":"Dedicated","server_os":"Linux","password":true,"vac":true,"version":"7882260","steam_id":85568392925397854,"keywords":["cp","nocrits","nodmgspread","uncletopia"],"game_id":440,"stv_port":27056,"stv_name":"Uncletopia | Warsaw | 5 | Stopwatch Beta | STV","players":null},{"server_id":54,"name":"Uncletopia | Warsaw | 6 | Community","name_short":"waw-6","host":"waw-1.pl.uncletopia.com","port":27065,"enabled":true,"region":"eu","cc":"pl","latitude":52.2297,"longitude":21.017532,"reserved":0,"last_update":"0001-01-01T00:00:00Z","name_a2s":"Uncletopia | Warsaw | 6 | Community","protocol":17,"map":"koth_viaduct","folder":"tf","game":"Team Fortress","app_id":440,"player_count":0,"max_players":24,"Bots":0,"server_type":"Dedicated","server_os":"Linux","password":true,"vac":true,"version":"7882260","steam_id":85568392925397856,"keywords":["cp","nocrits","nodmgspread","uncletopia"],"game_id":440,"stv_port":27066,"stv_name":"Uncletopia | Warsaw | 6 | Community | STV","players":null}]}