{"status":true,"message":"","result":[{"server_id":9,"name":"Uncletopia | Atlanta | 1 | All Maps","name_short":"atl-1","host":"atl-1.us.uncletopia.com","port":27015,"enabled":true,"region":"us-east","cc":"us","latitude":33.753746,"longitude":-84.38633,"reserved":0,"last_update":"0001-01-01T00:00:00Z","name_a2s":"Uncletopia | Atlanta | 1 | All Maps","protocol":17,"map":"cp_sunshine","folder":"tf","game":"Team Fortress","app_id":440,"player_count":0,"max_players":24,"Bots":0,"server_type":"Dedicated","server_os":"Linux","password":true,"vac":true,"version":"7757534","steam_id":85568392924469982,"keywords":["cp","nocrits","nodmgspread","uncletopia"],"game_id":440,"stv_port":27016,"stv_name":"Uncletopia | Atlanta | 1 | All Maps | STV","players":null},{"server_id":400,"name":"Uncletopia | Atlanta | 3 | Community","name_short":"atl-3","host":"atl-1.us.uncletopia.com","port":27035,"enabled":true,"region":"us-east","cc":"us","latitude":33.753746,"longitude":-84.38633,"reserved":0,"last_update":"0001-01-01T00:00:00Z","name_a2s":"Uncletopia | Atlanta | 3 | Community","protocol":17,"map":"workshop/koth_trenchfoot_b1a.ugc731436616","folder":"tf","game":"Team Fortress","app_id":440,"player_count":0,"max_players":24,"Bots":0,"server_type":"Dedicated","server_os":"Linux","password":true,"vac":true,"version":"7757534","steam_id":85568392924515187,"keywords":["cp","nocrits","nodmgspread","uncletopia"],"game_id":440,"stv_port":27036,"stv_name":"Uncletopia | Atlanta | 3 | Community | STV","players":null},{"server_id":401,"name":"Uncletopia | Atlanta | 4 | No Payload","name_short":"atl-4","host":"atl-1.us.uncletopia.com","port":27045,"enabled":true,"region":"us-east","cc":"us","latitude":33.753746,"longitude":-84.38633,"reserved":0,"last_update":"0001-01-01T00:00:00Z","name_a2s":"","protocol":0,"map":"","folder":"","game":"","app_id":0,"player_count":0,"max_players":0,"Bots":0,"server_type":"","server_os":"","password":false,"vac":false,"version":"","steam_id":0,"keywords":null,"game_id":0,"stv_port":0,"stv_name":"","players":null},{"server_id":2,"name":"Uncletopia | Chicago | 1 | All Maps","name_short":"chi-1","host":"chi-1.us.uncletopia.com","port":27015,"enabled":true,"region":"us-central","cc":"us","latitude":41.881832,"longitude":-87.62318,"reserved":0,"last_update":"0001-01-01T00:00:00Z","name_a2s":"Uncletopia | Chicago | 1 | All Maps","protocol":17,"map":"koth_viaduct","folder":"tf","game":"Team Fortress","app_id":440,"player_count":24,"max_players":24,"Bots":0,"server_type":"Dedicated","server_os":"Linux","password":true,"vac":true,"version":"7757534","steam_id":85568392924469984,"keywords":["cp","nocrits","nodmgspread","uncletopia"],"game_id":440,"stv_port":27016,"stv_name":"Uncletopia | Chicago | 1 | All Maps | STV","players":[{"user_id":748,"name":"Lost (15)","steam_id":76561198093713427,"connected_time":1868000000000,"state":"active","ping":60},{"user_id":726,"name":"Schizophrenic Skullfox","steam_id":76561198082632923,"connected_time":3472000000000,"state":"active","ping":59},{"user_id":724,"name":"Beetster","steam_id":76561199403344978,"connected_time":4051000000000,"state":"active","ping":146},{"user_id":762,"name":"Ojen","steam_id":76561197998414482,"connected_time":863000000000,"state":"active","ping":77},{"user_id":738,"name":"Mozz","steam_id":76561198132892873,"connected_time":2758000000000,"state":"active","ping":101},{"user_id":768,"name":"Poppet","steam_id":76561198012301951,"connected_time":166000000000,"state":"active","ping":59},{"user_id":694,"name":"ryann","steam_id":76561198042996639,"connected_time":6702000000000,"state":"active","ping":95},{"user_id":761,"name":"Robodoodle110","steam_id":76561198398539832,"connected_time":891000000000,"state":"active","ping":89},{"user_id":752,"name":"Big Puff","steam_id":76561198209820681,"connected_time":1457000000000,"state":"active","ping":67},{"user_id":763,"name":"El pandora","steam_id":76561198075490385,"connected_time":862000000000,"state":"active","ping":100},{"user_id":697,"name":"Richard","steam_id":76561198044115685,"connected_time":6683000000000,"state":"active","ping":54},{"user_id":755,"name":"Salium","steam_id":76561197961546093,"connected_time":1236000000000,"state":"active","ping":102},{"user_id":700,"name":"Wallyman","steam_id":76561198273476636,"connected_time":6424000000000,"state":"active","ping":92},{"user_id":756,"name":"Evolution","steam_id":76561198144767370,"connected_time":1219000000000,"state":"active","ping":103},{"user_id":703,"name":"Marbs","steam_id":76561198864236393,"connected_time":6393000000000,"state":"active","ping":88},{"user_id":759,"name":"Provocator","steam_id":76561197961830410,"connected_time":1120000000000,"state":"active","ping":84},{"user_id":725,"name":"MY RATCHET BM CALLING #DECLINED","steam_id":76561198144766439,"connected_time":3778000000000,"state":"active","ping":44},{"user_id":722,"name":"Jin","steam_id":76561198119873148,"connected_time":4762000000000,"state":"active","ping":69},{"user_id":764,"name":"michael22","steam_id":76561198094320477,"connected_time":858000000000,"state":"active","ping":72},{"user_id":721,"name":"BaDboY6996","steam_id":76561197969386201,"connected_time":5141000000000,"state":"active","ping":60},{"user_id":746,"name":"The Professor","steam_id":76561198113760863,"connected_time":2358000000000,"state":"active","ping":60},{"user_id":766,"name":"perfect inCell","steam_id":76561198059182316,"connected_time":698000000000,"state":"active","ping":60},{"user_id":767,"name":"HOT SOUP","steam_id":76561199077389918,"connected_time":504000000000,"state":"active","ping":76},{"user_id":769,"name":"Aradia","steam_id":76561198800087430,"connected_time":156000000000,"state":"active","ping":156}]},{"server_id":106,"name":"Uncletopia | Chicago | 2 | All Maps","name_short":"chi-2","host":"chi-1.us.uncletopia.com","port":27025,"enabled":true,"region":"us-central","cc":"us","latitude":41.881832,"longitude":-87.62318,"reserved":0,"last_update":"0001-01-01T00:00:00Z","name_a2s":"Uncletopia | Chicago | 2 | All Maps","protocol":17,"map":"pl_barnblitz","folder":"tf","game":"Team Fortress","app_id":440,"player_count":7,"max_players":24,"Bots":0,"server_type":"Dedicated","server_os":"Linux","password":true,"vac":true,"version":"7757534","steam_id":85568392924469985,"keywords":["nocrits","nodmgspread","payload","uncletopia"],"game_id":440,"stv_port":27026,"stv_name":"Uncletopia | Chicago | 2 | All Maps | STV","players":[{"user_id":484,"name":"Sweetie","steam_id":76561198806688369,"connected_time":1434000000000,"state":"active","ping":79},{"user_id":449,"name":"ribbonborn","steam_id":76561198001195423,"connected_time":7048000000000,"state":"active","ping":79},{"user_id":448,"name":"peppy","steam_id":76561198361818082,"connected_time":7292000000000,"state":"active","ping":84},{"user_id":485,"name":"Stadanko","steam_id":76561198080425549,"connected_time":382000000000,"state":"active","ping":107},{"user_id":486,"name":"SlowBisbalito","steam_id":76561199027366888,"connected_time":358000000000,"state":"active","ping":100},{"user_id":439,"name":"0","steam_id":76561197961095970,"connected_time":8177000000000,"state":"active","ping":75},{"user_id":411,"name":"[shx]","steam_id":76561198070159233,"connected_time":11055000000000,"state":"active","ping":45}]},{"server_id":402,"name":"Uncletopia | Chicago | 3 | All Maps","name_short":"chi-3","host":"chi-1.us.uncletopia.com","port":27035,"enabled":true,"region":"us-central","cc":"us","latitude":41.881832,"longitude":-87.62318,"reserved":0,"last_update":"0001-01-01T00:00:00Z","name_a2s":"Uncletopia | Chicago | 3 | All Maps","protocol":17,"map":"pl_borneo","folder":"tf","game":"Team Fortress","app_id":440,"player_count":24,"max_players":24,"Bots":0,"server_type":"Dedicated","server_os":"Linux","password":true,"vac":true,"version":"7757534","steam_id":85568392924515191,"keywords":["nocrits","nodmgspread","payload","uncletopia"],"game_id":440,"stv_port":27036,"stv_name":"Uncletopia | Chicago | 3 | All Maps | STV","players":[{"user_id":718,"name":"tuck that","steam_id":76561198881665250,"connected_time":7461000000000,"state":"active","ping":90},{"user_id":737,"name":"kodoku","steam_id":76561198077902438,"connected_time":5820000000000,"state":"active","ping":71},{"user_id":763,"name":"Analogy != Definition","steam_id":76561197999657118,"connected_time":3446000000000,"state":"active","ping":73},{"user_id":799,"name":"luminary","steam_id":76561198126358045,"connected_time":573000000000,"state":"active","ping":73},{"user_id":759,"name":"ellie","steam_id":76561198388123421,"connected_time":3825000000000,"state":"active","ping":94},{"user_id":795,"name":"TF3 Medic gaming","steam_id":76561199053687718,"connected_time":683000000000,"state":"active","ping":105},{"user_id":726,"name":"Stan","steam_id":76561199057962816,"connected_time":6773000000000,"state":"active","ping":60},{"user_id":800,"name":"ridback","steam_id":76561198006728845,"connected_time":487000000000,"state":"active","ping":187},{"user_id":803,"name":"Hifumi Togo","steam_id":76561198074930636,"connected_time":296000000000,"state":"active","ping":53},{"user_id":779,"name":"spiderslash","steam_id":76561198043787070,"connected_time":2078000000000,"state":"active","ping":89},{"user_id":783,"name":"Quillz","steam_id":76561197996567754,"connected_time":1581000000000,"state":"active","ping":60},{"user_id":787,"name":"Lord Jsworth Scuffington O.C.N.","steam_id":76561198105078866,"connected_time":981000000000,"state":"active","ping":60},{"user_id":742,"name":"A Shiny Meat Bicycle","steam_id":76561198358757709,"connected_time":5623000000000,"state":"active","ping":95},{"user_id":802,"name":"ItsD0ppelgangeR","steam_id":76561198118793015,"connected_time":428000000000,"state":"active","ping":187},{"user_id":716,"name":"eple","steam_id":76561198017686306,"connected_time":7513000000000,"state":"active","ping":151},{"user_id":788,"name":"Goulash master","steam_id":76561198075792304,"connected_time":882000000000,"state":"active","ping":175},{"user_id":789,"name":"Fargo","steam_id":76561198044703931,"connected_time":880000000000,"state":"active","ping":75},{"user_id":790,"name":"Lucy","steam_id":76561198032590343,"connected_time":828000000000,"state":"active","ping":94},{"user_id":791,"name":"upside down cat","steam_id":76561198028288349,"connected_time":814000000000,"state":"active","ping":87},{"user_id":792,"name":"jid","steam_id":76561198067111272,"connected_time":788000000000,"state":"active","ping":65},{"user_id":793,"name":"al-Kohol","steam_id":76561197998530400,"connected_time":768000000000,"state":"active","ping":104},{"user_id":794,"name":"Toasty","steam_id":76561198001136776,"connected_time":759000000000,"state":"active","ping":82},{"user_id":797,"name":"Monsteh","steam_id":76561198325898181,"connected_time":641000000000,"state":"active","ping":160},{"user_id":798,"name":"Giant Dwarf","steam_id":76561198012738581,"connected_time":625000000000,"state":"active","ping":83}]},{"server_id":403,"name":"Uncletopia | Chicago | 4 | All Maps","name_short":"chi-4","host":"chi-1.us.uncletopia.com","port":27045,"enabled":true,"region":"us-central","cc":"us","latitude":41.881832,"longitude":-87.62318,"reserved":0,"last_update":"0001-01-01T00:00:00Z","name_a2s":"Uncletopia | Chicago | 4 | All Maps","protocol":17,"map":"pl_frontier_final","folder":"tf","game":"Team Fortress","app_id":440,"player_count":0,"max_players":24,"Bots":0,"server_type":"Dedicated","server_os":"Linux","password":true,"vac":true,"version":"7757534","steam_id":85568392924515193,"keywords":["nocrits","nodmgspread","payload","uncletopia"],"game_id":440,"stv_port":27046,"stv_name":"Uncletopia | Chicago | 4 | All Maps | STV","players":null},{"server_id":36,"name":"Uncletopia | Chicago | 5 | All Maps","name_short":"chi-5","host":"chi-2.us.uncletopia.com","port":27015,"enabled":true,"region":"us-central","cc":"us","latitude":41.881832,"longitude":-87.62318,"reserved":0,"last_update":"0001-01-01T00:00:00Z","name_a2s":"Uncletopia | Chicago | 5 | All Maps","protocol":17,"map":"cp_mountainlab","folder":"tf","game":"Team Fortress","app_id":440,"player_count":0,"max_players":24,"Bots":0,"server_type":"Dedicated","server_os":"Linux","password":true,"vac":true,"version":"7757534","steam_id":85568392924866362,"keywords":["cp","nocrits","nodmgspread","uncletopia"],"game_id":440,"stv_port":27016,"stv_name":"Uncletopia | Chicago | 5 | All Maps | STV","players":null},{"server_id":37,"name":"Uncletopia | Chicago | 6 | All Maps","name_short":"chi-6","host":"chi-2.us.uncletopia.com","port":27025,"enabled":true,"region":"us-central","cc":"us","latitude":41.881832,"longitude":-87.62318,"reserved":0,"last_update":"0001-01-01T00:00:00Z","name_a2s":"Uncletopia | Chicago | 6 | All Maps","protocol":17,"map":"pl_frontier_final","folder":"tf","game":"Team Fortress","app_id":440,"player_count":0,"max_players":24,"Bots":0,"server_type":"Dedicated","server_os":"Linux","password":true,"vac":true,"version":"7757534","steam_id":85568392924866363,"keywords":["nocrits","nodmgspread","payload","uncletopia"],"game_id":440,"stv_port":27026,"stv_name":"Uncletopia | Chicago | 6 | All Maps | STV","players":null},{"server_id":38,"name":"Uncletopia | Chicago | 7 | Stopwatch Beta","name_short":"chi-7","host":"chi-2.us.uncletopia.com","port":27035,"enabled":true,"region":"us-central","cc":"us","latitude":41.881832,"longitude":-87.62318,"reserved":0,"last_update":"0001-01-01T00:00:00Z","name_a2s":"Uncletopia | Chicago | 7 | Stopwatch Beta","protocol":17,"map":"koth_viaduct","folder":"tf","game":"Team Fortress","app_id":440,"player_count":0,"max_players":24,"Bots":0,"server_type":"Dedicated","server_os":"Linux","password":true,"vac":true,"version":"7757534","steam_id":85568392924866364,"keywords":["cp","nocrits","nodmgspread","uncletopia"],"game_id":440,"stv_port":27036,"stv_name":"Uncletopia | Chicago | 7 | Stopwatch Beta | STV","players":null},{"server_id":39,"name":"Uncletopia | Chicago | 8 | Community","name_short":"chi-8","host":"chi-2.us.uncletopia.com","port":27045,"enabled":true,"region":"us-central","cc":"us","latitude":41.881832,"longitude":-87.62318,"reserved":0,"last_update":"0001-01-01T00:00:00Z","name_a2s":"Uncletopia | Chicago | 8 | Community","protocol":17,"map":"workshop/pl_cashworks_final1.ugc2904065412","folder":"tf","game":"Team Fortress","app_id":440,"player_count":0,"max_players":24,"Bots":0,"server_type":"Dedicated","server_os":"Linux","password":true,"vac":true,"version":"7757534","steam_id":85568392924866365,"keywords":["nocrits","nodmgspread","payload","uncletopia"],"game_id":440,"stv_port":27046,"stv_name":"Uncletopia | Chicago | 8 | Community | STV","players":null},{"server_id":8,"name":"Uncletopia | Dallas | 1 | All Maps","name_short":"dal-1","host":"dal-1.us.uncletopia.com","port":27015,"enabled":true,"region":"us-central","cc":"us","latitude":32.779167,"longitude":-96.80889,"reserved":0,"last_update":"0001-01-01T00:00:00Z","name_a2s":"Uncletopia | Dallas | 1 | All Maps","protocol":17,"map":"cp_dustbowl","folder":"tf","game":"Team Fortress","app_id":440,"player_count":4,"max_players":24,"Bots":0,"server_type":"Dedicated","server_os":"Linux","password":true,"vac":true,"version":"7757534","steam_id":85568392924469986,"keywords":["cp","nocrits","nodmgspread","uncletopia"],"game_id":440,"stv_port":27016,"stv_name":"Uncletopia | Dallas | 1 | All Maps | STV","players":[{"user_id":998,"name":"RMTRE212","steam_id":76561199145573038,"connected_time":843000000000,"state":"active","ping":151},{"user_id":999,"name":"Millennium","steam_id":76561198191717250,"connected_time":604000000000,"state":"active","ping":81},{"user_id":954,"name":"Farclaimer","steam_id":76561198357355915,"connected_time":3978000000000,"state":"active","ping":84},{"user_id":996,"name":"Purple guy gaming","steam_id":76561198965043686,"connected_time":883000000000,"state":"active","ping":190}]},{"server_id":108,"name":"Uncletopia | Dallas | 2 | All Maps","name_short":"dal-2","host":"dal-1.us.uncletopia.com","port":27025,"enabled":true,"region":"us-central","cc":"us","latitude":32.779167,"longitude":-96.80889,"reserved":0,"last_update":"0001-01-01T00:00:00Z","name_a2s":"Uncletopia | Dallas | 2 | All Maps","protocol":17,"map":"koth_viaduct","folder":"tf","game":"Team Fortress","app_id":440,"player_count":0,"max_players":24,"Bots":0,"server_type":"Dedicated","server_os":"Linux","password":true,"vac":true,"version":"7757534","steam_id":85568392924469988,"keywords":["cp","nocrits","nodmgspread","uncletopia"],"game_id":440,"stv_port":27026,"stv_name":"Uncletopia | Dallas | 2 | All Maps | STV","players":null},{"server_id":5,"name":"Uncletopia | Frankfurt | 1 | All Maps","name_short":"frk-1","host":"frk-1.de.uncletopia.com","port":27015,"enabled":true,"region":"eu","cc":"de","latitude":50.110924,"longitude":8.682127,"reserved":0,"last_update":"0001-01-01T00:00:00Z","name_a2s":"Uncletopia | Frankfurt | 1 | All Maps","protocol":17,"map":"pl_swiftwater_final1","folder":"tf","game":"Team Fortress","app_id":440,"player_count":0,"max_players":24,"Bots":0,"server_type":"Dedicated","server_os":"Linux","password":true,"vac":true,"version":"7757534","steam_id":85568392924469989,"keywords":["nocrits","nodmgspread","payload","uncletopia"],"game_id":440,"stv_port":27016,"stv_name":"Uncletopia | Frankfurt | 1 | All Maps | STV","players":null},{"server_id":110,"name":"Uncletopia | Frankfurt | 2 | All Maps","name_short":"frk-2","host":"frk-1.de.uncletopia.com","port":27025,"enabled":true,"region":"eu","cc":"de","latitude":50.110924,"longitude":8.682127,"reserved":0,"last_update":"0001-01-01T00:00:00Z","name_a2s":"Uncletopia | Frankfurt | 2 | All Maps","protocol":17,"map":"cp_steel","folder":"tf","game":"Team Fortress","app_id":440,"player_count":24,"max_players":24,"Bots":0,"server_type":"Dedicated","server_os":"Linux","password":true,"vac":true,"version":"7757534","steam_id":85568392924469990,"keywords":["cp","nocrits","nodmgspread","uncletopia"],"game_id":440,"stv_port":27026,"stv_name":"Uncletopia | Frankfurt | 2 | All Maps | STV","players":[{"user_id":65,"name":"Legally Not Allowed To Headshot","steam_id":76561198198504762,"connected_time":107000000000,"state":"active","ping":190},{"user_id":8,"name":"lvl. 50 honkler","steam_id":76561198061688660,"connected_time":2481000000000,"state":"active","ping":105},{"user_id":10,"name":"Deva Path","steam_id":76561198085763542,"connected_time":2356000000000,"state":"active","ping":73},{"user_id":44,"name":"Stonks","steam_id":76561199023838850,"connected_time":871000000000,"state":"active","ping":74},{"user_id":45,"name":"iCupCake","steam_id":76561198042930405,"connected_time":869000000000,"state":"active","ping":58},{"user_id":30,"name":"Xydran","steam_id":76561198042397402,"connected_time":1246000000000,"state":"active","ping":86},{"user_id":64,"name":"BlinkedUp","steam_id":76561198249985618,"connected_time":157000000000,"state":"active","ping":65},{"user_id":53,"name":"poliakov.noam","steam_id":76561199259322961,"connected_time":652000000000,"state":"active","ping":105},{"user_id":54,"name":"lukas.vokurka1","steam_id":76561198227116020,"connected_time":636000000000,"state":"active","ping":65},{"user_id":18,"name":"MattyCzek","steam_id":76561198881990395,"connected_time":1797000000000,"state":"active","ping":67},{"user_id":66,"name":"Group Captain Lionel Mandrake","steam_id":76561197966242554,"connected_time":69000000000,"state":"active","ping":58},{"user_id":58,"name":"MeBandae","steam_id":76561198910770432,"connected_time":478000000000,"state":"active","ping":94},{"user_id":21,"name":"thebananabomb00","steam_id":76561198296409283,"connected_time":1755000000000,"state":"active","ping":80},{"user_id":57,"name":"Art","steam_id":76561198823514629,"connected_time":526000000000,"state":"active","ping":118},{"user_id":46,"name":"zadrot_227","steam_id":76561198416644815,"connected_time":818000000000,"state":"active","ping":95},{"user_id":59,"name":"dob:cob","steam_id":76561198253323044,"connected_time":446000000000,"state":"active","ping":72},{"user_id":33,"name":"Fluffy","steam_id":76561198084447725,"connected_time":1226000000000,"state":"active","ping":45},{"user_id":62,"name":"Joy","steam_id":76561198155314925,"connected_time":189000000000,"state":"active","ping":70},{"user_id":60,"name":".::[SerafeTTiN]::.","steam_id":76561198009471724,"connected_time":442000000000,"state":"active","ping":92},{"user_id":49,"name":"Gwishin","steam_id":76561198257158275,"connected_time":774000000000,"state":"active","ping":147},{"user_id":39,"name":"Boys just call me Camouflage","steam_id":76561198035915266,"connected_time":971000000000,"state":"active","ping":71},{"user_id":40,"name":"leonardini.w #SaveTF2","steam_id":76561199097963071,"connected_time":969000000000,"state":"active","ping":81},{"user_id":50,"name":"Autumnsky","steam_id":76561198055161203,"connected_time":760000000000,"state":"active","ping":57},{"user_id":51,"name":"erobrine2","steam_id":76561198173218318,"connected_time":757000000000,"state":"active","ping":50}]},{"server_id":308,"name":"Uncletopia | Frankfurt | 3 | All Maps","name_short":"frk-3","host":"frk-1.de.uncletopia.com","port":27035,"enabled":true,"region":"eu","cc":"de","latitude":50.110924,"longitude":8.682127,"reserved":0,"last_update":"0001-01-01T00:00:00Z","name_a2s":"Uncletopia | Frankfurt | 3 | All Maps","protocol":17,"map":"pl_frontier_final","folder":"tf","game":"Team Fortress","app_id":440,"player_count":0,"max_players":24,"Bots":0,"server_type":"Dedicated","server_os":"Linux","password":true,"vac":true,"version":"7757534","steam_id":85568392924504274,"keywords":["nocrits","nodmgspread","payload","uncletopia"],"game_id":440,"stv_port":27036,"stv_name":"Uncletopia | Frankfurt | 3 | All Maps | STV","players":null},{"server_id":309,"name":"Uncletopia | Frankfurt | 4 | All Maps","name_short":"frk-4","host":"frk-1.de.uncletopia.com","port":27045,"enabled":true,"region":"eu","cc":"de","latitude":50.110924,"longitude":8.682127,"reserved":0,"last_update":"0001-01-01T00:00:00Z","name_a2s":"Uncletopia | Frankfurt | 4 | All Maps","protocol":17,"map":"pl_pier","folder":"tf","game":"Team Fortress","app_id":440,"player_count":0,"max_players":24,"Bots":0,"server_type":"Dedicated","server_os":"Linux","password":true,"vac":true,"version":"7757534","steam_id":85568392924504275,"keywords":["nocrits","nodmgspread","payload","uncletopia"],"game_id":440,"stv_port":27046,"stv_name":"Uncletopia | Frankfurt | 4 | All Maps | STV","players":null},{"server_id":310,"name":"Uncletopia | Frankfurt | 5 | All Maps","name_short":"frk-5","host":"frk-1.de.uncletopia.com","port":27055,"enabled":true,"region":"eu","cc":"de","latitude":50.110924,"longitude":8.682127,"reserved":0,"last_update":"0001-01-01T00:00:00Z","name_a2s":"Uncletopia | Frankfurt | 5 | All Maps","protocol":17,"map":"koth_viaduct","folder":"tf","game":"Team Fortress","app_id":440,"player_count":0,"max_players":24,"Bots":0,"server_type":"Dedicated","server_os":"Linux","password":true,"vac":true,"version":"7757534","steam_id":85568392924504277,"keywords":["cp","nocrits","nodmgspread","uncletopia"],"game_id":440,"stv_port":27056,"stv_name":"Uncletopia | Frankfurt | 5 | All Maps | STV","players":null},{"server_id":311,"name":"Uncletopia | Frankfurt | 6 | All Maps","name_short":"frk-6","host":"frk-1.de.uncletopia.com","port":27065,"enabled":true,"region":"eu","cc":"de","latitude":50.110924,"longitude":8.682127,"reserved":0,"last_update":"0001-01-01T00:00:00Z","name_a2s":"Uncletopia | Frankfurt | 6 | All Maps","protocol":17,"map":"pl_frontier_final","folder":"tf","game":"Team Fortress","app_id":440,"player_count":0,"max_players":24,"Bots":0,"server_type":"Dedicated","server_os":"Linux","password":true,"vac":true,"version":"7757534","steam_id":85568392924504278,"keywords":["nocrits","nodmgspread","payload","uncletopia"],"game_id":440,"stv_port":27066,"stv_name":"Uncletopia | Frankfurt | 6 | All Maps | STV","players":null},{"server_id":23,"name":"Uncletopia | Frankfurt | 7 | Stopwatch Beta","name_short":"frk-7","host":"frk-1.de.uncletopia.com","port":27075,"enabled":true,"region":"eu","cc":"de","latitude":50.110924,"longitude":8.682127,"reserved":0,"last_update":"0001-01-01T00:00:00Z","name_a2s":"Uncletopia | Frankfurt | 7 | Stopwatch Beta","protocol":17,"map":"pl_borneo","folder":"tf","game":"Team Fortress","app_id":440,"player_count":0,"max_players":24,"Bots":0,"server_type":"Dedicated","server_os":"Linux","password":true,"vac":true,"version":"7757534","steam_id":85568392924742827,"keywords":["nocrits","nodmgspread","payload","uncletopia"],"game_id":440,"stv_port":27076,"stv_name":"Uncletopia | Frankfurt | 7 | Stopwatch Beta | STV","players":null},{"server_id":24,"name":"Uncletopia | Frankfurt | 8 | Community","name_short":"frk-8","host":"frk-1.de.uncletopia.com","port":27085,"enabled":true,"region":"eu","cc":"de","latitude":50.110924,"longitude":8.682127,"reserved":0,"last_update":"0001-01-01T00:00:00Z","name_a2s":"Uncletopia | Frankfurt | 8 | Community","protocol":17,"map":"koth_viaduct","folder":"tf","game":"Team Fortress","app_id":440,"player_count":5,"max_players":24,"Bots":0,"server_type":"Dedicated","server_os":"Linux","password":true,"vac":true,"version":"7757534","steam_id":85568392924742828,"keywords":["cp","nocrits","nodmgspread","uncletopia"],"game_id":440,"stv_port":27086,"stv_name":"Uncletopia | Frankfurt | 8 | Community | STV","players":[{"user_id":3,"name":"copium addict","steam_id":76561199401665282,"connected_time":1809000000000,"state":"active","ping":88},{"user_id":5,"name":"Truegr","steam_id":76561198811912339,"connected_time":1321000000000,"state":"active","ping":54},{"user_id":6,"name":"Fus in Boots","steam_id":76561198053897722,"connected_time":585000000000,"state":"active","ping":56},{"user_id":7,"name":"fried","steam_id":76561198307522022,"connected_time":526000000000,"state":"active","ping":47},{"user_id":9,"name":"wine-man","steam_id":76561198072491955,"connected_time":211000000000,"state":"active","ping":55}]},{"server_id":202,"name":"Uncletopia | Hong Kong | 1 | All Maps","name_short":"hgk-1","host":"hgk-1.hk.uncletopia.com","port":27015,"enabled":true,"region":"asia","cc":"hk","latitude":22.302711,"longitude":114.177216,"reserved":0,"last_update":"0001-01-01T00:00:00Z","name_a2s":"Uncletopia | Hong Kong | 1 | All Maps","protocol":17,"map":"cp_sunshine","folder":"tf","game":"Team Fortress","app_id":440,"player_count":22,"max_players":24,"Bots":0,"server_type":"Dedicated","server_os":"Linux","password":true,"vac":true,"version":"7757534","steam_id":85568392924494504,"keywords":["cp","nocrits","nodmgspread","uncletopia"],"game_id":440,"stv_port":27016,"stv_name":"Uncletopia | Hong Kong | 1 | All Maps | STV","players":[{"user_id":127,"name":"rtgod","steam_id":76561198125363469,"connected_time":1469000000000,"state":"active","ping":87},{"user_id":36,"name":"SunShine","steam_id":76561198323642446,"connected_time":11586000000000,"state":"active","ping":102},{"user_id":140,"name":"Cá Tháng 4","steam_id":76561198047162026,"connected_time":158000000000,"state":"active","ping":75},{"user_id":137,"name":"mori calliopes number 2 fan","steam_id":76561198412329672,"connected_time":399000000000,"state":"active","ping":88},{"user_id":98,"name":"PocoLoco","steam_id":76561198834044246,"connected_time":6154000000000,"state":"active","ping":155},{"user_id":109,"name":"쿠키","steam_id":76561197997220367,"connected_time":4867000000000,"state":"active","ping":53},{"user_id":42,"name":"Stupid B","steam_id":76561198131423270,"connected_time":11089000000000,"state":"active","ping":89},{"user_id":120,"name":"bmbmbm","steam_id":76561198413116920,"connected_time":3291000000000,"state":"active","ping":99},{"user_id":139,"name":"no vc no c","steam_id":76561197989503095,"connected_time":209000000000,"state":"active","ping":89},{"user_id":72,"name":"tiden2000","steam_id":76561198092969425,"connected_time":9332000000000,"state":"active","ping":107},{"user_id":136,"name":"Gay Man","steam_id":76561199445694770,"connected_time":609000000000,"state":"active","ping":137},{"user_id":128,"name":"sauceyert","steam_id":76561199085409122,"connected_time":1459000000000,"state":"active","ping":68},{"user_id":133,"name":"Beef Wellington","steam_id":76561197995635241,"connected_time":841000000000,"state":"active","ping":131},{"user_id":131,"name":"corpse_cadaver","steam_id":76561199225360457,"connected_time":1310000000000,"state":"active","ping":134},{"user_id":53,"name":"帕","steam_id":76561198439343999,"connected_time":10339000000000,"state":"active","ping":70},{"user_id":52,"name":"anemoia","steam_id":76561198074339034,"connected_time":10456000000000,"state":"active","ping":75},{"user_id":141,"name":"LET HIM COOK!!!!","steam_id":76561199221091556,"connected_time":117000000000,"state":"active","ping":82},{"user_id":105,"name":"qbetter","steam_id":76561198055553140,"connected_time":4919000000000,"state":"active","ping":77},{"user_id":142,"name":"garciaseanandrew","steam_id":76561199377268776,"connected_time":51000000000,"state":"active","ping":86},{"user_id":57,"name":"screaming sniper","steam_id":76561199085568674,"connected_time":10182000000000,"state":"active","ping":85},{"user_id":61,"name":"sloth of the fragment clan","steam_id":76561198214192048,"connected_time":9922000000000,"state":"active","ping":103},{"user_id":74,"name":"Bertengkar","steam_id":76561198213031155,"connected_time":9229000000000,"state":"active","ping":104}]},{"server_id":1,"name":"Uncletopia | Los Angeles | 1 | All Maps","name_short":"lax-1","host":"lax-1.us.uncletopia.com","port":27015,"enabled":true,"region":"us-west","cc":"us","latitude":33.94279,"longitude":-118.41004,"reserved":0,"last_update":"0001-01-01T00:00:00Z","name_a2s":"Uncletopia | Los Angeles | 1 | All Maps","protocol":17,"map":"cp_sunshine","folder":"tf","game":"Team Fortress","app_id":440,"player_count":0,"max_players":24,"Bots":0,"server_type":"Dedicated","server_os":"Linux","password":true,"vac":true,"version":"7757534","steam_id":85568392924469991,"keywords":["cp","nocrits","nodmgspread","uncletopia"],"game_id":440,"stv_port":27016,"stv_name":"Uncletopia | Los Angeles | 1 | All Maps | STV","players":null},{"server_id":112,"name":"Uncletopia | Los Angeles | 2 | All Maps","name_short":"lax-2","host":"lax-1.us.uncletopia.com","port":27025,"enabled":true,"region":"us-west","cc":"us","latitude":33.94279,"longitude":-118.41004,"reserved":0,"last_update":"0001-01-01T00:00:00Z","name_a2s":"Uncletopia | Los Angeles | 2 | All Maps","protocol":17,"map":"cp_steel","folder":"tf","game":"Team Fortress","app_id":440,"player_count":14,"max_players":24,"Bots":0,"server_type":"Dedicated","server_os":"Linux","password":true,"vac":true,"version":"7757534","steam_id":85568392924469992,"keywords":["cp","nocrits","nodmgspread","uncletopia"],"game_id":440,"stv_port":27026,"stv_name":"Uncletopia | Los Angeles | 2 | All Maps | STV","players":[{"user_id":292,"name":"nimitz","steam_id":76561198053707335,"connected_time":289000000000,"state":"active","ping":53},{"user_id":282,"name":"AGuyNamedSteve","steam_id":76561198254309951,"connected_time":1010000000000,"state":"active","ping":105},{"user_id":283,"name":"FISH","steam_id":76561198206922028,"connected_time":965000000000,"state":"active","ping":51},{"user_id":293,"name":"Burgie","steam_id":76561198066425198,"connected_time":89000000000,"state":"active","ping":47},{"user_id":265,"name":"fonz!E","steam_id":76561197987165510,"connected_time":3294000000000,"state":"active","ping":45},{"user_id":294,"name":"Evil Ryu","steam_id":76561198079532122,"connected_time":73000000000,"state":"active","ping":47},{"user_id":295,"name":"jams","steam_id":76561198131701290,"connected_time":27000000000,"state":"active","ping":41},{"user_id":266,"name":"Wizowd","steam_id":76561198167702261,"connected_time":3213000000000,"state":"active","ping":64},{"user_id":284,"name":"Rei Ayanami","steam_id":76561198853092631,"connected_time":951000000000,"state":"active","ping":91},{"user_id":274,"name":"bigman1","steam_id":76561198050225055,"connected_time":2208000000000,"state":"active","ping":45},{"user_id":268,"name":"Gonotic gnelf","steam_id":76561199135847219,"connected_time":3027000000000,"state":"active","ping":132},{"user_id":278,"name":"iNGNORX","steam_id":76561198807649258,"connected_time":1404000000000,"state":"active","ping":96},{"user_id":254,"name":"EatSomeBEES","steam_id":76561198047334307,"connected_time":4499000000000,"state":"active","ping":103},{"user_id":290,"name":"Dauntless Duelist","steam_id":76561198025056018,"connected_time":739000000000,"state":"active","ping":65}]},{"server_id":324,"name":"Uncletopia | Los Angeles | 3 | All Maps","name_short":"lax-3","host":"lax-1.us.uncletopia.com","port":27035,"enabled":true,"region":"us-west","cc":"us","latitude":33.94279,"longitude":-118.41004,"reserved":0,"last_update":"0001-01-01T00:00:00Z","name_a2s":"Uncletopia | Los Angeles | 3 | All Maps","protocol":17,"map":"koth_highpass","folder":"tf","game":"Team Fortress","app_id":440,"player_count":0,"max_players":24,"Bots":0,"server_type":"Dedicated","server_os":"Linux","password":true,"vac":true,"version":"7757534","steam_id":85568392924510198,"keywords":["cp","nocrits","nodmgspread","uncletopia"],"game_id":440,"stv_port":27036,"stv_name":"Uncletopia | Los Angeles | 3 | All Maps | STV","players":null},{"server_id":25,"name":"Uncletopia | Los Angeles | 4 | Stopwatch Beta","name_short":"lax-4","host":"lax-1.us.uncletopia.com","port":27045,"enabled":true,"region":"us-west","cc":"us","latitude":33.94279,"longitude":-118.41004,"reserved":0,"last_update":"0001-01-01T00:00:00Z","name_a2s":"Uncletopia | Los Angeles | 4 | Stopwatch Beta","protocol":17,"map":"workshop/koth_product_final.ugc454272353","folder":"tf","game":"Team Fortress","app_id":440,"player_count":0,"max_players":24,"Bots":0,"server_type":"Dedicated","server_os":"Linux","password":true,"vac":true,"version":"7757534","steam_id":85568392924510199,"keywords":["cp","nocrits","nodmgspread","uncletopia"],"game_id":440,"stv_port":27046,"stv_name":"Uncletopia | Los Angeles | 4 | Stopwatch Beta | STV","players":null},{"server_id":11,"name":"Uncletopia | London | 1 | All Maps","name_short":"lon-1","host":"lon-1.uk.uncletopia.com","port":27015,"enabled":true,"region":"eu","cc":"gb","latitude":51.509865,"longitude":-0.118092,"reserved":0,"last_update":"0001-01-01T00:00:00Z","name_a2s":"Uncletopia | London | 1 | All Maps","protocol":17,"map":"cp_altitude","folder":"tf","game":"Team Fortress","app_id":440,"player_count":23,"max_players":24,"Bots":0,"server_type":"Dedicated","server_os":"Linux","password":true,"vac":true,"version":"7757534","steam_id":85568392924367362,"keywords":["cp","nocrits","nodmgspread","uncletopia"],"game_id":440,"stv_port":27016,"stv_name":"Uncletopia | London | 1 | All Maps | STV","players":[{"user_id":294,"name":"Pootisman27","steam_id":76561199081136250,"connected_time":332000000000,"state":"active","ping":54},{"user_id":293,"name":"spearfishNL","steam_id":76561199077022985,"connected_time":378000000000,"state":"active","ping":54},{"user_id":287,"name":"kon6","steam_id":76561198060038623,"connected_time":807000000000,"state":"active","ping":78},{"user_id":297,"name":"Connor McFilip","steam_id":76561198107965067,"connected_time":146000000000,"state":"active","ping":71},{"user_id":286,"name":"Robin ★","steam_id":76561198124355408,"connected_time":854000000000,"state":"active","ping":105},{"user_id":278,"name":"zelo","steam_id":76561198084799925,"connected_time":1923000000000,"state":"active","ping":60},{"user_id":292,"name":"Gaem Geck","steam_id":76561198057966907,"connected_time":427000000000,"state":"active","ping":49},{"user_id":290,"name":"Arti","steam_id":76561197983352845,"connected_time":443000000000,"state":"active","ping":59},{"user_id":291,"name":"Saken","steam_id":76561198049075295,"connected_time":439000000000,"state":"active","ping":66},{"user_id":254,"name":"2b","steam_id":76561199149307190,"connected_time":3083000000000,"state":"active","ping":83},{"user_id":273,"name":"slickbandxz","steam_id":76561198119553577,"connected_time":1965000000000,"state":"active","ping":114},{"user_id":263,"name":"dakota","steam_id":76561198010662796,"connected_time":2424000000000,"state":"active","ping":44},{"user_id":289,"name":"Robbie","steam_id":76561198017504503,"connected_time":650000000000,"state":"active","ping":50},{"user_id":271,"name":"lore","steam_id":76561198120984188,"connected_time":2116000000000,"state":"active","ping":78},{"user_id":229,"name":"aura","steam_id":76561197991687793,"connected_time":5030000000000,"state":"active","ping":74},{"user_id":284,"name":"Princess Fuzz","steam_id":76561198025783000,"connected_time":1529000000000,"state":"active","ping":43},{"user_id":295,"name":"rlty","steam_id":76561198009395055,"connected_time":273000000000,"state":"active","ping":138},{"user_id":298,"name":"skinny fiend","steam_id":76561198273358760,"connected_time":106000000000,"state":"active","ping":70},{"user_id":269,"name":"Shawty","steam_id":76561198158631465,"connected_time":2376000000000,"state":"active","ping":72},{"user_id":275,"name":"Faxter","steam_id":76561198011771605,"connected_time":1963000000000,"state":"active","ping":73},{"user_id":178,"name":"Enigmus","steam_id":76561197994063627,"connected_time":8573000000000,"state":"active","ping":89},{"user_id":218,"name":"ciliorkun18","steam_id":76561198228942500,"connected_time":5917000000000,"state":"active","ping":90},{"user_id":265,"name":"WiiSportKing","steam_id":76561198114139081,"connected_time":2423000000000,"state":"active","ping":57}]},{"server_id":114,"name":"Uncletopia | London | 2 | All Maps","name_short":"lon-2","host":"lon-1.uk.uncletopia.com","port":27025,"enabled":true,"region":"eu","cc":"gb","latitude":51.509865,"longitude":-0.118092,"reserved":0,"last_update":"0001-01-01T00:00:00Z","name_a2s":"Uncletopia | London | 2 | All Maps","protocol":17,"map":"pl_pier","folder":"tf","game":"Team Fortress","app_id":440,"player_count":0,"max_players":24,"Bots":0,"server_type":"Dedicated","server_os":"Linux","password":true,"vac":true,"version":"7757534","steam_id":85568392924470941,"keywords":["nocrits","nodmgspread","payload","uncletopia"],"game_id":440,"stv_port":27026,"stv_name":"Uncletopia | London | 2 | All Maps | STV","players":null},{"server_id":320,"name":"Uncletopia | London | 3 | All Maps","name_short":"lon-3","host":"lon-1.uk.uncletopia.com","port":27035,"enabled":true,"region":"eu","cc":"gb","latitude":51.509865,"longitude":-0.118092,"reserved":0,"last_update":"0001-01-01T00:00:00Z","name_a2s":"Uncletopia | London | 3 | All Maps","protocol":17,"map":"pl_swiftwater_final1","folder":"tf","game":"Team Fortress","app_id":440,"player_count":0,"max_players":24,"Bots":0,"server_type":"Dedicated","server_os":"Linux","password":true,"vac":true,"version":"7757534","steam_id":85568392924510192,"keywords":["nocrits","nodmgspread","payload","uncletopia"],"game_id":440,"stv_port":27036,"stv_name":"Uncletopia | London | 3 | All Maps | STV","players":null},{"server_id":321,"name":"Uncletopia | London | 4 | All Maps","name_short":"lon-4","host":"lon-1.uk.uncletopia.com","port":27045,"enabled":true,"region":"eu","cc":"gb","latitude":51.509865,"longitude":-0.118092,"reserved":0,"last_update":"0001-01-01T00:00:00Z","name_a2s":"Uncletopia | London | 4 | All Maps","protocol":17,"map":"pl_barnblitz","folder":"tf","game":"Team Fortress","app_id":440,"player_count":0,"max_players":24,"Bots":0,"server_type":"Dedicated","server_os":"Linux","password":true,"vac":true,"version":"7757534","steam_id":85568392924510193,"keywords":["nocrits","nodmgspread","payload","uncletopia"],"game_id":440,"stv_port":27046,"stv_name":"Uncletopia | London | 4 | All Maps | STV","players":null},{"server_id":21,"name":"Uncletopia | London | 5 | All Maps","name_short":"lon-5","host":"lon-1.uk.uncletopia.com","port":27055,"enabled":true,"region":"eu","cc":"gb","latitude":51.509865,"longitude":-0.118092,"reserved":0,"last_update":"0001-01-01T00:00:00Z","name_a2s":"Uncletopia | London | 5 | All Maps","protocol":17,"map":"pl_pier","folder":"tf","game":"Team Fortress","app_id":440,"player_count":0,"max_players":24,"Bots":0,"server_type":"Dedicated","server_os":"Linux","password":true,"vac":true,"version":"7757534","steam_id":85568392924742829,"keywords":["nocrits","nodmgspread","payload","uncletopia"],"game_id":440,"stv_port":27056,"stv_name":"Uncletopia | London | 5 | All Maps | STV","players":null},{"server_id":22,"name":"Uncletopia | London | 6 | All Maps","name_short":"lon-6","host":"lon-1.uk.uncletopia.com","port":27065,"enabled":true,"region":"eu","cc":"gb","latitude":51.509865,"longitude":-0.118092,"reserved":0,"last_update":"0001-01-01T00:00:00Z","name_a2s":"Uncletopia | London | 6 | All Maps","protocol":17,"map":"koth_highpass","folder":"tf","game":"Team Fortress","app_id":440,"player_count":0,"max_players":24,"Bots":0,"server_type":"Dedicated","server_os":"Linux","password":true,"vac":true,"version":"7757534","steam_id":85568392924742830,"keywords":["cp","nocrits","nodmgspread","uncletopia"],"game_id":440,"stv_port":27066,"stv_name":"Uncletopia | London | 6 | All Maps | STV","players":null},{"server_id":40,"name":"Uncletopia | London | 7 | No Payload","name_short":"lon-7","host":"lon-1.uk.uncletopia.com","port":27075,"enabled":true,"region":"eu","cc":"gb","latitude":51.509865,"longitude":-0.118092,"reserved":0,"last_update":"0001-01-01T00:00:00Z","name_a2s":"Uncletopia | London | 7 | No Payload","protocol":17,"map":"koth_highpass","folder":"tf","game":"Team Fortress","app_id":440,"player_count":0,"max_players":24,"Bots":0,"server_type":"Dedicated","server_os":"Linux","password":true,"vac":true,"version":"7757534","steam_id":85568392924964314,"keywords":["cp","nocrits","nodmgspread","uncletopia"],"game_id":440,"stv_port":27076,"stv_name":"Uncletopia | London | 7 | No Payload | STV","players":null},{"server_id":41,"name":"Uncletopia | London | 8 | Community","name_short":"lon-8","host":"lon-1.uk.uncletopia.com","port":27085,"enabled":true,"region":"eu","cc":"gb","latitude":51.509865,"longitude":-0.118092,"reserved":0,"last_update":"0001-01-01T00:00:00Z","name_a2s":"Uncletopia | London | 8 | Community","protocol":17,"map":"workshop/pl_emerge_rc2.ugc888027758","folder":"tf","game":"Team Fortress","app_id":440,"player_count":0,"max_players":24,"Bots":0,"server_type":"Dedicated","server_os":"Linux","password":true,"vac":true,"version":"7757534","steam_id":85568392924964315,"keywords":["nocrits","nodmgspread","payload","uncletopia"],"game_id":440,"stv_port":27086,"stv_name":"Uncletopia | London | 8 | Community | STV","players":null},{"server_id":300,"name":"Uncletopia | Montréal | 1 | All Maps","name_short":"mtl-1","host":"mtl-1.ca.uncletopia.com","port":27015,"enabled":true,"region":"us-east","cc":"ca","latitude":45.50889,"longitude":-73.56167,"reserved":0,"last_update":"0001-01-01T00:00:00Z","name_a2s":"Uncletopia | Montréal | 1 | All Maps","protocol":17,"map":"cp_mountainlab","folder":"tf","game":"Team Fortress","app_id":440,"player_count":0,"max_players":24,"Bots":0,"server_type":"Dedicated","server_os":"Linux","password":true,"vac":true,"version":"7757534","steam_id":85568392924500087,"keywords":["cp","nocrits","nodmgspread","uncletopia"],"game_id":440,"stv_port":27016,"stv_name":"Uncletopia | Montréal | 1 | All Maps | STV","players":null},{"server_id":301,"name":"Uncletopia | Montréal | 2 | All Maps","name_short":"mtl-2","host":"mtl-1.ca.uncletopia.com","port":27025,"enabled":true,"region":"us-east","cc":"ca","latitude":45.50889,"longitude":-73.56167,"reserved":0,"last_update":"0001-01-01T00:00:00Z","name_a2s":"Uncletopia | Montréal | 2 | All Maps","protocol":17,"map":"cp_dustbowl","folder":"tf","game":"Team Fortress","app_id":440,"player_count":0,"max_players":24,"Bots":0,"server_type":"Dedicated","server_os":"Linux","password":true,"vac":true,"version":"7757534","steam_id":85568392924500088,"keywords":["cp","nocrits","nodmgspread","uncletopia"],"game_id":440,"stv_port":27026,"stv_name":"Uncletopia | Montréal | 2 | All Maps | STV","players":null},{"server_id":302,"name":"Uncletopia | Montréal | 3 | All Maps","name_short":"mtl-3","host":"mtl-1.ca.uncletopia.com","port":27035,"enabled":true,"region":"us-east","cc":"ca","latitude":45.50889,"longitude":-73.56167,"reserved":0,"last_update":"0001-01-01T00:00:00Z","name_a2s":"Uncletopia | Montréal | 3 | All Maps","protocol":17,"map":"koth_lakeside_final","folder":"tf","game":"Team Fortress","app_id":440,"player_count":0,"max_players":24,"Bots":0,"server_type":"Dedicated","server_os":"Linux","password":true,"vac":true,"version":"7757534","steam_id":85568392924500089,"keywords":["cp","nocrits","nodmgspread","uncletopia"],"game_id":440,"stv_port":27036,"stv_name":"Uncletopia | Montréal | 3 | All Maps | STV","players":null},{"server_id":303,"name":"Uncletopia | Montréal | 4 | No Payload","name_short":"mtl-4","host":"mtl-1.ca.uncletopia.com","port":27045,"enabled":true,"region":"us-east","cc":"ca","latitude":45.50889,"longitude":-73.56167,"reserved":0,"last_update":"0001-01-01T00:00:00Z","name_a2s":"Uncletopia | Montréal | 4 | No Payload","protocol":17,"map":"pl_pier","folder":"tf","game":"Team Fortress","app_id":440,"player_count":0,"max_players":24,"Bots":0,"server_type":"Dedicated","server_os":"Linux","password":true,"vac":true,"version":"7757534","steam_id":85568392924500090,"keywords":["nocrits","nodmgspread","payload","uncletopia"],"game_id":440,"stv_port":27046,"stv_name":"Uncletopia | Montréal | 4 | No Payload | STV","players":null},{"server_id":13,"name":"Uncletopia | New York City | 1 | All Maps","name_short":"nyc-1","host":"nyc-1.us.uncletopia.com","port":27015,"enabled":true,"region":"us-east","cc":"us","latitude":40.73061,"longitude":-73.93524,"reserved":0,"last_update":"0001-01-01T00:00:00Z","name_a2s":"Uncletopia | New York City | 1 | All Maps","protocol":17,"map":"pl_frontier_final","folder":"tf","game":"Team Fortress","app_id":440,"player_count":0,"max_players":24,"Bots":0,"server_type":"Dedicated","server_os":"Linux","password":true,"vac":true,"version":"7757534","steam_id":85568392924469993,"keywords":["nocrits","nodmgspread","payload","uncletopia"],"game_id":440,"stv_port":27016,"stv_name":"Uncletopia | New York City | 1 | All Maps | STV","players":null},{"server_id":14,"name":"Uncletopia | New York City | 2 | All Maps","name_short":"nyc-2","host":"nyc-1.us.uncletopia.com","port":27025,"enabled":true,"region":"us-east","cc":"us","latitude":40.73061,"longitude":-73.93524,"reserved":0,"last_update":"0001-01-01T00:00:00Z","name_a2s":"Uncletopia | New York City | 2 | All Maps","protocol":17,"map":"ctf_sawmill","folder":"tf","game":"Team Fortress","app_id":440,"player_count":0,"max_players":24,"Bots":0,"server_type":"Dedicated","server_os":"Linux","password":true,"vac":true,"version":"7757534","steam_id":85568392924469994,"keywords":["ctf","nocrits","nodmgspread","uncletopia"],"game_id":440,"stv_port":27026,"stv_name":"Uncletopia | New York City | 2 | All Maps | STV","players":null},{"server_id":15,"name":"Uncletopia | New York City | 3 | Stopwatch Beta","name_short":"nyc-3","host":"nyc-1.us.uncletopia.com","port":27035,"enabled":true,"region":"us-east","cc":"us","latitude":40.73061,"longitude":-73.93524,"reserved":0,"last_update":"0001-01-01T00:00:00Z","name_a2s":"Uncletopia | New York City | 3 | Stopwatch Beta","protocol":17,"map":"workshop/pl_barnblitz_pro7.ugc582280235","folder":"tf","game":"Team Fortress","app_id":440,"player_count":0,"max_players":24,"Bots":0,"server_type":"Dedicated","server_os":"Linux","password":true,"vac":true,"version":"7757534","steam_id":85568392924742820,"keywords":["nocrits","nodmgspread","payload","uncletopia"],"game_id":440,"stv_port":27036,"stv_name":"Uncletopia | New York City | 3 | Stopwatch Beta | STV","players":null},{"server_id":16,"name":"Uncletopia | New York City | 4 | Community","name_short":"nyc-4","host":"nyc-1.us.uncletopia.com","port":27045,"enabled":true,"region":"us-east","cc":"us","latitude":40.73061,"longitude":-73.93524,"reserved":0,"last_update":"0001-01-01T00:00:00Z","name_a2s":"Uncletopia | New York City | 4 | Community","protocol":17,"map":"workshop/koth_ramjam_rc1.ugc459778887","folder":"tf","game":"Team Fortress","app_id":440,"player_count":0,"max_players":24,"Bots":0,"server_type":"Dedicated","server_os":"Linux","password":true,"vac":true,"version":"7757534","steam_id":85568392924742821,"keywords":["cp","nocrits","nodmgspread","uncletopia"],"game_id":440,"stv_port":27046,"stv_name":"Uncletopia | New York City | 4 | Community | STV","players":null},{"server_id":142,"name":"Uncletopia | São Paulo | 1 | All Maps","name_short":"sao-1","host":"sao-1.br.uncletopia.com","port":27015,"enabled":true,"region":"sa","cc":"br","latitude":-23.533773,"longitude":-46.62529,"reserved":0,"last_update":"0001-01-01T00:00:00Z","name_a2s":"Uncletopia | São Paulo | 1 | All Maps","protocol":17,"map":"cp_altitude","folder":"tf","game":"Team Fortress","app_id":440,"player_count":0,"max_players":24,"Bots":0,"server_type":"Dedicated","server_os":"Linux","password":true,"vac":true,"version":"7757534","steam_id":85568392924469996,"keywords":["cp","nocrits","nodmgspread","uncletopia"],"game_id":440,"stv_port":27016,"stv_name":"Uncletopia | São Paulo | 1 | All Maps | STV","players":null},{"server_id":143,"name":"Uncletopia | São Paulo | 2 | All Maps","name_short":"sao-2","host":"sao-2.br.uncletopia.com","port":27015,"enabled":true,"region":"sa","cc":"br","latitude":-23.533773,"longitude":-46.62529,"reserved":0,"last_update":"0001-01-01T00:00:00Z","name_a2s":"Uncletopia | São Paulo | 2 | All Maps","protocol":17,"map":"koth_viaduct","folder":"tf","game":"Team Fortress","app_id":440,"player_count":0,"max_players":24,"Bots":0,"server_type":"Dedicated","server_os":"Linux","password":true,"vac":true,"version":"7757534","steam_id":85568392924485349,"keywords":["cp","nocrits","nodmgspread","uncletopia"],"game_id":440,"stv_port":27016,"stv_name":"Uncletopia | São Paulo | 2 | All Maps | STV","players":null},{"server_id":7,"name":"Uncletopia | Seattle | 1 | All Maps","name_short":"sea-1","host":"sea-1.us.uncletopia.com","port":27015,"enabled":true,"region":"us-west","cc":"us","latitude":47.608013,"longitude":-122.33517,"reserved":0,"last_update":"0001-01-01T00:00:00Z","name_a2s":"Uncletopia | Seattle | 1 | All Maps","protocol":17,"map":"koth_cascade","folder":"tf","game":"Team Fortress","app_id":440,"player_count":4,"max_players":24,"Bots":0,"server_type":"Dedicated","server_os":"Linux","password":true,"vac":true,"version":"7757534","steam_id":85568392924469997,"keywords":["cp","nocrits","nodmgspread","uncletopia"],"game_id":440,"stv_port":27016,"stv_name":"Uncletopia | Seattle | 1 | All Maps | STV","players":[{"user_id":1353,"name":"ChuChu","steam_id":76561199443647976,"connected_time":1641000000000,"state":"active","ping":98},{"user_id":1325,"name":"Owl Sniper With Piss In A Jar","steam_id":76561198964535584,"connected_time":4062000000000,"state":"active","ping":90},{"user_id":1332,"name":"[CTC] karma :3","steam_id":76561198374769204,"connected_time":3628000000000,"state":"active","ping":31},{"user_id":1351,"name":"Kc","steam_id":76561198210734407,"connected_time":1712000000000,"state":"active","ping":116}]},{"server_id":119,"name":"Uncletopia | Seattle | 2 | All Maps","name_short":"sea-2","host":"sea-1.us.uncletopia.com","port":27025,"enabled":true,"region":"us-west","cc":"us","latitude":47.608013,"longitude":-122.33517,"reserved":0,"last_update":"0001-01-01T00:00:00Z","name_a2s":"Uncletopia | Seattle | 2 | All Maps","protocol":17,"map":"pl_snowycoast","folder":"tf","game":"Team Fortress","app_id":440,"player_count":0,"max_players":24,"Bots":0,"server_type":"Dedicated","server_os":"Linux","password":true,"vac":true,"version":"7757534","steam_id":85568392924469998,"keywords":["nocrits","nodmgspread","payload","uncletopia"],"game_id":440,"stv_port":27026,"stv_name":"Uncletopia | Seattle | 2 | All Maps | STV","players":null},{"server_id":406,"name":"Uncletopia | Seattle | 3 | Stopwatch Beta","name_short":"sea-3","host":"sea-1.us.uncletopia.com","port":27035,"enabled":true,"region":"us-west","cc":"us","latitude":47.608013,"longitude":-122.33517,"reserved":0,"last_update":"0001-01-01T00:00:00Z","name_a2s":"Uncletopia | Seattle | 3 | Stopwatch Beta","protocol":17,"map":"cp_process_final","folder":"tf","game":"Team Fortress","app_id":440,"player_count":0,"max_players":24,"Bots":0,"server_type":"Dedicated","server_os":"Linux","password":true,"vac":true,"version":"7757534","steam_id":85568392924515217,"keywords":["cp","nocrits","nodmgspread","uncletopia"],"game_id":440,"stv_port":27036,"stv_name":"Uncletopia | Seattle | 3 | Stopwatch Beta | STV","players":null},{"server_id":17,"name":"Uncletopia | San Francisco | 1 | All Maps","name_short":"sfo-1","host":"sfo-1.us.uncletopia.com","port":27015,"enabled":true,"region":"us-west","cc":"us","latitude":37.77397,"longitude":-122.4313,"reserved":0,"last_update":"0001-01-01T00:00:00Z","name_a2s":"Uncletopia | San Francisco | 1 | All Maps","protocol":17,"map":"pl_swiftwater_final1","folder":"tf","game":"Team Fortress","app_id":440,"player_count":0,"max_players":24,"Bots":0,"server_type":"Dedicated","server_os":"Linux","password":true,"vac":true,"version":"7757534","steam_id":85568392924469999,"keywords":["nocrits","nodmgspread","payload","uncletopia"],"game_id":440,"stv_port":27016,"stv_name":"Uncletopia | San Francisco | 1 | All Maps | STV","players":null},{"server_id":18,"name":"Uncletopia | San Francisco | 2 | All Maps","name_short":"sfo-2","host":"sfo-1.us.uncletopia.com","port":27025,"enabled":true,"region":"us-west","cc":"us","latitude":37.77397,"longitude":-122.4313,"reserved":0,"last_update":"0001-01-01T00:00:00Z","name_a2s":"Uncletopia | San Francisco | 2 | All Maps","protocol":17,"map":"cp_dustbowl","folder":"tf","game":"Team Fortress","app_id":440,"player_count":0,"max_players":24,"Bots":0,"server_type":"Dedicated","server_os":"Linux","password":true,"vac":true,"version":"7757534","steam_id":85568392924470000,"keywords":["cp","nocrits","nodmgspread","uncletopia"],"game_id":440,"stv_port":27026,"stv_name":"Uncletopia | San Francisco | 2 | All Maps | STV","players":null},{"server_id":19,"name":"Uncletopia | San Francisco | 3 | Stopwatch Beta","name_short":"sfo-3","host":"sfo-1.us.uncletopia.com","port":27035,"enabled":true,"region":"us-west","cc":"us","latitude":37.77397,"longitude":-122.4313,"reserved":0,"last_update":"0001-01-01T00:00:00Z","name_a2s":"Uncletopia | San Francisco | 3 | Stopwatch Beta","protocol":17,"map":"koth_lakeside_final","folder":"tf","game":"Team Fortress","app_id":440,"player_count":0,"max_players":24,"Bots":0,"server_type":"Dedicated","server_os":"Linux","password":true,"vac":true,"version":"7757534","steam_id":85568392924742824,"keywords":["cp","nocrits","nodmgspread","uncletopia"],"game_id":440,"stv_port":27036,"stv_name":"Uncletopia | San Francisco | 3 | Stopwatch Beta | STV","players":null},{"server_id":20,"name":"Uncletopia | San Francisco | 4 | Community","name_short":"sfo-4","host":"sfo-1.us.uncletopia.com","port":27045,"enabled":true,"region":"us-west","cc":"us","latitude":37.77397,"longitude":-122.4313,"reserved":0,"last_update":"0001-01-01T00:00:00Z","name_a2s":"Uncletopia | San Francisco | 4 | Community","protocol":17,"map":"workshop/cp_reckoner_rc6.ugc674719999","folder":"tf","game":"Team Fortress","app_id":440,"player_count":1,"max_players":24,"Bots":0,"server_type":"Dedicated","server_os":"Linux","password":true,"vac":true,"version":"7757534","steam_id":85568392924742826,"keywords":["cp","nocrits","nodmgspread","uncletopia"],"game_id":440,"stv_port":27046,"stv_name":"Uncletopia | San Francisco | 4 | Community | STV","players":[{"user_id":366,"name":"liljedi08","steam_id":76561199229117071,"connected_time":6000000000,"state":"spawning","ping":122}]},{"server_id":141,"name":"Uncletopia | Sydney | 1 | All Maps","name_short":"syd-1","host":"syd-1.au.uncletopia.com","port":27015,"enabled":true,"region":"au","cc":"au","latitude":-33.865143,"longitude":151.2099,"reserved":0,"last_update":"0001-01-01T00:00:00Z","name_a2s":"Uncletopia | Sydney | 1 | All Maps","protocol":17,"map":"koth_lakeside_final","folder":"tf","game":"Team Fortress","app_id":440,"player_count":0,"max_players":24,"Bots":0,"server_type":"Dedicated","server_os":"Linux","password":true,"vac":true,"version":"7757534","steam_id":85568392924470001,"keywords":["cp","nocrits","nodmgspread","uncletopia"],"game_id":440,"stv_port":27016,"stv_name":"Uncletopia | Sydney | 1 | All Maps | STV","players":null},{"server_id":123,"name":"Uncletopia | Sydney | 2 | All Maps","name_short":"syd-2","host":"syd-1.au.uncletopia.com","port":27025,"enabled":true,"region":"au","cc":"au","latitude":-33.865143,"longitude":151.2099,"reserved":0,"last_update":"0001-01-01T00:00:00Z","name_a2s":"Uncletopia | Sydney | 2 | All Maps","protocol":17,"map":"pl_upward","folder":"tf","game":"Team Fortress","app_id":440,"player_count":24,"max_players":24,"Bots":0,"server_type":"Dedicated","server_os":"Linux","password":true,"vac":true,"version":"7757534","steam_id":85568392924470002,"keywords":["nocrits","nodmgspread","payload","uncletopia"],"game_id":440,"stv_port":27026,"stv_name":"Uncletopia | Sydney | 2 | All Maps | STV","players":[{"user_id":281,"name":"twitchy hooligan","steam_id":76561199021293107,"connected_time":247000000000,"state":"active","ping":73},{"user_id":268,"name":"Jauntyweb","steam_id":76561198814458512,"connected_time":1040000000000,"state":"active","ping":86},{"user_id":277,"name":"Cronk","steam_id":76561198044749948,"connected_time":414000000000,"state":"active","ping":54},{"user_id":262,"name":"crack","steam_id":76561198077370413,"connected_time":1350000000000,"state":"active","ping":65},{"user_id":207,"name":"squrrel","steam_id":76561198083429611,"connected_time":4363000000000,"state":"active","ping":77},{"user_id":272,"name":"sherruk","steam_id":76561198075616324,"connected_time":895000000000,"state":"active","ping":60},{"user_id":282,"name":"Controller Heavy","steam_id":76561198911542330,"connected_time":233000000000,"state":"active","ping":77},{"user_id":270,"name":"CrazyGlobe","steam_id":76561198992451299,"connected_time":994000000000,"state":"active","ping":61},{"user_id":274,"name":"Ironical","steam_id":76561198184873390,"connected_time":649000000000,"state":"active","ping":55},{"user_id":278,"name":"Creamy Potato","steam_id":76561198132823728,"connected_time":371000000000,"state":"active","ping":115},{"user_id":276,"name":"Dung Pie","steam_id":76561198172990938,"connected_time":556000000000,"state":"active","ping":85},{"user_id":283,"name":"wooops","steam_id":76561198423244201,"connected_time":159000000000,"state":"active","ping":39},{"user_id":284,"name":"Král","steam_id":76561198013907370,"connected_time":148000000000,"state":"active","ping":59},{"user_id":215,"name":"internetkittenz13","steam_id":76561198881042979,"connected_time":4143000000000,"state":"active","ping":44},{"user_id":280,"name":"(1)Mayor Ballsworth","steam_id":76561199174593635,"connected_time":353000000000,"state":"active","ping":65},{"user_id":237,"name":"Gasoline","steam_id":76561198879023728,"connected_time":2655000000000,"state":"active","ping":63},{"user_id":286,"name":"Rat Pope","steam_id":76561199059450243,"connected_time":87000000000,"state":"active","ping":54},{"user_id":256,"name":"Jagonite","steam_id":76561198089124961,"connected_time":1609000000000,"state":"active","ping":110},{"user_id":258,"name":"Frog Friend","steam_id":76561198054505772,"connected_time":1419000000000,"state":"active","ping":54},{"user_id":259,"name":"Pitbull OWNER","steam_id":76561198877831575,"connected_time":1364000000000,"state":"active","ping":61},{"user_id":261,"name":"boostless mobiler","steam_id":76561198200510138,"connected_time":1354000000000,"state":"active","ping":72},{"user_id":288,"name":"Chef","steam_id":76561198367727414,"connected_time":72000000000,"state":"active","ping":68},{"user_id":264,"name":"AlphaMerch","steam_id":76561197961095330,"connected_time":1341000000000,"state":"active","ping":72},{"user_id":291,"name":"fisherman","steam_id":76561199048862575,"connected_time":44000000000,"state":"active","ping":60}]},{"server_id":395,"name":"Uncletopia | Sydney | 3 | All Maps","name_short":"syd-3","host":"syd-1.au.uncletopia.com","port":27035,"enabled":true,"region":"au","cc":"au","latitude":-33.865143,"longitude":151.2099,"reserved":0,"last_update":"0001-01-01T00:00:00Z","name_a2s":"Uncletopia | Sydney | 3 | All Maps","protocol":17,"map":"pl_borneo","folder":"tf","game":"Team Fortress","app_id":440,"player_count":24,"max_players":24,"Bots":0,"server_type":"Dedicated","server_os":"Linux","password":true,"vac":true,"version":"7757534","steam_id":85568392925194467,"keywords":["nocrits","nodmgspread","payload","uncletopia"],"game_id":440,"stv_port":27036,"stv_name":"Uncletopia | Sydney | 3 | All Maps | STV","players":[{"user_id":193,"name":"The Dolmio Grin","steam_id":76561198011266693,"connected_time":770000000000,"state":"active","ping":61},{"user_id":151,"name":"Xelly","steam_id":76561198093250305,"connected_time":4587000000000,"state":"active","ping":77},{"user_id":197,"name":"TheSticky_Studio","steam_id":76561198428683022,"connected_time":607000000000,"state":"active","ping":177},{"user_id":150,"name":"Livid","steam_id":76561198060024585,"connected_time":4866000000000,"state":"active","ping":38},{"user_id":131,"name":"DACHIDAY","steam_id":76561198068308861,"connected_time":5979000000000,"state":"active","ping":70},{"user_id":163,"name":"Bill Nye","steam_id":76561198312898168,"connected_time":3266000000000,"state":"active","ping":55},{"user_id":199,"name":"Fluffy B‏unny","steam_id":76561198825973745,"connected_time":553000000000,"state":"active","ping":72},{"user_id":182,"name":"DrFrothy","steam_id":76561197999467458,"connected_time":2205000000000,"state":"active","ping":73},{"user_id":192,"name":"Beehive","steam_id":76561199436707447,"connected_time":816000000000,"state":"active","ping":58},{"user_id":201,"name":"The Great Cheese Consumer","steam_id":76561198217908900,"connected_time":307000000000,"state":"active","ping":71},{"user_id":149,"name":"BLORZINGUS","steam_id":76561198063481761,"connected_time":4870000000000,"state":"active","ping":41},{"user_id":179,"name":"KenOAndStuff","steam_id":76561198438165878,"connected_time":2317000000000,"state":"active","ping":157},{"user_id":174,"name":"Marmalade Cat","steam_id":76561198086309767,"connected_time":2691000000000,"state":"active","ping":67},{"user_id":190,"name":"skye","steam_id":76561198037129845,"connected_time":970000000000,"state":"active","ping":58},{"user_id":200,"name":"maximind123","steam_id":76561199237473824,"connected_time":531000000000,"state":"active","ping":49},{"user_id":121,"name":"Timon","steam_id":76561198055509223,"connected_time":6340000000000,"state":"active","ping":70},{"user_id":117,"name":"LightningBlock","steam_id":76561198289997742,"connected_time":6462000000000,"state":"active","ping":38},{"user_id":191,"name":"manks","steam_id":76561198112996055,"connected_time":897000000000,"state":"active","ping":66},{"user_id":203,"name":"Microwaved Dave","steam_id":76561197998592005,"connected_time":171000000000,"state":"active","ping":80},{"user_id":143,"name":"EpicGuy4227","steam_id":76561198094132328,"connected_time":5485000000000,"state":"active","ping":52},{"user_id":204,"name":"Pew pew pew!","steam_id":76561198004120277,"connected_time":163000000000,"state":"active","ping":46},{"user_id":206,"name":"var","steam_id":76561198164892406,"connected_time":38000000000,"state":"active","ping":61},{"user_id":184,"name":"Warren","steam_id":76561198120350917,"connected_time":2119000000000,"state":"active","ping":45},{"user_id":189,"name":"Tricka •","steam_id":76561197968440123,"connected_time":1678000000000,"state":"active","ping":45}]},{"server_id":396,"name":"Uncletopia | Sydney | 4 | All Maps","name_short":"syd-4","host":"syd-1.au.uncletopia.com","port":27045,"enabled":true,"region":"au","cc":"au","latitude":-33.865143,"longitude":151.2099,"reserved":0,"last_update":"0001-01-01T00:00:00Z","name_a2s":"Uncletopia | Sydney | 4 | All Maps","protocol":17,"map":"pl_snowycoast","folder":"tf","game":"Team Fortress","app_id":440,"player_count":0,"max_players":24,"Bots":0,"server_type":"Dedicated","server_os":"Linux","password":true,"vac":true,"version":"7757534","steam_id":85568392925397958,"keywords":["nocrits","nodmgspread","payload","uncletopia"],"game_id":440,"stv_port":27046,"stv_name":"Uncletopia | Sydney | 4 | All Maps | STV","players":null},{"server_id":58,"name":"Uncletopia | Sydney | 5 | Stopwatch Beta","name_short":"syd-5","host":"syd-1.au.uncletopia.com","port":27055,"enabled":true,"region":"au","cc":"au","latitude":-33.865143,"longitude":151.2099,"reserved":0,"last_update":"0001-01-01T00:00:00Z","name_a2s":"Uncletopia | Sydney | 5 | Stopwatch Beta","protocol":17,"map":"cp_gullywash_final1","folder":"tf","game":"Team Fortress","app_id":440,"player_count":0,"max_players":24,"Bots":0,"server_type":"Dedicated","server_os":"Linux","password":true,"vac":true,"version":"7757534","steam_id":85568392925397959,"keywords":["cp","nocrits","nodmgspread","uncletopia"],"game_id":440,"stv_port":27056,"stv_name":"Uncletopia | Sydney | 5 | Stopwatch Beta | STV","players":null},{"server_id":59,"name":"Uncletopia | Sydney | 6 | Community","name_short":"syd-6","host":"syd-1.au.uncletopia.com","port":27065,"enabled":true,"region":"au","cc":"au","latitude":-33.865143,"longitude":151.2099,"reserved":0,"last_update":"0001-01-01T00:00:00Z","name_a2s":"Uncletopia | Sydney | 6 | Community","protocol":17,"map":"workshop/pl_cactuscanyon_redux_final1.ugc2579644293","folder":"tf","game":"Team Fortress","app_id":440,"player_count":0,"max_players":24,"Bots":0,"server_type":"Dedicated","server_os":"Linux","password":true,"vac":true,"version":"7757534","steam_id":85568392925397960,"keywords":["nocrits","nodmgspread","payload","uncletopia"],"game_id":440,"stv_port":27066,"stv_name":"Uncletopia | Sydney | 6 | Community | STV","players":null},{"server_id":49,"name":"Uncletopia | Warsaw | 1 | All Maps","name_short":"waw-1","host":"waw-1.pl.uncletopia.com","port":27015,"enabled":true,"region":"eu","cc":"pl","latitude":52.2297,"longitude":21.017532,"reserved":0,"last_update":"0001-01-01T00:00:00Z","name_a2s":"","protocol":0,"map":"","folder":"","game":"","app_id":0,"player_count":0,"max_players":0,"Bots":0,"server_type":"","server_os":"","password":false,"vac":false,"version":"","steam_id":0,"keywords":null,"game_id":0,"stv_port":0,"stv_name":"","players":null},{"server_id":50,"name":"Uncletopia | Warsaw | 2 | All Maps","name_short":"waw-2","host":"waw-1.pl.uncletopia.com","port":27025,"enabled":true,"region":"eu","cc":"pl","latitude":52.2297,"longitude":21.017532,"reserved":0,"last_update":"0001-01-01T00:00:00Z","name_a2s":"Uncletopia | Warsaw | 2 | All Maps","protocol":17,"map":"pl_upward","folder":"tf","game":"Team Fortress","app_id":440,"player_count":0,"max_players":24,"Bots":0,"server_type":"Dedicated","server_os":"Linux","password":true,"vac":true,"version":"7757534","steam_id":85568392925397851,"keywords":["nocrits","nodmgspread","payload","uncletopia"],"game_id":440,"stv_port":27026,"stv_name":"Uncletopia | Warsaw | 2 | All Maps | STV","players":null},{"server_id":51,"name":"Uncletopia | Warsaw | 3 | All Maps","name_short":"waw-3","host":"waw-1.pl.uncletopia.com","port":27035,"enabled":true,"region":"eu","cc":"pl","latitude":52.2297,"longitude":21.017532,"reserved":0,"last_update":"0001-01-01T00:00:00Z","name_a2s":"Uncletopia | Warsaw | 3 | All Maps","protocol":17,"map":"pl_barnblitz","folder":"tf","game":"Team Fortress","app_id":440,"player_count":0,"max_players":24,"Bots":0,"server_type":"Dedicated","server_os":"Linux","password":true,"vac":true,"version":"7757534","steam_id":85568392925397852,"keywords":["nocrits","nodmgspread","payload","uncletopia"],"game_id":440,"stv_port":27036,"stv_name":"Uncletopia | Warsaw | 3 | All Maps | STV","players":null},{"server_id":52,"name":"Uncletopia | Warsaw | 4 | All Maps","name_short":"waw-4","host":"waw-1.pl.uncletopia.com","port":27045,"enabled":true,"region":"eu","cc":"pl","latitude":52.2297,"longitude":21.017532,"reserved":0,"last_update":"0001-01-01T00:00:00Z","name_a2s":"Uncletopia | Warsaw | 4 | All Maps","protocol":17,"map":"cp_altitude","folder":"tf","game":"Team Fortress","app_id":440,"player_count":0,"max_players":24,"Bots":0,"server_type":"Dedicated","server_os":"Linux","password":true,"vac":true,"version":"7757534","steam_id":85568392925397853,"keywords":["cp","nocrits","nodmgspread","uncletopia"],"game_id":440,"stv_port":27046,"stv_name":"Uncletopia | Warsaw | 4 | All Maps | STV","players":null},{"server_id":53,"name":"Uncletopia | Warsaw | 5 | Stopwatch Beta","name_short":"waw-5","host":"waw-1.pl.uncletopia.com","port":27055,"enabled":true,"region":"eu","cc":"pl","latitude":52.2297,"longitude":21.017532,"reserved":0,"last_update":"0001-01-01T00:00:00Z","name_a2s":"Uncletopia | Warsaw | 5 | Stopwatch Beta","protocol":17,"map":"pl_pier","folder":"tf","game":"Team Fortress","app_id":440,"player_count":0,"max_players":24,"Bots":0,"server_type":"Dedicated","server_os":"Linux","password":true,"vac":true,"version":"7757534","steam_id":85568392925397854,"keywords":["nocrits","nodmgspread","payload","uncletopia"],"game_id":440,"stv_port":27056,"stv_name":"Uncletopia | Warsaw | 5 | Stopwatch Beta | STV","players":null},{"server_id":54,"name":"Uncletopia | Warsaw | 6 | Community","name_short":"waw-6","host":"waw-1.pl.uncletopia.com","port":27065,"enabled":true,"region":"eu","cc":"pl","latitude":52.2297,"longitude":21.017532,"reserved":0,"last_update":"0001-01-01T00:00:00Z","name_a2s":"Uncletopia | Warsaw | 6 | Community","protocol":17,"map":"koth_highpass","folder":"tf","game":"Team Fortress","app_id":440,"player_count":0,"max_players":24,"Bots":0,"server_type":"Dedicated","server_os":"Linux","password":true,"vac":true,"version":"7757534","steam_id":85568392925397856,"keywords":["cp","nocrits","nodmgspread","uncletopia"],"game_id":440,"stv_port":27066,"stv_name":"Uncletopia | Warsaw | 6 | Community | STV","players":null}]}