{"status":true,"message":"","result":[{"server_id":9,"name":"Uncletopia | Atlanta | 1 | All Maps","name_short":"atl-1","host":"atl-1.us.uncletopia.com","port":27015,"enabled":true,"region":"us-east","cc":"us","latitude":33.753746,"longitude":-84.38633,"reserved":0,"last_update":"0001-01-01T00:00:00Z","name_a2s":"Uncletopia | Atlanta | 1 | All Maps","protocol":17,"map":"koth_lakeside_final","folder":"tf","game":"Team Fortress","app_id":440,"player_count":0,"max_players":24,"Bots":0,"server_type":"Dedicated","server_os":"Linux","password":true,"vac":true,"version":"7961495","steam_id":85568392924469982,"keywords":["cp","nocrits","nodmgspread","uncletopia"],"game_id":440,"stv_port":27016,"stv_name":"Uncletopia | Atlanta | 1 | All Maps | STV","players":null},{"server_id":104,"name":"Uncletopia | Atlanta | 2 | All Maps","name_short":"atl-2","host":"atl-1.us.uncletopia.com","port":27025,"enabled":true,"region":"us-east","cc":"us","latitude":33.753746,"longitude":-84.38633,"reserved":0,"last_update":"0001-01-01T00:00:00Z","name_a2s":"Uncletopia | Atlanta | 2 | All Maps","protocol":17,"map":"koth_lakeside_final","folder":"tf","game":"Team Fortress","app_id":440,"player_count":0,"max_players":24,"Bots":0,"server_type":"Dedicated","server_os":"Linux","password":true,"vac":true,"version":"7961495","steam_id":85568392924469983,"keywords":["cp","nocrits","nodmgspread","uncletopia"],"game_id":440,"stv_port":27026,"stv_name":"Uncletopia | Atlanta | 2 | All Maps | STV","players":null},{"server_id":400,"name":"Uncletopia | Atlanta | 3 | Stopwatch","name_short":"atl-3","host":"atl-1.us.uncletopia.com","port":27035,"enabled":true,"region":"us-east","cc":"us","latitude":33.753746,"longitude":-84.38633,"reserved":0,"last_update":"0001-01-01T00:00:00Z","name_a2s":"Uncletopia | Atlanta | 3 | Stopwatch","protocol":17,"map":"pl_borneo","folder":"tf","game":"Team Fortress","app_id":440,"player_count":0,"max_players":24,"Bots":0,"server_type":"Dedicated","server_os":"Linux","password":true,"vac":true,"version":"7961495","steam_id":85568392924515187,"keywords":["nocrits","nodmgspread","payload","uncletopia"],"game_id":440,"stv_port":27036,"stv_name":"Uncletopia | Atlanta | 3 | Stopwatch | STV","players":null},{"server_id":401,"name":"Uncletopia | Atlanta | 4 | Community","name_short":"atl-4","host":"atl-1.us.uncletopia.com","port":27045,"enabled":true,"region":"us-east","cc":"us","latitude":33.753746,"longitude":-84.38633,"reserved":0,"last_update":"0001-01-01T00:00:00Z","name_a2s":"Uncletopia | Atlanta | 4 | Community","protocol":17,"map":"workshop/pl_badwater_pro_v12.ugc2142942074","folder":"tf","game":"Team Fortress","app_id":440,"player_count":0,"max_players":24,"Bots":0,"server_type":"Dedicated","server_os":"Linux","password":true,"vac":true,"version":"7961495","steam_id":85568392924515188,"keywords":["nocrits","nodmgspread","payload","uncletopia"],"game_id":440,"stv_port":27046,"stv_name":"Uncletopia | Atlanta | 4 | Community | STV","players":null},{"server_id":2,"name":"Uncletopia | Chicago | 1 | All Maps","name_short":"chi-1","host":"chi-1.us.uncletopia.com","port":27015,"enabled":true,"region":"us-central","cc":"us","latitude":41.881832,"longitude":-87.62318,"reserved":0,"last_update":"0001-01-01T00:00:00Z","name_a2s":"Uncletopia | Chicago | 1 | All Maps","protocol":17,"map":"pl_upward","folder":"tf","game":"Team Fortress","app_id":440,"player_count":24,"max_players":24,"Bots":0,"server_type":"Dedicated","server_os":"Linux","password":true,"vac":true,"version":"7961495","steam_id":85568392924469984,"keywords":["nocrits","nodmgspread","payload","uncletopia"],"game_id":440,"stv_port":27016,"stv_name":"Uncletopia | Chicago | 1 | All Maps | STV","players":[{"user_id":29,"name":"‚Åé‚Å∫À≥‚úßJordi Du Chat‚Åé‚Å∫\ufffd","steam_id":76561199486450881,"connected_time":4021000000000,"state":"active","ping":74},{"user_id":32,"name":"Jesus Burgess","steam_id":76561199343316814,"connected_time":2575000000000,"state":"active","ping":60},{"user_id":33,"name":"King De","steam_id":76561198194427422,"connected_time":2540000000000,"state":"active","ping":48},{"user_id":34,"name":"RandomRainbow","steam_id":76561199107573588,"connected_time":2398000000000,"state":"active","ping":48},{"user_id":38,"name":"Leeous","steam_id":76561198081083248,"connected_time":1806000000000,"state":"active","ping":95},{"user_id":36,"name":"S'ensored","steam_id":76561198385923402,"connected_time":1847000000000,"state":"active","ping":71},{"user_id":63,"name":"Menace to Sobriety","steam_id":76561198245103000,"connected_time":462000000000,"state":"active","ping":58},{"user_id":40,"name":"mateololero","steam_id":76561198852900219,"connected_time":1739000000000,"state":"active","ping":196},{"user_id":41,"name":"SlaaneshBish","steam_id":76561198323219832,"connected_time":1717000000000,"state":"active","ping":49},{"user_id":42,"name":"Jotman","steam_id":76561198302202478,"connected_time":1695000000000,"state":"active","ping":157},{"user_id":43,"name":"yer_nerd","steam_id":76561199435454093,"connected_time":1691000000000,"state":"active","ping":69},{"user_id":64,"name":"Mirro","steam_id":76561198042182392,"connected_time":447000000000,"state":"active","ping":59},{"user_id":45,"name":"Damien","steam_id":76561198387750828,"connected_time":1679000000000,"state":"active","ping":74},{"user_id":65,"name":"Hulkster","steam_id":76561198278156353,"connected_time":444000000000,"state":"active","ping":118},{"user_id":48,"name":"Dottie [She/They]","steam_id":76561198282046179,"connected_time":1536000000000,"state":"active","ping":74},{"user_id":50,"name":"Stacks63bs","steam_id":76561198067797130,"connected_time":1450000000000,"state":"active","ping":74},{"user_id":66,"name":"Pickles","steam_id":76561198019957205,"connected_time":423000000000,"state":"active","ping":83},{"user_id":52,"name":"Lily (she/her)","steam_id":76561198355495948,"connected_time":1327000000000,"state":"active","ping":75},{"user_id":68,"name":"harv (LMAOBOX USER)","steam_id":76561199224251631,"connected_time":33000000000,"state":"active","ping":53},{"user_id":54,"name":"That Girl With A K","steam_id":76561198317602350,"connected_time":1238000000000,"state":"active","ping":71},{"user_id":55,"name":"Gotta Move That Gear Up","steam_id":76561197993467034,"connected_time":1227000000000,"state":"active","ping":54},{"user_id":56,"name":"Congcrab","steam_id":76561198078687685,"connected_time":1226000000000,"state":"active","ping":74},{"user_id":58,"name":"Tommy Pickles (Very ____)","steam_id":76561198391261463,"connected_time":1175000000000,"state":"active","ping":67},{"user_id":62,"name":"asdasdasdasdasd","steam_id":76561198129682583,"connected_time":523000000000,"state":"active","ping":75}]},{"server_id":106,"name":"Uncletopia | Chicago | 2 | All Maps","name_short":"chi-2","host":"chi-1.us.uncletopia.com","port":27025,"enabled":true,"region":"us-central","cc":"us","latitude":41.881832,"longitude":-87.62318,"reserved":0,"last_update":"0001-01-01T00:00:00Z","name_a2s":"Uncletopia | Chicago | 2 | All Maps","protocol":17,"map":"pl_swiftwater_final1","folder":"tf","game":"Team Fortress","app_id":440,"player_count":24,"max_players":24,"Bots":0,"server_type":"Dedicated","server_os":"Linux","password":true,"vac":true,"version":"7961495","steam_id":85568392924469985,"keywords":["nocrits","nodmgspread","payload","uncletopia"],"game_id":440,"stv_port":27026,"stv_name":"Uncletopia | Chicago | 2 | All Maps | STV","players":[{"user_id":114,"name":"frogg","steam_id":76561199088502372,"connected_time":1032000000000,"state":"active","ping":116},{"user_id":132,"name":"Zinc","steam_id":76561198025303928,"connected_time":488000000000,"state":"active","ping":69},{"user_id":109,"name":"Mcmuffin124","steam_id":76561198077883022,"connected_time":1340000000000,"state":"active","ping":81},{"user_id":91,"name":"Gene Takovic","steam_id":76561198881039861,"connected_time":3867000000000,"state":"active","ping":45},{"user_id":118,"name":"Kit","steam_id":76561198109066142,"connected_time":851000000000,"state":"active","ping":74},{"user_id":73,"name":"JohnFMX","steam_id":76561198175608097,"connected_time":4940000000000,"state":"active","ping":65},{"user_id":119,"name":"pittypier","steam_id":76561199447222783,"connected_time":829000000000,"state":"active","ping":153},{"user_id":133,"name":"SEEJ","steam_id":76561198185520762,"connected_time":453000000000,"state":"active","ping":153},{"user_id":135,"name":"Gingoguy","steam_id":76561198088931297,"connected_time":0,"state":"spawning","ping":19},{"user_id":120,"name":"Lennu","steam_id":76561198060730154,"connected_time":808000000000,"state":"active","ping":75},{"user_id":75,"name":"Tobo","steam_id":76561198085846393,"connected_time":4797000000000,"state":"active","ping":89},{"user_id":121,"name":"Œõlex","steam_id":76561198024967421,"connected_time":773000000000,"state":"active","ping":92},{"user_id":123,"name":"Ariana","steam_id":76561198271982086,"connected_time":698000000000,"state":"active","ping":59},{"user_id":124,"name":"contrasted red","steam_id":76561198305271450,"connected_time":644000000000,"state":"active","ping":59},{"user_id":83,"name":"Typh","steam_id":76561198315344079,"connected_time":4380000000000,"state":"active","ping":77},{"user_id":126,"name":"crow","steam_id":76561198444371121,"connected_time":613000000000,"state":"active","ping":78},{"user_id":127,"name":"MondoDong","steam_id":76561197991400109,"connected_time":610000000000,"state":"active","ping":52},{"user_id":134,"name":"Mr Krembo","steam_id":76561199093060828,"connected_time":408000000000,"state":"active","ping":193},{"user_id":129,"name":"Kedata","steam_id":76561198047750050,"connected_time":592000000000,"state":"active","ping":46},{"user_id":130,"name":"Winter the Witchie","steam_id":76561198151971178,"connected_time":588000000000,"state":"active","ping":48},{"user_id":86,"name":"Your Local Queer Librarian","steam_id":76561198013077080,"connected_time":4333000000000,"state":"active","ping":50},{"user_id":131,"name":"Waaagh!","steam_id":76561197995317887,"connected_time":581000000000,"state":"active","ping":61},{"user_id":71,"name":"UnraveledCape24","steam_id":76561198189101857,"connected_time":5178000000000,"state":"active","ping":67}]},{"server_id":402,"name":"Uncletopia | Chicago | 3 | All Maps","name_short":"chi-3","host":"chi-1.us.uncletopia.com","port":27035,"enabled":true,"region":"us-central","cc":"us","latitude":41.881832,"longitude":-87.62318,"reserved":0,"last_update":"0001-01-01T00:00:00Z","name_a2s":"Uncletopia | Chicago | 3 | All Maps","protocol":17,"map":"plr_pipeline","folder":"tf","game":"Team Fortress","app_id":440,"player_count":0,"max_players":24,"Bots":0,"server_type":"Dedicated","server_os":"Linux","password":true,"vac":true,"version":"7961495","steam_id":85568392924515191,"keywords":["nocrits","nodmgspread","payload","uncletopia"],"game_id":440,"stv_port":27036,"stv_name":"Uncletopia | Chicago | 3 | All Maps | STV","players":null},{"server_id":403,"name":"Uncletopia | Chicago | 4 | All Maps","name_short":"chi-4","host":"chi-1.us.uncletopia.com","port":27045,"enabled":true,"region":"us-central","cc":"us","latitude":41.881832,"longitude":-87.62318,"reserved":0,"last_update":"0001-01-01T00:00:00Z","name_a2s":"Uncletopia | Chicago | 4 | All Maps","protocol":17,"map":"pl_rumford_event","folder":"tf","game":"Team Fortress","app_id":440,"player_count":4,"max_players":24,"Bots":0,"server_type":"Dedicated","server_os":"Linux","password":true,"vac":true,"version":"7961495","steam_id":85568392924515193,"keywords":["nocrits","nodmgspread","payload","uncletopia"],"game_id":440,"stv_port":27046,"stv_name":"Uncletopia | Chicago | 4 | All Maps | STV","players":[{"user_id":3,"name":"Sparky","steam_id":76561198086845464,"connected_time":1384000000000,"state":"active","ping":47},{"user_id":5,"name":"Kirsk","steam_id":76561198084397649,"connected_time":1182000000000,"state":"active","ping":55},{"user_id":7,"name":"The Hose on Upward","steam_id":76561197965092192,"connected_time":298000000000,"state":"active","ping":71},{"user_id":8,"name":"CaptainRex","steam_id":76561199468930886,"connected_time":292000000000,"state":"active","ping":65}]},{"server_id":36,"name":"Uncletopia | Chicago | 5 | All Maps","name_short":"chi-5","host":"chi-2.us.uncletopia.com","port":27015,"enabled":true,"region":"us-central","cc":"us","latitude":41.881832,"longitude":-87.62318,"reserved":0,"last_update":"0001-01-01T00:00:00Z","name_a2s":"Uncletopia | Chicago | 5 | All Maps","protocol":17,"map":"pl_borneo","folder":"tf","game":"Team Fortress","app_id":440,"player_count":0,"max_players":24,"Bots":0,"server_type":"Dedicated","server_os":"Linux","password":true,"vac":true,"version":"7961495","steam_id":85568392924866362,"keywords":["nocrits","nodmgspread","payload","uncletopia"],"game_id":440,"stv_port":27016,"stv_name":"Uncletopia | Chicago | 5 | All Maps | STV","players":null},{"server_id":37,"name":"Uncletopia | Chicago | 6 | All Maps","name_short":"chi-6","host":"chi-2.us.uncletopia.com","port":27025,"enabled":true,"region":"us-central","cc":"us","latitude":41.881832,"longitude":-87.62318,"reserved":0,"last_update":"0001-01-01T00:00:00Z","name_a2s":"Uncletopia | Chicago | 6 | All Maps","protocol":17,"map":"pl_frontier_final","folder":"tf","game":"Team Fortress","app_id":440,"player_count":0,"max_players":24,"Bots":0,"server_type":"Dedicated","server_os":"Linux","password":true,"vac":true,"version":"7961495","steam_id":85568392924866363,"keywords":["nocrits","nodmgspread","payload","uncletopia"],"game_id":440,"stv_port":27026,"stv_name":"Uncletopia | Chicago | 6 | All Maps | STV","players":null},{"server_id":38,"name":"Uncletopia | Chicago | 7 | Stopwatch","name_short":"chi-7","host":"chi-2.us.uncletopia.com","port":27035,"enabled":true,"region":"us-central","cc":"us","latitude":41.881832,"longitude":-87.62318,"reserved":0,"last_update":"0001-01-01T00:00:00Z","name_a2s":"Uncletopia | Chicago | 7 | Stopwatch","protocol":17,"map":"cp_snakewater_final1","folder":"tf","game":"Team Fortress","app_id":440,"player_count":0,"max_players":24,"Bots":0,"server_type":"Dedicated","server_os":"Linux","password":true,"vac":true,"version":"7961495","steam_id":85568392924866364,"keywords":["cp","nocrits","nodmgspread","uncletopia"],"game_id":440,"stv_port":27036,"stv_name":"Uncletopia | Chicago | 7 | Stopwatch | STV","players":null},{"server_id":39,"name":"Uncletopia | Chicago | 8 | Community","name_short":"chi-8","host":"chi-2.us.uncletopia.com","port":27045,"enabled":true,"region":"us-central","cc":"us","latitude":41.881832,"longitude":-87.62318,"reserved":0,"last_update":"0001-01-01T00:00:00Z","name_a2s":"Uncletopia | Chicago | 8 | Community","protocol":17,"map":"workshop/koth_slaughter_rc1.ugc1712845210","folder":"tf","game":"Team Fortress","app_id":440,"player_count":0,"max_players":24,"Bots":0,"server_type":"Dedicated","server_os":"Linux","password":true,"vac":true,"version":"7961495","steam_id":85568392924866365,"keywords":["cp","nocrits","nodmgspread","uncletopia"],"game_id":440,"stv_port":27046,"stv_name":"Uncletopia | Chicago | 8 | Community | STV","players":null},{"server_id":8,"name":"Uncletopia | Dallas | 1 | All Maps","name_short":"dal-1","host":"dal-1.us.uncletopia.com","port":27015,"enabled":true,"region":"us-central","cc":"us","latitude":32.779167,"longitude":-96.80889,"reserved":0,"last_update":"0001-01-01T00:00:00Z","name_a2s":"Uncletopia | Dallas | 1 | All Maps","protocol":17,"map":"pl_upward","folder":"tf","game":"Team Fortress","app_id":440,"player_count":24,"max_players":24,"Bots":0,"server_type":"Dedicated","server_os":"Linux","password":true,"vac":true,"version":"7961495","steam_id":85568392924469986,"keywords":["nocrits","nodmgspread","payload","uncletopia"],"game_id":440,"stv_port":27016,"stv_name":"Uncletopia | Dallas | 1 | All Maps | STV","players":[{"user_id":44,"name":"Vortex","steam_id":76561198403036711,"connected_time":4097000000000,"state":"active","ping":74},{"user_id":88,"name":"Carry_This_Caulk","steam_id":76561198111054879,"connected_time":1436000000000,"state":"active","ping":69},{"user_id":103,"name":"runescape legend","steam_id":76561198077791373,"connected_time":556000000000,"state":"active","ping":73},{"user_id":86,"name":"Young Buck","steam_id":76561198113640715,"connected_time":1477000000000,"state":"active","ping":54},{"user_id":89,"name":"blablalbalba","steam_id":76561198034883199,"connected_time":1353000000000,"state":"active","ping":121},{"user_id":59,"name":"Insert Edgy Name","steam_id":76561197971948876,"connected_time":2304000000000,"state":"active","ping":76},{"user_id":53,"name":"Reverie","steam_id":76561198987005784,"connected_time":2631000000000,"state":"active","ping":85},{"user_id":104,"name":"Jimmy","steam_id":76561198857959855,"connected_time":529000000000,"state":"active","ping":81},{"user_id":84,"name":"boo boo keys","steam_id":76561197999318398,"connected_time":1718000000000,"state":"active","ping":113},{"user_id":91,"name":"weeee!","steam_id":76561198105374054,"connected_time":1204000000000,"state":"active","ping":101},{"user_id":92,"name":"Raizen","steam_id":76561199092445367,"connected_time":1173000000000,"state":"active","ping":71},{"user_id":60,"name":"motherfucker 2.0","steam_id":76561198141189209,"connected_time":2271000000000,"state":"active","ping":42},{"user_id":61,"name":"Gimme your Teeth","steam_id":76561198240523882,"connected_time":2260000000000,"state":"active","ping":78},{"user_id":99,"name":"Junowo","steam_id":76561199136179696,"connected_time":777000000000,"state":"active","ping":61},{"user_id":63,"name":"don","steam_id":76561198204410892,"connected_time":2229000000000,"state":"active","ping":56},{"user_id":95,"name":"salty","steam_id":76561198434494632,"connected_time":879000000000,"state":"active","ping":50},{"user_id":83,"name":"leesh","steam_id":76561198079603938,"connected_time":1730000000000,"state":"active","ping":59},{"user_id":101,"name":"spongebob high af","steam_id":76561198232046572,"connected_time":730000000000,"state":"active","ping":84},{"user_id":67,"name":"Ichibanprofen","steam_id":76561199192132061,"connected_time":2104000000000,"state":"active","ping":75},{"user_id":96,"name":"The Big Laugh","steam_id":76561199094873145,"connected_time":861000000000,"state":"active","ping":107},{"user_id":105,"name":"Eviscerator","steam_id":76561197980073637,"connected_time":521000000000,"state":"active","ping":82},{"user_id":97,"name":"Nazmir Boglord","steam_id":76561198162890584,"connected_time":859000000000,"state":"active","ping":85},{"user_id":106,"name":"Willham","steam_id":76561198065755781,"connected_time":513000000000,"state":"active","ping":68},{"user_id":102,"name":"Observer","steam_id":76561198326814067,"connected_time":726000000000,"state":"active","ping":74}]},{"server_id":108,"name":"Uncletopia | Dallas | 2 | All Maps","name_short":"dal-2","host":"dal-1.us.uncletopia.com","port":27025,"enabled":true,"region":"us-central","cc":"us","latitude":32.779167,"longitude":-96.80889,"reserved":0,"last_update":"0001-01-01T00:00:00Z","name_a2s":"Uncletopia | Dallas | 2 | All Maps","protocol":17,"map":"cp_mountainlab","folder":"tf","game":"Team Fortress","app_id":440,"player_count":0,"max_players":24,"Bots":0,"server_type":"Dedicated","server_os":"Linux","password":true,"vac":true,"version":"7961495","steam_id":85568392924469988,"keywords":["cp","nocrits","nodmgspread","uncletopia"],"game_id":440,"stv_port":27026,"stv_name":"Uncletopia | Dallas | 2 | All Maps | STV","players":null},{"server_id":404,"name":"Uncletopia | Dallas | 3 | All Maps","name_short":"dal-3","host":"dal-1.us.uncletopia.com","port":27035,"enabled":true,"region":"us-central","cc":"us","latitude":32.779167,"longitude":-96.80889,"reserved":0,"last_update":"0001-01-01T00:00:00Z","name_a2s":"Uncletopia | Dallas | 3 | All Maps","protocol":17,"map":"cp_coldfront","folder":"tf","game":"Team Fortress","app_id":440,"player_count":0,"max_players":24,"Bots":0,"server_type":"Dedicated","server_os":"Linux","password":true,"vac":true,"version":"7961495","steam_id":85568392924515219,"keywords":["cp","nocrits","nodmgspread","uncletopia"],"game_id":440,"stv_port":27036,"stv_name":"Uncletopia | Dallas | 3 | All Maps | STV","players":null},{"server_id":405,"name":"Uncletopia | Dallas | 4 | Community","name_short":"dal-4","host":"dal-1.us.uncletopia.com","port":27045,"enabled":true,"region":"us-central","cc":"us","latitude":32.779167,"longitude":-96.80889,"reserved":0,"last_update":"0001-01-01T00:00:00Z","name_a2s":"Uncletopia | Dallas | 4 | Community","protocol":17,"map":"workshop/koth_synthetic_rc6a.ugc1549817316","folder":"tf","game":"Team Fortress","app_id":440,"player_count":0,"max_players":24,"Bots":0,"server_type":"Dedicated","server_os":"Linux","password":true,"vac":true,"version":"7961495","steam_id":85568392924515220,"keywords":["cp","nocrits","nodmgspread","uncletopia"],"game_id":440,"stv_port":27046,"stv_name":"Uncletopia | Dallas | 4 | Community | STV","players":null},{"server_id":5,"name":"Uncletopia | Frankfurt | 1 | All Maps","name_short":"frk-1","host":"frk-1.de.uncletopia.com","port":27015,"enabled":true,"region":"eu","cc":"de","latitude":50.110924,"longitude":8.682127,"reserved":0,"last_update":"0001-01-01T00:00:00Z","name_a2s":"Uncletopia | Frankfurt | 1 | All Maps","protocol":17,"map":"pl_snowycoast","folder":"tf","game":"Team Fortress","app_id":440,"player_count":24,"max_players":24,"Bots":0,"server_type":"Dedicated","server_os":"Linux","password":true,"vac":true,"version":"7961495","steam_id":85568392924469989,"keywords":["nocrits","nodmgspread","payload","uncletopia"],"game_id":440,"stv_port":27016,"stv_name":"Uncletopia | Frankfurt | 1 | All Maps | STV","players":[{"user_id":234,"name":"Marukuso","steam_id":76561198154229845,"connected_time":1886000000000,"state":"active","ping":52},{"user_id":236,"name":"Sham!","steam_id":76561198050434275,"connected_time":1787000000000,"state":"active","ping":50},{"user_id":209,"name":"Purrplehaze","steam_id":76561198297604298,"connected_time":3133000000000,"state":"active","ping":60},{"user_id":237,"name":"willus212","steam_id":76561199182615246,"connected_time":1717000000000,"state":"active","ping":76},{"user_id":250,"name":"Alfred2.2","steam_id":76561198339314744,"connected_time":853000000000,"state":"active","ping":59},{"user_id":187,"name":"snake","steam_id":76561198077822932,"connected_time":4968000000000,"state":"active","ping":64},{"user_id":246,"name":"Hotdogs","steam_id":76561199112737347,"connected_time":1071000000000,"state":"active","ping":62},{"user_id":259,"name":"Fat Pigeon","steam_id":76561198817940142,"connected_time":399000000000,"state":"active","ping":53},{"user_id":190,"name":"kenzou","steam_id":76561199180054996,"connected_time":4783000000000,"state":"active","ping":49},{"user_id":92,"name":"Blar","steam_id":76561198042438229,"connected_time":13918000000000,"state":"active","ping":48},{"user_id":245,"name":"Kryastorm","steam_id":76561198045127892,"connected_time":1105000000000,"state":"active","ping":60},{"user_id":253,"name":"J√≥zef Pi≈Çsudski","steam_id":76561198084049405,"connected_time":814000000000,"state":"active","ping":94},{"user_id":158,"name":"y0stErCix","steam_id":76561198219698192,"connected_time":7211000000000,"state":"active","ping":60},{"user_id":172,"name":"dumo dumo","steam_id":76561198346638308,"connected_time":6142000000000,"state":"active","ping":52},{"user_id":251,"name":"Silverbolt","steam_id":76561198153165763,"connected_time":848000000000,"state":"active","ping":58},{"user_id":256,"name":"StylStanding","steam_id":76561198301294363,"connected_time":764000000000,"state":"active","ping":102},{"user_id":260,"name":"goop","steam_id":76561198190073005,"connected_time":264000000000,"state":"active","ping":60},{"user_id":254,"name":"quickfast","steam_id":76561199438900919,"connected_time":807000000000,"state":"active","ping":60},{"user_id":255,"name":"Bajas","steam_id":76561198179339326,"connected_time":806000000000,"state":"active","ping":75},{"user_id":247,"name":"CJ_from_Groove","steam_id":76561198889928743,"connected_time":1061000000000,"state":"active","ping":88},{"user_id":257,"name":"Catsanddogs123","steam_id":76561198030868386,"connected_time":577000000000,"state":"active","ping":112},{"user_id":242,"name":"$400 boyfriend juicer","steam_id":76561197965406928,"connected_time":1375000000000,"state":"active","ping":62},{"user_id":243,"name":"noah","steam_id":76561198099457089,"connected_time":1340000000000,"state":"active","ping":79}]},{"server_id":110,"name":"Uncletopia | Frankfurt | 2 | All Maps","name_short":"frk-2","host":"frk-1.de.uncletopia.com","port":27025,"enabled":true,"region":"eu","cc":"de","latitude":50.110924,"longitude":8.682127,"reserved":0,"last_update":"0001-01-01T00:00:00Z","name_a2s":"Uncletopia | Frankfurt | 2 | All Maps","protocol":17,"map":"pl_upward","folder":"tf","game":"Team Fortress","app_id":440,"player_count":24,"max_players":24,"Bots":0,"server_type":"Dedicated","server_os":"Linux","password":true,"vac":true,"version":"7961495","steam_id":85568392924469990,"keywords":["nocrits","nodmgspread","payload","uncletopia"],"game_id":440,"stv_port":27026,"stv_name":"Uncletopia | Frankfurt | 2 | All Maps | STV","players":[{"user_id":281,"name":"[Sheep] Tomco","steam_id":76561198388549261,"connected_time":931000000000,"state":"active","ping":70},{"user_id":277,"name":"GGlut","steam_id":76561198034281473,"connected_time":1183000000000,"state":"active","ping":41},{"user_id":205,"name":"dongy","steam_id":76561198050319619,"connected_time":5073000000000,"state":"active","ping":42},{"user_id":284,"name":"Dude Time","steam_id":76561198092991160,"connected_time":538000000000,"state":"active","ping":171},{"user_id":208,"name":"Involuntary colonoscopy","steam_id":76561198080956366,"connected_time":4995000000000,"state":"active","ping":75},{"user_id":252,"name":"aolkdi","steam_id":76561198025479415,"connected_time":2397000000000,"state":"active","ping":120},{"user_id":278,"name":"The One (and only)","steam_id":76561198827193499,"connected_time":1175000000000,"state":"active","ping":54},{"user_id":285,"name":"Bobe","steam_id":76561199006904215,"connected_time":531000000000,"state":"active","ping":77},{"user_id":286,"name":"Chinese Cat Gaming","steam_id":76561198155393989,"connected_time":525000000000,"state":"active","ping":53},{"user_id":292,"name":"Billy Herrington","steam_id":76561198205193503,"connected_time":383000000000,"state":"active","ping":75},{"user_id":275,"name":"Impusle_","steam_id":76561199001634963,"connected_time":1274000000000,"state":"active","ping":45},{"user_id":223,"name":"Maslina","steam_id":76561198835126486,"connected_time":3673000000000,"state":"active","ping":74},{"user_id":239,"name":"hoho","steam_id":76561198237378014,"connected_time":3046000000000,"state":"active","ping":74},{"user_id":287,"name":"oguz","steam_id":76561198085237031,"connected_time":515000000000,"state":"active","ping":92},{"user_id":288,"name":"Rather Competent Gibus","steam_id":76561199008809107,"connected_time":511000000000,"state":"active","ping":81},{"user_id":266,"name":"Yali_Ekstein","steam_id":76561199147884934,"connected_time":2045000000000,"state":"active","ping":100},{"user_id":276,"name":"OMG IS THAT SPY FROM TF2?","steam_id":76561199291684647,"connected_time":1254000000000,"state":"active","ping":65},{"user_id":248,"name":"dwarf man","steam_id":76561199501952182,"connected_time":2466000000000,"state":"active","ping":79},{"user_id":289,"name":"Enjoyer","steam_id":76561198147399855,"connected_time":482000000000,"state":"active","ping":181},{"user_id":244,"name":"Sun Cooch","steam_id":76561198404802096,"connected_time":2782000000000,"state":"active","ping":73},{"user_id":290,"name":"JetPackM","steam_id":76561199496973010,"connected_time":473000000000,"state":"active","ping":73},{"user_id":218,"name":"boneez","steam_id":76561198186800982,"connected_time":4021000000000,"state":"active","ping":60},{"user_id":250,"name":"legalize glue","steam_id":76561198191369066,"connected_time":2460000000000,"state":"active","ping":113}]},{"server_id":308,"name":"Uncletopia | Frankfurt | 3 | All Maps","name_short":"frk-3","host":"frk-1.de.uncletopia.com","port":27035,"enabled":true,"region":"eu","cc":"de","latitude":50.110924,"longitude":8.682127,"reserved":0,"last_update":"0001-01-01T00:00:00Z","name_a2s":"Uncletopia | Frankfurt | 3 | All Maps","protocol":17,"map":"pl_swiftwater_final1","folder":"tf","game":"Team Fortress","app_id":440,"player_count":0,"max_players":24,"Bots":0,"server_type":"Dedicated","server_os":"Linux","password":true,"vac":true,"version":"7961495","steam_id":85568392924504274,"keywords":["nocrits","nodmgspread","payload","uncletopia"],"game_id":440,"stv_port":27036,"stv_name":"Uncletopia | Frankfurt | 3 | All Maps | STV","players":null},{"server_id":309,"name":"Uncletopia | Frankfurt | 4 | All Maps","name_short":"frk-4","host":"frk-1.de.uncletopia.com","port":27045,"enabled":true,"region":"eu","cc":"de","latitude":50.110924,"longitude":8.682127,"reserved":0,"last_update":"0001-01-01T00:00:00Z","name_a2s":"Uncletopia | Frankfurt | 4 | All Maps","protocol":17,"map":"koth_viaduct","folder":"tf","game":"Team Fortress","app_id":440,"player_count":24,"max_players":24,"Bots":0,"server_type":"Dedicated","server_os":"Linux","password":true,"vac":true,"version":"7961495","steam_id":85568392924504275,"keywords":["cp","nocrits","nodmgspread","uncletopia"],"game_id":440,"stv_port":27046,"stv_name":"Uncletopia | Frankfurt | 4 | All Maps | STV","players":[{"user_id":114,"name":"bady_3","steam_id":76561199030975778,"connected_time":156000000000,"state":"active","ping":135},{"user_id":106,"name":"XPullaHiiri","steam_id":76561198031652375,"connected_time":228000000000,"state":"active","ping":83},{"user_id":110,"name":"Jonny J","steam_id":76561198027710849,"connected_time":199000000000,"state":"active","ping":75},{"user_id":115,"name":"PierraNova","steam_id":76561198145686102,"connected_time":139000000000,"state":"active","ping":55},{"user_id":87,"name":"Pestilence","steam_id":76561198140938904,"connected_time":1329000000000,"state":"active","ping":57},{"user_id":97,"name":"gio123wgio","steam_id":76561199114382953,"connected_time":792000000000,"state":"active","ping":96},{"user_id":92,"name":"Hobbes","steam_id":76561198258692634,"connected_time":1031000000000,"state":"active","ping":136},{"user_id":69,"name":"rudolph","steam_id":76561198057399765,"connected_time":1864000000000,"state":"active","ping":38},{"user_id":108,"name":"Slap pik og strit h√•r","steam_id":76561198154913480,"connected_time":202000000000,"state":"active","ping":45},{"user_id":109,"name":"HRTV","steam_id":76561198978457123,"connected_time":201000000000,"state":"active","ping":75},{"user_id":111,"name":"ùìüùì™ùìΩ","steam_id":76561198409650256,"connected_time":198000000000,"state":"active","ping":45},{"user_id":82,"name":"The Costandinos sup","steam_id":76561198314905760,"connected_time":1412000000000,"state":"active","ping":43},{"user_id":73,"name":"Commie Mommy","steam_id":76561198076230407,"connected_time":1794000000000,"state":"active","ping":62},{"user_id":103,"name":"Stegoratops","steam_id":76561198140306409,"connected_time":587000000000,"state":"active","ping":42},{"user_id":112,"name":"DiscoTraveler","steam_id":76561199240168088,"connected_time":177000000000,"state":"active","ping":122},{"user_id":60,"name":"Vazanoir","steam_id":76561198026693990,"connected_time":3204000000000,"state":"active","ping":47},{"user_id":90,"name":"mokou fumo ·óúÀ¨·óú","steam_id":76561199373956263,"connected_time":1137000000000,"state":"active","ping":45},{"user_id":116,"name":"Krow","steam_id":76561198817864089,"connected_time":137000000000,"state":"active","ping":77},{"user_id":62,"name":"Outer","steam_id":76561199085041734,"connected_time":2769000000000,"state":"active","ping":78},{"user_id":117,"name":"√∂√∂√∂√∂‚ú™","steam_id":76561198181645822,"connected_time":107000000000,"state":"active","ping":75},{"user_id":95,"name":"Charon","steam_id":76561198061714753,"connected_time":902000000000,"state":"active","ping":78},{"user_id":66,"name":"pandeux","steam_id":76561198343527617,"connected_time":2426000000000,"state":"active","ping":47},{"user_id":118,"name":"Underage Undertaker","steam_id":76561198130328543,"connected_time":52000000000,"state":"active","ping":129},{"user_id":100,"name":"Elek√°","steam_id":76561198065697495,"connected_time":726000000000,"state":"active","ping":79}]},{"server_id":310,"name":"Uncletopia | Frankfurt | 5 | All Maps","name_short":"frk-5","host":"frk-1.de.uncletopia.com","port":27055,"enabled":true,"region":"eu","cc":"de","latitude":50.110924,"longitude":8.682127,"reserved":0,"last_update":"0001-01-01T00:00:00Z","name_a2s":"Uncletopia | Frankfurt | 5 | All Maps","protocol":17,"map":"cp_process_final","folder":"tf","game":"Team Fortress","app_id":440,"player_count":24,"max_players":24,"Bots":0,"server_type":"Dedicated","server_os":"Linux","password":true,"vac":true,"version":"7961495","steam_id":85568392924504277,"keywords":["cp","nocrits","nodmgspread","uncletopia"],"game_id":440,"stv_port":27056,"stv_name":"Uncletopia | Frankfurt | 5 | All Maps | STV","players":[{"user_id":75,"name":"bathroom tile sawing torture","steam_id":76561198043601838,"connected_time":442000000000,"state":"active","ping":60},{"user_id":77,"name":"D.T. Katze","steam_id":76561198002280813,"connected_time":302000000000,"state":"active","ping":123},{"user_id":25,"name":"THEYAREINTHEWALLS","steam_id":76561198299161888,"connected_time":2538000000000,"state":"active","ping":71},{"user_id":69,"name":"YMIR","steam_id":76561198968979836,"connected_time":994000000000,"state":"active","ping":75},{"user_id":53,"name":"rosepinkyfuzz","steam_id":76561198018546334,"connected_time":1928000000000,"state":"active","ping":74},{"user_id":72,"name":"SpcG","steam_id":76561198445287430,"connected_time":487000000000,"state":"active","ping":78},{"user_id":30,"name":"FanFish","steam_id":76561199389558024,"connected_time":2441000000000,"state":"active","ping":51},{"user_id":67,"name":"Cencut","steam_id":76561198989449047,"connected_time":1084000000000,"state":"active","ping":153},{"user_id":64,"name":"Will","steam_id":76561198173329977,"connected_time":1227000000000,"state":"active","ping":72},{"user_id":35,"name":"M.C.Mcmuffins","steam_id":76561198068225535,"connected_time":2286000000000,"state":"active","ping":59},{"user_id":36,"name":"Atamagyar","steam_id":76561198143981477,"connected_time":2246000000000,"state":"active","ping":57},{"user_id":73,"name":"Vischan but worse","steam_id":76561199371650805,"connected_time":457000000000,"state":"active","ping":81},{"user_id":74,"name":"an idiot","steam_id":76561198172542535,"connected_time":449000000000,"state":"active","ping":83},{"user_id":39,"name":"The pooper","steam_id":76561198178962155,"connected_time":2233000000000,"state":"active","ping":57},{"user_id":79,"name":"Neimon","steam_id":76561198343485710,"connected_time":142000000000,"state":"active","ping":120},{"user_id":71,"name":"Crazy_Coconut7 #SaveTF2","steam_id":76561198977841836,"connected_time":744000000000,"state":"active","ping":46},{"user_id":59,"name":"Javier dorsaless","steam_id":76561198179324075,"connected_time":1583000000000,"state":"active","ping":70},{"user_id":70,"name":"Johnson","steam_id":76561199382978934,"connected_time":902000000000,"state":"active","ping":87},{"user_id":61,"name":"Majestic","steam_id":76561198120228738,"connected_time":1343000000000,"state":"active","ping":75},{"user_id":46,"name":"Lucki","steam_id":76561198410249745,"connected_time":2134000000000,"state":"active","ping":53},{"user_id":48,"name":"ambiwalentna","steam_id":76561199010825303,"connected_time":2019000000000,"state":"active","ping":74},{"user_id":68,"name":"Das K.","steam_id":76561198035461092,"connected_time":1073000000000,"state":"active","ping":54},{"user_id":52,"name":"The pisser","steam_id":76561198244153804,"connected_time":1972000000000,"state":"active","ping":60},{"user_id":51,"name":"G_raff","steam_id":76561199048512726,"connected_time":1984000000000,"state":"active","ping":75}]},{"server_id":311,"name":"Uncletopia | Frankfurt | 6 | All Maps","name_short":"frk-6","host":"frk-1.de.uncletopia.com","port":27065,"enabled":true,"region":"eu","cc":"de","latitude":50.110924,"longitude":8.682127,"reserved":0,"last_update":"0001-01-01T00:00:00Z","name_a2s":"Uncletopia | Frankfurt | 6 | All Maps","protocol":17,"map":"pl_borneo","folder":"tf","game":"Team Fortress","app_id":440,"player_count":24,"max_players":24,"Bots":0,"server_type":"Dedicated","server_os":"Linux","password":true,"vac":true,"version":"7961495","steam_id":85568392924504278,"keywords":["nocrits","nodmgspread","payload","uncletopia"],"game_id":440,"stv_port":27066,"stv_name":"Uncletopia | Frankfurt | 6 | All Maps | STV","players":[{"user_id":91,"name":"generic alias","steam_id":76561198271607226,"connected_time":2487000000000,"state":"active","ping":95},{"user_id":103,"name":"Vi100 Dol7","steam_id":76561198118137461,"connected_time":1678000000000,"state":"active","ping":74},{"user_id":84,"name":"Miki","steam_id":76561199147437603,"connected_time":2900000000000,"state":"active","ping":72},{"user_id":99,"name":"BORGETENNISCLUB","steam_id":76561198049343723,"connected_time":1757000000000,"state":"active","ping":67},{"user_id":118,"name":"Bonduelle#Savetf2","steam_id":76561199041992422,"connected_time":673000000000,"state":"active","ping":152},{"user_id":85,"name":"Lenupera**","steam_id":76561198172960435,"connected_time":2869000000000,"state":"active","ping":89},{"user_id":127,"name":"stepbro","steam_id":76561198119607160,"connected_time":60000000000,"state":"active","ping":60},{"user_id":98,"name":"WHISKY","steam_id":76561198079167358,"connected_time":2019000000000,"state":"active","ping":44},{"user_id":95,"name":"Larry Penus","steam_id":76561198207546233,"connected_time":2124000000000,"state":"active","ping":60},{"user_id":122,"name":"H√≥≈àa","steam_id":76561198096006081,"connected_time":351000000000,"state":"active","ping":48},{"user_id":126,"name":"Xanics","steam_id":76561198187813929,"connected_time":132000000000,"state":"active","ping":61},{"user_id":128,"name":"RcWaRÁì¶Â∞î","steam_id":76561198151619203,"connected_time":30000000000,"state":"active","ping":363},{"user_id":29,"name":"kingdead4","steam_id":76561198079576655,"connected_time":6251000000000,"state":"active","ping":59},{"user_id":109,"name":"paul?","steam_id":76561198965297084,"connected_time":1234000000000,"state":"active","ping":80},{"user_id":120,"name":"Archy","steam_id":76561198090609406,"connected_time":383000000000,"state":"active","ping":98},{"user_id":43,"name":"Step back","steam_id":76561198063855616,"connected_time":5957000000000,"state":"active","ping":75},{"user_id":112,"name":"SCRAMMMBLED","steam_id":76561197998307746,"connected_time":1053000000000,"state":"active","ping":56},{"user_id":115,"name":"czajnik","steam_id":76561198840758149,"connected_time":1021000000000,"state":"active","ping":104},{"user_id":123,"name":"monky","steam_id":76561198262152748,"connected_time":337000000000,"state":"active","ping":57},{"user_id":125,"name":"Paintbrush","steam_id":76561198119987705,"connected_time":218000000000,"state":"active","ping":54},{"user_id":65,"name":"weed fairy","steam_id":76561197998843096,"connected_time":4726000000000,"state":"active","ping":73},{"user_id":105,"name":"Mega Man Legends 3","steam_id":76561198014110199,"connected_time":1663000000000,"state":"active","ping":47},{"user_id":108,"name":"mesŒª","steam_id":76561198324582918,"connected_time":1371000000000,"state":"active","ping":101},{"user_id":114,"name":"Z VFQYRHFANTH","steam_id":76561198069530746,"connected_time":1045000000000,"state":"active","ping":152}]},{"server_id":23,"name":"Uncletopia | Frankfurt | 7 | Stopwatch","name_short":"frk-7","host":"frk-1.de.uncletopia.com","port":27075,"enabled":true,"region":"eu","cc":"de","latitude":50.110924,"longitude":8.682127,"reserved":0,"last_update":"0001-01-01T00:00:00Z","name_a2s":"Uncletopia | Frankfurt | 7 | Stopwatch","protocol":17,"map":"workshop/cp_process_f12.ugc2302948105","folder":"tf","game":"Team Fortress","app_id":440,"player_count":0,"max_players":24,"Bots":0,"server_type":"Dedicated","server_os":"Linux","password":true,"vac":true,"version":"7961495","steam_id":85568392924742827,"keywords":["cp","nocrits","nodmgspread","uncletopia"],"game_id":440,"stv_port":27076,"stv_name":"Uncletopia | Frankfurt | 7 | Stopwatch | STV","players":null},{"server_id":24,"name":"Uncletopia | Frankfurt | 8 | Community","name_short":"frk-8","host":"frk-1.de.uncletopia.com","port":27085,"enabled":true,"region":"eu","cc":"de","latitude":50.110924,"longitude":8.682127,"reserved":0,"last_update":"0001-01-01T00:00:00Z","name_a2s":"Uncletopia | Frankfurt | 8 | Community","protocol":17,"map":"workshop/pl_boundary_final1.ugc456799153","folder":"tf","game":"Team Fortress","app_id":440,"player_count":0,"max_players":24,"Bots":0,"server_type":"Dedicated","server_os":"Linux","password":true,"vac":true,"version":"7961495","steam_id":85568392924742828,"keywords":["nocrits","nodmgspread","payload","uncletopia"],"game_id":440,"stv_port":27086,"stv_name":"Uncletopia | Frankfurt | 8 | Community | STV","players":null},{"server_id":202,"name":"Uncletopia | Hong Kong | 1 | All Maps","name_short":"hgk-1","host":"hgk-1.hk.uncletopia.com","port":27015,"enabled":true,"region":"asia","cc":"hk","latitude":22.302711,"longitude":114.177216,"reserved":0,"last_update":"0001-01-01T00:00:00Z","name_a2s":"Uncletopia | Hong Kong | 1 | All Maps","protocol":17,"map":"pl_frontier_final","folder":"tf","game":"Team Fortress","app_id":440,"player_count":24,"max_players":24,"Bots":0,"server_type":"Dedicated","server_os":"Linux","password":true,"vac":true,"version":"7961495","steam_id":85568392924494504,"keywords":["nocrits","nodmgspread","payload","uncletopia"],"game_id":440,"stv_port":27016,"stv_name":"Uncletopia | Hong Kong | 1 | All Maps | STV","players":[{"user_id":283,"name":"ryder","steam_id":76561198797699056,"connected_time":186000000000,"state":"active","ping":100},{"user_id":253,"name":"Corn_Archer","steam_id":76561199185044554,"connected_time":2860000000000,"state":"active","ping":57},{"user_id":272,"name":"Just a Silly Cat","steam_id":76561198996443333,"connected_time":1250000000000,"state":"active","ping":76},{"user_id":251,"name":"j_rex","steam_id":76561198132473926,"connected_time":2876000000000,"state":"active","ping":58},{"user_id":262,"name":"Charling Chapli","steam_id":76561199120891678,"connected_time":2350000000000,"state":"active","ping":63},{"user_id":267,"name":"SupaBonkers4Life","steam_id":76561198369973927,"connected_time":1517000000000,"state":"active","ping":95},{"user_id":246,"name":"Averblu","steam_id":76561199480939609,"connected_time":3558000000000,"state":"active","ping":79},{"user_id":271,"name":"Minos Prime Reaction","steam_id":76561199475974790,"connected_time":1284000000000,"state":"active","ping":77},{"user_id":252,"name":"Puddin","steam_id":76561198140052918,"connected_time":2867000000000,"state":"active","ping":85},{"user_id":281,"name":"‚¨û","steam_id":76561199373637717,"connected_time":308000000000,"state":"active","ping":58},{"user_id":273,"name":"toad‚ô°","steam_id":76561198082199290,"connected_time":1240000000000,"state":"active","ping":46},{"user_id":274,"name":"cau be thieu nang","steam_id":76561199273435519,"connected_time":1099000000000,"state":"active","ping":70},{"user_id":150,"name":"TomCat","steam_id":76561198133744053,"connected_time":11412000000000,"state":"active","ping":113},{"user_id":214,"name":"brizzard","steam_id":76561198048438653,"connected_time":5864000000000,"state":"active","ping":44},{"user_id":198,"name":"ArcticDolphin","steam_id":76561198203626319,"connected_time":6800000000000,"state":"active","ping":153},{"user_id":276,"name":"Tommy Vercetti","steam_id":76561198332470619,"connected_time":528000000000,"state":"active","ping":151},{"user_id":240,"name":"AZAvixtion ‡∂û","steam_id":76561198175691381,"connected_time":4241000000000,"state":"active","ping":57},{"user_id":260,"name":"Chicken Biryani","steam_id":76561198112344525,"connected_time":2784000000000,"state":"active","ping":104},{"user_id":285,"name":"Groggie","steam_id":76561199085200364,"connected_time":59000000000,"state":"active","ping":57},{"user_id":248,"name":"StewB„ÉÑ","steam_id":76561198131423270,"connected_time":3424000000000,"state":"active","ping":76},{"user_id":261,"name":"special needs yoda","steam_id":76561199202028346,"connected_time":2419000000000,"state":"active","ping":117},{"user_id":161,"name":"Ivy","steam_id":76561198400698408,"connected_time":9544000000000,"state":"active","ping":96},{"user_id":136,"name":"Impetus","steam_id":76561198213031155,"connected_time":13326000000000,"state":"active","ping":104},{"user_id":270,"name":"boom","steam_id":76561199084484236,"connected_time":1415000000000,"state":"active","ping":63}]},{"server_id":1,"name":"Uncletopia | Los Angeles | 1 | All Maps","name_short":"lax-1","host":"lax-1.us.uncletopia.com","port":27015,"enabled":true,"region":"us-west","cc":"us","latitude":33.94279,"longitude":-118.41004,"reserved":0,"last_update":"0001-01-01T00:00:00Z","name_a2s":"Uncletopia | Los Angeles | 1 | All Maps","protocol":17,"map":"cp_gorge","folder":"tf","game":"Team Fortress","app_id":440,"player_count":0,"max_players":24,"Bots":0,"server_type":"Dedicated","server_os":"Linux","password":true,"vac":true,"version":"7961495","steam_id":85568392924469991,"keywords":["cp","nocrits","nodmgspread","uncletopia"],"game_id":440,"stv_port":27016,"stv_name":"Uncletopia | Los Angeles | 1 | All Maps | STV","players":null},{"server_id":112,"name":"Uncletopia | Los Angeles | 2 | All Maps","name_short":"lax-2","host":"lax-1.us.uncletopia.com","port":27025,"enabled":true,"region":"us-west","cc":"us","latitude":33.94279,"longitude":-118.41004,"reserved":0,"last_update":"0001-01-01T00:00:00Z","name_a2s":"Uncletopia | Los Angeles | 2 | All Maps","protocol":17,"map":"koth_cascade","folder":"tf","game":"Team Fortress","app_id":440,"player_count":0,"max_players":24,"Bots":0,"server_type":"Dedicated","server_os":"Linux","password":true,"vac":true,"version":"7961495","steam_id":85568392924469992,"keywords":["cp","nocrits","nodmgspread","uncletopia"],"game_id":440,"stv_port":27026,"stv_name":"Uncletopia | Los Angeles | 2 | All Maps | STV","players":null},{"server_id":324,"name":"Uncletopia | Los Angeles | 3 | All Maps","name_short":"lax-3","host":"lax-1.us.uncletopia.com","port":27035,"enabled":true,"region":"us-west","cc":"us","latitude":33.94279,"longitude":-118.41004,"reserved":0,"last_update":"0001-01-01T00:00:00Z","name_a2s":"Uncletopia | Los Angeles | 3 | All Maps","protocol":17,"map":"pl_hoodoo_final","folder":"tf","game":"Team Fortress","app_id":440,"player_count":0,"max_players":24,"Bots":0,"server_type":"Dedicated","server_os":"Linux","password":true,"vac":true,"version":"7961495","steam_id":85568392924510198,"keywords":["nocrits","nodmgspread","payload","uncletopia"],"game_id":440,"stv_port":27036,"stv_name":"Uncletopia | Los Angeles | 3 | All Maps | STV","players":null},{"server_id":25,"name":"Uncletopia | Los Angeles | 4 | Stopwatch","name_short":"lax-4","host":"lax-1.us.uncletopia.com","port":27045,"enabled":true,"region":"us-west","cc":"us","latitude":33.94279,"longitude":-118.41004,"reserved":0,"last_update":"0001-01-01T00:00:00Z","name_a2s":"Uncletopia | Los Angeles | 4 | Stopwatch","protocol":17,"map":"pl_upward","folder":"tf","game":"Team Fortress","app_id":440,"player_count":0,"max_players":24,"Bots":0,"server_type":"Dedicated","server_os":"Linux","password":true,"vac":true,"version":"7961495","steam_id":85568392924510199,"keywords":["nocrits","nodmgspread","payload","uncletopia"],"game_id":440,"stv_port":27046,"stv_name":"Uncletopia | Los Angeles | 4 | Stopwatch | STV","players":null},{"server_id":11,"name":"Uncletopia | London | 1 | All Maps","name_short":"lon-1","host":"lon-1.uk.uncletopia.com","port":27015,"enabled":true,"region":"eu","cc":"gb","latitude":51.509865,"longitude":-0.118092,"reserved":0,"last_update":"0001-01-01T00:00:00Z","name_a2s":"Uncletopia | London | 1 | All Maps","protocol":17,"map":"koth_nucleus","folder":"tf","game":"Team Fortress","app_id":440,"player_count":19,"max_players":24,"Bots":0,"server_type":"Dedicated","server_os":"Linux","password":true,"vac":true,"version":"7961495","steam_id":85568392924367362,"keywords":["cp","nocrits","nodmgspread","uncletopia"],"game_id":440,"stv_port":27016,"stv_name":"Uncletopia | London | 1 | All Maps | STV","players":[{"user_id":31,"name":" MyonMyonMyonMyonMyonMyon! ","steam_id":76561198271850252,"connected_time":1706000000000,"state":"active","ping":32},{"user_id":32,"name":"Marie ‚òò","steam_id":76561198105207050,"connected_time":1694000000000,"state":"active","ping":52},{"user_id":35,"name":"alecalove1112","steam_id":76561199235291566,"connected_time":975000000000,"state":"active","ping":102},{"user_id":42,"name":"unnamed","steam_id":76561198017518050,"connected_time":414000000000,"state":"active","ping":75},{"user_id":41,"name":"LEPTON","steam_id":76561198160251713,"connected_time":557000000000,"state":"active","ping":75},{"user_id":38,"name":"Rodak","steam_id":76561199135986344,"connected_time":766000000000,"state":"active","ping":56},{"user_id":43,"name":"sniper's kangaroo wife","steam_id":76561198334042273,"connected_time":276000000000,"state":"active","ping":41},{"user_id":44,"name":"Gorgeous George","steam_id":76561198144256544,"connected_time":251000000000,"state":"active","ping":48},{"user_id":45,"name":"hoza","steam_id":76561199115236634,"connected_time":247000000000,"state":"active","ping":170},{"user_id":46,"name":"eeezy","steam_id":76561198281521828,"connected_time":207000000000,"state":"active","ping":164},{"user_id":47,"name":"MistaMelon","steam_id":76561198001531915,"connected_time":193000000000,"state":"active","ping":50},{"user_id":48,"name":"super99coolman","steam_id":76561199249081889,"connected_time":138000000000,"state":"active","ping":137},{"user_id":49,"name":"Twik","steam_id":76561198023835056,"connected_time":91000000000,"state":"active","ping":59},{"user_id":50,"name":"Yuzu","steam_id":76561198121694613,"connected_time":72000000000,"state":"active","ping":49},{"user_id":52,"name":"waahh im baby gugu gaga im cry","steam_id":76561198190583242,"connected_time":22000000000,"state":"active","ping":96},{"user_id":53,"name":"Achterhoeker","steam_id":76561198051685232,"connected_time":22000000000,"state":"active","ping":41},{"user_id":54,"name":"Kwetch","steam_id":76561199405413425,"connected_time":21000000000,"state":"spawning","ping":169},{"user_id":55,"name":"Catsicle","steam_id":76561198054614761,"connected_time":3000000000,"state":"spawning","ping":32}]},{"server_id":114,"name":"Uncletopia | London | 2 | All Maps","name_short":"lon-2","host":"lon-1.uk.uncletopia.com","port":27025,"enabled":true,"region":"eu","cc":"gb","latitude":51.509865,"longitude":-0.118092,"reserved":0,"last_update":"0001-01-01T00:00:00Z","name_a2s":"Uncletopia | London | 2 | All Maps","protocol":17,"map":"cp_process_final","folder":"tf","game":"Team Fortress","app_id":440,"player_count":24,"max_players":24,"Bots":0,"server_type":"Dedicated","server_os":"Linux","password":true,"vac":true,"version":"7961495","steam_id":85568392924470941,"keywords":["cp","nocrits","nodmgspread","uncletopia"],"game_id":440,"stv_port":27026,"stv_name":"Uncletopia | London | 2 | All Maps | STV","players":[{"user_id":65,"name":"Charlie Brown","steam_id":76561199378865926,"connected_time":5035000000000,"state":"active","ping":74},{"user_id":67,"name":"Warmheart","steam_id":76561198044432133,"connected_time":4957000000000,"state":"active","ping":134},{"user_id":8,"name":"Personano","steam_id":76561198994355577,"connected_time":7734000000000,"state":"active","ping":46},{"user_id":142,"name":"Zed","steam_id":76561198188643754,"connected_time":485000000000,"state":"active","ping":78},{"user_id":90,"name":"Suolainen","steam_id":76561198133341026,"connected_time":2898000000000,"state":"active","ping":86},{"user_id":66,"name":"Wayan Vistar","steam_id":76561198354695464,"connected_time":5024000000000,"state":"active","ping":122},{"user_id":128,"name":"Zamorocian","steam_id":76561198076604017,"connected_time":1579000000000,"state":"active","ping":42},{"user_id":146,"name":"Hero + Rico","steam_id":76561198023844754,"connected_time":258000000000,"state":"active","ping":61},{"user_id":148,"name":"romaingallo","steam_id":76561198268112907,"connected_time":14000000000,"state":"spawning","ping":59},{"user_id":70,"name":"KhornateDoom","steam_id":76561198127530619,"connected_time":4890000000000,"state":"active","ping":50},{"user_id":136,"name":"–∫–∞—Ä–∞—Å–∏–∫","steam_id":76561197971140507,"connected_time":1143000000000,"state":"active","ping":87},{"user_id":139,"name":"Fearly","steam_id":76561198798684016,"connected_time":719000000000,"state":"active","ping":53},{"user_id":143,"name":"‚ù§Luna Bee‚ù§","steam_id":76561199230209215,"connected_time":452000000000,"state":"active","ping":43},{"user_id":133,"name":"Lord King Pie 2","steam_id":76561198136886146,"connected_time":1517000000000,"state":"active","ping":48},{"user_id":110,"name":"Udinese Dion","steam_id":76561198067931573,"connected_time":2460000000000,"state":"active","ping":63},{"user_id":22,"name":"Storm","steam_id":76561198313933163,"connected_time":7448000000000,"state":"active","ping":71},{"user_id":123,"name":"da accident","steam_id":76561198169798649,"connected_time":2233000000000,"state":"active","ping":85},{"user_id":125,"name":"ImABush","steam_id":76561198304471896,"connected_time":2012000000000,"state":"active","ping":54},{"user_id":96,"name":"gitlitwitit","steam_id":76561197980019054,"connected_time":2747000000000,"state":"active","ping":60},{"user_id":132,"name":"Fierce Badger","steam_id":76561199472716472,"connected_time":1537000000000,"state":"active","ping":55},{"user_id":134,"name":"jaredIV","steam_id":76561198336876675,"connected_time":1492000000000,"state":"active","ping":48},{"user_id":135,"name":"Laru","steam_id":76561197998838438,"connected_time":1346000000000,"state":"active","ping":83},{"user_id":141,"name":"GM","steam_id":76561198014733498,"connected_time":504000000000,"state":"active","ping":146},{"user_id":138,"name":"the joy of recycling","steam_id":76561198138509827,"connected_time":841000000000,"state":"active","ping":81}]},{"server_id":320,"name":"Uncletopia | London | 3 | All Maps","name_short":"lon-3","host":"lon-1.uk.uncletopia.com","port":27035,"enabled":true,"region":"eu","cc":"gb","latitude":51.509865,"longitude":-0.118092,"reserved":0,"last_update":"0001-01-01T00:00:00Z","name_a2s":"Uncletopia | London | 3 | All Maps","protocol":17,"map":"pl_frontier_final","folder":"tf","game":"Team Fortress","app_id":440,"player_count":0,"max_players":24,"Bots":0,"server_type":"Dedicated","server_os":"Linux","password":true,"vac":true,"version":"7961495","steam_id":85568392924510192,"keywords":["nocrits","nodmgspread","payload","uncletopia"],"game_id":440,"stv_port":27036,"stv_name":"Uncletopia | London | 3 | All Maps | STV","players":null},{"server_id":321,"name":"Uncletopia | London | 4 | All Maps","name_short":"lon-4","host":"lon-1.uk.uncletopia.com","port":27045,"enabled":true,"region":"eu","cc":"gb","latitude":51.509865,"longitude":-0.118092,"reserved":0,"last_update":"0001-01-01T00:00:00Z","name_a2s":"Uncletopia | London | 4 | All Maps","protocol":17,"map":"pl_borneo","folder":"tf","game":"Team Fortress","app_id":440,"player_count":0,"max_players":24,"Bots":0,"server_type":"Dedicated","server_os":"Linux","password":true,"vac":true,"version":"7961495","steam_id":85568392924510193,"keywords":["nocrits","nodmgspread","payload","uncletopia"],"game_id":440,"stv_port":27046,"stv_name":"Uncletopia | London | 4 | All Maps | STV","players":null},{"server_id":21,"name":"Uncletopia | London | 5 | All Maps","name_short":"lon-5","host":"lon-1.uk.uncletopia.com","port":27055,"enabled":true,"region":"eu","cc":"gb","latitude":51.509865,"longitude":-0.118092,"reserved":0,"last_update":"0001-01-01T00:00:00Z","name_a2s":"Uncletopia | London | 5 | All Maps","protocol":17,"map":"koth_suijin","folder":"tf","game":"Team Fortress","app_id":440,"player_count":23,"max_players":24,"Bots":0,"server_type":"Dedicated","server_os":"Linux","password":true,"vac":true,"version":"7961495","steam_id":85568392924742829,"keywords":["cp","nocrits","nodmgspread","uncletopia"],"game_id":440,"stv_port":27056,"stv_name":"Uncletopia | London | 5 | All Maps | STV","players":[{"user_id":295,"name":"ggwp","steam_id":76561199141037141,"connected_time":2188000000000,"state":"active","ping":78},{"user_id":269,"name":"M","steam_id":76561199220785307,"connected_time":3219000000000,"state":"active","ping":160},{"user_id":305,"name":"Allochtoon","steam_id":76561198205021293,"connected_time":1305000000000,"state":"active","ping":45},{"user_id":315,"name":"Sivik","steam_id":76561198370329466,"connected_time":237000000000,"state":"active","ping":53},{"user_id":282,"name":"jaipwgjkmasentpedoapinwhipkaw","steam_id":76561198046873337,"connected_time":2647000000000,"state":"active","ping":53},{"user_id":272,"name":"swayze","steam_id":76561198141744030,"connected_time":3149000000000,"state":"active","ping":56},{"user_id":316,"name":"new folder","steam_id":76561198035125667,"connected_time":230000000000,"state":"active","ping":87},{"user_id":325,"name":"psu","steam_id":76561198094652091,"connected_time":66000000000,"state":"spawning","ping":100},{"user_id":317,"name":"AleXandriX","steam_id":76561198035203950,"connected_time":224000000000,"state":"active","ping":75},{"user_id":323,"name":"soney","steam_id":76561198121177512,"connected_time":115000000000,"state":"active","ping":57},{"user_id":292,"name":"‚ù§ToxicAngel‚ù§","steam_id":76561198062208751,"connected_time":2261000000000,"state":"active","ping":47},{"user_id":318,"name":"Watermelon","steam_id":76561198078349914,"connected_time":223000000000,"state":"active","ping":56},{"user_id":320,"name":"alibi","steam_id":76561198079490000,"connected_time":146000000000,"state":"active","ping":60},{"user_id":288,"name":"milkman","steam_id":76561198131031404,"connected_time":2584000000000,"state":"active","ping":95},{"user_id":293,"name":"ShadowTwin","steam_id":76561198046658200,"connected_time":2201000000000,"state":"active","ping":44},{"user_id":322,"name":"TPC","steam_id":76561198127380768,"connected_time":129000000000,"state":"active","ping":63},{"user_id":241,"name":"Artha","steam_id":76561198198453253,"connected_time":3934000000000,"state":"active","ping":74},{"user_id":324,"name":"The Mage","steam_id":76561198019147244,"connected_time":86000000000,"state":"active","ping":75},{"user_id":326,"name":"Bogavante","steam_id":76561198105352044,"connected_time":43000000000,"state":"active","ping":56},{"user_id":192,"name":"Carter","steam_id":76561198005243938,"connected_time":4704000000000,"state":"active","ping":69},{"user_id":309,"name":"Akuma's Balls","steam_id":76561198030612444,"connected_time":818000000000,"state":"active","ping":47},{"user_id":327,"name":"Darkusto","steam_id":76561198294456531,"connected_time":29000000000,"state":"active","ping":40},{"user_id":289,"name":"Welder","steam_id":76561198355300561,"connected_time":2580000000000,"state":"active","ping":71}]},{"server_id":22,"name":"Uncletopia | London | 6 | All Maps","name_short":"lon-6","host":"lon-1.uk.uncletopia.com","port":27065,"enabled":true,"region":"eu","cc":"gb","latitude":51.509865,"longitude":-0.118092,"reserved":0,"last_update":"0001-01-01T00:00:00Z","name_a2s":"Uncletopia | London | 6 | All Maps","protocol":17,"map":"cp_snakewater_final1","folder":"tf","game":"Team Fortress","app_id":440,"player_count":0,"max_players":24,"Bots":0,"server_type":"Dedicated","server_os":"Linux","password":true,"vac":true,"version":"7961495","steam_id":85568392924742830,"keywords":["cp","nocrits","nodmgspread","uncletopia"],"game_id":440,"stv_port":27066,"stv_name":"Uncletopia | London | 6 | All Maps | STV","players":null},{"server_id":40,"name":"Uncletopia | London | 7 | Stopwatch","name_short":"lon-7","host":"lon-1.uk.uncletopia.com","port":27075,"enabled":true,"region":"eu","cc":"gb","latitude":51.509865,"longitude":-0.118092,"reserved":0,"last_update":"0001-01-01T00:00:00Z","name_a2s":"Uncletopia | London | 7 | Stopwatch","protocol":17,"map":"workshop/pl_badwater_pro_v12.ugc2142942074","folder":"tf","game":"Team Fortress","app_id":440,"player_count":0,"max_players":24,"Bots":0,"server_type":"Dedicated","server_os":"Linux","password":true,"vac":true,"version":"7961495","steam_id":85568392924964314,"keywords":["nocrits","nodmgspread","payload","uncletopia"],"game_id":440,"stv_port":27076,"stv_name":"Uncletopia | London | 7 | Stopwatch | STV","players":null},{"server_id":41,"name":"Uncletopia | London | 8 | Community","name_short":"lon-8","host":"lon-1.uk.uncletopia.com","port":27085,"enabled":true,"region":"eu","cc":"gb","latitude":51.509865,"longitude":-0.118092,"reserved":0,"last_update":"0001-01-01T00:00:00Z","name_a2s":"Uncletopia | London | 8 | Community","protocol":17,"map":"workshop/pl_boundary_final1.ugc456799153","folder":"tf","game":"Team Fortress","app_id":440,"player_count":0,"max_players":24,"Bots":0,"server_type":"Dedicated","server_os":"Linux","password":true,"vac":true,"version":"7961495","steam_id":85568392924964315,"keywords":["nocrits","nodmgspread","payload","uncletopia"],"game_id":440,"stv_port":27086,"stv_name":"Uncletopia | London | 8 | Community | STV","players":null},{"server_id":300,"name":"Uncletopia | Montr√©al | 1 | One Thousand Uncles","name_short":"mtl-1","host":"mtl-1.ca.uncletopia.com","port":27015,"enabled":true,"region":"us-east","cc":"ca","latitude":45.50889,"longitude":-73.56167,"reserved":0,"last_update":"0001-01-01T00:00:00Z","name_a2s":"Uncletopia | Montr√©al | 1 | One Thousand Uncles","protocol":17,"map":"cp_mercenarypark","folder":"tf","game":"Team Fortress","app_id":440,"player_count":0,"max_players":32,"Bots":0,"server_type":"Dedicated","server_os":"Linux","password":true,"vac":true,"version":"7961495","steam_id":85568392924500087,"keywords":["alltalk","cp","danepve","increased_maxplayers","norespawntime","uncletopia"],"game_id":440,"stv_port":0,"stv_name":"","players":null},{"server_id":301,"name":"Uncletopia | Montr√©al | 2 | One Thousand Uncles","name_short":"mtl-2","host":"mtl-1.ca.uncletopia.com","port":27025,"enabled":true,"region":"us-east","cc":"ca","latitude":45.50889,"longitude":-73.56167,"reserved":0,"last_update":"0001-01-01T00:00:00Z","name_a2s":"Uncletopia | Montr√©al | 2 | One Thousand Uncles","protocol":17,"map":"pl_chilly","folder":"tf","game":"Team Fortress","app_id":440,"player_count":0,"max_players":32,"Bots":0,"server_type":"Dedicated","server_os":"Linux","password":true,"vac":true,"version":"7961495","steam_id":85568392924500088,"keywords":["alltalk","danepve","increased_maxplayers","norespawntime","payload","uncletopia"],"game_id":440,"stv_port":0,"stv_name":"","players":null},{"server_id":302,"name":"Uncletopia | Montr√©al | 3 | One Thousand Uncles","name_short":"mtl-3","host":"mtl-1.ca.uncletopia.com","port":27035,"enabled":true,"region":"us-east","cc":"ca","latitude":45.50889,"longitude":-73.56167,"reserved":0,"last_update":"0001-01-01T00:00:00Z","name_a2s":"Uncletopia | Montr√©al | 3 | One Thousand Uncles","protocol":17,"map":"pl_upward","folder":"tf","game":"Team Fortress","app_id":440,"player_count":0,"max_players":32,"Bots":0,"server_type":"Dedicated","server_os":"Linux","password":true,"vac":true,"version":"7961495","steam_id":85568392924500089,"keywords":["alltalk","danepve","increased_maxplayers","norespawntime","payload","uncletopia"],"game_id":440,"stv_port":0,"stv_name":"","players":null},{"server_id":13,"name":"Uncletopia | New York City | 1 | All Maps","name_short":"nyc-1","host":"nyc-1.us.uncletopia.com","port":27015,"enabled":true,"region":"us-east","cc":"us","latitude":40.73061,"longitude":-73.93524,"reserved":0,"last_update":"0001-01-01T00:00:00Z","name_a2s":"Uncletopia | New York City | 1 | All Maps","protocol":17,"map":"koth_brazil","folder":"tf","game":"Team Fortress","app_id":440,"player_count":0,"max_players":24,"Bots":0,"server_type":"Dedicated","server_os":"Linux","password":true,"vac":true,"version":"7961495","steam_id":85568392924469993,"keywords":["cp","nocrits","nodmgspread","uncletopia"],"game_id":440,"stv_port":27016,"stv_name":"Uncletopia | New York City | 1 | All Maps | STV","players":null},{"server_id":14,"name":"Uncletopia | New York City | 2 | All Maps","name_short":"nyc-2","host":"nyc-1.us.uncletopia.com","port":27025,"enabled":true,"region":"us-east","cc":"us","latitude":40.73061,"longitude":-73.93524,"reserved":0,"last_update":"0001-01-01T00:00:00Z","name_a2s":"Uncletopia | New York City | 2 | All Maps","protocol":17,"map":"koth_cascade","folder":"tf","game":"Team Fortress","app_id":440,"player_count":0,"max_players":24,"Bots":0,"server_type":"Dedicated","server_os":"Linux","password":true,"vac":true,"version":"7961495","steam_id":85568392924469994,"keywords":["cp","nocrits","nodmgspread","uncletopia"],"game_id":440,"stv_port":27026,"stv_name":"Uncletopia | New York City | 2 | All Maps | STV","players":null},{"server_id":15,"name":"Uncletopia | New York City | 3 | Stopwatch","name_short":"nyc-3","host":"nyc-1.us.uncletopia.com","port":27035,"enabled":true,"region":"us-east","cc":"us","latitude":40.73061,"longitude":-73.93524,"reserved":0,"last_update":"0001-01-01T00:00:00Z","name_a2s":"Uncletopia | New York City | 3 | Stopwatch","protocol":17,"map":"workshop/cp_reckoner_rc6.ugc674719999","folder":"tf","game":"Team Fortress","app_id":440,"player_count":0,"max_players":24,"Bots":0,"server_type":"Dedicated","server_os":"Linux","password":true,"vac":true,"version":"7961495","steam_id":85568392924742820,"keywords":["cp","nocrits","nodmgspread","uncletopia"],"game_id":440,"stv_port":27036,"stv_name":"Uncletopia | New York City | 3 | Stopwatch | STV","players":null},{"server_id":16,"name":"Uncletopia | New York City | 4 | Community","name_short":"nyc-4","host":"nyc-1.us.uncletopia.com","port":27045,"enabled":true,"region":"us-east","cc":"us","latitude":40.73061,"longitude":-73.93524,"reserved":0,"last_update":"0001-01-01T00:00:00Z","name_a2s":"Uncletopia | New York City | 4 | Community","protocol":17,"map":"workshop/cp_indulge.ugc528106646","folder":"tf","game":"Team Fortress","app_id":440,"player_count":0,"max_players":24,"Bots":0,"server_type":"Dedicated","server_os":"Linux","password":true,"vac":true,"version":"7961495","steam_id":85568392924742821,"keywords":["cp","nocrits","nodmgspread","uncletopia"],"game_id":440,"stv_port":27046,"stv_name":"Uncletopia | New York City | 4 | Community | STV","players":null},{"server_id":142,"name":"Uncletopia | S√£o Paulo | 1 | All Maps","name_short":"sao-1","host":"sao-1.br.uncletopia.com","port":27015,"enabled":true,"region":"sa","cc":"br","latitude":-23.533773,"longitude":-46.62529,"reserved":0,"last_update":"0001-01-01T00:00:00Z","name_a2s":"Uncletopia | S√£o Paulo | 1 | All Maps","protocol":17,"map":"cp_granary","folder":"tf","game":"Team Fortress","app_id":440,"player_count":0,"max_players":24,"Bots":0,"server_type":"Dedicated","server_os":"Linux","password":true,"vac":true,"version":"7961495","steam_id":85568392924469996,"keywords":["cp","nocrits","nodmgspread","uncletopia"],"game_id":440,"stv_port":27016,"stv_name":"Uncletopia | S√£o Paulo | 1 | All Maps | STV","players":null},{"server_id":143,"name":"Uncletopia | S√£o Paulo | 2 | Community","name_short":"sao-2","host":"sao-2.br.uncletopia.com","port":27015,"enabled":true,"region":"sa","cc":"br","latitude":-23.533773,"longitude":-46.62529,"reserved":0,"last_update":"0001-01-01T00:00:00Z","name_a2s":"Uncletopia | S√£o Paulo | 2 | Community","protocol":17,"map":"workshop/cp_croissant_final.ugc458840209","folder":"tf","game":"Team Fortress","app_id":440,"player_count":0,"max_players":24,"Bots":0,"server_type":"Dedicated","server_os":"Linux","password":true,"vac":true,"version":"7961495","steam_id":85568392924485349,"keywords":["cp","nocrits","nodmgspread","uncletopia"],"game_id":440,"stv_port":27016,"stv_name":"Uncletopia | S√£o Paulo | 2 | Community | STV","players":null},{"server_id":7,"name":"Uncletopia | Seattle | 1 | All Maps","name_short":"sea-1","host":"sea-1.us.uncletopia.com","port":27015,"enabled":true,"region":"us-west","cc":"us","latitude":47.608013,"longitude":-122.33517,"reserved":0,"last_update":"0001-01-01T00:00:00Z","name_a2s":"Uncletopia | Seattle | 1 | All Maps","protocol":17,"map":"koth_suijin","folder":"tf","game":"Team Fortress","app_id":440,"player_count":0,"max_players":24,"Bots":0,"server_type":"Dedicated","server_os":"Linux","password":true,"vac":true,"version":"7961495","steam_id":85568392924469997,"keywords":["cp","nocrits","nodmgspread","uncletopia"],"game_id":440,"stv_port":27016,"stv_name":"Uncletopia | Seattle | 1 | All Maps | STV","players":null},{"server_id":119,"name":"Uncletopia | Seattle | 2 | All Maps","name_short":"sea-2","host":"sea-1.us.uncletopia.com","port":27025,"enabled":true,"region":"us-west","cc":"us","latitude":47.608013,"longitude":-122.33517,"reserved":0,"last_update":"0001-01-01T00:00:00Z","name_a2s":"Uncletopia | Seattle | 2 | All Maps","protocol":17,"map":"koth_lakeside_final","folder":"tf","game":"Team Fortress","app_id":440,"player_count":0,"max_players":24,"Bots":0,"server_type":"Dedicated","server_os":"Linux","password":true,"vac":true,"version":"7961495","steam_id":85568392924469998,"keywords":["cp","nocrits","nodmgspread","uncletopia"],"game_id":440,"stv_port":27026,"stv_name":"Uncletopia | Seattle | 2 | All Maps | STV","players":null},{"server_id":406,"name":"Uncletopia | Seattle | 3 | Stopwatch","name_short":"sea-3","host":"sea-1.us.uncletopia.com","port":27035,"enabled":true,"region":"us-west","cc":"us","latitude":47.608013,"longitude":-122.33517,"reserved":0,"last_update":"0001-01-01T00:00:00Z","name_a2s":"Uncletopia | Seattle | 3 | Stopwatch","protocol":17,"map":"cp_gullywash_final1","folder":"tf","game":"Team Fortress","app_id":440,"player_count":0,"max_players":24,"Bots":0,"server_type":"Dedicated","server_os":"Linux","password":true,"vac":true,"version":"7961495","steam_id":85568392924515217,"keywords":["cp","nocrits","nodmgspread","uncletopia"],"game_id":440,"stv_port":27036,"stv_name":"Uncletopia | Seattle | 3 | Stopwatch | STV","players":null},{"server_id":17,"name":"Uncletopia | San Francisco | 1 | All Maps","name_short":"sfo-1","host":"sfo-1.us.uncletopia.com","port":27015,"enabled":true,"region":"us-west","cc":"us","latitude":37.77397,"longitude":-122.4313,"reserved":0,"last_update":"0001-01-01T00:00:00Z","name_a2s":"Uncletopia | San Francisco | 1 | All Maps","protocol":17,"map":"koth_viaduct","folder":"tf","game":"Team Fortress","app_id":440,"player_count":5,"max_players":24,"Bots":0,"server_type":"Dedicated","server_os":"Linux","password":true,"vac":true,"version":"7961495","steam_id":85568392924469999,"keywords":["cp","nocrits","nodmgspread","uncletopia"],"game_id":440,"stv_port":27016,"stv_name":"Uncletopia | San Francisco | 1 | All Maps | STV","players":[{"user_id":29,"name":"2bcoffee","steam_id":76561198810469767,"connected_time":219000000000,"state":"active","ping":113},{"user_id":10,"name":"Lord_Manship","steam_id":76561198045168765,"connected_time":2169000000000,"state":"active","ping":135},{"user_id":26,"name":"the pest","steam_id":76561198826298849,"connected_time":1059000000000,"state":"active","ping":108},{"user_id":27,"name":"Chicken Gaming","steam_id":76561198976697705,"connected_time":815000000000,"state":"active","ping":108},{"user_id":21,"name":"tuna.mp4","steam_id":76561199166987061,"connected_time":1563000000000,"state":"active","ping":211}]},{"server_id":18,"name":"Uncletopia | San Francisco | 2 | All Maps","name_short":"sfo-2","host":"sfo-1.us.uncletopia.com","port":27025,"enabled":true,"region":"us-west","cc":"us","latitude":37.77397,"longitude":-122.4313,"reserved":0,"last_update":"0001-01-01T00:00:00Z","name_a2s":"Uncletopia | San Francisco | 2 | All Maps","protocol":17,"map":"cp_freight_final1","folder":"tf","game":"Team Fortress","app_id":440,"player_count":0,"max_players":24,"Bots":0,"server_type":"Dedicated","server_os":"Linux","password":true,"vac":true,"version":"7961495","steam_id":85568392924470000,"keywords":["cp","nocrits","nodmgspread","uncletopia"],"game_id":440,"stv_port":27026,"stv_name":"Uncletopia | San Francisco | 2 | All Maps | STV","players":null},{"server_id":19,"name":"Uncletopia | San Francisco | 3 | Stopwatch","name_short":"sfo-3","host":"sfo-1.us.uncletopia.com","port":27035,"enabled":true,"region":"us-west","cc":"us","latitude":37.77397,"longitude":-122.4313,"reserved":0,"last_update":"0001-01-01T00:00:00Z","name_a2s":"Uncletopia | San Francisco | 3 | Stopwatch","protocol":17,"map":"workshop/koth_product_final.ugc454272353","folder":"tf","game":"Team Fortress","app_id":440,"player_count":0,"max_players":24,"Bots":0,"server_type":"Dedicated","server_os":"Linux","password":true,"vac":true,"version":"7961495","steam_id":85568392924742824,"keywords":["cp","nocrits","nodmgspread","uncletopia"],"game_id":440,"stv_port":27036,"stv_name":"Uncletopia | San Francisco | 3 | Stopwatch | STV","players":null},{"server_id":20,"name":"Uncletopia | San Francisco | 4 | Community","name_short":"sfo-4","host":"sfo-1.us.uncletopia.com","port":27045,"enabled":true,"region":"us-west","cc":"us","latitude":37.77397,"longitude":-122.4313,"reserved":0,"last_update":"0001-01-01T00:00:00Z","name_a2s":"Uncletopia | San Francisco | 4 | Community","protocol":17,"map":"workshop/pl_cactuscanyon_redux_final2.ugc2579644293","folder":"tf","game":"Team Fortress","app_id":440,"player_count":0,"max_players":24,"Bots":0,"server_type":"Dedicated","server_os":"Linux","password":true,"vac":true,"version":"7961495","steam_id":85568392924742826,"keywords":["nocrits","nodmgspread","payload","uncletopia"],"game_id":440,"stv_port":27046,"stv_name":"Uncletopia | San Francisco | 4 | Community | STV","players":null},{"server_id":141,"name":"Uncletopia | Sydney | 1 | All Maps","name_short":"syd-1","host":"syd-1.au.uncletopia.com","port":27015,"enabled":true,"region":"au","cc":"au","latitude":-33.865143,"longitude":151.2099,"reserved":0,"last_update":"0001-01-01T00:00:00Z","name_a2s":"Uncletopia | Sydney | 1 | All Maps","protocol":17,"map":"koth_viaduct","folder":"tf","game":"Team Fortress","app_id":440,"player_count":24,"max_players":24,"Bots":0,"server_type":"Dedicated","server_os":"Linux","password":true,"vac":true,"version":"7961495","steam_id":85568392924470001,"keywords":["cp","nocrits","nodmgspread","uncletopia"],"game_id":440,"stv_port":27016,"stv_name":"Uncletopia | Sydney | 1 | All Maps | STV","players":[{"user_id":452,"name":"toblue","steam_id":76561198189137465,"connected_time":3764000000000,"state":"active","ping":82},{"user_id":478,"name":"Minion_Darcy","steam_id":76561198438898058,"connected_time":1025000000000,"state":"active","ping":41},{"user_id":450,"name":"Flaveus","steam_id":76561197996567542,"connected_time":3820000000000,"state":"active","ping":53},{"user_id":444,"name":"LightningBlock","steam_id":76561198289997742,"connected_time":3836000000000,"state":"active","ping":37},{"user_id":487,"name":"Lojo03","steam_id":76561198344446045,"connected_time":276000000000,"state":"active","ping":60},{"user_id":473,"name":"Kefhau","steam_id":76561198254519810,"connected_time":2370000000000,"state":"active","ping":45},{"user_id":482,"name":"LAW","steam_id":76561198181119629,"connected_time":794000000000,"state":"active","ping":60},{"user_id":442,"name":"gec 1","steam_id":76561198025225448,"connected_time":4069000000000,"state":"active","ping":76},{"user_id":429,"name":"Heffy","steam_id":76561198043112526,"connected_time":5607000000000,"state":"active","ping":60},{"user_id":440,"name":"Unholy Diver","steam_id":76561198081298968,"connected_time":4461000000000,"state":"active","ping":69},{"user_id":466,"name":"‚ú™ Eman","steam_id":76561198027458189,"connected_time":2980000000000,"state":"active","ping":43},{"user_id":479,"name":"Dead Heavy","steam_id":76561199009274890,"connected_time":941000000000,"state":"active","ping":90},{"user_id":401,"name":"MINI S.","steam_id":76561198116179875,"connected_time":8353000000000,"state":"active","ping":46},{"user_id":469,"name":"Somewhathuman","steam_id":76561198343531250,"connected_time":2498000000000,"state":"active","ping":95},{"user_id":488,"name":"enoeht","steam_id":76561198054187483,"connected_time":261000000000,"state":"active","ping":63},{"user_id":489,"name":"Depressed Jew","steam_id":76561198151970552,"connected_time":90000000000,"state":"active","ping":45},{"user_id":447,"name":"amen break drum sample","steam_id":76561199099744527,"connected_time":3830000000000,"state":"active","ping":55},{"user_id":483,"name":"The Piss Master","steam_id":76561197996934123,"connected_time":683000000000,"state":"active","ping":42},{"user_id":460,"name":"5G Greek","steam_id":76561198116230594,"connected_time":3431000000000,"state":"active","ping":56},{"user_id":437,"name":"shaun","steam_id":76561198281504419,"connected_time":4543000000000,"state":"active","ping":60},{"user_id":475,"name":"Eduardo","steam_id":76561198110238382,"connected_time":2142000000000,"state":"active","ping":49},{"user_id":476,"name":"nutmilk","steam_id":76561198056367731,"connected_time":2076000000000,"state":"active","ping":112},{"user_id":486,"name":"brass monkey","steam_id":76561198833290341,"connected_time":541000000000,"state":"active","ping":98},{"user_id":468,"name":"Mac","steam_id":76561198063407128,"connected_time":2542000000000,"state":"active","ping":50}]},{"server_id":123,"name":"Uncletopia | Sydney | 2 | All Maps","name_short":"syd-2","host":"syd-1.au.uncletopia.com","port":27025,"enabled":true,"region":"au","cc":"au","latitude":-33.865143,"longitude":151.2099,"reserved":0,"last_update":"0001-01-01T00:00:00Z","name_a2s":"Uncletopia | Sydney | 2 | All Maps","protocol":17,"map":"pl_upward","folder":"tf","game":"Team Fortress","app_id":440,"player_count":24,"max_players":24,"Bots":0,"server_type":"Dedicated","server_os":"Linux","password":true,"vac":true,"version":"7961495","steam_id":85568392924470002,"keywords":["nocrits","nodmgspread","payload","uncletopia"],"game_id":440,"stv_port":27026,"stv_name":"Uncletopia | Sydney | 2 | All Maps | STV","players":[{"user_id":251,"name":"Still Alive","steam_id":76561198150995080,"connected_time":2150000000000,"state":"active","ping":165},{"user_id":252,"name":"Niteguard","steam_id":76561198194518690,"connected_time":2051000000000,"state":"active","ping":46},{"user_id":246,"name":"MAcca","steam_id":76561199144357079,"connected_time":2558000000000,"state":"active","ping":90},{"user_id":244,"name":"bigbossqushari","steam_id":76561199376041150,"connected_time":2826000000000,"state":"active","ping":164},{"user_id":212,"name":"C3ratops","steam_id":76561198847054264,"connected_time":5717000000000,"state":"active","ping":44},{"user_id":285,"name":"Mario","steam_id":76561198069479605,"connected_time":194000000000,"state":"active","ping":40},{"user_id":260,"name":"\u003e\u003e==iPwn2plox==\u003e","steam_id":76561198082871536,"connected_time":1769000000000,"state":"active","ping":49},{"user_id":248,"name":"Tas","steam_id":76561198041224384,"connected_time":2408000000000,"state":"active","ping":43},{"user_id":245,"name":"Qurkey","steam_id":76561198059482977,"connected_time":2814000000000,"state":"active","ping":37},{"user_id":274,"name":"grieveous","steam_id":76561198038427562,"connected_time":962000000000,"state":"active","ping":45},{"user_id":253,"name":"Crack","steam_id":76561198131036914,"connected_time":2005000000000,"state":"active","ping":60},{"user_id":277,"name":"Sinister80s","steam_id":76561198343540472,"connected_time":609000000000,"state":"active","ping":72},{"user_id":255,"name":"Marvin","steam_id":76561198202181742,"connected_time":1947000000000,"state":"active","ping":40},{"user_id":282,"name":"PKManiacJohn","steam_id":76561198802110923,"connected_time":267000000000,"state":"active","ping":66},{"user_id":266,"name":"Wesley Gorilla","steam_id":76561198006943216,"connected_time":1357000000000,"state":"active","ping":74},{"user_id":283,"name":"Metrocop","steam_id":76561198124853659,"connected_time":261000000000,"state":"active","ping":32},{"user_id":284,"name":"Ribbit","steam_id":76561199239663214,"connected_time":205000000000,"state":"active","ping":93},{"user_id":286,"name":"time warping through space","steam_id":76561198238031616,"connected_time":169000000000,"state":"active","ping":78},{"user_id":267,"name":"beefin cos im strogan it off","steam_id":76561198127848228,"connected_time":1342000000000,"state":"active","ping":68},{"user_id":287,"name":"Rug_man","steam_id":76561198331580610,"connected_time":168000000000,"state":"active","ping":54},{"user_id":268,"name":"adammagee","steam_id":76561197972653972,"connected_time":1339000000000,"state":"active","ping":48},{"user_id":270,"name":"Contrakt","steam_id":76561198023280809,"connected_time":1300000000000,"state":"active","ping":60},{"user_id":271,"name":"Dovah","steam_id":76561198076544531,"connected_time":1295000000000,"state":"active","ping":34},{"user_id":272,"name":"NotChristian","steam_id":76561198010644946,"connected_time":1269000000000,"state":"active","ping":56}]},{"server_id":395,"name":"Uncletopia | Sydney | 3 | All Maps","name_short":"syd-3","host":"syd-1.au.uncletopia.com","port":27035,"enabled":true,"region":"au","cc":"au","latitude":-33.865143,"longitude":151.2099,"reserved":0,"last_update":"0001-01-01T00:00:00Z","name_a2s":"Uncletopia | Sydney | 3 | All Maps","protocol":17,"map":"pl_frontier_final","folder":"tf","game":"Team Fortress","app_id":440,"player_count":0,"max_players":24,"Bots":0,"server_type":"Dedicated","server_os":"Linux","password":true,"vac":true,"version":"7961495","steam_id":85568392925194467,"keywords":["nocrits","nodmgspread","payload","uncletopia"],"game_id":440,"stv_port":27036,"stv_name":"Uncletopia | Sydney | 3 | All Maps | STV","players":null},{"server_id":396,"name":"Uncletopia | Sydney | 4 | All Maps","name_short":"syd-4","host":"syd-1.au.uncletopia.com","port":27045,"enabled":true,"region":"au","cc":"au","latitude":-33.865143,"longitude":151.2099,"reserved":0,"last_update":"0001-01-01T00:00:00Z","name_a2s":"Uncletopia | Sydney | 4 | All Maps","protocol":17,"map":"koth_cascade","folder":"tf","game":"Team Fortress","app_id":440,"player_count":0,"max_players":24,"Bots":0,"server_type":"Dedicated","server_os":"Linux","password":true,"vac":true,"version":"7961495","steam_id":85568392925397958,"keywords":["cp","nocrits","nodmgspread","uncletopia"],"game_id":440,"stv_port":27046,"stv_name":"Uncletopia | Sydney | 4 | All Maps | STV","players":null},{"server_id":58,"name":"Uncletopia | Sydney | 5 | Stopwatch","name_short":"syd-5","host":"syd-1.au.uncletopia.com","port":27055,"enabled":true,"region":"au","cc":"au","latitude":-33.865143,"longitude":151.2099,"reserved":0,"last_update":"0001-01-01T00:00:00Z","name_a2s":"Uncletopia | Sydney | 5 | Stopwatch","protocol":17,"map":"cp_metalworks","folder":"tf","game":"Team Fortress","app_id":440,"player_count":0,"max_players":24,"Bots":0,"server_type":"Dedicated","server_os":"Linux","password":true,"vac":true,"version":"7961495","steam_id":85568392925397959,"keywords":["cp","nocrits","nodmgspread","uncletopia"],"game_id":440,"stv_port":27056,"stv_name":"Uncletopia | Sydney | 5 | Stopwatch | STV","players":null},{"server_id":59,"name":"Uncletopia | Sydney | 6 | Community","name_short":"syd-6","host":"syd-1.au.uncletopia.com","port":27065,"enabled":true,"region":"au","cc":"au","latitude":-33.865143,"longitude":151.2099,"reserved":0,"last_update":"0001-01-01T00:00:00Z","name_a2s":"Uncletopia | Sydney | 6 | Community","protocol":17,"map":"workshop/pl_shoreleave_rc2.ugc1238849347","folder":"tf","game":"Team Fortress","app_id":440,"player_count":0,"max_players":24,"Bots":0,"server_type":"Dedicated","server_os":"Linux","password":true,"vac":true,"version":"7961495","steam_id":85568392925397960,"keywords":["nocrits","nodmgspread","payload","uncletopia"],"game_id":440,"stv_port":27066,"stv_name":"Uncletopia | Sydney | 6 | Community | STV","players":null},{"server_id":49,"name":"Uncletopia | Warsaw | 1 | One Thousand Uncles","name_short":"waw-1","host":"waw-1.pl.uncletopia.com","port":27015,"enabled":true,"region":"eu","cc":"pl","latitude":52.2297,"longitude":21.017532,"reserved":0,"last_update":"0001-01-01T00:00:00Z","name_a2s":"Uncletopia | Warsaw | 1 | One Thousand Uncles","protocol":17,"map":"pl_thundermountain","folder":"tf","game":"Team Fortress","app_id":440,"player_count":30,"max_players":32,"Bots":16,"server_type":"Dedicated","server_os":"Linux","password":true,"vac":true,"version":"7961495","steam_id":85568392925397850,"keywords":["alltalk","bots","danepve","increased_maxplayers","norespawntime","payload","uncletopia"],"game_id":440,"stv_port":0,"stv_name":"","players":[{"user_id":277,"name":"Senpai„ÉÑ","steam_id":76561198857611627,"connected_time":4476000000000,"state":"active","ping":83},{"user_id":309,"name":"Panev #SaveTF2","steam_id":76561198860380361,"connected_time":1503000000000,"state":"active","ping":58},{"user_id":296,"name":"Sissel GT","steam_id":76561198798757458,"connected_time":2585000000000,"state":"active","ping":76},{"user_id":330,"name":"Êµ∑Ë∂Ö‰∫∫","steam_id":76561199169553351,"connected_time":402000000000,"state":"active","ping":336},{"user_id":325,"name":"DevFish","steam_id":76561199010456751,"connected_time":658000000000,"state":"active","ping":76},{"user_id":320,"name":"IAmANoob21371","steam_id":76561199237128026,"connected_time":835000000000,"state":"active","ping":40},{"user_id":299,"name":"ascenlol","steam_id":76561198119134668,"connected_time":2374000000000,"state":"active","ping":57},{"user_id":311,"name":"Dapper Pan Man","steam_id":76561197981874399,"connected_time":1361000000000,"state":"active","ping":55},{"user_id":337,"name":"Jedna","steam_id":76561198121323572,"connected_time":85000000000,"state":"active","ping":78},{"user_id":328,"name":"lisivi","steam_id":76561198365503306,"connected_time":497000000000,"state":"active","ping":64},{"user_id":293,"name":"wexusin","steam_id":76561198413749352,"connected_time":3293000000000,"state":"active","ping":33},{"user_id":336,"name":"Pain in a Box","steam_id":76561197990777173,"connected_time":163000000000,"state":"active","ping":63},{"user_id":303,"name":"se√±or bogdan","steam_id":76561199282819043,"connected_time":1992000000000,"state":"active","ping":120},{"user_id":308,"name":"barman4you","steam_id":76561198315922012,"connected_time":1595000000000,"state":"active","ping":46}]},{"server_id":50,"name":"Uncletopia | Warsaw | 2 | One Thousand Uncles","name_short":"waw-2","host":"waw-1.pl.uncletopia.com","port":27025,"enabled":true,"region":"eu","cc":"pl","latitude":52.2297,"longitude":21.017532,"reserved":0,"last_update":"0001-01-01T00:00:00Z","name_a2s":"Uncletopia | Warsaw | 2 | One Thousand Uncles","protocol":17,"map":"cp_egypt_final","folder":"tf","game":"Team Fortress","app_id":440,"player_count":0,"max_players":32,"Bots":0,"server_type":"Dedicated","server_os":"Linux","password":true,"vac":true,"version":"7961495","steam_id":85568392925397851,"keywords":["alltalk","cp","danepve","increased_maxplayers","norespawntime","uncletopia"],"game_id":440,"stv_port":0,"stv_name":"","players":null},{"server_id":51,"name":"Uncletopia | Warsaw | 3 | All Maps","name_short":"waw-3","host":"waw-1.pl.uncletopia.com","port":27035,"enabled":true,"region":"eu","cc":"pl","latitude":52.2297,"longitude":21.017532,"reserved":0,"last_update":"0001-01-01T00:00:00Z","name_a2s":"Uncletopia | Warsaw | 3 | All Maps","protocol":17,"map":"pl_snowycoast","folder":"tf","game":"Team Fortress","app_id":440,"player_count":0,"max_players":24,"Bots":0,"server_type":"Dedicated","server_os":"Linux","password":true,"vac":true,"version":"7961495","steam_id":85568392925397852,"keywords":["nocrits","nodmgspread","payload","uncletopia"],"game_id":440,"stv_port":27036,"stv_name":"Uncletopia | Warsaw | 3 | All Maps | STV","players":null},{"server_id":52,"name":"Uncletopia | Warsaw | 4 | All Maps","name_short":"waw-4","host":"waw-1.pl.uncletopia.com","port":27045,"enabled":true,"region":"eu","cc":"pl","latitude":52.2297,"longitude":21.017532,"reserved":0,"last_update":"0001-01-01T00:00:00Z","name_a2s":"Uncletopia | Warsaw | 4 | All Maps","protocol":17,"map":"koth_viaduct","folder":"tf","game":"Team Fortress","app_id":440,"player_count":1,"max_players":24,"Bots":0,"server_type":"Dedicated","server_os":"Linux","password":true,"vac":true,"version":"7961495","steam_id":85568392925397853,"keywords":["cp","nocrits","nodmgspread","uncletopia"],"game_id":440,"stv_port":27046,"stv_name":"Uncletopia | Warsaw | 4 | All Maps | STV","players":[{"user_id":4,"name":"Arefus","steam_id":76561199405868048,"connected_time":99000000000,"state":"active","ping":153}]},{"server_id":53,"name":"Uncletopia | Warsaw | 5 | Stopwatch","name_short":"waw-5","host":"waw-1.pl.uncletopia.com","port":27055,"enabled":true,"region":"eu","cc":"pl","latitude":52.2297,"longitude":21.017532,"reserved":0,"last_update":"0001-01-01T00:00:00Z","name_a2s":"Uncletopia | Warsaw | 5 | Stopwatch","protocol":17,"map":"cp_gullywash_final1","folder":"tf","game":"Team Fortress","app_id":440,"player_count":0,"max_players":24,"Bots":0,"server_type":"Dedicated","server_os":"Linux","password":true,"vac":true,"version":"7961495","steam_id":85568392925397854,"keywords":["cp","nocrits","nodmgspread","uncletopia"],"game_id":440,"stv_port":27056,"stv_name":"Uncletopia | Warsaw | 5 | Stopwatch | STV","players":null},{"server_id":54,"name":"Uncletopia | Warsaw | 6 | Community","name_short":"waw-6","host":"waw-1.pl.uncletopia.com","port":27065,"enabled":true,"region":"eu","cc":"pl","latitude":52.2297,"longitude":21.017532,"reserved":0,"last_update":"0001-01-01T00:00:00Z","name_a2s":"Uncletopia | Warsaw | 6 | Community","protocol":17,"map":"workshop/cp_fulgur_rc2a.ugc2068252300","folder":"tf","game":"Team Fortress","app_id":440,"player_count":0,"max_players":24,"Bots":0,"server_type":"Dedicated","server_os":"Linux","password":true,"vac":true,"version":"7961495","steam_id":85568392925397856,"keywords":["cp","nocrits","nodmgspread","uncletopia"],"game_id":440,"stv_port":27066,"stv_name":"Uncletopia | Warsaw | 6 | Community | STV","players":null}]}