{"status":true,"message":"","result":[{"server_id":0,"name_short":"","name":"Uncletopia | New York City | 1 | All Maps","host":"","port":0,"enabled":false,"region":"","cc":"","latitude":0,"longitude":0,"reserved":0,"last_update":"0001-01-01T00:00:00Z","protocol":17,"map":"pl_badwater","folder":"tf","game":"Team Fortress","app_id":440,"player_count":13,"max_players":24,"Bots":0,"server_type":"Dedicated","server_os":"Linux","password":true,"vac":true,"version":"7961495","steam_id":85568392924469993,"keywords":["nocrits","nodmgspread","payload","uncletopia"],"edicts":[859,2048],"game_id":440,"stv_port":27016,"stv_name":"Uncletopia | New York City | 1 | All Maps | STV","players":[{"user_id":391,"name":"EngiWeedGameing","steam_id":76561199474458646,"connected_time":115000000000,"state":"active","ping":294},{"user_id":382,"name":"Spooni_Boi","steam_id":76561198308140374,"connected_time":1121000000000,"state":"active","ping":56},{"user_id":366,"name":"Tech Trash","steam_id":76561198052562674,"connected_time":1801000000000,"state":"active","ping":63},{"user_id":336,"name":"Whyamidoingthisaaaa","steam_id":76561199168837342,"connected_time":5106000000000,"state":"active","ping":53},{"user_id":390,"name":"DoggyDogWhirl","steam_id":76561198042841344,"connected_time":168000000000,"state":"active","ping":52},{"user_id":389,"name":"Enfield","steam_id":76561197961097111,"connected_time":703000000000,"state":"active","ping":64},{"user_id":388,"name":"Back4BloodFan2013","steam_id":76561198206229467,"connected_time":745000000000,"state":"active","ping":56},{"user_id":363,"name":"Buck","steam_id":76561198064244796,"connected_time":2111000000000,"state":"active","ping":48},{"user_id":377,"name":"zpalmtree","steam_id":76561198134307620,"connected_time":1370000000000,"state":"active","ping":63},{"user_id":384,"name":"ketamine gaming","steam_id":76561198051250642,"connected_time":1093000000000,"state":"active","ping":96},{"user_id":386,"name":"XtraCrums","steam_id":76561199230212648,"connected_time":982000000000,"state":"active","ping":63},{"user_id":387,"name":"The Notorious T.A.F.T.","steam_id":76561198073012352,"connected_time":937000000000,"state":"active","ping":90},{"user_id":372,"name":"Magitrex","steam_id":76561199088811754,"connected_time":1669000000000,"state":"active","ping":90}]},{"server_id":0,"name_short":"","name":"Uncletopia | Chicago | 5 | All Maps","host":"","port":0,"enabled":false,"region":"","cc":"","latitude":0,"longitude":0,"reserved":0,"last_update":"0001-01-01T00:00:00Z","protocol":17,"map":"pl_snowycoast","folder":"tf","game":"Team Fortress","app_id":440,"player_count":3,"max_players":24,"Bots":0,"server_type":"Dedicated","server_os":"Linux","password":true,"vac":true,"version":"7961495","steam_id":85568392924866362,"keywords":["nocrits","nodmgspread","payload","uncletopia"],"edicts":[911,2048],"game_id":440,"stv_port":27016,"stv_name":"Uncletopia | Chicago | 5 | All Maps | STV","players":[{"user_id":37,"name":"FEBLUCAXZ","steam_id":76561198355845884,"connected_time":3087000000000,"state":"active","ping":84},{"user_id":38,"name":"IceMan00780","steam_id":76561198037186030,"connected_time":3061000000000,"state":"active","ping":81},{"user_id":41,"name":"monky (funky)","steam_id":76561198350027075,"connected_time":2539000000000,"state":"active","ping":45}]},{"server_id":0,"name_short":"","name":"Uncletopia | Dallas | 2 | All Maps","host":"","port":0,"enabled":false,"region":"","cc":"","latitude":0,"longitude":0,"reserved":0,"last_update":"0001-01-01T00:00:00Z","protocol":17,"map":"pl_swiftwater_final1","folder":"tf","game":"Team Fortress","app_id":440,"player_count":20,"max_players":24,"Bots":0,"server_type":"Dedicated","server_os":"Linux","password":true,"vac":true,"version":"7961495","steam_id":85568392924469988,"keywords":["nocrits","nodmgspread","payload","uncletopia"],"edicts":[1138,2048],"game_id":440,"stv_port":27026,"stv_name":"Uncletopia | Dallas | 2 | All Maps | STV","players":[{"user_id":670,"name":"Yapple Dapple","steam_id":76561198082422815,"connected_time":9074000000000,"state":"active","ping":60},{"user_id":745,"name":"Rin \"Hindwing\" Redtail","steam_id":76561199074865638,"connected_time":150000000000,"state":"active","ping":53},{"user_id":685,"name":"Lain","steam_id":76561198029303534,"connected_time":7671000000000,"state":"active","ping":60},{"user_id":680,"name":"Argon","steam_id":76561199254804349,"connected_time":8068000000000,"state":"active","ping":75},{"user_id":671,"name":"tiernan330","steam_id":76561198271912722,"connected_time":8823000000000,"state":"active","ping":86},{"user_id":723,"name":"plink","steam_id":76561198057829889,"connected_time":3549000000000,"state":"active","ping":47},{"user_id":740,"name":"Honos","steam_id":76561198125027158,"connected_time":852000000000,"state":"active","ping":98},{"user_id":724,"name":"plastiquemonk","steam_id":76561198126035719,"connected_time":3548000000000,"state":"active","ping":88},{"user_id":669,"name":"-Rλ҉inyCloudCore","steam_id":76561198028799685,"connected_time":9174000000000,"state":"active","ping":77},{"user_id":741,"name":"Burnside Special","steam_id":76561198822221762,"connected_time":844000000000,"state":"active","ping":102},{"user_id":738,"name":"BigPimpin","steam_id":76561198119549348,"connected_time":1685000000000,"state":"active","ping":52},{"user_id":535,"name":"SgT_Spam","steam_id":76561198275753768,"connected_time":20636000000000,"state":"active","ping":52},{"user_id":715,"name":"Tuvok Shakur","steam_id":76561198018875334,"connected_time":4135000000000,"state":"active","ping":73},{"user_id":726,"name":"el pan con pate","steam_id":76561199082491709,"connected_time":3481000000000,"state":"active","ping":186},{"user_id":742,"name":"Bobby Ray","steam_id":76561198044131188,"connected_time":831000000000,"state":"active","ping":75},{"user_id":735,"name":"bobbie","steam_id":76561198157088538,"connected_time":2367000000000,"state":"active","ping":92},{"user_id":730,"name":"tsz","steam_id":76561199246231090,"connected_time":2879000000000,"state":"active","ping":79},{"user_id":743,"name":"EvilPi99let","steam_id":76561197987243470,"connected_time":823000000000,"state":"active","ping":75},{"user_id":736,"name":"Vivzen","steam_id":76561198972619900,"connected_time":1873000000000,"state":"active","ping":49},{"user_id":714,"name":"Blue Eyes Ace Dragon.","steam_id":76561198048214237,"connected_time":4416000000000,"state":"active","ping":82}]},{"server_id":0,"name_short":"","name":"Uncletopia | Seattle | 2 | All Maps","host":"","port":0,"enabled":false,"region":"","cc":"","latitude":0,"longitude":0,"reserved":0,"last_update":"0001-01-01T00:00:00Z","protocol":17,"map":"pl_upward","folder":"tf","game":"Team Fortress","app_id":440,"player_count":18,"max_players":24,"Bots":0,"server_type":"Dedicated","server_os":"Linux","password":true,"vac":true,"version":"7961495","steam_id":85568392924469998,"keywords":["nocrits","nodmgspread","payload","uncletopia"],"edicts":[872,2048],"game_id":440,"stv_port":27026,"stv_name":"Uncletopia | Seattle | 2 | All Maps | STV","players":[{"user_id":268,"name":"self sufficient kitten ♥","steam_id":76561197960592612,"connected_time":9303000000000,"state":"active","ping":78},{"user_id":421,"name":"resh","steam_id":76561198239598834,"connected_time":455000000000,"state":"active","ping":136},{"user_id":391,"name":"roger roger","steam_id":76561198130032444,"connected_time":2129000000000,"state":"active","ping":41},{"user_id":373,"name":"にゃんちゃん( •ω•ฅ","steam_id":76561197979056451,"connected_time":3256000000000,"state":"active","ping":71},{"user_id":422,"name":"Strikerbolt","steam_id":76561199095622897,"connected_time":341000000000,"state":"active","ping":76},{"user_id":424,"name":"Jumanji Mito","steam_id":76561198073086769,"connected_time":67000000000,"state":"active","ping":61},{"user_id":302,"name":"kiwi","steam_id":76561198052177917,"connected_time":7076000000000,"state":"active","ping":75},{"user_id":319,"name":"❤ Ashleyyy ❤","steam_id":76561198056428303,"connected_time":5955000000000,"state":"active","ping":80},{"user_id":419,"name":"Torn Ligma Mint","steam_id":76561198046562161,"connected_time":466000000000,"state":"active","ping":68},{"user_id":404,"name":"$$","steam_id":76561198090531755,"connected_time":1005000000000,"state":"active","ping":103},{"user_id":420,"name":"Octopus","steam_id":76561198114639980,"connected_time":461000000000,"state":"active","ping":88},{"user_id":395,"name":"supcupman","steam_id":76561198051513866,"connected_time":1518000000000,"state":"active","ping":82},{"user_id":416,"name":"Smoke","steam_id":76561198071892587,"connected_time":619000000000,"state":"active","ping":55},{"user_id":390,"name":"Hajalabakalaba","steam_id":76561198405830028,"connected_time":2366000000000,"state":"active","ping":76},{"user_id":408,"name":"Greskrendtregk","steam_id":76561197969553142,"connected_time":885000000000,"state":"active","ping":57},{"user_id":372,"name":"Swee","steam_id":76561198998446307,"connected_time":3433000000000,"state":"active","ping":62},{"user_id":318,"name":"paws :3","steam_id":76561199371694361,"connected_time":5957000000000,"state":"active","ping":78},{"user_id":411,"name":"krd","steam_id":76561198347660282,"connected_time":803000000000,"state":"active","ping":104}]},{"server_id":0,"name_short":"","name":"Uncletopia | London | 7 | Stopwatch","host":"","port":0,"enabled":false,"region":"","cc":"","latitude":0,"longitude":0,"reserved":0,"last_update":"0001-01-01T00:00:00Z","protocol":17,"map":"koth_bagel_rc6","folder":"tf","game":"Team Fortress","app_id":440,"player_count":0,"max_players":24,"Bots":0,"server_type":"Dedicated","server_os":"Linux","password":true,"vac":true,"version":"7961495","steam_id":85568392924964314,"keywords":["cp","nocrits","nodmgspread","uncletopia"],"edicts":[598,2048],"game_id":440,"stv_port":27076,"stv_name":"Uncletopia | London | 7 | Stopwatch | STV","players":null},{"server_id":0,"name_short":"","name":"Uncletopia | São Paulo | 2 | Community","host":"","port":0,"enabled":false,"region":"","cc":"","latitude":0,"longitude":0,"reserved":0,"last_update":"0001-01-01T00:00:00Z","protocol":17,"map":"pl_jinn_rc2","folder":"tf","game":"Team Fortress","app_id":440,"player_count":0,"max_players":24,"Bots":0,"server_type":"Dedicated","server_os":"Linux","password":true,"vac":true,"version":"7961495","steam_id":85568392924485349,"keywords":["nocrits","nodmgspread","payload","uncletopia"],"edicts":[768,2048],"game_id":440,"stv_port":27016,"stv_name":"Uncletopia | São Paulo | 2 | Community | STV","players":null},{"server_id":0,"name_short":"","name":"Uncletopia | Sydney | 2 | All Maps","host":"","port":0,"enabled":false,"region":"","cc":"","latitude":0,"longitude":0,"reserved":0,"last_update":"0001-01-01T00:00:00Z","protocol":17,"map":"cp_altitude","folder":"tf","game":"Team Fortress","app_id":440,"player_count":0,"max_players":24,"Bots":0,"server_type":"Dedicated","server_os":"Linux","password":true,"vac":true,"version":"7961495","steam_id":85568392924470002,"keywords":["cp","nocrits","nodmgspread","uncletopia"],"edicts":[499,2048],"game_id":440,"stv_port":27026,"stv_name":"Uncletopia | Sydney | 2 | All Maps | STV","players":null},{"server_id":0,"name_short":"","name":"Uncletopia | Atlanta | 4 | Community","host":"","port":0,"enabled":false,"region":"","cc":"","latitude":0,"longitude":0,"reserved":0,"last_update":"0001-01-01T00:00:00Z","protocol":17,"map":"cp_villa_b19","folder":"tf","game":"Team Fortress","app_id":440,"player_count":0,"max_players":24,"Bots":0,"server_type":"Dedicated","server_os":"Linux","password":true,"vac":true,"version":"7961495","steam_id":85568392924515188,"keywords":["cp","nocrits","nodmgspread","uncletopia"],"edicts":[424,2048],"game_id":440,"stv_port":27046,"stv_name":"Uncletopia | Atlanta | 4 | Community | STV","players":null},{"server_id":0,"name_short":"","name":"Uncletopia | Warsaw | 6 | Community","host":"","port":0,"enabled":false,"region":"","cc":"","latitude":0,"longitude":0,"reserved":0,"last_update":"0001-01-01T00:00:00Z","protocol":17,"map":"pl_highwood_b19","folder":"tf","game":"Team Fortress","app_id":440,"player_count":0,"max_players":24,"Bots":0,"server_type":"Dedicated","server_os":"Linux","password":true,"vac":true,"version":"7961495","steam_id":85568392925397856,"keywords":["nocrits","nodmgspread","payload","uncletopia"],"edicts":[709,2048],"game_id":440,"stv_port":27066,"stv_name":"Uncletopia | Warsaw | 6 | Community | STV","players":null},{"server_id":0,"name_short":"","name":"Uncletopia | Warsaw | 5 | Stopwatch","host":"","port":0,"enabled":false,"region":"","cc":"","latitude":0,"longitude":0,"reserved":0,"last_update":"0001-01-01T00:00:00Z","protocol":17,"map":"koth_clearcut_b15","folder":"tf","game":"Team Fortress","app_id":440,"player_count":0,"max_players":24,"Bots":0,"server_type":"Dedicated","server_os":"Linux","password":true,"vac":true,"version":"7961495","steam_id":85568392925397854,"keywords":["cp","nocrits","nodmgspread","uncletopia"],"edicts":[445,2048],"game_id":440,"stv_port":27056,"stv_name":"Uncletopia | Warsaw | 5 | Stopwatch | STV","players":null},{"server_id":0,"name_short":"","name":"Uncletopia | Warsaw | 3 | All Maps","host":"","port":0,"enabled":false,"region":"","cc":"","latitude":0,"longitude":0,"reserved":0,"last_update":"0001-01-01T00:00:00Z","protocol":17,"map":"pl_frontier_final","folder":"tf","game":"Team Fortress","app_id":440,"player_count":0,"max_players":24,"Bots":0,"server_type":"Dedicated","server_os":"Linux","password":true,"vac":true,"version":"7961495","steam_id":85568392925397852,"keywords":["nocrits","nodmgspread","payload","uncletopia"],"edicts":[744,2048],"game_id":440,"stv_port":27036,"stv_name":"Uncletopia | Warsaw | 3 | All Maps | STV","players":null},{"server_id":0,"name_short":"","name":"Uncletopia | New York City | 2 | All Maps","host":"","port":0,"enabled":false,"region":"","cc":"","latitude":0,"longitude":0,"reserved":0,"last_update":"0001-01-01T00:00:00Z","protocol":17,"map":"pl_badwater","folder":"tf","game":"Team Fortress","app_id":440,"player_count":24,"max_players":24,"Bots":0,"server_type":"Dedicated","server_os":"Linux","password":true,"vac":true,"version":"7961495","steam_id":85568392924469994,"keywords":["nocrits","nodmgspread","payload","uncletopia"],"edicts":[1005,2048],"game_id":440,"stv_port":27026,"stv_name":"Uncletopia | New York City | 2 | All Maps | STV","players":[{"user_id":540,"name":"Bolbi","steam_id":76561198051811597,"connected_time":572000000000,"state":"active","ping":123},{"user_id":523,"name":"Chekkaa","steam_id":76561198035140767,"connected_time":1065000000000,"state":"active","ping":107},{"user_id":515,"name":"custodian","steam_id":76561198058793778,"connected_time":1326000000000,"state":"active","ping":57},{"user_id":503,"name":"AlecTheNefarious","steam_id":76561198035291230,"connected_time":2545000000000,"state":"active","ping":80},{"user_id":512,"name":"[DD] | Serial Designation N","steam_id":76561198445739792,"connected_time":1707000000000,"state":"active","ping":51},{"user_id":479,"name":"two orders of za bruh","steam_id":76561198000564263,"connected_time":4735000000000,"state":"active","ping":74},{"user_id":508,"name":"Guggie","steam_id":76561198285085306,"connected_time":2030000000000,"state":"active","ping":77},{"user_id":532,"name":"SecretRendezvous","steam_id":76561198145565601,"connected_time":761000000000,"state":"active","ping":58},{"user_id":518,"name":"DABEARS","steam_id":76561198045969472,"connected_time":1220000000000,"state":"active","ping":56},{"user_id":542,"name":"Gefilteredfish","steam_id":76561198010019214,"connected_time":566000000000,"state":"active","ping":55},{"user_id":529,"name":"granola","steam_id":76561198392844061,"connected_time":954000000000,"state":"active","ping":92},{"user_id":533,"name":"Sgt. Pepper","steam_id":76561198063674627,"connected_time":755000000000,"state":"active","ping":100},{"user_id":482,"name":"java","steam_id":76561198030276792,"connected_time":4721000000000,"state":"active","ping":61},{"user_id":524,"name":"who ate the cheese","steam_id":76561198275408467,"connected_time":1051000000000,"state":"active","ping":60},{"user_id":541,"name":"esoteric shape fetishist","steam_id":76561197972601902,"connected_time":568000000000,"state":"active","ping":107},{"user_id":546,"name":"jr933368","steam_id":76561199507931052,"connected_time":197000000000,"state":"active","ping":137},{"user_id":527,"name":"iCarly Lore Expert","steam_id":76561198111902910,"connected_time":970000000000,"state":"active","ping":90},{"user_id":495,"name":"lanoc","steam_id":76561198055415367,"connected_time":3449000000000,"state":"active","ping":75},{"user_id":528,"name":"Mr poop","steam_id":76561198040631206,"connected_time":962000000000,"state":"active","ping":100},{"user_id":543,"name":"Cervidé","steam_id":76561198098579497,"connected_time":564000000000,"state":"active","ping":52},{"user_id":544,"name":"DARLIIIIIIIIIIIIIING","steam_id":76561198055082693,"connected_time":544000000000,"state":"active","ping":72},{"user_id":535,"name":"The Box Guy","steam_id":76561198176143711,"connected_time":707000000000,"state":"active","ping":76},{"user_id":545,"name":"KATSURB","steam_id":76561199172118456,"connected_time":471000000000,"state":"active","ping":74},{"user_id":538,"name":"StrangeSumo","steam_id":76561198182376830,"connected_time":651000000000,"state":"active","ping":77}]},{"server_id":0,"name_short":"","name":"Uncletopia | Frankfurt | 3 | All Maps","host":"","port":0,"enabled":false,"region":"","cc":"","latitude":0,"longitude":0,"reserved":0,"last_update":"0001-01-01T00:00:00Z","protocol":17,"map":"plr_pipeline","folder":"tf","game":"Team Fortress","app_id":440,"player_count":0,"max_players":24,"Bots":0,"server_type":"Dedicated","server_os":"Linux","password":true,"vac":true,"version":"7961495","steam_id":85568392924504274,"keywords":["nocrits","nodmgspread","payload","uncletopia"],"edicts":[932,2048],"game_id":440,"stv_port":27036,"stv_name":"Uncletopia | Frankfurt | 3 | All Maps | STV","players":null},{"server_id":0,"name_short":"","name":"Uncletopia | Chicago | 4 | All Maps","host":"","port":0,"enabled":false,"region":"","cc":"","latitude":0,"longitude":0,"reserved":0,"last_update":"0001-01-01T00:00:00Z","protocol":17,"map":"pl_frontier_final","folder":"tf","game":"Team Fortress","app_id":440,"player_count":24,"max_players":24,"Bots":0,"server_type":"Dedicated","server_os":"Linux","password":true,"vac":true,"version":"7961495","steam_id":85568392924515193,"keywords":["nocrits","nodmgspread","payload","uncletopia"],"edicts":[1064,2048],"game_id":440,"stv_port":27046,"stv_name":"Uncletopia | Chicago | 4 | All Maps | STV","players":[{"user_id":395,"name":"Smokey The VietCong Veteran","steam_id":76561198030988939,"connected_time":2207000000000,"state":"active","ping":72},{"user_id":419,"name":"Fuyutake","steam_id":76561199123206779,"connected_time":704000000000,"state":"active","ping":62},{"user_id":421,"name":"nataliekisser","steam_id":76561198248461754,"connected_time":674000000000,"state":"active","ping":105},{"user_id":404,"name":"Bullwinkle J. Moose","steam_id":76561198075977196,"connected_time":1721000000000,"state":"active","ping":78},{"user_id":428,"name":"IDKevin","steam_id":76561198198676159,"connected_time":502000000000,"state":"active","ping":102},{"user_id":437,"name":"Saucy Boy","steam_id":76561198178332031,"connected_time":97000000000,"state":"active","ping":68},{"user_id":412,"name":"slosh","steam_id":76561198060546760,"connected_time":1286000000000,"state":"active","ping":124},{"user_id":414,"name":"Gloop","steam_id":76561198063925499,"connected_time":1260000000000,"state":"active","ping":72},{"user_id":420,"name":"-natalexei ♥","steam_id":76561198100477765,"connected_time":690000000000,"state":"active","ping":89},{"user_id":429,"name":"Gatteka","steam_id":76561198112041510,"connected_time":485000000000,"state":"active","ping":84},{"user_id":426,"name":"barrybackshots14","steam_id":76561198388095559,"connected_time":585000000000,"state":"active","ping":90},{"user_id":435,"name":"godsu \u003e mike white","steam_id":76561197992498834,"connected_time":322000000000,"state":"active","ping":73},{"user_id":431,"name":"paypur -rng","steam_id":76561198214370515,"connected_time":401000000000,"state":"active","ping":121},{"user_id":438,"name":"MMMJoey","steam_id":76561198399036706,"connected_time":86000000000,"state":"active","ping":74},{"user_id":359,"name":"FT","steam_id":76561198010452388,"connected_time":4078000000000,"state":"active","ping":76},{"user_id":433,"name":"Kzjytsugn","steam_id":76561198130241974,"connected_time":376000000000,"state":"active","ping":87},{"user_id":434,"name":"Lost","steam_id":76561198025933206,"connected_time":360000000000,"state":"active","ping":66},{"user_id":436,"name":"nufyivuyda","steam_id":76561199499476489,"connected_time":313000000000,"state":"active","ping":96},{"user_id":402,"name":"Waesel","steam_id":76561198069188177,"connected_time":1739000000000,"state":"active","ping":71},{"user_id":416,"name":"xFactr","steam_id":76561198129007422,"connected_time":1240000000000,"state":"active","ping":62},{"user_id":418,"name":"Bloop","steam_id":76561198253563271,"connected_time":971000000000,"state":"active","ping":47},{"user_id":365,"name":"Chairman Meow","steam_id":76561198107795169,"connected_time":3873000000000,"state":"active","ping":70},{"user_id":364,"name":"Bond","steam_id":76561198089262776,"connected_time":3914000000000,"state":"active","ping":85},{"user_id":376,"name":"Larry Butz","steam_id":76561198007418015,"connected_time":2827000000000,"state":"active","ping":85}]},{"server_id":0,"name_short":"","name":"Uncletopia | Frankfurt | 4 | All Maps","host":"","port":0,"enabled":false,"region":"","cc":"","latitude":0,"longitude":0,"reserved":0,"last_update":"0001-01-01T00:00:00Z","protocol":17,"map":"koth_lakeside_final","folder":"tf","game":"Team Fortress","app_id":440,"player_count":0,"max_players":24,"Bots":0,"server_type":"Dedicated","server_os":"Linux","password":true,"vac":true,"version":"7961495","steam_id":85568392924504275,"keywords":["cp","nocrits","nodmgspread","uncletopia"],"edicts":[301,2048],"game_id":440,"stv_port":27046,"stv_name":"Uncletopia | Frankfurt | 4 | All Maps | STV","players":null},{"server_id":0,"name_short":"","name":"Uncletopia | Warsaw | 1 | One Thousand Uncles","host":"","port":0,"enabled":false,"region":"","cc":"","latitude":0,"longitude":0,"reserved":0,"last_update":"0001-01-01T00:00:00Z","protocol":17,"map":"pl_pier","folder":"tf","game":"Team Fortress","app_id":440,"player_count":23,"max_players":32,"Bots":20,"server_type":"Dedicated","server_os":"Linux","password":true,"vac":true,"version":"7961495","steam_id":85568392925397850,"keywords":["alltalk","bots","danepve","increased_maxplayers","norespawntime","payload","uncletopia"],"edicts":[1374,2048],"game_id":440,"stv_port":0,"stv_name":"","players":[{"user_id":2,"name":"Economic crisis","steam_id":76561198063562843,"connected_time":3158000000000,"state":"active","ping":68},{"user_id":23,"name":"AsuX","steam_id":76561197990333289,"connected_time":2655000000000,"state":"active","ping":75},{"user_id":29,"name":"Dr.Zoidberg","steam_id":76561198833894697,"connected_time":837000000000,"state":"active","ping":161}]},{"server_id":0,"name_short":"","name":"Uncletopia | São Paulo | 1 | All Maps","host":"","port":0,"enabled":false,"region":"","cc":"","latitude":0,"longitude":0,"reserved":0,"last_update":"0001-01-01T00:00:00Z","protocol":17,"map":"koth_viaduct","folder":"tf","game":"Team Fortress","app_id":440,"player_count":0,"max_players":24,"Bots":0,"server_type":"Dedicated","server_os":"Linux","password":true,"vac":true,"version":"7961495","steam_id":85568392924469996,"keywords":["cp","nocrits","nodmgspread","uncletopia"],"edicts":[217,2048],"game_id":440,"stv_port":27016,"stv_name":"Uncletopia | São Paulo | 1 | All Maps | STV","players":null},{"server_id":0,"name_short":"","name":"Uncletopia | Montréal | 2 | One Thousand Uncles","host":"","port":0,"enabled":false,"region":"","cc":"","latitude":0,"longitude":0,"reserved":0,"last_update":"0001-01-01T00:00:00Z","protocol":17,"map":"pl_barnblitz","folder":"tf","game":"Team Fortress","app_id":440,"player_count":0,"max_players":32,"Bots":0,"server_type":"Dedicated","server_os":"Linux","password":true,"vac":true,"version":"7961495","steam_id":85568392924500088,"keywords":["alltalk","danepve","increased_maxplayers","norespawntime","payload","uncletopia"],"edicts":[803,2048],"game_id":440,"stv_port":0,"stv_name":"","players":null},{"server_id":0,"name_short":"","name":"Uncletopia | Chicago | 7 | Stopwatch","host":"","port":0,"enabled":false,"region":"","cc":"","latitude":0,"longitude":0,"reserved":0,"last_update":"0001-01-01T00:00:00Z","protocol":17,"map":"koth_lakeside_final","folder":"tf","game":"Team Fortress","app_id":440,"player_count":0,"max_players":24,"Bots":0,"server_type":"Dedicated","server_os":"Linux","password":true,"vac":true,"version":"7961495","steam_id":85568392924866364,"keywords":["cp","nocrits","nodmgspread","uncletopia"],"edicts":[304,2048],"game_id":440,"stv_port":27036,"stv_name":"Uncletopia | Chicago | 7 | Stopwatch | STV","players":null},{"server_id":0,"name_short":"","name":"Uncletopia | Atlanta | 2 | All Maps","host":"","port":0,"enabled":false,"region":"","cc":"","latitude":0,"longitude":0,"reserved":0,"last_update":"0001-01-01T00:00:00Z","protocol":17,"map":"cp_dustbowl","folder":"tf","game":"Team Fortress","app_id":440,"player_count":22,"max_players":24,"Bots":0,"server_type":"Dedicated","server_os":"Linux","password":true,"vac":true,"version":"7961495","steam_id":85568392924469983,"keywords":["cp","nocrits","nodmgspread","uncletopia"],"edicts":[992,2048],"game_id":440,"stv_port":27026,"stv_name":"Uncletopia | Atlanta | 2 | All Maps | STV","players":[{"user_id":495,"name":"Reverse Vaccuum","steam_id":76561199184902367,"connected_time":1737000000000,"state":"active","ping":69},{"user_id":494,"name":"Mr. Rascal","steam_id":76561197984362278,"connected_time":1831000000000,"state":"active","ping":99},{"user_id":496,"name":"Tangle","steam_id":76561198880768350,"connected_time":1649000000000,"state":"active","ping":74},{"user_id":516,"name":"Juhrome","steam_id":76561198055874244,"connected_time":1103000000000,"state":"active","ping":61},{"user_id":492,"name":"Applesauce","steam_id":76561198049642811,"connected_time":1861000000000,"state":"active","ping":39},{"user_id":524,"name":"wither","steam_id":76561199273891607,"connected_time":767000000000,"state":"active","ping":82},{"user_id":520,"name":"Hey","steam_id":76561198447517893,"connected_time":896000000000,"state":"active","ping":53},{"user_id":418,"name":"Lennu","steam_id":76561198060730154,"connected_time":9487000000000,"state":"active","ping":64},{"user_id":529,"name":"Soup","steam_id":76561199014722829,"connected_time":363000000000,"state":"active","ping":50},{"user_id":506,"name":"lu","steam_id":76561198080731872,"connected_time":1415000000000,"state":"active","ping":71},{"user_id":534,"name":"sawrik","steam_id":76561198018808213,"connected_time":345000000000,"state":"active","ping":86},{"user_id":504,"name":"Moduli","steam_id":76561198046327590,"connected_time":1469000000000,"state":"active","ping":89},{"user_id":505,"name":"MarioHF","steam_id":76561198180674263,"connected_time":1444000000000,"state":"active","ping":53},{"user_id":507,"name":"Jabagas","steam_id":76561198141559134,"connected_time":1365000000000,"state":"active","ping":63},{"user_id":537,"name":"ObsessedNerd505","steam_id":76561199045531456,"connected_time":158000000000,"state":"active","ping":62},{"user_id":509,"name":"Zacoton","steam_id":76561198923751420,"connected_time":1343000000000,"state":"active","ping":94},{"user_id":521,"name":"kimbo_W33B","steam_id":76561199111542067,"connected_time":858000000000,"state":"active","ping":74},{"user_id":536,"name":"plutonium","steam_id":76561198319442494,"connected_time":168000000000,"state":"active","ping":122},{"user_id":487,"name":"El Dorito","steam_id":76561198044544789,"connected_time":2344000000000,"state":"active","ping":47},{"user_id":351,"name":"king of hearts","steam_id":76561197987258132,"connected_time":15626000000000,"state":"active","ping":100},{"user_id":532,"name":"Chickenman","steam_id":76561198039877070,"connected_time":360000000000,"state":"active","ping":83},{"user_id":528,"name":"TakeoutFromChina","steam_id":76561198145649960,"connected_time":418000000000,"state":"active","ping":162}]},{"server_id":0,"name_short":"","name":"Uncletopia | Dallas | 1 | All Maps","host":"","port":0,"enabled":false,"region":"","cc":"","latitude":0,"longitude":0,"reserved":0,"last_update":"0001-01-01T00:00:00Z","protocol":17,"map":"cp_gorge","folder":"tf","game":"Team Fortress","app_id":440,"player_count":22,"max_players":24,"Bots":0,"server_type":"Dedicated","server_os":"Linux","password":true,"vac":true,"version":"7961495","steam_id":85568392924469986,"keywords":["cp","nocrits","nodmgspread","uncletopia"],"edicts":[519,2048],"game_id":440,"stv_port":27016,"stv_name":"Uncletopia | Dallas | 1 | All Maps | STV","players":[{"user_id":600,"name":"TheHumanTaco119","steam_id":76561198996107520,"connected_time":23000000000,"state":"active","ping":99},{"user_id":597,"name":"Pawsies","steam_id":76561198022729567,"connected_time":103000000000,"state":"active","ping":43},{"user_id":581,"name":"oni","steam_id":76561198082038479,"connected_time":770000000000,"state":"active","ping":76},{"user_id":580,"name":"MayKay","steam_id":76561199016092265,"connected_time":799000000000,"state":"active","ping":78},{"user_id":576,"name":"Certified Hood Classic","steam_id":76561199086159354,"connected_time":1563000000000,"state":"active","ping":59},{"user_id":582,"name":"Cassafras","steam_id":76561197961994834,"connected_time":764000000000,"state":"active","ping":51},{"user_id":583,"name":"Rubby","steam_id":76561198967446392,"connected_time":738000000000,"state":"active","ping":95},{"user_id":584,"name":"snakeeatr","steam_id":76561198147652684,"connected_time":706000000000,"state":"active","ping":79},{"user_id":538,"name":"Bread Makes you Fat","steam_id":76561198985126532,"connected_time":5041000000000,"state":"active","ping":54},{"user_id":598,"name":"Cthulhu's Malewife","steam_id":76561198085888959,"connected_time":85000000000,"state":"active","ping":53},{"user_id":599,"name":"3Phase","steam_id":76561197995053989,"connected_time":61000000000,"state":"active","ping":71},{"user_id":587,"name":"Batso","steam_id":76561198106589452,"connected_time":620000000000,"state":"active","ping":85},{"user_id":588,"name":"mr ploobmeister","steam_id":76561198128908529,"connected_time":605000000000,"state":"active","ping":48},{"user_id":589,"name":"An Unhappy Clown","steam_id":76561198175516514,"connected_time":558000000000,"state":"active","ping":52},{"user_id":571,"name":"damiankiller1243","steam_id":76561198868885090,"connected_time":2105000000000,"state":"active","ping":69},{"user_id":526,"name":"Olivia Haas","steam_id":76561198070327681,"connected_time":5960000000000,"state":"active","ping":76},{"user_id":549,"name":"uhooter","steam_id":76561198007829078,"connected_time":4231000000000,"state":"active","ping":76},{"user_id":593,"name":"Big Lily","steam_id":76561198118272624,"connected_time":350000000000,"state":"active","ping":67},{"user_id":595,"name":"Salt Shaman","steam_id":76561198015374828,"connected_time":225000000000,"state":"active","ping":73},{"user_id":592,"name":"cumgoblin","steam_id":76561198113270138,"connected_time":431000000000,"state":"active","ping":50},{"user_id":567,"name":"Dad","steam_id":76561198028617381,"connected_time":2567000000000,"state":"active","ping":82},{"user_id":556,"name":"Wine, Good sir?","steam_id":76561198413806134,"connected_time":3626000000000,"state":"active","ping":63}]},{"server_id":0,"name_short":"","name":"Uncletopia | Los Angeles | 4 | Stopwatch","host":"","port":0,"enabled":false,"region":"","cc":"","latitude":0,"longitude":0,"reserved":0,"last_update":"0001-01-01T00:00:00Z","protocol":17,"map":"cp_process_final","folder":"tf","game":"Team Fortress","app_id":440,"player_count":0,"max_players":24,"Bots":0,"server_type":"Dedicated","server_os":"Linux","password":true,"vac":true,"version":"7961495","steam_id":85568392924510199,"keywords":["cp","nocrits","nodmgspread","uncletopia"],"edicts":[537,2048],"game_id":440,"stv_port":27046,"stv_name":"Uncletopia | Los Angeles | 4 | Stopwatch | STV","players":null},{"server_id":0,"name_short":"","name":"Uncletopia | Frankfurt | 1 | All Maps","host":"","port":0,"enabled":false,"region":"","cc":"","latitude":0,"longitude":0,"reserved":0,"last_update":"0001-01-01T00:00:00Z","protocol":17,"map":"ctf_doublecross","folder":"tf","game":"Team Fortress","app_id":440,"player_count":0,"max_players":24,"Bots":0,"server_type":"Dedicated","server_os":"Linux","password":true,"vac":true,"version":"7961495","steam_id":85568392924469989,"keywords":["ctf","nocrits","nodmgspread","uncletopia"],"edicts":[382,2048],"game_id":440,"stv_port":27016,"stv_name":"Uncletopia | Frankfurt | 1 | All Maps | STV","players":null},{"server_id":0,"name_short":"","name":"Uncletopia | Montréal | 1 | One Thousand Uncles","host":"","port":0,"enabled":false,"region":"","cc":"","latitude":0,"longitude":0,"reserved":0,"last_update":"0001-01-01T00:00:00Z","protocol":17,"map":"pl_goldrush","folder":"tf","game":"Team Fortress","app_id":440,"player_count":0,"max_players":32,"Bots":0,"server_type":"Dedicated","server_os":"Linux","password":true,"vac":true,"version":"7961495","steam_id":85568392924500087,"keywords":["alltalk","danepve","increased_maxplayers","norespawntime","payload","uncletopia"],"edicts":[1133,2048],"game_id":440,"stv_port":0,"stv_name":"","players":null},{"server_id":0,"name_short":"","name":"Uncletopia | Chicago | 1 | All Maps","host":"","port":0,"enabled":false,"region":"","cc":"","latitude":0,"longitude":0,"reserved":0,"last_update":"0001-01-01T00:00:00Z","protocol":17,"map":"koth_highpass","folder":"tf","game":"Team Fortress","app_id":440,"player_count":24,"max_players":24,"Bots":0,"server_type":"Dedicated","server_os":"Linux","password":true,"vac":true,"version":"7961495","steam_id":85568392924469984,"keywords":["cp","nocrits","nodmgspread","uncletopia"],"edicts":[710,2048],"game_id":440,"stv_port":27016,"stv_name":"Uncletopia | Chicago | 1 | All Maps | STV","players":[{"user_id":749,"name":"1-800-GHOST-DANCE","steam_id":76561198835430429,"connected_time":1076000000000,"state":"active","ping":96},{"user_id":709,"name":"Shoeshocker","steam_id":76561198174302467,"connected_time":2977000000000,"state":"active","ping":64},{"user_id":748,"name":"The Assistant loser","steam_id":76561199221484936,"connected_time":1131000000000,"state":"active","ping":113},{"user_id":740,"name":"Moonshine Man","steam_id":76561198088010073,"connected_time":1473000000000,"state":"active","ping":76},{"user_id":750,"name":"scripulous fingore","steam_id":76561198276035441,"connected_time":1006000000000,"state":"active","ping":65},{"user_id":763,"name":"Yummy Kabobz","steam_id":76561198067661705,"connected_time":251000000000,"state":"active","ping":64},{"user_id":765,"name":"Bonk Boy","steam_id":76561199241513961,"connected_time":166000000000,"state":"active","ping":132},{"user_id":716,"name":"AkimboAoki","steam_id":76561198158323058,"connected_time":2841000000000,"state":"active","ping":95},{"user_id":751,"name":"Comradical","steam_id":76561197990808285,"connected_time":1001000000000,"state":"active","ping":69},{"user_id":721,"name":"ÜberBurst inVinci","steam_id":76561198044470684,"connected_time":2341000000000,"state":"active","ping":79},{"user_id":752,"name":"Passionate Map Researcher","steam_id":76561199490508357,"connected_time":866000000000,"state":"active","ping":74},{"user_id":764,"name":"MoonWolf","steam_id":76561198095735033,"connected_time":209000000000,"state":"active","ping":69},{"user_id":726,"name":"mommy","steam_id":76561198129195009,"connected_time":1954000000000,"state":"active","ping":68},{"user_id":758,"name":"Punks | Pride Month \u003c3","steam_id":76561199140940650,"connected_time":716000000000,"state":"active","ping":58},{"user_id":754,"name":"Mellow Yellow","steam_id":76561198406276981,"connected_time":852000000000,"state":"active","ping":53},{"user_id":736,"name":"localloop","steam_id":76561197993291948,"connected_time":1565000000000,"state":"active","ping":103},{"user_id":720,"name":"m9","steam_id":76561198125732157,"connected_time":2355000000000,"state":"active","ping":60},{"user_id":756,"name":"EVIL_BINGUS_KILL_U.667","steam_id":76561198041017977,"connected_time":827000000000,"state":"active","ping":74},{"user_id":759,"name":"Fantastic","steam_id":76561198079088978,"connected_time":714000000000,"state":"active","ping":46},{"user_id":718,"name":"tomandjerry085","steam_id":76561198800789071,"connected_time":2459000000000,"state":"active","ping":104},{"user_id":762,"name":"YeshieSirYesSir","steam_id":76561198080214214,"connected_time":376000000000,"state":"active","ping":41},{"user_id":727,"name":"ALonelyGhostE","steam_id":76561198184787290,"connected_time":1936000000000,"state":"active","ping":62},{"user_id":761,"name":"shitass | pride \u003c3","steam_id":76561198210572481,"connected_time":653000000000,"state":"active","ping":85},{"user_id":633,"name":"IamDORKeegan","steam_id":76561198263695730,"connected_time":8775000000000,"state":"active","ping":82}]},{"server_id":0,"name_short":"","name":"Uncletopia | Chicago | 2 | All Maps","host":"","port":0,"enabled":false,"region":"","cc":"","latitude":0,"longitude":0,"reserved":0,"last_update":"0001-01-01T00:00:00Z","protocol":17,"map":"pl_frontier_final","folder":"tf","game":"Team Fortress","app_id":440,"player_count":0,"max_players":24,"Bots":0,"server_type":"Dedicated","server_os":"Linux","password":true,"vac":true,"version":"7961495","steam_id":85568392924469985,"keywords":["nocrits","nodmgspread","payload","uncletopia"],"edicts":[744,2048],"game_id":440,"stv_port":27026,"stv_name":"Uncletopia | Chicago | 2 | All Maps | STV","players":null},{"server_id":0,"name_short":"","name":"Uncletopia | San Francisco | 3 | Stopwatch","host":"","port":0,"enabled":false,"region":"","cc":"","latitude":0,"longitude":0,"reserved":0,"last_update":"0001-01-01T00:00:00Z","protocol":17,"map":"pl_vigil_rc10","folder":"tf","game":"Team Fortress","app_id":440,"player_count":0,"max_players":24,"Bots":0,"server_type":"Dedicated","server_os":"Linux","password":true,"vac":true,"version":"7961495","steam_id":85568392924742824,"keywords":["nocrits","nodmgspread","payload","uncletopia"],"edicts":[960,2048],"game_id":440,"stv_port":27036,"stv_name":"Uncletopia | San Francisco | 3 | Stopwatch | STV","players":null},{"server_id":0,"name_short":"","name":"Uncletopia | Warsaw | 4 | All Maps","host":"","port":0,"enabled":false,"region":"","cc":"","latitude":0,"longitude":0,"reserved":0,"last_update":"0001-01-01T00:00:00Z","protocol":17,"map":"ctf_turbine","folder":"tf","game":"Team Fortress","app_id":440,"player_count":0,"max_players":24,"Bots":0,"server_type":"Dedicated","server_os":"Linux","password":true,"vac":true,"version":"7961495","steam_id":85568392925397853,"keywords":["ctf","nocrits","nodmgspread","uncletopia"],"edicts":[293,2048],"game_id":440,"stv_port":27046,"stv_name":"Uncletopia | Warsaw | 4 | All Maps | STV","players":null},{"server_id":0,"name_short":"","name":"Uncletopia | Chicago | 8 | Community","host":"","port":0,"enabled":false,"region":"","cc":"","latitude":0,"longitude":0,"reserved":0,"last_update":"0001-01-01T00:00:00Z","protocol":17,"map":"koth_bagel_rc6","folder":"tf","game":"Team Fortress","app_id":440,"player_count":0,"max_players":24,"Bots":0,"server_type":"Dedicated","server_os":"Linux","password":true,"vac":true,"version":"7961495","steam_id":85568392924866365,"keywords":["cp","nocrits","nodmgspread","uncletopia"],"edicts":[598,2048],"game_id":440,"stv_port":27046,"stv_name":"Uncletopia | Chicago | 8 | Community | STV","players":null},{"server_id":0,"name_short":"","name":"Uncletopia | London | 1 | All Maps","host":"","port":0,"enabled":false,"region":"","cc":"","latitude":0,"longitude":0,"reserved":0,"last_update":"0001-01-01T00:00:00Z","protocol":17,"map":"koth_cascade","folder":"tf","game":"Team Fortress","app_id":440,"player_count":0,"max_players":24,"Bots":0,"server_type":"Dedicated","server_os":"Linux","password":true,"vac":true,"version":"7961495","steam_id":85568392924367362,"keywords":["cp","nocrits","nodmgspread","uncletopia"],"edicts":[544,2048],"game_id":440,"stv_port":27016,"stv_name":"Uncletopia | London | 1 | All Maps | STV","players":null},{"server_id":0,"name_short":"","name":"Uncletopia | Frankfurt | 2 | All Maps","host":"","port":0,"enabled":false,"region":"","cc":"","latitude":0,"longitude":0,"reserved":0,"last_update":"0001-01-01T00:00:00Z","protocol":17,"map":"cp_coldfront","folder":"tf","game":"Team Fortress","app_id":440,"player_count":0,"max_players":24,"Bots":0,"server_type":"Dedicated","server_os":"Linux","password":true,"vac":true,"version":"7961495","steam_id":85568392924469990,"keywords":["cp","nocrits","nodmgspread","uncletopia"],"edicts":[811,2048],"game_id":440,"stv_port":27026,"stv_name":"Uncletopia | Frankfurt | 2 | All Maps | STV","players":null},{"server_id":0,"name_short":"","name":"Uncletopia | New York City | 4 | Community","host":"","port":0,"enabled":false,"region":"","cc":"","latitude":0,"longitude":0,"reserved":0,"last_update":"0001-01-01T00:00:00Z","protocol":17,"map":"cp_villa_b19","folder":"tf","game":"Team Fortress","app_id":440,"player_count":0,"max_players":24,"Bots":0,"server_type":"Dedicated","server_os":"Linux","password":true,"vac":true,"version":"7961495","steam_id":85568392924742821,"keywords":["cp","nocrits","nodmgspread","uncletopia"],"edicts":[441,2048],"game_id":440,"stv_port":27046,"stv_name":"Uncletopia | New York City | 4 | Community | STV","players":null},{"server_id":0,"name_short":"","name":"Uncletopia | Hong Kong | 1 | All Maps","host":"","port":0,"enabled":false,"region":"","cc":"","latitude":0,"longitude":0,"reserved":0,"last_update":"0001-01-01T00:00:00Z","protocol":17,"map":"pl_pier","folder":"tf","game":"Team Fortress","app_id":440,"player_count":10,"max_players":24,"Bots":0,"server_type":"Dedicated","server_os":"Linux","password":true,"vac":true,"version":"7961495","steam_id":85568392924494504,"keywords":["nocrits","nodmgspread","payload","uncletopia"],"edicts":[1075,2048],"game_id":440,"stv_port":27016,"stv_name":"Uncletopia | Hong Kong | 1 | All Maps | STV","players":[{"user_id":16,"name":"MS PowerPoint","steam_id":76561198369523192,"connected_time":2758000000000,"state":"active","ping":72},{"user_id":22,"name":"Lady D.","steam_id":76561199225360457,"connected_time":1186000000000,"state":"active","ping":62},{"user_id":23,"name":"coakDeLera","steam_id":76561199262817512,"connected_time":1003000000000,"state":"active","ping":61},{"user_id":25,"name":"Ratboi7Street","steam_id":76561199222913157,"connected_time":982000000000,"state":"active","ping":66},{"user_id":26,"name":"Xx_EpicTrickstabber_xX","steam_id":76561199024960087,"connected_time":777000000000,"state":"active","ping":59},{"user_id":32,"name":"shawarma","steam_id":76561198123030534,"connected_time":77000000000,"state":"active","ping":66},{"user_id":28,"name":"a musian","steam_id":76561198152588681,"connected_time":431000000000,"state":"active","ping":83},{"user_id":29,"name":"epikman","steam_id":76561199478876227,"connected_time":252000000000,"state":"active","ping":90},{"user_id":30,"name":"lorey","steam_id":76561199137927625,"connected_time":190000000000,"state":"active","ping":89},{"user_id":31,"name":"cheese5451212","steam_id":76561199146131556,"connected_time":152000000000,"state":"active","ping":120}]},{"server_id":0,"name_short":"","name":"Uncletopia | New York City | 3 | Stopwatch","host":"","port":0,"enabled":false,"region":"","cc":"","latitude":0,"longitude":0,"reserved":0,"last_update":"0001-01-01T00:00:00Z","protocol":17,"map":"pl_upward","folder":"tf","game":"Team Fortress","app_id":440,"player_count":2,"max_players":24,"Bots":0,"server_type":"Dedicated","server_os":"Linux","password":true,"vac":true,"version":"7961495","steam_id":85568392924742820,"keywords":["nocrits","nodmgspread","payload","uncletopia"],"edicts":[676,2048],"game_id":440,"stv_port":27036,"stv_name":"Uncletopia | New York City | 3 | Stopwatch | STV","players":[{"user_id":21,"name":"Professional Medic GF","steam_id":76561199174621620,"connected_time":1164000000000,"state":"active","ping":68},{"user_id":20,"name":"Scythex","steam_id":76561199509754003,"connected_time":1469000000000,"state":"active","ping":77}]},{"server_id":0,"name_short":"","name":"Uncletopia | Atlanta | 1 | All Maps","host":"","port":0,"enabled":false,"region":"","cc":"","latitude":0,"longitude":0,"reserved":0,"last_update":"0001-01-01T00:00:00Z","protocol":17,"map":"pl_badwater","folder":"tf","game":"Team Fortress","app_id":440,"player_count":24,"max_players":24,"Bots":0,"server_type":"Dedicated","server_os":"Linux","password":true,"vac":true,"version":"7961495","steam_id":85568392924469982,"keywords":["nocrits","nodmgspread","payload","uncletopia"],"edicts":[972,2048],"game_id":440,"stv_port":27016,"stv_name":"Uncletopia | Atlanta | 1 | All Maps | STV","players":[{"user_id":682,"name":"The One True Luke","steam_id":76561198180891187,"connected_time":987000000000,"state":"active","ping":74},{"user_id":691,"name":"SupJon","steam_id":76561198204403679,"connected_time":529000000000,"state":"active","ping":60},{"user_id":688,"name":"Bl@z1ng","steam_id":76561198125550780,"connected_time":599000000000,"state":"active","ping":55},{"user_id":694,"name":"imma let my nuts hang","steam_id":76561198097544038,"connected_time":146000000000,"state":"active","ping":102},{"user_id":681,"name":"Facehurt","steam_id":76561198028504034,"connected_time":1032000000000,"state":"active","ping":121},{"user_id":685,"name":"Dullahan","steam_id":76561198119668908,"connected_time":712000000000,"state":"active","ping":116},{"user_id":588,"name":"Thotimus Begonimus","steam_id":76561197970275938,"connected_time":8697000000000,"state":"active","ping":45},{"user_id":661,"name":"ash","steam_id":76561198127890645,"connected_time":2285000000000,"state":"active","ping":71},{"user_id":637,"name":"aurro","steam_id":76561198315692300,"connected_time":4917000000000,"state":"active","ping":74},{"user_id":573,"name":"Shmoopy","steam_id":76561198030459152,"connected_time":11269000000000,"state":"active","ping":60},{"user_id":686,"name":"GreenApples","steam_id":76561198120559543,"connected_time":703000000000,"state":"active","ping":118},{"user_id":693,"name":"skafan777","steam_id":76561198386344068,"connected_time":192000000000,"state":"active","ping":75},{"user_id":667,"name":"Wyatt","steam_id":76561198247378770,"connected_time":1164000000000,"state":"active","ping":60},{"user_id":668,"name":"Sleepy Sounds","steam_id":76561198397009880,"connected_time":1152000000000,"state":"active","ping":47},{"user_id":673,"name":"DuckMann","steam_id":76561198197058638,"connected_time":1087000000000,"state":"active","ping":46},{"user_id":674,"name":"ChimpusGaming","steam_id":76561198060954715,"connected_time":1087000000000,"state":"active","ping":53},{"user_id":675,"name":"DOOMBRINGER_","steam_id":76561198038523571,"connected_time":1082000000000,"state":"active","ping":75},{"user_id":689,"name":"slammin","steam_id":76561197965022076,"connected_time":591000000000,"state":"active","ping":75},{"user_id":676,"name":"Misty ♥","steam_id":76561198011442255,"connected_time":1076000000000,"state":"active","ping":115},{"user_id":677,"name":"evdoke","steam_id":76561198044555219,"connected_time":1075000000000,"state":"active","ping":60},{"user_id":678,"name":"Fostrel","steam_id":76561198152160601,"connected_time":1066000000000,"state":"active","ping":72},{"user_id":690,"name":"BLØRG","steam_id":76561198036126673,"connected_time":581000000000,"state":"active","ping":100},{"user_id":680,"name":"Shrebbie","steam_id":76561198875230824,"connected_time":1048000000000,"state":"active","ping":69},{"user_id":630,"name":"Night time Dan","steam_id":76561199022178492,"connected_time":5859000000000,"state":"active","ping":53}]},{"server_id":0,"name_short":"","name":"Uncletopia | San Francisco | 4 | Community","host":"","port":0,"enabled":false,"region":"","cc":"","latitude":0,"longitude":0,"reserved":0,"last_update":"0001-01-01T00:00:00Z","protocol":17,"map":"rd_asteroid_redux_b1","folder":"tf","game":"Team Fortress","app_id":440,"player_count":0,"max_players":24,"Bots":0,"server_type":"Dedicated","server_os":"Linux","password":true,"vac":true,"version":"7961495","steam_id":85568392924742826,"keywords":["beta","nocrits","nodmgspread","rd","uncletopia"],"edicts":[932,2048],"game_id":440,"stv_port":27046,"stv_name":"Uncletopia | San Francisco | 4 | Community | STV","players":null},{"server_id":0,"name_short":"","name":"Uncletopia | Seattle | 1 | All Maps","host":"","port":0,"enabled":false,"region":"","cc":"","latitude":0,"longitude":0,"reserved":0,"last_update":"0001-01-01T00:00:00Z","protocol":17,"map":"pl_badwater","folder":"tf","game":"Team Fortress","app_id":440,"player_count":24,"max_players":24,"Bots":0,"server_type":"Dedicated","server_os":"Linux","password":true,"vac":true,"version":"7961495","steam_id":85568392924469997,"keywords":["nocrits","nodmgspread","payload","uncletopia"],"edicts":[979,2048],"game_id":440,"stv_port":27016,"stv_name":"Uncletopia | Seattle | 1 | All Maps | STV","players":[{"user_id":724,"name":"FlexDaddy","steam_id":76561198039724086,"connected_time":111000000000,"state":"active","ping":96},{"user_id":725,"name":"rat gets the cheese","steam_id":76561198031234032,"connected_time":87000000000,"state":"active","ping":104},{"user_id":721,"name":"L-","steam_id":76561198046074220,"connected_time":329000000000,"state":"active","ping":72},{"user_id":722,"name":"Ayayayayayayayayayayayayahuasca","steam_id":76561199002906056,"connected_time":318000000000,"state":"active","ping":46},{"user_id":710,"name":"coco","steam_id":76561199488457138,"connected_time":1204000000000,"state":"active","ping":67},{"user_id":631,"name":"Banana Man","steam_id":76561199012105803,"connected_time":7683000000000,"state":"active","ping":54},{"user_id":726,"name":"Many Bees' Chilling","steam_id":76561198079641282,"connected_time":62000000000,"state":"active","ping":58},{"user_id":727,"name":"Penis Man","steam_id":76561198947885613,"connected_time":56000000000,"state":"active","ping":78},{"user_id":728,"name":"Mom","steam_id":76561198207936000,"connected_time":34000000000,"state":"active","ping":60},{"user_id":664,"name":"dust | it/she","steam_id":76561198045218909,"connected_time":3678000000000,"state":"active","ping":45},{"user_id":673,"name":"Warbomb","steam_id":76561198004312859,"connected_time":3579000000000,"state":"active","ping":130},{"user_id":713,"name":"MCman","steam_id":76561198412110305,"connected_time":992000000000,"state":"active","ping":84},{"user_id":720,"name":"soup","steam_id":76561198043209046,"connected_time":604000000000,"state":"active","ping":79},{"user_id":702,"name":"cowboy","steam_id":76561198266320078,"connected_time":2458000000000,"state":"active","ping":124},{"user_id":712,"name":"Igrium","steam_id":76561198119549811,"connected_time":1102000000000,"state":"active","ping":78},{"user_id":703,"name":"Preston","steam_id":76561198255721392,"connected_time":2445000000000,"state":"active","ping":125},{"user_id":706,"name":"Bee","steam_id":76561198074681324,"connected_time":2134000000000,"state":"active","ping":110},{"user_id":707,"name":"exephur","steam_id":76561198135763234,"connected_time":2101000000000,"state":"active","ping":63},{"user_id":696,"name":"Mignyanne :3","steam_id":76561198048754056,"connected_time":3038000000000,"state":"active","ping":60},{"user_id":659,"name":"MineOpal","steam_id":76561198044716407,"connected_time":4634000000000,"state":"active","ping":75},{"user_id":723,"name":"Lord Hater","steam_id":76561199158148782,"connected_time":317000000000,"state":"active","ping":57},{"user_id":653,"name":"Nom Skirrett","steam_id":76561198014600788,"connected_time":4866000000000,"state":"active","ping":63},{"user_id":709,"name":"Streamline","steam_id":76561198031098638,"connected_time":1299000000000,"state":"active","ping":102},{"user_id":684,"name":"PvZ Enthusiast","steam_id":76561199089562026,"connected_time":3348000000000,"state":"active","ping":52}]},{"server_id":0,"name_short":"","name":"Uncletopia | San Francisco | 1 | All Maps","host":"","port":0,"enabled":false,"region":"","cc":"","latitude":0,"longitude":0,"reserved":0,"last_update":"0001-01-01T00:00:00Z","protocol":17,"map":"pl_borneo","folder":"tf","game":"Team Fortress","app_id":440,"player_count":19,"max_players":24,"Bots":0,"server_type":"Dedicated","server_os":"Linux","password":true,"vac":true,"version":"7961495","steam_id":85568392924469999,"keywords":["nocrits","nodmgspread","payload","uncletopia"],"edicts":[887,2048],"game_id":440,"stv_port":27016,"stv_name":"Uncletopia | San Francisco | 1 | All Maps | STV","players":[{"user_id":69,"name":"calliecat","steam_id":76561198131833567,"connected_time":593000000000,"state":"active","ping":58},{"user_id":32,"name":"|ərsatz|","steam_id":76561198011583236,"connected_time":3004000000000,"state":"active","ping":72},{"user_id":78,"name":"all out of mountain dew","steam_id":76561198121468734,"connected_time":76000000000,"state":"active","ping":65},{"user_id":79,"name":"jellyjiggler45","steam_id":76561198144451401,"connected_time":29000000000,"state":"active","ping":64},{"user_id":80,"name":"x","steam_id":76561198359634841,"connected_time":19000000000,"state":"spawning","ping":45},{"user_id":72,"name":"bcizzo","steam_id":76561197994399953,"connected_time":255000000000,"state":"active","ping":54},{"user_id":73,"name":"Bravo","steam_id":76561198985135308,"connected_time":248000000000,"state":"active","ping":45},{"user_id":56,"name":"♦♣Quadric♥♠","steam_id":76561198061003853,"connected_time":1840000000000,"state":"active","ping":103},{"user_id":74,"name":"g0nk","steam_id":76561198838309024,"connected_time":243000000000,"state":"active","ping":82},{"user_id":76,"name":"Khrono691","steam_id":76561198246227600,"connected_time":120000000000,"state":"active","ping":50},{"user_id":70,"name":"☭Borris☭","steam_id":76561198011136886,"connected_time":522000000000,"state":"active","ping":55},{"user_id":57,"name":"Lambchop","steam_id":76561198043900363,"connected_time":1808000000000,"state":"active","ping":56},{"user_id":45,"name":"Kepa","steam_id":76561198091975728,"connected_time":2518000000000,"state":"active","ping":79},{"user_id":42,"name":"Matches_                       ","steam_id":76561198048925904,"connected_time":2588000000000,"state":"active","ping":67},{"user_id":64,"name":"Junowo","steam_id":76561199136179696,"connected_time":1278000000000,"state":"active","ping":129},{"user_id":50,"name":"SauceProphet","steam_id":76561198093794383,"connected_time":2452000000000,"state":"active","ping":60},{"user_id":68,"name":"TimeSnake","steam_id":76561198052098233,"connected_time":607000000000,"state":"active","ping":46},{"user_id":52,"name":"HOG RIDER","steam_id":76561198298589502,"connected_time":2419000000000,"state":"active","ping":55},{"user_id":54,"name":"Pann","steam_id":76561198086683667,"connected_time":2216000000000,"state":"active","ping":74}]},{"server_id":0,"name_short":"","name":"Uncletopia | London | 3 | All Maps","host":"","port":0,"enabled":false,"region":"","cc":"","latitude":0,"longitude":0,"reserved":0,"last_update":"0001-01-01T00:00:00Z","protocol":17,"map":"cp_altitude","folder":"tf","game":"Team Fortress","app_id":440,"player_count":7,"max_players":24,"Bots":0,"server_type":"Dedicated","server_os":"Linux","password":true,"vac":true,"version":"7961495","steam_id":85568392924510192,"keywords":["cp","nocrits","nodmgspread","uncletopia"],"edicts":[571,2048],"game_id":440,"stv_port":27036,"stv_name":"Uncletopia | London | 3 | All Maps | STV","players":[{"user_id":553,"name":"CarbonPan","steam_id":76561198072169983,"connected_time":3351000000000,"state":"active","ping":94},{"user_id":567,"name":"downtown macklemore","steam_id":76561199071046224,"connected_time":106000000000,"state":"active","ping":201},{"user_id":568,"name":"Jotun","steam_id":76561199015161498,"connected_time":101000000000,"state":"active","ping":68},{"user_id":569,"name":"jonbob","steam_id":76561197963506620,"connected_time":50000000000,"state":"active","ping":50},{"user_id":548,"name":"WaryShadow","steam_id":76561198067922790,"connected_time":4214000000000,"state":"active","ping":56},{"user_id":522,"name":"CumbustiblePunda","steam_id":76561197974274677,"connected_time":6975000000000,"state":"active","ping":61}]},{"server_id":0,"name_short":"","name":"Uncletopia | London | 8 | Community","host":"","port":0,"enabled":false,"region":"","cc":"","latitude":0,"longitude":0,"reserved":0,"last_update":"0001-01-01T00:00:00Z","protocol":17,"map":"cp_propaganda_b18","folder":"tf","game":"Team Fortress","app_id":440,"player_count":0,"max_players":24,"Bots":0,"server_type":"Dedicated","server_os":"Linux","password":true,"vac":true,"version":"7961495","steam_id":85568392924964315,"keywords":["cp","nocrits","nodmgspread","uncletopia"],"edicts":[412,2048],"game_id":440,"stv_port":27086,"stv_name":"Uncletopia | London | 8 | Community | STV","players":null},{"server_id":0,"name_short":"","name":"Uncletopia | Frankfurt | 5 | All Maps","host":"","port":0,"enabled":false,"region":"","cc":"","latitude":0,"longitude":0,"reserved":0,"last_update":"0001-01-01T00:00:00Z","protocol":17,"map":"ctf_landfall","folder":"tf","game":"Team Fortress","app_id":440,"player_count":0,"max_players":24,"Bots":0,"server_type":"Dedicated","server_os":"Linux","password":true,"vac":true,"version":"7961495","steam_id":85568392924504277,"keywords":["ctf","nocrits","nodmgspread","uncletopia"],"edicts":[522,2048],"game_id":440,"stv_port":27056,"stv_name":"Uncletopia | Frankfurt | 5 | All Maps | STV","players":null},{"server_id":0,"name_short":"","name":"Uncletopia | Montréal | 3 | One Thousand Uncles","host":"","port":0,"enabled":false,"region":"","cc":"","latitude":0,"longitude":0,"reserved":0,"last_update":"0001-01-01T00:00:00Z","protocol":17,"map":"cp_dustbowl","folder":"tf","game":"Team Fortress","app_id":440,"player_count":0,"max_players":32,"Bots":0,"server_type":"Dedicated","server_os":"Linux","password":true,"vac":true,"version":"7961495","steam_id":85568392924500089,"keywords":["alltalk","cp","danepve","increased_maxplayers","norespawntime","uncletopia"],"edicts":[736,2048],"game_id":440,"stv_port":0,"stv_name":"","players":null},{"server_id":0,"name_short":"","name":"Uncletopia | Seattle | 3 | Stopwatch","host":"","port":0,"enabled":false,"region":"","cc":"","latitude":0,"longitude":0,"reserved":0,"last_update":"0001-01-01T00:00:00Z","protocol":17,"map":"koth_product_final","folder":"tf","game":"Team Fortress","app_id":440,"player_count":0,"max_players":24,"Bots":0,"server_type":"Dedicated","server_os":"Linux","password":true,"vac":true,"version":"7961495","steam_id":85568392924515217,"keywords":["cp","nocrits","nodmgspread","uncletopia"],"edicts":[354,2048],"game_id":440,"stv_port":27036,"stv_name":"Uncletopia | Seattle | 3 | Stopwatch | STV","players":null},{"server_id":0,"name_short":"","name":"Uncletopia | San Francisco | 2 | All Maps","host":"","port":0,"enabled":false,"region":"","cc":"","latitude":0,"longitude":0,"reserved":0,"last_update":"0001-01-01T00:00:00Z","protocol":17,"map":"cp_mountainlab","folder":"tf","game":"Team Fortress","app_id":440,"player_count":0,"max_players":24,"Bots":0,"server_type":"Dedicated","server_os":"Linux","password":true,"vac":true,"version":"7961495","steam_id":85568392924470000,"keywords":["cp","nocrits","nodmgspread","uncletopia"],"edicts":[534,2048],"game_id":440,"stv_port":27026,"stv_name":"Uncletopia | San Francisco | 2 | All Maps | STV","players":null},{"server_id":0,"name_short":"","name":"Uncletopia | Los Angeles | 3 | All Maps","host":"","port":0,"enabled":false,"region":"","cc":"","latitude":0,"longitude":0,"reserved":0,"last_update":"0001-01-01T00:00:00Z","protocol":17,"map":"pl_upward","folder":"tf","game":"Team Fortress","app_id":440,"player_count":24,"max_players":24,"Bots":0,"server_type":"Dedicated","server_os":"Linux","password":true,"vac":true,"version":"7961495","steam_id":85568392924510198,"keywords":["nocrits","nodmgspread","payload","uncletopia"],"edicts":[948,2048],"game_id":440,"stv_port":27036,"stv_name":"Uncletopia | Los Angeles | 3 | All Maps | STV","players":[{"user_id":115,"name":"PurplePond","steam_id":76561199062421006,"connected_time":1634000000000,"state":"active","ping":98},{"user_id":87,"name":"Zykron","steam_id":76561199056400800,"connected_time":3523000000000,"state":"active","ping":53},{"user_id":121,"name":"Satori Komeiji","steam_id":76561198158211423,"connected_time":972000000000,"state":"active","ping":34},{"user_id":113,"name":"adapt","steam_id":76561198156181017,"connected_time":1766000000000,"state":"active","ping":59},{"user_id":120,"name":"bbbbbb","steam_id":76561198096515729,"connected_time":999000000000,"state":"active","ping":63},{"user_id":59,"name":"Ian","steam_id":76561198159334435,"connected_time":6709000000000,"state":"active","ping":167},{"user_id":99,"name":"Gangsta Duck Odyssey","steam_id":76561198451934271,"connected_time":2803000000000,"state":"active","ping":115},{"user_id":78,"name":"Scoops M'Gooch","steam_id":76561198048423812,"connected_time":3936000000000,"state":"active","ping":60},{"user_id":124,"name":"BoxCann0n","steam_id":76561199153390130,"connected_time":827000000000,"state":"active","ping":170},{"user_id":128,"name":"I am Koda","steam_id":76561198049951515,"connected_time":533000000000,"state":"active","ping":53},{"user_id":130,"name":"APOTATO","steam_id":76561198118199858,"connected_time":388000000000,"state":"active","ping":59},{"user_id":126,"name":"Owl_eyes","steam_id":76561198066199203,"connected_time":655000000000,"state":"active","ping":61},{"user_id":85,"name":"Excalibrine","steam_id":76561198129312118,"connected_time":3613000000000,"state":"active","ping":61},{"user_id":104,"name":"Addii","steam_id":76561199088297605,"connected_time":2216000000000,"state":"active","ping":97},{"user_id":131,"name":"Chalupa Jones","steam_id":76561198335855588,"connected_time":112000000000,"state":"active","ping":46},{"user_id":102,"name":"TacoMan4Life","steam_id":76561198832562728,"connected_time":2763000000000,"state":"active","ping":56},{"user_id":76,"name":"Ralph Kramden (Slim Charles)","steam_id":76561197981687895,"connected_time":4067000000000,"state":"active","ping":49},{"user_id":123,"name":"Highjacker","steam_id":76561198189992567,"connected_time":887000000000,"state":"active","ping":89},{"user_id":118,"name":"SAVECASEY","steam_id":76561198857896847,"connected_time":1182000000000,"state":"active","ping":47},{"user_id":132,"name":"No one Important","steam_id":76561198301756505,"connected_time":31000000000,"state":"spawning","ping":108},{"user_id":95,"name":"Humble Learner","steam_id":76561198066091050,"connected_time":3264000000000,"state":"active","ping":78},{"user_id":114,"name":"Mystic","steam_id":76561198258167406,"connected_time":1762000000000,"state":"active","ping":95},{"user_id":65,"name":"number 24","steam_id":76561198350246784,"connected_time":6151000000000,"state":"active","ping":57},{"user_id":94,"name":"lol","steam_id":76561198026491738,"connected_time":3276000000000,"state":"active","ping":66}]},{"server_id":0,"name_short":"","name":"Uncletopia | London | 4 | All Maps","host":"","port":0,"enabled":false,"region":"","cc":"","latitude":0,"longitude":0,"reserved":0,"last_update":"0001-01-01T00:00:00Z","protocol":17,"map":"cp_process_final","folder":"tf","game":"Team Fortress","app_id":440,"player_count":0,"max_players":24,"Bots":0,"server_type":"Dedicated","server_os":"Linux","password":true,"vac":true,"version":"7961495","steam_id":85568392924510193,"keywords":["cp","nocrits","nodmgspread","uncletopia"],"edicts":[538,2048],"game_id":440,"stv_port":27046,"stv_name":"Uncletopia | London | 4 | All Maps | STV","players":null},{"server_id":0,"name_short":"","name":"Uncletopia | London | 2 | All Maps","host":"","port":0,"enabled":false,"region":"","cc":"","latitude":0,"longitude":0,"reserved":0,"last_update":"0001-01-01T00:00:00Z","protocol":17,"map":"koth_highpass","folder":"tf","game":"Team Fortress","app_id":440,"player_count":0,"max_players":24,"Bots":0,"server_type":"Dedicated","server_os":"Linux","password":true,"vac":true,"version":"7961495","steam_id":85568392924470941,"keywords":["cp","nocrits","nodmgspread","uncletopia"],"edicts":[413,2048],"game_id":440,"stv_port":27026,"stv_name":"Uncletopia | London | 2 | All Maps | STV","players":null},{"server_id":0,"name_short":"","name":"Uncletopia | London | 6 | All Maps","host":"","port":0,"enabled":false,"region":"","cc":"","latitude":0,"longitude":0,"reserved":0,"last_update":"0001-01-01T00:00:00Z","protocol":17,"map":"koth_cascade","folder":"tf","game":"Team Fortress","app_id":440,"player_count":0,"max_players":24,"Bots":0,"server_type":"Dedicated","server_os":"Linux","password":true,"vac":true,"version":"7961495","steam_id":85568392924742830,"keywords":["cp","nocrits","nodmgspread","uncletopia"],"edicts":[546,2048],"game_id":440,"stv_port":27066,"stv_name":"Uncletopia | London | 6 | All Maps | STV","players":null},{"server_id":0,"name_short":"","name":"Uncletopia | Chicago | 6 | All Maps","host":"","port":0,"enabled":false,"region":"","cc":"","latitude":0,"longitude":0,"reserved":0,"last_update":"0001-01-01T00:00:00Z","protocol":17,"map":"pl_frontier_final","folder":"tf","game":"Team Fortress","app_id":440,"player_count":23,"max_players":24,"Bots":0,"server_type":"Dedicated","server_os":"Linux","password":true,"vac":true,"version":"7961495","steam_id":85568392924866363,"keywords":["nocrits","nodmgspread","payload","uncletopia"],"edicts":[1009,2048],"game_id":440,"stv_port":27026,"stv_name":"Uncletopia | Chicago | 6 | All Maps | STV","players":[{"user_id":352,"name":"Mana_Kaktus","steam_id":76561198110468307,"connected_time":1624000000000,"state":"active","ping":94},{"user_id":273,"name":"Spezza","steam_id":76561198237518156,"connected_time":7426000000000,"state":"active","ping":96},{"user_id":338,"name":"OWEENIE","steam_id":76561198083135927,"connected_time":3707000000000,"state":"active","ping":45},{"user_id":310,"name":"苹果农夫","steam_id":76561198048013802,"connected_time":5394000000000,"state":"active","ping":90},{"user_id":355,"name":"Adam9","steam_id":76561198272853331,"connected_time":1601000000000,"state":"active","ping":65},{"user_id":308,"name":"Verily","steam_id":76561198200558318,"connected_time":5530000000000,"state":"active","ping":87},{"user_id":356,"name":"Boofenshmirtz","steam_id":76561198071649858,"connected_time":1597000000000,"state":"active","ping":69},{"user_id":340,"name":"larguu","steam_id":76561197994336210,"connected_time":3675000000000,"state":"active","ping":60},{"user_id":363,"name":"crazey","steam_id":76561198286510667,"connected_time":72000000000,"state":"active","ping":104},{"user_id":336,"name":"Wenanow Jr.","steam_id":76561198087785073,"connected_time":3955000000000,"state":"active","ping":82},{"user_id":358,"name":"glam","steam_id":76561198059570070,"connected_time":1548000000000,"state":"active","ping":54},{"user_id":351,"name":"Spy achungus","steam_id":76561198135651070,"connected_time":1933000000000,"state":"active","ping":77},{"user_id":350,"name":"CHIEF_JUSTICE_FUCKASS","steam_id":76561199261675844,"connected_time":2646000000000,"state":"active","ping":100},{"user_id":333,"name":"Rat","steam_id":76561198128926034,"connected_time":4123000000000,"state":"active","ping":62},{"user_id":341,"name":"Koffy","steam_id":76561198184386039,"connected_time":3668000000000,"state":"active","ping":138},{"user_id":347,"name":"guy","steam_id":76561198163306561,"connected_time":3540000000000,"state":"active","ping":79},{"user_id":360,"name":"doughboy","steam_id":76561198219012928,"connected_time":1514000000000,"state":"active","ping":107},{"user_id":353,"name":"Yongle","steam_id":76561198068591156,"connected_time":1617000000000,"state":"active","ping":58},{"user_id":361,"name":"Sarbanes-Oxley","steam_id":76561197975898479,"connected_time":1510000000000,"state":"active","ping":77},{"user_id":269,"name":"1 Great Wooden Dad","steam_id":76561198377126974,"connected_time":7576000000000,"state":"active","ping":67},{"user_id":349,"name":"lilscot","steam_id":76561198099212453,"connected_time":2935000000000,"state":"active","ping":69},{"user_id":348,"name":"Crescent","steam_id":76561198095124633,"connected_time":3337000000000,"state":"active","ping":74},{"user_id":345,"name":"Titar Industries","steam_id":76561198143078476,"connected_time":3646000000000,"state":"active","ping":67}]},{"server_id":0,"name_short":"","name":"Uncletopia | Dallas | 4 | Community","host":"","port":0,"enabled":false,"region":"","cc":"","latitude":0,"longitude":0,"reserved":0,"last_update":"0001-01-01T00:00:00Z","protocol":17,"map":"cp_glassworks_rc7a","folder":"tf","game":"Team Fortress","app_id":440,"player_count":0,"max_players":24,"Bots":0,"server_type":"Dedicated","server_os":"Linux","password":true,"vac":true,"version":"7961495","steam_id":85568392924515220,"keywords":["cp","nocrits","nodmgspread","uncletopia"],"edicts":[709,2048],"game_id":440,"stv_port":27046,"stv_name":"Uncletopia | Dallas | 4 | Community | STV","players":null},{"server_id":0,"name_short":"","name":"Uncletopia | Frankfurt | 8 | Community","host":"","port":0,"enabled":false,"region":"","cc":"","latitude":0,"longitude":0,"reserved":0,"last_update":"0001-01-01T00:00:00Z","protocol":17,"map":"pl_stallberg_rc3","folder":"tf","game":"Team Fortress","app_id":440,"player_count":0,"max_players":24,"Bots":0,"server_type":"Dedicated","server_os":"Linux","password":true,"vac":true,"version":"7961495","steam_id":85568392924742828,"keywords":["nocrits","nodmgspread","payload","uncletopia"],"edicts":[614,2048],"game_id":440,"stv_port":27086,"stv_name":"Uncletopia | Frankfurt | 8 | Community | STV","players":null},{"server_id":0,"name_short":"","name":"Uncletopia | London | 5 | All Maps","host":"","port":0,"enabled":false,"region":"","cc":"","latitude":0,"longitude":0,"reserved":0,"last_update":"0001-01-01T00:00:00Z","protocol":17,"map":"pl_upward","folder":"tf","game":"Team Fortress","app_id":440,"player_count":0,"max_players":24,"Bots":0,"server_type":"Dedicated","server_os":"Linux","password":true,"vac":true,"version":"7961495","steam_id":85568392924742829,"keywords":["nocrits","nodmgspread","payload","uncletopia"],"edicts":[657,2048],"game_id":440,"stv_port":27056,"stv_name":"Uncletopia | London | 5 | All Maps | STV","players":null},{"server_id":0,"name_short":"","name":"Uncletopia | Frankfurt | 6 | All Maps","host":"","port":0,"enabled":false,"region":"","cc":"","latitude":0,"longitude":0,"reserved":0,"last_update":"0001-01-01T00:00:00Z","protocol":17,"map":"cp_steel","folder":"tf","game":"Team Fortress","app_id":440,"player_count":0,"max_players":24,"Bots":0,"server_type":"Dedicated","server_os":"Linux","password":true,"vac":true,"version":"7961495","steam_id":85568392924504278,"keywords":["cp","nocrits","nodmgspread","uncletopia"],"edicts":[837,2048],"game_id":440,"stv_port":27066,"stv_name":"Uncletopia | Frankfurt | 6 | All Maps | STV","players":null},{"server_id":0,"name_short":"","name":"Uncletopia | Sydney | 3 | All Maps","host":"","port":0,"enabled":false,"region":"","cc":"","latitude":0,"longitude":0,"reserved":0,"last_update":"0001-01-01T00:00:00Z","protocol":17,"map":"koth_brazil","folder":"tf","game":"Team Fortress","app_id":440,"player_count":0,"max_players":24,"Bots":0,"server_type":"Dedicated","server_os":"Linux","password":true,"vac":true,"version":"7961495","steam_id":85568392925194467,"keywords":["cp","nocrits","nodmgspread","uncletopia"],"edicts":[417,2048],"game_id":440,"stv_port":27036,"stv_name":"Uncletopia | Sydney | 3 | All Maps | STV","players":null},{"server_id":0,"name_short":"","name":"Uncletopia | Chicago | 3 | All Maps","host":"","port":0,"enabled":false,"region":"","cc":"","latitude":0,"longitude":0,"reserved":0,"last_update":"0001-01-01T00:00:00Z","protocol":17,"map":"pl_frontier_final","folder":"tf","game":"Team Fortress","app_id":440,"player_count":22,"max_players":24,"Bots":0,"server_type":"Dedicated","server_os":"Linux","password":true,"vac":true,"version":"7961495","steam_id":85568392924515191,"keywords":["nocrits","nodmgspread","payload","uncletopia"],"edicts":[1009,2048],"game_id":440,"stv_port":27036,"stv_name":"Uncletopia | Chicago | 3 | All Maps | STV","players":[{"user_id":581,"name":"Rukks","steam_id":76561197993918954,"connected_time":211000000000,"state":"active","ping":87},{"user_id":569,"name":"Cranial Brain Trauma","steam_id":76561198055876398,"connected_time":1422000000000,"state":"active","ping":60},{"user_id":541,"name":"rice","steam_id":76561198037565441,"connected_time":3229000000000,"state":"active","ping":74},{"user_id":542,"name":"Midnight_Merlin","steam_id":76561198010840452,"connected_time":3146000000000,"state":"active","ping":79},{"user_id":518,"name":"mike24608","steam_id":76561198115831415,"connected_time":4243000000000,"state":"active","ping":60},{"user_id":533,"name":"jerma but crying and lesbian","steam_id":76561198110661425,"connected_time":3347000000000,"state":"active","ping":97},{"user_id":552,"name":"on that zaza?","steam_id":76561198038713198,"connected_time":2770000000000,"state":"active","ping":62},{"user_id":579,"name":"Oops","steam_id":76561198015032646,"connected_time":408000000000,"state":"active","ping":97},{"user_id":527,"name":"Uwu Micster","steam_id":76561198843890616,"connected_time":3526000000000,"state":"active","ping":88},{"user_id":534,"name":"Donald Trump","steam_id":76561199016837140,"connected_time":3346000000000,"state":"active","ping":103},{"user_id":535,"name":"StillNotGinger","steam_id":76561198063419189,"connected_time":3346000000000,"state":"active","ping":118},{"user_id":491,"name":"NovaSc6ut","steam_id":76561198277163301,"connected_time":6078000000000,"state":"active","ping":71},{"user_id":575,"name":"ifuruna","steam_id":76561199506882366,"connected_time":553000000000,"state":"active","ping":116},{"user_id":577,"name":"felon","steam_id":76561199100342013,"connected_time":422000000000,"state":"active","ping":101},{"user_id":578,"name":"please recycle","steam_id":76561198421913648,"connected_time":417000000000,"state":"active","ping":92},{"user_id":558,"name":"SiNNa","steam_id":76561198213435803,"connected_time":1919000000000,"state":"active","ping":51},{"user_id":494,"name":"Rat Cycle","steam_id":76561198113364714,"connected_time":6061000000000,"state":"active","ping":56},{"user_id":571,"name":"Six Piece Chicken McNobody","steam_id":76561198129848222,"connected_time":1394000000000,"state":"active","ping":69},{"user_id":547,"name":"ihave80hp","steam_id":76561199251621911,"connected_time":2896000000000,"state":"active","ping":88},{"user_id":561,"name":"goon","steam_id":76561198074500319,"connected_time":1908000000000,"state":"active","ping":112},{"user_id":477,"name":"DREW PEACOCK","steam_id":76561198065057392,"connected_time":7218000000000,"state":"active","ping":83},{"user_id":503,"name":"dash23™","steam_id":76561198314951185,"connected_time":5205000000000,"state":"active","ping":104}]},{"server_id":0,"name_short":"","name":"Uncletopia | Dallas | 3 | All Maps","host":"","port":0,"enabled":false,"region":"","cc":"","latitude":0,"longitude":0,"reserved":0,"last_update":"0001-01-01T00:00:00Z","protocol":17,"map":"ctf_2fort","folder":"tf","game":"Team Fortress","app_id":440,"player_count":0,"max_players":24,"Bots":0,"server_type":"Dedicated","server_os":"Linux","password":true,"vac":true,"version":"7961495","steam_id":85568392924515219,"keywords":["ctf","nocrits","nodmgspread","uncletopia"],"edicts":[704,2048],"game_id":440,"stv_port":27036,"stv_name":"Uncletopia | Dallas | 3 | All Maps | STV","players":null},{"server_id":0,"name_short":"","name":"Uncletopia | Los Angeles | 1 | All Maps","host":"","port":0,"enabled":false,"region":"","cc":"","latitude":0,"longitude":0,"reserved":0,"last_update":"0001-01-01T00:00:00Z","protocol":17,"map":"pl_thundermountain","folder":"tf","game":"Team Fortress","app_id":440,"player_count":24,"max_players":24,"Bots":0,"server_type":"Dedicated","server_os":"Linux","password":true,"vac":true,"version":"7961495","steam_id":85568392924469991,"keywords":["nocrits","nodmgspread","payload","uncletopia"],"edicts":[1397,2048],"game_id":440,"stv_port":27016,"stv_name":"Uncletopia | Los Angeles | 1 | All Maps | STV","players":[{"user_id":24,"name":"Rusty","steam_id":76561198178868626,"connected_time":6619000000000,"state":"active","ping":92},{"user_id":98,"name":"FAKER","steam_id":76561198312741463,"connected_time":1771000000000,"state":"active","ping":31},{"user_id":26,"name":"Cactus","steam_id":76561198149762619,"connected_time":6549000000000,"state":"active","ping":61},{"user_id":107,"name":"Froobert","steam_id":76561197987805095,"connected_time":1301000000000,"state":"active","ping":56},{"user_id":90,"name":"Rommel2007","steam_id":76561198041744631,"connected_time":2226000000000,"state":"active","ping":85},{"user_id":114,"name":"finmin","steam_id":76561198127639913,"connected_time":169000000000,"state":"active","ping":52},{"user_id":83,"name":"Cinnifox","steam_id":76561198068773971,"connected_time":2996000000000,"state":"active","ping":69},{"user_id":111,"name":"Secret Tunnel","steam_id":76561198272403112,"connected_time":437000000000,"state":"active","ping":51},{"user_id":104,"name":"Blackwing","steam_id":76561198225732032,"connected_time":1381000000000,"state":"active","ping":102},{"user_id":65,"name":"jordanfer111","steam_id":76561198044993097,"connected_time":4049000000000,"state":"active","ping":92},{"user_id":115,"name":"Napa cabbage","steam_id":76561198103825541,"connected_time":135000000000,"state":"active","ping":115},{"user_id":109,"name":"Porganfalla","steam_id":76561198410302974,"connected_time":726000000000,"state":"active","ping":107},{"user_id":85,"name":"magunyamu","steam_id":76561198823083676,"connected_time":2975000000000,"state":"active","ping":72},{"user_id":112,"name":"comet","steam_id":76561197988366012,"connected_time":421000000000,"state":"active","ping":57},{"user_id":113,"name":"Keamy","steam_id":76561199471434875,"connected_time":416000000000,"state":"active","ping":68},{"user_id":106,"name":"Arrythmia","steam_id":76561198093748123,"connected_time":1328000000000,"state":"active","ping":90},{"user_id":75,"name":"ronald_stackerusa55","steam_id":76561198150406851,"connected_time":3629000000000,"state":"active","ping":57},{"user_id":103,"name":"cock ring extravaganza","steam_id":76561199041179985,"connected_time":1466000000000,"state":"active","ping":76},{"user_id":108,"name":"Siix","steam_id":76561198144668063,"connected_time":1288000000000,"state":"active","ping":60},{"user_id":99,"name":"i drive a nissan altima","steam_id":76561198143132686,"connected_time":1739000000000,"state":"active","ping":89},{"user_id":78,"name":"sf","steam_id":76561198103515747,"connected_time":3444000000000,"state":"active","ping":59},{"user_id":102,"name":"FROYO b4nny","steam_id":76561197970669109,"connected_time":1489000000000,"state":"active","ping":56},{"user_id":110,"name":"Scrux","steam_id":76561198129763115,"connected_time":477000000000,"state":"active","ping":57},{"user_id":101,"name":"oolong tea","steam_id":76561198155659357,"connected_time":1726000000000,"state":"active","ping":107}]},{"server_id":0,"name_short":"","name":"Uncletopia | Frankfurt | 7 | Stopwatch","host":"","port":0,"enabled":false,"region":"","cc":"","latitude":0,"longitude":0,"reserved":0,"last_update":"0001-01-01T00:00:00Z","protocol":17,"map":"koth_highpass","folder":"tf","game":"Team Fortress","app_id":440,"player_count":0,"max_players":24,"Bots":0,"server_type":"Dedicated","server_os":"Linux","password":true,"vac":true,"version":"7961495","steam_id":85568392924742827,"keywords":["cp","nocrits","nodmgspread","uncletopia"],"edicts":[413,2048],"game_id":440,"stv_port":27076,"stv_name":"Uncletopia | Frankfurt | 7 | Stopwatch | STV","players":null},{"server_id":0,"name_short":"","name":"Uncletopia | Warsaw | 2 | One Thousand Uncles","host":"","port":0,"enabled":false,"region":"","cc":"","latitude":0,"longitude":0,"reserved":0,"last_update":"0001-01-01T00:00:00Z","protocol":17,"map":"pl_pier","folder":"tf","game":"Team Fortress","app_id":440,"player_count":0,"max_players":32,"Bots":0,"server_type":"Dedicated","server_os":"Linux","password":true,"vac":true,"version":"7961495","steam_id":85568392925397851,"keywords":["alltalk","danepve","increased_maxplayers","norespawntime","payload","uncletopia"],"edicts":[961,2048],"game_id":440,"stv_port":0,"stv_name":"","players":null},{"server_id":0,"name_short":"","name":"Uncletopia | Sydney | 6 | Community","host":"","port":0,"enabled":false,"region":"","cc":"","latitude":0,"longitude":0,"reserved":0,"last_update":"0001-01-01T00:00:00Z","protocol":17,"map":"koth_soot_final1","folder":"tf","game":"Team Fortress","app_id":440,"player_count":0,"max_players":24,"Bots":0,"server_type":"Dedicated","server_os":"Linux","password":true,"vac":true,"version":"7961495","steam_id":85568392925397960,"keywords":["cp","nocrits","nodmgspread","uncletopia"],"edicts":[240,2048],"game_id":440,"stv_port":27066,"stv_name":"Uncletopia | Sydney | 6 | Community | STV","players":null},{"server_id":0,"name_short":"","name":"Uncletopia | Sydney | 5 | Stopwatch","host":"","port":0,"enabled":false,"region":"","cc":"","latitude":0,"longitude":0,"reserved":0,"last_update":"0001-01-01T00:00:00Z","protocol":17,"map":"koth_product_final","folder":"tf","game":"Team Fortress","app_id":440,"player_count":0,"max_players":24,"Bots":0,"server_type":"Dedicated","server_os":"Linux","password":true,"vac":true,"version":"7961495","steam_id":85568392925397959,"keywords":["cp","nocrits","nodmgspread","uncletopia"],"edicts":[355,2048],"game_id":440,"stv_port":27056,"stv_name":"Uncletopia | Sydney | 5 | Stopwatch | STV","players":null},{"server_id":0,"name_short":"","name":"Uncletopia | Sydney | 1 | All Maps","host":"","port":0,"enabled":false,"region":"","cc":"","latitude":0,"longitude":0,"reserved":0,"last_update":"0001-01-01T00:00:00Z","protocol":17,"map":"pl_frontier_final","folder":"tf","game":"Team Fortress","app_id":440,"player_count":0,"max_players":24,"Bots":0,"server_type":"Dedicated","server_os":"Linux","password":true,"vac":true,"version":"7961495","steam_id":85568392924470001,"keywords":["nocrits","nodmgspread","payload","uncletopia"],"edicts":[744,2048],"game_id":440,"stv_port":27016,"stv_name":"Uncletopia | Sydney | 1 | All Maps | STV","players":null},{"server_id":0,"name_short":"","name":"Uncletopia | Sydney | 4 | All Maps","host":"","port":0,"enabled":false,"region":"","cc":"","latitude":0,"longitude":0,"reserved":0,"last_update":"0001-01-01T00:00:00Z","protocol":17,"map":"cp_standin_final","folder":"tf","game":"Team Fortress","app_id":440,"player_count":0,"max_players":24,"Bots":0,"server_type":"Dedicated","server_os":"Linux","password":true,"vac":true,"version":"7961495","steam_id":85568392925397958,"keywords":["cp","nocrits","nodmgspread","uncletopia"],"edicts":[426,2048],"game_id":440,"stv_port":27046,"stv_name":"Uncletopia | Sydney | 4 | All Maps | STV","players":null},{"server_id":0,"name_short":"","name":"Uncletopia | Atlanta | 3 | Stopwatch","host":"","port":0,"enabled":false,"region":"","cc":"","latitude":0,"longitude":0,"reserved":0,"last_update":"0001-01-01T00:00:00Z","protocol":17,"map":"pl_badwater_pro_v12","folder":"tf","game":"Team Fortress","app_id":440,"player_count":1,"max_players":24,"Bots":0,"server_type":"Dedicated","server_os":"Linux","password":true,"vac":true,"version":"7961495","steam_id":85568392924515187,"keywords":["nocrits","nodmgspread","payload","uncletopia"],"edicts":[719,2048],"game_id":440,"stv_port":27036,"stv_name":"Uncletopia | Atlanta | 3 | Stopwatch | STV","players":[{"user_id":153,"name":"mini-sentry","steam_id":76561198884712155,"connected_time":90000000000,"state":"active","ping":51}]},{"server_id":0,"name_short":"","name":"Uncletopia | Los Angeles | 2 | All Maps","host":"","port":0,"enabled":false,"region":"","cc":"","latitude":0,"longitude":0,"reserved":0,"last_update":"0001-01-01T00:00:00Z","protocol":17,"map":"koth_lazarus","folder":"tf","game":"Team Fortress","app_id":440,"player_count":0,"max_players":24,"Bots":0,"server_type":"Dedicated","server_os":"Linux","password":true,"vac":true,"version":"7961495","steam_id":85568392924469992,"keywords":["cp","nocrits","nodmgspread","uncletopia"],"edicts":[864,2048],"game_id":440,"stv_port":27026,"stv_name":"Uncletopia | Los Angeles | 2 | All Maps | STV","players":null}]}