{"status":true,"message":"","result":[{"server_id":9,"name":"Uncletopia | Atlanta | 1 | All Maps","name_short":"atl-1","host":"atl-1.us.uncletopia.com","port":27015,"enabled":true,"region":"us-east","cc":"us","latitude":33.753746,"longitude":-84.38633,"reserved":0,"last_update":"0001-01-01T00:00:00Z","name_a2s":"Uncletopia | Atlanta | 1 | All Maps","protocol":17,"map":"cp_foundry","folder":"tf","game":"Team Fortress","app_id":440,"player_count":24,"max_players":24,"Bots":0,"server_type":"Dedicated","server_os":"Linux","password":true,"vac":true,"version":"7961495","steam_id":85568392924469982,"keywords":["cp","nocrits","nodmgspread","uncletopia"],"game_id":440,"stv_port":27016,"stv_name":"Uncletopia | Atlanta | 1 | All Maps | STV","players":[{"user_id":306,"name":"ATL1 | to4st","steam_id":76561198981009008,"connected_time":1682000000000,"state":"active","ping":63},{"user_id":304,"name":"Ashes!","steam_id":76561197998475441,"connected_time":2110000000000,"state":"active","ping":67},{"user_id":314,"name":"Boingo","steam_id":76561199086931535,"connected_time":864000000000,"state":"active","ping":60},{"user_id":307,"name":"ash","steam_id":76561198127890645,"connected_time":1659000000000,"state":"active","ping":62},{"user_id":295,"name":"Intro Bonito","steam_id":76561198119478838,"connected_time":3486000000000,"state":"active","ping":53},{"user_id":116,"name":"lil hog","steam_id":76561199230929836,"connected_time":18936000000000,"state":"active","ping":81},{"user_id":297,"name":"I need to reach my friend!","steam_id":76561198982810452,"connected_time":2945000000000,"state":"active","ping":71},{"user_id":302,"name":"lucin","steam_id":76561198258062078,"connected_time":2311000000000,"state":"active","ping":62},{"user_id":305,"name":"lynt","steam_id":76561198988333976,"connected_time":1990000000000,"state":"active","ping":45},{"user_id":286,"name":"Nyle","steam_id":76561198045652639,"connected_time":4225000000000,"state":"active","ping":106},{"user_id":320,"name":"carrot cake","steam_id":76561198055174915,"connected_time":790000000000,"state":"active","ping":82},{"user_id":268,"name":"nomad","steam_id":76561197998740399,"connected_time":5495000000000,"state":"active","ping":70},{"user_id":317,"name":"CarpoonSan","steam_id":76561199159589156,"connected_time":856000000000,"state":"active","ping":47},{"user_id":323,"name":"ATL1 | cola","steam_id":76561198374390458,"connected_time":378000000000,"state":"active","ping":65},{"user_id":318,"name":"nav","steam_id":76561198872608266,"connected_time":849000000000,"state":"active","ping":71},{"user_id":322,"name":"Heathcliff","steam_id":76561198044288534,"connected_time":607000000000,"state":"active","ping":71},{"user_id":284,"name":"PinkLemonade","steam_id":76561198799286228,"connected_time":4249000000000,"state":"active","ping":75},{"user_id":321,"name":"clonetrooperfromstarwars","steam_id":76561199131263706,"connected_time":725000000000,"state":"active","ping":77},{"user_id":241,"name":"eish","steam_id":76561198089463603,"connected_time":9274000000000,"state":"active","ping":121},{"user_id":303,"name":"trianamarco780","steam_id":76561199084319677,"connected_time":2299000000000,"state":"active","ping":117},{"user_id":313,"name":"Tyco","steam_id":76561197978414167,"connected_time":865000000000,"state":"active","ping":63},{"user_id":315,"name":"BaconLol","steam_id":76561199125317999,"connected_time":864000000000,"state":"active","ping":181},{"user_id":309,"name":"Lilith","steam_id":76561198125102885,"connected_time":1236000000000,"state":"active","ping":69},{"user_id":316,"name":"napstagbo","steam_id":76561198119378766,"connected_time":863000000000,"state":"active","ping":161}]},{"server_id":104,"name":"Uncletopia | Atlanta | 2 | All Maps","name_short":"atl-2","host":"atl-1.us.uncletopia.com","port":27025,"enabled":true,"region":"us-east","cc":"us","latitude":33.753746,"longitude":-84.38633,"reserved":0,"last_update":"0001-01-01T00:00:00Z","name_a2s":"Uncletopia | Atlanta | 2 | All Maps","protocol":17,"map":"koth_lakeside_final","folder":"tf","game":"Team Fortress","app_id":440,"player_count":0,"max_players":24,"Bots":0,"server_type":"Dedicated","server_os":"Linux","password":true,"vac":true,"version":"7961495","steam_id":85568392924469983,"keywords":["cp","nocrits","nodmgspread","uncletopia"],"game_id":440,"stv_port":27026,"stv_name":"Uncletopia | Atlanta | 2 | All Maps | STV","players":null},{"server_id":400,"name":"Uncletopia | Atlanta | 3 | Stopwatch","name_short":"atl-3","host":"atl-1.us.uncletopia.com","port":27035,"enabled":true,"region":"us-east","cc":"us","latitude":33.753746,"longitude":-84.38633,"reserved":0,"last_update":"0001-01-01T00:00:00Z","name_a2s":"Uncletopia | Atlanta | 3 | Stopwatch","protocol":17,"map":"cp_snakewater_final1","folder":"tf","game":"Team Fortress","app_id":440,"player_count":23,"max_players":24,"Bots":0,"server_type":"Dedicated","server_os":"Linux","password":true,"vac":true,"version":"7961495","steam_id":85568392924515187,"keywords":["cp","nocrits","nodmgspread","uncletopia"],"game_id":440,"stv_port":27036,"stv_name":"Uncletopia | Atlanta | 3 | Stopwatch | STV","players":[{"user_id":431,"name":"Joshy","steam_id":76561198061405421,"connected_time":1880000000000,"state":"active","ping":75},{"user_id":452,"name":"Scout","steam_id":76561198865519822,"connected_time":1005000000000,"state":"active","ping":73},{"user_id":476,"name":"A Beer and Wing Combo","steam_id":76561198108400585,"connected_time":122000000000,"state":"active","ping":75},{"user_id":424,"name":"Momo","steam_id":76561198815067088,"connected_time":2122000000000,"state":"active","ping":41},{"user_id":453,"name":"c 7 i l l y","steam_id":76561198044786959,"connected_time":925000000000,"state":"active","ping":62},{"user_id":433,"name":"Waff00","steam_id":76561198848377100,"connected_time":1788000000000,"state":"active","ping":62},{"user_id":460,"name":"Dibbs XD","steam_id":76561199031446002,"connected_time":688000000000,"state":"active","ping":71},{"user_id":434,"name":"checkswing","steam_id":76561198999816132,"connected_time":1760000000000,"state":"active","ping":76},{"user_id":455,"name":"PotatoSpreadOnBread","steam_id":76561198983175555,"connected_time":870000000000,"state":"active","ping":64},{"user_id":400,"name":"Nintenjoe","steam_id":76561198821530178,"connected_time":3513000000000,"state":"active","ping":75},{"user_id":474,"name":"Lost CS2 player","steam_id":76561198892387723,"connected_time":142000000000,"state":"active","ping":60},{"user_id":464,"name":"Wiggee","steam_id":76561197972792989,"connected_time":514000000000,"state":"active","ping":65},{"user_id":463,"name":"sloped wall (fake) [not real]","steam_id":76561198203952392,"connected_time":538000000000,"state":"active","ping":68},{"user_id":465,"name":"bdkaine1","steam_id":76561198133545467,"connected_time":506000000000,"state":"active","ping":47},{"user_id":466,"name":"Chet Dingus","steam_id":76561198205181788,"connected_time":471000000000,"state":"active","ping":82},{"user_id":467,"name":"Friendly Guy","steam_id":76561197998449897,"connected_time":455000000000,"state":"active","ping":59},{"user_id":451,"name":"empty noggin","steam_id":76561198799733662,"connected_time":1115000000000,"state":"active","ping":77},{"user_id":475,"name":"Mixbreed","steam_id":76561198087189722,"connected_time":137000000000,"state":"active","ping":60},{"user_id":473,"name":"Ginger Jesus","steam_id":76561198052386458,"connected_time":202000000000,"state":"active","ping":73},{"user_id":477,"name":"CamperMattt","steam_id":76561199008353910,"connected_time":17000000000,"state":"spawning","ping":46},{"user_id":444,"name":"popswagica","steam_id":76561198072179483,"connected_time":1419000000000,"state":"active","ping":104},{"user_id":445,"name":"Flamingo","steam_id":76561199508805216,"connected_time":1392000000000,"state":"active","ping":56},{"user_id":401,"name":"summerlis","steam_id":76561198165324438,"connected_time":3474000000000,"state":"active","ping":89}]},{"server_id":401,"name":"Uncletopia | Atlanta | 4 | Community","name_short":"atl-4","host":"atl-1.us.uncletopia.com","port":27045,"enabled":true,"region":"us-east","cc":"us","latitude":33.753746,"longitude":-84.38633,"reserved":0,"last_update":"0001-01-01T00:00:00Z","name_a2s":"Uncletopia | Atlanta | 4 | Community","protocol":17,"map":"workshop/cp_logjam_rc12.ugc454812035","folder":"tf","game":"Team Fortress","app_id":440,"player_count":0,"max_players":24,"Bots":0,"server_type":"Dedicated","server_os":"Linux","password":true,"vac":true,"version":"7961495","steam_id":85568392924515188,"keywords":["cp","nocrits","nodmgspread","uncletopia"],"game_id":440,"stv_port":27046,"stv_name":"Uncletopia | Atlanta | 4 | Community | STV","players":null},{"server_id":2,"name":"Uncletopia | Chicago | 1 | All Maps","name_short":"chi-1","host":"chi-1.us.uncletopia.com","port":27015,"enabled":true,"region":"us-central","cc":"us","latitude":41.881832,"longitude":-87.62318,"reserved":0,"last_update":"0001-01-01T00:00:00Z","name_a2s":"Uncletopia | Chicago | 1 | All Maps","protocol":17,"map":"pl_barnblitz","folder":"tf","game":"Team Fortress","app_id":440,"player_count":24,"max_players":24,"Bots":0,"server_type":"Dedicated","server_os":"Linux","password":true,"vac":true,"version":"7961495","steam_id":85568392924469984,"keywords":["nocrits","nodmgspread","payload","uncletopia"],"game_id":440,"stv_port":27016,"stv_name":"Uncletopia | Chicago | 1 | All Maps | STV","players":[{"user_id":691,"name":"Nxy.","steam_id":76561198278018071,"connected_time":795000000000,"state":"active","ping":66},{"user_id":671,"name":"anonion","steam_id":76561198056477584,"connected_time":2409000000000,"state":"active","ping":85},{"user_id":673,"name":"Oh, it's Zach","steam_id":76561198103309672,"connected_time":2313000000000,"state":"active","ping":53},{"user_id":696,"name":"Remix.SMG","steam_id":76561198052895933,"connected_time":583000000000,"state":"active","ping":74},{"user_id":687,"name":"marlboro maniac","steam_id":76561198044668836,"connected_time":864000000000,"state":"active","ping":57},{"user_id":683,"name":"spire","steam_id":76561198367664346,"connected_time":1358000000000,"state":"active","ping":56},{"user_id":663,"name":"[TF2Apples] Intense Green Apple","steam_id":76561198803561622,"connected_time":2902000000000,"state":"active","ping":77},{"user_id":644,"name":"Tobo","steam_id":76561198085846393,"connected_time":3969000000000,"state":"active","ping":76},{"user_id":689,"name":"gatorbelt","steam_id":76561198145784505,"connected_time":846000000000,"state":"active","ping":104},{"user_id":672,"name":"Seven","steam_id":76561198259947055,"connected_time":2364000000000,"state":"active","ping":42},{"user_id":701,"name":"Muselk, but mexican","steam_id":76561199289676387,"connected_time":51000000000,"state":"active","ping":127},{"user_id":664,"name":"Emperor J","steam_id":76561199014663561,"connected_time":2672000000000,"state":"active","ping":52},{"user_id":678,"name":"Ghoulenoir","steam_id":76561198074314573,"connected_time":2181000000000,"state":"active","ping":50},{"user_id":684,"name":"troll","steam_id":76561198082680563,"connected_time":1322000000000,"state":"active","ping":53},{"user_id":688,"name":"HalfDead","steam_id":76561198049700226,"connected_time":851000000000,"state":"active","ping":75},{"user_id":700,"name":"Skab E²r","steam_id":76561199126112357,"connected_time":221000000000,"state":"active","ping":81},{"user_id":589,"name":"rynz500","steam_id":76561198043872361,"connected_time":8215000000000,"state":"active","ping":87},{"user_id":685,"name":"elpful","steam_id":76561198189659530,"connected_time":1316000000000,"state":"active","ping":80},{"user_id":669,"name":"Still Alive","steam_id":76561198042523000,"connected_time":2534000000000,"state":"active","ping":59},{"user_id":686,"name":"Gorf","steam_id":76561199060557282,"connected_time":1061000000000,"state":"active","ping":59},{"user_id":692,"name":"oppenheimer style","steam_id":76561198026664629,"connected_time":759000000000,"state":"active","ping":62},{"user_id":693,"name":"eggo-on-a-stick","steam_id":76561198799357966,"connected_time":750000000000,"state":"active","ping":91},{"user_id":695,"name":"TallBit","steam_id":76561199059748976,"connected_time":646000000000,"state":"active","ping":58},{"user_id":697,"name":"Gene Takovic","steam_id":76561198881039861,"connected_time":401000000000,"state":"active","ping":52}]},{"server_id":106,"name":"Uncletopia | Chicago | 2 | All Maps","name_short":"chi-2","host":"chi-1.us.uncletopia.com","port":27025,"enabled":true,"region":"us-central","cc":"us","latitude":41.881832,"longitude":-87.62318,"reserved":0,"last_update":"0001-01-01T00:00:00Z","name_a2s":"Uncletopia | Chicago | 2 | All Maps","protocol":17,"map":"pl_snowycoast","folder":"tf","game":"Team Fortress","app_id":440,"player_count":24,"max_players":24,"Bots":0,"server_type":"Dedicated","server_os":"Linux","password":true,"vac":true,"version":"7961495","steam_id":85568392924469985,"keywords":["nocrits","nodmgspread","payload","uncletopia"],"game_id":440,"stv_port":27026,"stv_name":"Uncletopia | Chicago | 2 | All Maps | STV","players":[{"user_id":588,"name":"Citrus","steam_id":76561199098647189,"connected_time":685000000000,"state":"active","ping":121},{"user_id":600,"name":"soup time","steam_id":76561197961488590,"connected_time":101000000000,"state":"active","ping":61},{"user_id":572,"name":"Mr. Pink","steam_id":76561198065858172,"connected_time":1864000000000,"state":"active","ping":71},{"user_id":587,"name":"Texas Red","steam_id":76561198832095246,"connected_time":773000000000,"state":"active","ping":67},{"user_id":589,"name":"CaptainRex","steam_id":76561199468930886,"connected_time":682000000000,"state":"active","ping":61},{"user_id":576,"name":"Chucklin","steam_id":76561198010823579,"connected_time":1736000000000,"state":"active","ping":91},{"user_id":591,"name":"roger roger","steam_id":76561198130032444,"connected_time":675000000000,"state":"active","ping":90},{"user_id":526,"name":"Grop Noise","steam_id":76561198145445403,"connected_time":3603000000000,"state":"active","ping":46},{"user_id":577,"name":"Spearmint","steam_id":76561198134215373,"connected_time":1720000000000,"state":"active","ping":65},{"user_id":558,"name":"Lake","steam_id":76561198434998150,"connected_time":2362000000000,"state":"active","ping":66},{"user_id":550,"name":"runescape legend","steam_id":76561198077791373,"connected_time":3017000000000,"state":"active","ping":51},{"user_id":593,"name":"ate spies","steam_id":76561198159339442,"connected_time":637000000000,"state":"active","ping":84},{"user_id":565,"name":"Blargh","steam_id":76561198044095816,"connected_time":2069000000000,"state":"active","ping":61},{"user_id":514,"name":"airy","steam_id":76561198174632198,"connected_time":5554000000000,"state":"active","ping":76},{"user_id":530,"name":"Blakeon","steam_id":76561198062411795,"connected_time":3502000000000,"state":"active","ping":82},{"user_id":594,"name":"Seaport Hime","steam_id":76561198055914224,"connected_time":584000000000,"state":"active","ping":69},{"user_id":531,"name":"CrusadingComrade","steam_id":76561198286511203,"connected_time":3495000000000,"state":"active","ping":54},{"user_id":595,"name":"The_spyder2023446","steam_id":76561199490312959,"connected_time":557000000000,"state":"active","ping":68},{"user_id":480,"name":"Aegle","steam_id":76561198871463455,"connected_time":6857000000000,"state":"active","ping":92},{"user_id":580,"name":"Waos","steam_id":76561198329179651,"connected_time":1459000000000,"state":"active","ping":109},{"user_id":601,"name":"doop","steam_id":76561198370487545,"connected_time":100000000000,"state":"active","ping":85},{"user_id":599,"name":"Nick Nak the Tic Tac","steam_id":76561198061758497,"connected_time":307000000000,"state":"active","ping":60},{"user_id":597,"name":"macironi and chesse","steam_id":76561199098060805,"connected_time":544000000000,"state":"active","ping":46},{"user_id":602,"name":"capybara","steam_id":76561198182288455,"connected_time":85000000000,"state":"active","ping":78}]},{"server_id":402,"name":"Uncletopia | Chicago | 3 | All Maps","name_short":"chi-3","host":"chi-1.us.uncletopia.com","port":27035,"enabled":true,"region":"us-central","cc":"us","latitude":41.881832,"longitude":-87.62318,"reserved":0,"last_update":"0001-01-01T00:00:00Z","name_a2s":"Uncletopia | Chicago | 3 | All Maps","protocol":17,"map":"koth_viaduct","folder":"tf","game":"Team Fortress","app_id":440,"player_count":24,"max_players":24,"Bots":0,"server_type":"Dedicated","server_os":"Linux","password":true,"vac":true,"version":"7961495","steam_id":85568392924515191,"keywords":["cp","nocrits","nodmgspread","uncletopia"],"game_id":440,"stv_port":27036,"stv_name":"Uncletopia | Chicago | 3 | All Maps | STV","players":[{"user_id":120,"name":"Goaticus","steam_id":76561199020214543,"connected_time":1787000000000,"state":"active","ping":126},{"user_id":138,"name":"Maywolf","steam_id":76561199047166336,"connected_time":1291000000000,"state":"active","ping":62},{"user_id":121,"name":"artemisjackson2","steam_id":76561199094686268,"connected_time":1689000000000,"state":"active","ping":52},{"user_id":117,"name":"Jovo","steam_id":76561197993265970,"connected_time":1958000000000,"state":"active","ping":75},{"user_id":157,"name":"Enigma balls","steam_id":76561198968058652,"connected_time":114000000000,"state":"active","ping":105},{"user_id":122,"name":"Slapperpow","steam_id":76561198089895100,"connected_time":1684000000000,"state":"active","ping":60},{"user_id":123,"name":"Vamp_Moira_TTV","steam_id":76561198206111420,"connected_time":1673000000000,"state":"active","ping":155},{"user_id":158,"name":"Suburban Wolf Dad","steam_id":76561198069234954,"connected_time":82000000000,"state":"active","ping":79},{"user_id":150,"name":"Nefy","steam_id":76561198030017316,"connected_time":734000000000,"state":"active","ping":78},{"user_id":141,"name":"Modest","steam_id":76561198065643694,"connected_time":1246000000000,"state":"active","ping":59},{"user_id":127,"name":"Tylogaming","steam_id":76561198025181395,"connected_time":1489000000000,"state":"active","ping":75},{"user_id":159,"name":"kiwi borb","steam_id":76561199013588062,"connected_time":70000000000,"state":"spawning","ping":48},{"user_id":160,"name":"[DATS➡] Sugar Meowth","steam_id":76561197995251793,"connected_time":61000000000,"state":"active","ping":90},{"user_id":130,"name":"lesbian jolyne cujoh","steam_id":76561198988918229,"connected_time":1403000000000,"state":"active","ping":76},{"user_id":142,"name":"Portal2Player","steam_id":76561198062870114,"connected_time":1211000000000,"state":"active","ping":73},{"user_id":161,"name":"Kiril","steam_id":76561198051433762,"connected_time":57000000000,"state":"active","ping":126},{"user_id":153,"name":"chen","steam_id":76561198064872330,"connected_time":602000000000,"state":"active","ping":68},{"user_id":88,"name":"dansci","steam_id":76561198269530717,"connected_time":3407000000000,"state":"active","ping":71},{"user_id":133,"name":"Miss Pauling","steam_id":76561198102043913,"connected_time":1353000000000,"state":"active","ping":65},{"user_id":143,"name":"󠀡󠀡","steam_id":76561198348035053,"connected_time":1194000000000,"state":"active","ping":112},{"user_id":68,"name":"Kuyumiester","steam_id":76561198126835302,"connected_time":4490000000000,"state":"active","ping":68},{"user_id":135,"name":"Walter White","steam_id":76561198096127451,"connected_time":1319000000000,"state":"active","ping":78},{"user_id":146,"name":"Laventhey","steam_id":76561198977523626,"connected_time":1059000000000,"state":"active","ping":60},{"user_id":154,"name":"Dr Oshawott","steam_id":76561198042021629,"connected_time":597000000000,"state":"active","ping":58}]},{"server_id":403,"name":"Uncletopia | Chicago | 4 | All Maps","name_short":"chi-4","host":"chi-1.us.uncletopia.com","port":27045,"enabled":true,"region":"us-central","cc":"us","latitude":41.881832,"longitude":-87.62318,"reserved":0,"last_update":"0001-01-01T00:00:00Z","name_a2s":"Uncletopia | Chicago | 4 | All Maps","protocol":17,"map":"pl_borneo","folder":"tf","game":"Team Fortress","app_id":440,"player_count":24,"max_players":24,"Bots":0,"server_type":"Dedicated","server_os":"Linux","password":true,"vac":true,"version":"7961495","steam_id":85568392924515193,"keywords":["nocrits","nodmgspread","payload","uncletopia"],"game_id":440,"stv_port":27046,"stv_name":"Uncletopia | Chicago | 4 | All Maps | STV","players":[{"user_id":427,"name":"lol","steam_id":76561198072115209,"connected_time":1370000000000,"state":"active","ping":73},{"user_id":434,"name":"Hobo Shanker","steam_id":76561198001785187,"connected_time":893000000000,"state":"active","ping":75},{"user_id":416,"name":"Anamm","steam_id":76561198328762510,"connected_time":1861000000000,"state":"active","ping":67},{"user_id":418,"name":"sheep","steam_id":76561198994761483,"connected_time":1666000000000,"state":"active","ping":75},{"user_id":336,"name":"Huloon","steam_id":76561198070837568,"connected_time":8183000000000,"state":"active","ping":60},{"user_id":370,"name":"Alcohol Hominid","steam_id":76561198320313950,"connected_time":6205000000000,"state":"active","ping":74},{"user_id":430,"name":"Lennu","steam_id":76561198060730154,"connected_time":1113000000000,"state":"active","ping":68},{"user_id":420,"name":"D(b) Hell","steam_id":76561198067869016,"connected_time":1633000000000,"state":"active","ping":43},{"user_id":435,"name":"Scribble","steam_id":76561198046115675,"connected_time":638000000000,"state":"active","ping":62},{"user_id":422,"name":"Zero","steam_id":76561198033384990,"connected_time":1574000000000,"state":"active","ping":60},{"user_id":396,"name":"Garfield","steam_id":76561198147300599,"connected_time":4095000000000,"state":"active","ping":52},{"user_id":410,"name":"John","steam_id":76561198070700732,"connected_time":2479000000000,"state":"active","ping":68},{"user_id":423,"name":"Dom","steam_id":76561198103550291,"connected_time":1571000000000,"state":"active","ping":93},{"user_id":424,"name":"Joan The Kisaragi Cat","steam_id":76561199370650064,"connected_time":1569000000000,"state":"active","ping":86},{"user_id":400,"name":"Fenrir’s Sentinel","steam_id":76561198282332834,"connected_time":3722000000000,"state":"active","ping":51},{"user_id":378,"name":"jordanfer111","steam_id":76561198044993097,"connected_time":5513000000000,"state":"active","ping":105},{"user_id":432,"name":"Tony Pizza","steam_id":76561198276513608,"connected_time":1090000000000,"state":"active","ping":176},{"user_id":415,"name":"Daruke","steam_id":76561198300686262,"connected_time":1984000000000,"state":"active","ping":68},{"user_id":387,"name":"Meskoozy","steam_id":76561198102394479,"connected_time":4626000000000,"state":"active","ping":64},{"user_id":413,"name":"Hakuyer","steam_id":76561198098618247,"connected_time":2011000000000,"state":"active","ping":87},{"user_id":436,"name":"Oni","steam_id":76561198112066584,"connected_time":503000000000,"state":"active","ping":74},{"user_id":437,"name":"Walla","steam_id":76561198103379757,"connected_time":194000000000,"state":"active","ping":49},{"user_id":426,"name":"Xx_PercyTheSmallEngineGamer6_xX","steam_id":76561198842297041,"connected_time":1503000000000,"state":"active","ping":122},{"user_id":403,"name":"TacoMan4Life","steam_id":76561198832562728,"connected_time":3296000000000,"state":"active","ping":115}]},{"server_id":36,"name":"Uncletopia | Chicago | 5 | All Maps","name_short":"chi-5","host":"chi-2.us.uncletopia.com","port":27015,"enabled":true,"region":"us-central","cc":"us","latitude":41.881832,"longitude":-87.62318,"reserved":0,"last_update":"0001-01-01T00:00:00Z","name_a2s":"Uncletopia | Chicago | 5 | All Maps","protocol":17,"map":"koth_lakeside_final","folder":"tf","game":"Team Fortress","app_id":440,"player_count":1,"max_players":24,"Bots":0,"server_type":"Dedicated","server_os":"Linux","password":true,"vac":true,"version":"7961495","steam_id":85568392924866362,"keywords":["cp","nocrits","nodmgspread","uncletopia"],"game_id":440,"stv_port":27016,"stv_name":"Uncletopia | Chicago | 5 | All Maps | STV","players":[{"user_id":16,"name":"AB","steam_id":76561199487899460,"connected_time":3010000000000,"state":"active","ping":196}]},{"server_id":37,"name":"Uncletopia | Chicago | 6 | All Maps","name_short":"chi-6","host":"chi-2.us.uncletopia.com","port":27025,"enabled":true,"region":"us-central","cc":"us","latitude":41.881832,"longitude":-87.62318,"reserved":0,"last_update":"0001-01-01T00:00:00Z","name_a2s":"Uncletopia | Chicago | 6 | All Maps","protocol":17,"map":"cp_dustbowl","folder":"tf","game":"Team Fortress","app_id":440,"player_count":23,"max_players":24,"Bots":0,"server_type":"Dedicated","server_os":"Linux","password":true,"vac":true,"version":"7961495","steam_id":85568392924866363,"keywords":["cp","nocrits","nodmgspread","uncletopia"],"game_id":440,"stv_port":27026,"stv_name":"Uncletopia | Chicago | 6 | All Maps | STV","players":[{"user_id":78,"name":"nested deep in the dirty dirty","steam_id":76561198142756572,"connected_time":5650000000000,"state":"active","ping":59},{"user_id":168,"name":"Gamering_funy","steam_id":76561199006503777,"connected_time":130000000000,"state":"active","ping":47},{"user_id":152,"name":"Locarpus","steam_id":76561198848384851,"connected_time":1029000000000,"state":"active","ping":60},{"user_id":167,"name":"mr poop","steam_id":76561199195196632,"connected_time":579000000000,"state":"active","ping":89},{"user_id":134,"name":"bloody fruit shop owner","steam_id":76561198017228729,"connected_time":2581000000000,"state":"active","ping":59},{"user_id":153,"name":"slimeball","steam_id":76561198165332029,"connected_time":1022000000000,"state":"active","ping":45},{"user_id":169,"name":"lil EGG","steam_id":76561198361321253,"connected_time":110000000000,"state":"active","ping":69},{"user_id":149,"name":"Zeelidox","steam_id":76561198110613375,"connected_time":1581000000000,"state":"active","ping":87},{"user_id":105,"name":"mrbeast109385079350229083479082","steam_id":76561198370687830,"connected_time":3880000000000,"state":"active","ping":59},{"user_id":109,"name":"Gooper Blooper","steam_id":76561198067174070,"connected_time":3676000000000,"state":"active","ping":82},{"user_id":136,"name":"D\u003eE\u003eA\u003eT\u003eH\u003eM\u003eE\u003eT\u003eA\u003eL","steam_id":76561198094118479,"connected_time":2525000000000,"state":"active","ping":102},{"user_id":156,"name":"Crazy Insane Proboscis Monkey","steam_id":76561198061011176,"connected_time":965000000000,"state":"active","ping":76},{"user_id":163,"name":"gerry0107","steam_id":76561198277578620,"connected_time":807000000000,"state":"active","ping":73},{"user_id":166,"name":"ark","steam_id":76561198041066271,"connected_time":771000000000,"state":"active","ping":76},{"user_id":148,"name":"Sweet Bacon","steam_id":76561198241249512,"connected_time":1594000000000,"state":"active","ping":99},{"user_id":129,"name":"John Dustbowl","steam_id":76561198008455368,"connected_time":2900000000000,"state":"active","ping":54},{"user_id":162,"name":"Dr.StrangeGlove","steam_id":76561198286114229,"connected_time":867000000000,"state":"active","ping":63},{"user_id":145,"name":"Big Boy Beni","steam_id":76561197995469460,"connected_time":2147000000000,"state":"active","ping":94},{"user_id":158,"name":"ZombeeNinja","steam_id":76561198122038563,"connected_time":935000000000,"state":"active","ping":110},{"user_id":159,"name":"Loaf","steam_id":76561198085904581,"connected_time":935000000000,"state":"active","ping":70},{"user_id":164,"name":"Frontier Psychiatrist","steam_id":76561198038689088,"connected_time":801000000000,"state":"active","ping":75},{"user_id":165,"name":"OldCheese","steam_id":76561199208623418,"connected_time":795000000000,"state":"active","ping":105},{"user_id":161,"name":"Tyvek homewrap [NGW]","steam_id":76561198979625736,"connected_time":892000000000,"state":"active","ping":84}]},{"server_id":38,"name":"Uncletopia | Chicago | 7 | Stopwatch","name_short":"chi-7","host":"chi-2.us.uncletopia.com","port":27035,"enabled":true,"region":"us-central","cc":"us","latitude":41.881832,"longitude":-87.62318,"reserved":0,"last_update":"0001-01-01T00:00:00Z","name_a2s":"Uncletopia | Chicago | 7 | Stopwatch","protocol":17,"map":"workshop/pl_vigil_rc10.ugc1266210012","folder":"tf","game":"Team Fortress","app_id":440,"player_count":0,"max_players":24,"Bots":0,"server_type":"Dedicated","server_os":"Linux","password":true,"vac":true,"version":"7961495","steam_id":85568392924866364,"keywords":["nocrits","nodmgspread","payload","uncletopia"],"game_id":440,"stv_port":27036,"stv_name":"Uncletopia | Chicago | 7 | Stopwatch | STV","players":null},{"server_id":39,"name":"Uncletopia | Chicago | 8 | Community","name_short":"chi-8","host":"chi-2.us.uncletopia.com","port":27045,"enabled":true,"region":"us-central","cc":"us","latitude":41.881832,"longitude":-87.62318,"reserved":0,"last_update":"0001-01-01T00:00:00Z","name_a2s":"Uncletopia | Chicago | 8 | Community","protocol":17,"map":"workshop/koth_slaughter_rc1.ugc1712845210","folder":"tf","game":"Team Fortress","app_id":440,"player_count":0,"max_players":24,"Bots":0,"server_type":"Dedicated","server_os":"Linux","password":true,"vac":true,"version":"7961495","steam_id":85568392924866365,"keywords":["cp","nocrits","nodmgspread","uncletopia"],"game_id":440,"stv_port":27046,"stv_name":"Uncletopia | Chicago | 8 | Community | STV","players":null},{"server_id":8,"name":"Uncletopia | Dallas | 1 | All Maps","name_short":"dal-1","host":"dal-1.us.uncletopia.com","port":27015,"enabled":true,"region":"us-central","cc":"us","latitude":32.779167,"longitude":-96.80889,"reserved":0,"last_update":"0001-01-01T00:00:00Z","name_a2s":"Uncletopia | Dallas | 1 | All Maps","protocol":17,"map":"cp_process_final","folder":"tf","game":"Team Fortress","app_id":440,"player_count":20,"max_players":24,"Bots":0,"server_type":"Dedicated","server_os":"Linux","password":true,"vac":true,"version":"7961495","steam_id":85568392924469986,"keywords":["nocrits","nodmgspread","payload","uncletopia"],"game_id":440,"stv_port":27016,"stv_name":"Uncletopia | Dallas | 1 | All Maps | STV","players":[{"user_id":591,"name":"Fog_Ballistic","steam_id":76561199074395345,"connected_time":22000000000,"state":"connecting","ping":120},{"user_id":576,"name":"flare","steam_id":76561198048623485,"connected_time":1171000000000,"state":"connecting","ping":96},{"user_id":454,"name":"Lucas","steam_id":76561198399704604,"connected_time":9948000000000,"state":"connecting","ping":105},{"user_id":579,"name":"mafu","steam_id":76561198028028045,"connected_time":1133000000000,"state":"connecting","ping":94},{"user_id":590,"name":"BoxOfStaples","steam_id":76561198834773017,"connected_time":30000000000,"state":"connecting","ping":152},{"user_id":555,"name":"Snitzman","steam_id":76561198068303272,"connected_time":2474000000000,"state":"connecting","ping":87},{"user_id":561,"name":"Timmy","steam_id":76561199164347838,"connected_time":2132000000000,"state":"connecting","ping":105},{"user_id":584,"name":"qwatta","steam_id":76561198064982327,"connected_time":562000000000,"state":"connecting","ping":56},{"user_id":577,"name":"What the fuck is wrong with you","steam_id":76561198214059091,"connected_time":1170000000000,"state":"connecting","ping":93},{"user_id":583,"name":"cloaker","steam_id":76561199453618642,"connected_time":786000000000,"state":"connecting","ping":109},{"user_id":578,"name":"Cornelius Vanderbelt jr the 3rd","steam_id":76561199083115222,"connected_time":1149000000000,"state":"connecting","ping":115},{"user_id":525,"name":"Sweet Tooth","steam_id":76561198830158092,"connected_time":4736000000000,"state":"connecting","ping":81},{"user_id":588,"name":"Fox","steam_id":76561198320552779,"connected_time":54000000000,"state":"connecting","ping":99},{"user_id":573,"name":"what're ya buyin","steam_id":76561199277633460,"connected_time":1421000000000,"state":"connecting","ping":63},{"user_id":581,"name":"Monte","steam_id":76561198097499917,"connected_time":992000000000,"state":"connecting","ping":93},{"user_id":515,"name":"LeFunnyMan","steam_id":76561199081645289,"connected_time":5618000000000,"state":"connecting","ping":58},{"user_id":510,"name":"Ethanol Buttchugger","steam_id":76561199127590316,"connected_time":5998000000000,"state":"connecting","ping":103},{"user_id":558,"name":"rat","steam_id":76561198130412963,"connected_time":2248000000000,"state":"connecting","ping":113},{"user_id":532,"name":"shinon","steam_id":76561198373626848,"connected_time":4015000000000,"state":"connecting","ping":111}]},{"server_id":108,"name":"Uncletopia | Dallas | 2 | All Maps","name_short":"dal-2","host":"dal-1.us.uncletopia.com","port":27025,"enabled":true,"region":"us-central","cc":"us","latitude":32.779167,"longitude":-96.80889,"reserved":0,"last_update":"0001-01-01T00:00:00Z","name_a2s":"Uncletopia | Dallas | 2 | All Maps","protocol":17,"map":"cp_dustbowl","folder":"tf","game":"Team Fortress","app_id":440,"player_count":24,"max_players":24,"Bots":0,"server_type":"Dedicated","server_os":"Linux","password":true,"vac":true,"version":"7961495","steam_id":85568392924469988,"keywords":["cp","nocrits","nodmgspread","uncletopia"],"game_id":440,"stv_port":27026,"stv_name":"Uncletopia | Dallas | 2 | All Maps | STV","players":[{"user_id":196,"name":"Forced2Wipe","steam_id":76561198170390298,"connected_time":136000000000,"state":"active","ping":50},{"user_id":188,"name":"turnip","steam_id":76561197999375941,"connected_time":873000000000,"state":"active","ping":58},{"user_id":189,"name":"EmeraldMoth","steam_id":76561198153816586,"connected_time":857000000000,"state":"active","ping":53},{"user_id":142,"name":"MoiMoi","steam_id":76561198873850038,"connected_time":4768000000000,"state":"active","ping":75},{"user_id":191,"name":"ShapedSilver","steam_id":76561199073305310,"connected_time":534000000000,"state":"active","ping":68},{"user_id":199,"name":"30-50 feral hogs","steam_id":76561198073587145,"connected_time":4000000000,"state":"spawning","ping":52},{"user_id":194,"name":"Magik","steam_id":76561198099726660,"connected_time":340000000000,"state":"active","ping":77},{"user_id":174,"name":"Kat","steam_id":76561199182755123,"connected_time":1547000000000,"state":"active","ping":74},{"user_id":175,"name":"CeLeb144","steam_id":76561199089907740,"connected_time":1524000000000,"state":"active","ping":61},{"user_id":176,"name":"Noire","steam_id":76561198149370109,"connected_time":1488000000000,"state":"active","ping":88},{"user_id":158,"name":"Le Meilleur","steam_id":76561198054581325,"connected_time":2670000000000,"state":"active","ping":70},{"user_id":177,"name":"Cat on Your Porch","steam_id":76561197979078330,"connected_time":1463000000000,"state":"active","ping":88},{"user_id":169,"name":"Kid named download","steam_id":76561199192074448,"connected_time":1646000000000,"state":"active","ping":89},{"user_id":181,"name":"DrMania82","steam_id":76561198113086878,"connected_time":1387000000000,"state":"active","ping":115},{"user_id":195,"name":"SafetyInstructor","steam_id":76561199195205705,"connected_time":322000000000,"state":"active","ping":48},{"user_id":163,"name":"4evr","steam_id":76561198064565304,"connected_time":2137000000000,"state":"active","ping":79},{"user_id":190,"name":"Legit_Jaxer","steam_id":76561198172234053,"connected_time":717000000000,"state":"active","ping":114},{"user_id":182,"name":"Bolbi","steam_id":76561198051811597,"connected_time":1374000000000,"state":"active","ping":77},{"user_id":170,"name":"Warg","steam_id":76561198040868420,"connected_time":1646000000000,"state":"active","ping":71},{"user_id":197,"name":"Fuzzy Toast","steam_id":76561198028067781,"connected_time":108000000000,"state":"active","ping":89},{"user_id":198,"name":"Saturn","steam_id":76561198139681845,"connected_time":91000000000,"state":"active","ping":44},{"user_id":185,"name":"NotThatGuyPal","steam_id":76561199127607812,"connected_time":1334000000000,"state":"active","ping":139},{"user_id":156,"name":"Cat doin laundry","steam_id":76561198063895852,"connected_time":3208000000000,"state":"active","ping":52}]},{"server_id":404,"name":"Uncletopia | Dallas | 3 | All Maps","name_short":"dal-3","host":"dal-1.us.uncletopia.com","port":27035,"enabled":true,"region":"us-central","cc":"us","latitude":32.779167,"longitude":-96.80889,"reserved":0,"last_update":"0001-01-01T00:00:00Z","name_a2s":"Uncletopia | Dallas | 3 | All Maps","protocol":17,"map":"pl_badwater","folder":"tf","game":"Team Fortress","app_id":440,"player_count":23,"max_players":24,"Bots":0,"server_type":"Dedicated","server_os":"Linux","password":true,"vac":true,"version":"7961495","steam_id":85568392924515219,"keywords":["nocrits","nodmgspread","payload","uncletopia"],"game_id":440,"stv_port":27036,"stv_name":"Uncletopia | Dallas | 3 | All Maps | STV","players":[{"user_id":70,"name":"concreteeater22","steam_id":76561198250042710,"connected_time":255000000000,"state":"active","ping":87},{"user_id":72,"name":"VikingsEdit","steam_id":76561199090100417,"connected_time":189000000000,"state":"active","ping":75},{"user_id":54,"name":"Crash","steam_id":76561198004273892,"connected_time":838000000000,"state":"active","ping":138},{"user_id":68,"name":"dantheman","steam_id":76561199486390813,"connected_time":405000000000,"state":"active","ping":77},{"user_id":55,"name":"Siopao","steam_id":76561198254089497,"connected_time":820000000000,"state":"active","ping":86},{"user_id":35,"name":"adam0o0","steam_id":76561198052250279,"connected_time":2267000000000,"state":"active","ping":87},{"user_id":73,"name":"1000 Ping","steam_id":76561198098330939,"connected_time":172000000000,"state":"active","ping":94},{"user_id":64,"name":"warpig","steam_id":76561199226313309,"connected_time":639000000000,"state":"active","ping":90},{"user_id":44,"name":"LazeKaL","steam_id":76561199073866617,"connected_time":1193000000000,"state":"active","ping":90},{"user_id":56,"name":"GreenApples","steam_id":76561198120559543,"connected_time":816000000000,"state":"active","ping":89},{"user_id":45,"name":"edavis3rd","steam_id":76561197985551948,"connected_time":1123000000000,"state":"active","ping":86},{"user_id":41,"name":"Timmy The Tyrant","steam_id":76561199156409732,"connected_time":1786000000000,"state":"active","ping":45},{"user_id":52,"name":"cringy","steam_id":76561198323000455,"connected_time":914000000000,"state":"active","ping":86},{"user_id":47,"name":"DivineBanana","steam_id":76561198026529731,"connected_time":1030000000000,"state":"active","ping":79},{"user_id":48,"name":"Rango","steam_id":76561198222234172,"connected_time":1000000000000,"state":"active","ping":56},{"user_id":71,"name":"Alkimia","steam_id":76561198385763137,"connected_time":221000000000,"state":"active","ping":117},{"user_id":50,"name":"Merekitten","steam_id":76561198066307477,"connected_time":955000000000,"state":"active","ping":85},{"user_id":60,"name":"Revolver TF2","steam_id":76561198968778310,"connected_time":787000000000,"state":"active","ping":96},{"user_id":57,"name":"Preston","steam_id":76561198335444084,"connected_time":808000000000,"state":"active","ping":114},{"user_id":58,"name":"Dullahan","steam_id":76561198119668908,"connected_time":807000000000,"state":"active","ping":90},{"user_id":67,"name":"When In Rome","steam_id":76561198084941305,"connected_time":466000000000,"state":"active","ping":62},{"user_id":62,"name":"ack.awesome676","steam_id":76561199109415958,"connected_time":698000000000,"state":"active","ping":74},{"user_id":63,"name":"walt jizzney","steam_id":76561198168621580,"connected_time":695000000000,"state":"active","ping":91}]},{"server_id":405,"name":"Uncletopia | Dallas | 4 | Community","name_short":"dal-4","host":"dal-1.us.uncletopia.com","port":27045,"enabled":true,"region":"us-central","cc":"us","latitude":32.779167,"longitude":-96.80889,"reserved":0,"last_update":"0001-01-01T00:00:00Z","name_a2s":"Uncletopia | Dallas | 4 | Community","protocol":17,"map":"workshop/koth_synthetic_rc6a.ugc1549817316","folder":"tf","game":"Team Fortress","app_id":440,"player_count":0,"max_players":24,"Bots":0,"server_type":"Dedicated","server_os":"Linux","password":true,"vac":true,"version":"7961495","steam_id":85568392924515220,"keywords":["cp","nocrits","nodmgspread","uncletopia"],"game_id":440,"stv_port":27046,"stv_name":"Uncletopia | Dallas | 4 | Community | STV","players":null},{"server_id":5,"name":"Uncletopia | Frankfurt | 1 | All Maps","name_short":"frk-1","host":"frk-1.de.uncletopia.com","port":27015,"enabled":true,"region":"eu","cc":"de","latitude":50.110924,"longitude":8.682127,"reserved":0,"last_update":"0001-01-01T00:00:00Z","name_a2s":"Uncletopia | Frankfurt | 1 | All Maps","protocol":17,"map":"pl_snowycoast","folder":"tf","game":"Team Fortress","app_id":440,"player_count":24,"max_players":24,"Bots":0,"server_type":"Dedicated","server_os":"Linux","password":true,"vac":true,"version":"7961495","steam_id":85568392924469989,"keywords":["nocrits","nodmgspread","payload","uncletopia"],"game_id":440,"stv_port":27016,"stv_name":"Uncletopia | Frankfurt | 1 | All Maps | STV","players":[{"user_id":742,"name":"Lord Stamtish","steam_id":76561198254039257,"connected_time":4796000000000,"state":"active","ping":136},{"user_id":800,"name":"Shogg","steam_id":76561198056382237,"connected_time":361000000000,"state":"active","ping":73},{"user_id":735,"name":"Valfezant","steam_id":76561199063983797,"connected_time":5247000000000,"state":"active","ping":64},{"user_id":788,"name":"ewpert","steam_id":76561198432427667,"connected_time":935000000000,"state":"active","ping":75},{"user_id":784,"name":"LionKing","steam_id":76561198023399545,"connected_time":1179000000000,"state":"active","ping":53},{"user_id":777,"name":"Psychicpie","steam_id":76561198126065206,"connected_time":1760000000000,"state":"active","ping":46},{"user_id":789,"name":"proph","steam_id":76561197998803950,"connected_time":934000000000,"state":"active","ping":51},{"user_id":801,"name":"Dizzy","steam_id":76561198010192462,"connected_time":358000000000,"state":"active","ping":53},{"user_id":780,"name":"ツQesek","steam_id":76561199249970007,"connected_time":1545000000000,"state":"active","ping":71},{"user_id":804,"name":"Denton","steam_id":76561198367991717,"connected_time":230000000000,"state":"active","ping":68},{"user_id":790,"name":"George W Bush","steam_id":76561198846784757,"connected_time":914000000000,"state":"active","ping":61},{"user_id":778,"name":"Michalo169","steam_id":76561198175295342,"connected_time":1688000000000,"state":"active","ping":56},{"user_id":758,"name":"r06u3","steam_id":76561198254099253,"connected_time":3292000000000,"state":"active","ping":164},{"user_id":779,"name":"Ozzie","steam_id":76561197992915315,"connected_time":1681000000000,"state":"active","ping":59},{"user_id":799,"name":"Birbmang","steam_id":76561198035119964,"connected_time":492000000000,"state":"active","ping":55},{"user_id":802,"name":"4ngle_grinder","steam_id":76561199196369031,"connected_time":334000000000,"state":"active","ping":50},{"user_id":768,"name":"IDunnoMemes","steam_id":76561198303462971,"connected_time":2371000000000,"state":"active","ping":60},{"user_id":787,"name":"Fjellape","steam_id":76561198094819884,"connected_time":1045000000000,"state":"active","ping":81},{"user_id":713,"name":"Pelvis Elsey","steam_id":76561198134378108,"connected_time":6702000000000,"state":"active","ping":79},{"user_id":791,"name":"Salt_Shaker309","steam_id":76561198086931010,"connected_time":909000000000,"state":"active","ping":46},{"user_id":792,"name":"rai","steam_id":76561199408923294,"connected_time":857000000000,"state":"active","ping":66},{"user_id":805,"name":"kavun","steam_id":76561198023461869,"connected_time":191000000000,"state":"active","ping":84},{"user_id":794,"name":"tomydjoh","steam_id":76561198077421906,"connected_time":823000000000,"state":"active","ping":48},{"user_id":803,"name":"[HOL] Solringen","steam_id":76561198003584681,"connected_time":329000000000,"state":"active","ping":68}]},{"server_id":110,"name":"Uncletopia | Frankfurt | 2 | All Maps","name_short":"frk-2","host":"frk-1.de.uncletopia.com","port":27025,"enabled":true,"region":"eu","cc":"de","latitude":50.110924,"longitude":8.682127,"reserved":0,"last_update":"0001-01-01T00:00:00Z","name_a2s":"Uncletopia | Frankfurt | 2 | All Maps","protocol":17,"map":"pl_badwater","folder":"tf","game":"Team Fortress","app_id":440,"player_count":24,"max_players":24,"Bots":0,"server_type":"Dedicated","server_os":"Linux","password":true,"vac":true,"version":"7961495","steam_id":85568392924469990,"keywords":["nocrits","nodmgspread","payload","uncletopia"],"game_id":440,"stv_port":27026,"stv_name":"Uncletopia | Frankfurt | 2 | All Maps | STV","players":[{"user_id":755,"name":"ScapeGoat","steam_id":76561198137868829,"connected_time":3175000000000,"state":"active","ping":47},{"user_id":794,"name":"Mafloy","steam_id":76561198049243300,"connected_time":265000000000,"state":"active","ping":76},{"user_id":749,"name":"system","steam_id":76561197989357884,"connected_time":3465000000000,"state":"active","ping":67},{"user_id":748,"name":"333","steam_id":76561198029805235,"connected_time":3535000000000,"state":"active","ping":54},{"user_id":784,"name":"Lemon","steam_id":76561198188535947,"connected_time":1721000000000,"state":"active","ping":70},{"user_id":773,"name":"huffy","steam_id":76561198062827013,"connected_time":2403000000000,"state":"active","ping":49},{"user_id":792,"name":"kanker","steam_id":76561198231470280,"connected_time":949000000000,"state":"active","ping":53},{"user_id":791,"name":"Tanner Jarring","steam_id":76561198172024365,"connected_time":1173000000000,"state":"active","ping":146},{"user_id":760,"name":"anabol1c steroids","steam_id":76561199470147761,"connected_time":3006000000000,"state":"active","ping":117},{"user_id":743,"name":"godmodule","steam_id":76561198165995444,"connected_time":3736000000000,"state":"active","ping":64},{"user_id":789,"name":"pierogi","steam_id":76561198718760200,"connected_time":1393000000000,"state":"active","ping":62},{"user_id":780,"name":"K3nza","steam_id":76561198180128410,"connected_time":1852000000000,"state":"active","ping":60},{"user_id":634,"name":"The Lady","steam_id":76561198029895809,"connected_time":10957000000000,"state":"active","ping":76},{"user_id":768,"name":"GunGuy","steam_id":76561198124510978,"connected_time":2623000000000,"state":"active","ping":58},{"user_id":783,"name":"elijah","steam_id":76561198093936708,"connected_time":1775000000000,"state":"active","ping":60},{"user_id":785,"name":"wordington gamer","steam_id":76561198066432717,"connected_time":1654000000000,"state":"active","ping":56},{"user_id":774,"name":"rummy","steam_id":76561197997573379,"connected_time":2396000000000,"state":"active","ping":58},{"user_id":771,"name":"sword machine","steam_id":76561198895235231,"connected_time":2489000000000,"state":"active","ping":72},{"user_id":781,"name":"Lennox","steam_id":76561198069063554,"connected_time":1833000000000,"state":"active","ping":42},{"user_id":775,"name":"Not Sussy Tanuki","steam_id":76561198137289375,"connected_time":2394000000000,"state":"active","ping":84},{"user_id":790,"name":"NFT(non functioning testicle)","steam_id":76561198092435966,"connected_time":1342000000000,"state":"active","ping":43},{"user_id":786,"name":"meriones","steam_id":76561198034234373,"connected_time":1616000000000,"state":"active","ping":53},{"user_id":731,"name":"Lance Corporal Boiled Egg","steam_id":76561197989717358,"connected_time":4278000000000,"state":"active","ping":53},{"user_id":777,"name":"Sabour","steam_id":76561197963965445,"connected_time":2338000000000,"state":"active","ping":48}]},{"server_id":308,"name":"Uncletopia | Frankfurt | 3 | All Maps","name_short":"frk-3","host":"frk-1.de.uncletopia.com","port":27035,"enabled":true,"region":"eu","cc":"de","latitude":50.110924,"longitude":8.682127,"reserved":0,"last_update":"0001-01-01T00:00:00Z","name_a2s":"Uncletopia | Frankfurt | 3 | All Maps","protocol":17,"map":"cp_gorge","folder":"tf","game":"Team Fortress","app_id":440,"player_count":0,"max_players":24,"Bots":0,"server_type":"Dedicated","server_os":"Linux","password":true,"vac":true,"version":"7961495","steam_id":85568392924504274,"keywords":["cp","nocrits","nodmgspread","uncletopia"],"game_id":440,"stv_port":27036,"stv_name":"Uncletopia | Frankfurt | 3 | All Maps | STV","players":null},{"server_id":309,"name":"Uncletopia | Frankfurt | 4 | All Maps","name_short":"frk-4","host":"frk-1.de.uncletopia.com","port":27045,"enabled":true,"region":"eu","cc":"de","latitude":50.110924,"longitude":8.682127,"reserved":0,"last_update":"0001-01-01T00:00:00Z","name_a2s":"Uncletopia | Frankfurt | 4 | All Maps","protocol":17,"map":"koth_cascade","folder":"tf","game":"Team Fortress","app_id":440,"player_count":0,"max_players":24,"Bots":0,"server_type":"Dedicated","server_os":"Linux","password":true,"vac":true,"version":"7961495","steam_id":85568392924504275,"keywords":["cp","nocrits","nodmgspread","uncletopia"],"game_id":440,"stv_port":27046,"stv_name":"Uncletopia | Frankfurt | 4 | All Maps | STV","players":null},{"server_id":310,"name":"Uncletopia | Frankfurt | 5 | All Maps","name_short":"frk-5","host":"frk-1.de.uncletopia.com","port":27055,"enabled":true,"region":"eu","cc":"de","latitude":50.110924,"longitude":8.682127,"reserved":0,"last_update":"0001-01-01T00:00:00Z","name_a2s":"Uncletopia | Frankfurt | 5 | All Maps","protocol":17,"map":"koth_lakeside_final","folder":"tf","game":"Team Fortress","app_id":440,"player_count":0,"max_players":24,"Bots":0,"server_type":"Dedicated","server_os":"Linux","password":true,"vac":true,"version":"7961495","steam_id":85568392924504277,"keywords":["cp","nocrits","nodmgspread","uncletopia"],"game_id":440,"stv_port":27056,"stv_name":"Uncletopia | Frankfurt | 5 | All Maps | STV","players":null},{"server_id":311,"name":"Uncletopia | Frankfurt | 6 | All Maps","name_short":"frk-6","host":"frk-1.de.uncletopia.com","port":27065,"enabled":true,"region":"eu","cc":"de","latitude":50.110924,"longitude":8.682127,"reserved":0,"last_update":"0001-01-01T00:00:00Z","name_a2s":"Uncletopia | Frankfurt | 6 | All Maps","protocol":17,"map":"cp_snakewater_final1","folder":"tf","game":"Team Fortress","app_id":440,"player_count":0,"max_players":24,"Bots":0,"server_type":"Dedicated","server_os":"Linux","password":true,"vac":true,"version":"7961495","steam_id":85568392924504278,"keywords":["cp","nocrits","nodmgspread","uncletopia"],"game_id":440,"stv_port":27066,"stv_name":"Uncletopia | Frankfurt | 6 | All Maps | STV","players":null},{"server_id":23,"name":"Uncletopia | Frankfurt | 7 | Stopwatch","name_short":"frk-7","host":"frk-1.de.uncletopia.com","port":27075,"enabled":true,"region":"eu","cc":"de","latitude":50.110924,"longitude":8.682127,"reserved":0,"last_update":"0001-01-01T00:00:00Z","name_a2s":"Uncletopia | Frankfurt | 7 | Stopwatch","protocol":17,"map":"workshop/koth_product_final.ugc454272353","folder":"tf","game":"Team Fortress","app_id":440,"player_count":0,"max_players":24,"Bots":0,"server_type":"Dedicated","server_os":"Linux","password":true,"vac":true,"version":"7961495","steam_id":85568392924742827,"keywords":["cp","nocrits","nodmgspread","uncletopia"],"game_id":440,"stv_port":27076,"stv_name":"Uncletopia | Frankfurt | 7 | Stopwatch | STV","players":null},{"server_id":24,"name":"Uncletopia | Frankfurt | 8 | Community","name_short":"frk-8","host":"frk-1.de.uncletopia.com","port":27085,"enabled":true,"region":"eu","cc":"de","latitude":50.110924,"longitude":8.682127,"reserved":0,"last_update":"0001-01-01T00:00:00Z","name_a2s":"Uncletopia | Frankfurt | 8 | Community","protocol":17,"map":"workshop/koth_slaughter_rc1.ugc1712845210","folder":"tf","game":"Team Fortress","app_id":440,"player_count":0,"max_players":24,"Bots":0,"server_type":"Dedicated","server_os":"Linux","password":true,"vac":true,"version":"7961495","steam_id":85568392924742828,"keywords":["cp","nocrits","nodmgspread","uncletopia"],"game_id":440,"stv_port":27086,"stv_name":"Uncletopia | Frankfurt | 8 | Community | STV","players":null},{"server_id":202,"name":"Uncletopia | Hong Kong | 1 | All Maps","name_short":"hgk-1","host":"hgk-1.hk.uncletopia.com","port":27015,"enabled":true,"region":"asia","cc":"hk","latitude":22.302711,"longitude":114.177216,"reserved":0,"last_update":"0001-01-01T00:00:00Z","name_a2s":"Uncletopia | Hong Kong | 1 | All Maps","protocol":17,"map":"cp_gravelpit","folder":"tf","game":"Team Fortress","app_id":440,"player_count":0,"max_players":24,"Bots":0,"server_type":"Dedicated","server_os":"Linux","password":true,"vac":true,"version":"7961495","steam_id":85568392924494504,"keywords":["cp","nocrits","nodmgspread","uncletopia"],"game_id":440,"stv_port":27016,"stv_name":"Uncletopia | Hong Kong | 1 | All Maps | STV","players":null},{"server_id":1,"name":"Uncletopia | Los Angeles | 1 | All Maps","name_short":"lax-1","host":"lax-1.us.uncletopia.com","port":27015,"enabled":true,"region":"us-west","cc":"us","latitude":33.94279,"longitude":-118.41004,"reserved":0,"last_update":"0001-01-01T00:00:00Z","name_a2s":"Uncletopia | Los Angeles | 1 | All Maps","protocol":17,"map":"pl_upward","folder":"tf","game":"Team Fortress","app_id":440,"player_count":1,"max_players":24,"Bots":0,"server_type":"Dedicated","server_os":"Linux","password":true,"vac":true,"version":"7961495","steam_id":85568392924469991,"keywords":["nocrits","nodmgspread","payload","uncletopia"],"game_id":440,"stv_port":27016,"stv_name":"Uncletopia | Los Angeles | 1 | All Maps | STV","players":[{"user_id":11,"name":"Pines","steam_id":76561199024146278,"connected_time":50000000000,"state":"active","ping":39}]},{"server_id":112,"name":"Uncletopia | Los Angeles | 2 | All Maps","name_short":"lax-2","host":"lax-1.us.uncletopia.com","port":27025,"enabled":true,"region":"us-west","cc":"us","latitude":33.94279,"longitude":-118.41004,"reserved":0,"last_update":"0001-01-01T00:00:00Z","name_a2s":"Uncletopia | Los Angeles | 2 | All Maps","protocol":17,"map":"koth_cascade","folder":"tf","game":"Team Fortress","app_id":440,"player_count":0,"max_players":24,"Bots":0,"server_type":"Dedicated","server_os":"Linux","password":true,"vac":true,"version":"7961495","steam_id":85568392924469992,"keywords":["cp","nocrits","nodmgspread","uncletopia"],"game_id":440,"stv_port":27026,"stv_name":"Uncletopia | Los Angeles | 2 | All Maps | STV","players":null},{"server_id":324,"name":"Uncletopia | Los Angeles | 3 | All Maps","name_short":"lax-3","host":"lax-1.us.uncletopia.com","port":27035,"enabled":true,"region":"us-west","cc":"us","latitude":33.94279,"longitude":-118.41004,"reserved":0,"last_update":"0001-01-01T00:00:00Z","name_a2s":"Uncletopia | Los Angeles | 3 | All Maps","protocol":17,"map":"pl_hoodoo_final","folder":"tf","game":"Team Fortress","app_id":440,"player_count":0,"max_players":24,"Bots":0,"server_type":"Dedicated","server_os":"Linux","password":true,"vac":true,"version":"7961495","steam_id":85568392924510198,"keywords":["nocrits","nodmgspread","payload","uncletopia"],"game_id":440,"stv_port":27036,"stv_name":"Uncletopia | Los Angeles | 3 | All Maps | STV","players":null},{"server_id":25,"name":"Uncletopia | Los Angeles | 4 | Stopwatch","name_short":"lax-4","host":"lax-1.us.uncletopia.com","port":27045,"enabled":true,"region":"us-west","cc":"us","latitude":33.94279,"longitude":-118.41004,"reserved":0,"last_update":"0001-01-01T00:00:00Z","name_a2s":"Uncletopia | Los Angeles | 4 | Stopwatch","protocol":17,"map":"cp_process_final","folder":"tf","game":"Team Fortress","app_id":440,"player_count":0,"max_players":24,"Bots":0,"server_type":"Dedicated","server_os":"Linux","password":true,"vac":true,"version":"7961495","steam_id":85568392924510199,"keywords":["cp","nocrits","nodmgspread","uncletopia"],"game_id":440,"stv_port":27046,"stv_name":"Uncletopia | Los Angeles | 4 | Stopwatch | STV","players":null},{"server_id":11,"name":"Uncletopia | London | 1 | All Maps","name_short":"lon-1","host":"lon-1.uk.uncletopia.com","port":27015,"enabled":true,"region":"eu","cc":"gb","latitude":51.509865,"longitude":-0.118092,"reserved":0,"last_update":"0001-01-01T00:00:00Z","name_a2s":"Uncletopia | London | 1 | All Maps","protocol":17,"map":"pl_badwater","folder":"tf","game":"Team Fortress","app_id":440,"player_count":24,"max_players":24,"Bots":0,"server_type":"Dedicated","server_os":"Linux","password":true,"vac":true,"version":"7961495","steam_id":85568392924367362,"keywords":["nocrits","nodmgspread","payload","uncletopia"],"game_id":440,"stv_port":27016,"stv_name":"Uncletopia | London | 1 | All Maps | STV","players":[{"user_id":471,"name":"mag̶p̶i̶e ✿","steam_id":76561198797266244,"connected_time":2924000000000,"state":"active","ping":63},{"user_id":439,"name":"gibb (heLP HELP HELP)","steam_id":76561198074097655,"connected_time":5561000000000,"state":"active","ping":68},{"user_id":486,"name":"Mea","steam_id":76561198353496134,"connected_time":1302000000000,"state":"active","ping":52},{"user_id":482,"name":"BreadBubbles","steam_id":76561198174332826,"connected_time":1645000000000,"state":"active","ping":57},{"user_id":484,"name":"Hogs Sidekick","steam_id":76561198136433205,"connected_time":1376000000000,"state":"active","ping":35},{"user_id":465,"name":"Kristianma","steam_id":76561198021772843,"connected_time":3183000000000,"state":"active","ping":72},{"user_id":485,"name":"Dankstein","steam_id":76561198122662378,"connected_time":1339000000000,"state":"active","ping":74},{"user_id":491,"name":"Bobirulez","steam_id":76561198009125458,"connected_time":591000000000,"state":"active","ping":75},{"user_id":495,"name":"Christmas Ham","steam_id":76561198119601623,"connected_time":261000000000,"state":"active","ping":54},{"user_id":490,"name":"SOPHIIAA","steam_id":76561198443798981,"connected_time":818000000000,"state":"active","ping":68},{"user_id":487,"name":"Summer ♥","steam_id":76561198047723907,"connected_time":1142000000000,"state":"active","ping":38},{"user_id":456,"name":"Marl Karx","steam_id":76561198396797516,"connected_time":3865000000000,"state":"active","ping":47},{"user_id":453,"name":"Tomboy Mold","steam_id":76561198106455841,"connected_time":4158000000000,"state":"active","ping":58},{"user_id":428,"name":"Laru","steam_id":76561197998838438,"connected_time":6125000000000,"state":"active","ping":83},{"user_id":322,"name":"⸸aura⸸","steam_id":76561198066258544,"connected_time":15177000000000,"state":"active","ping":61},{"user_id":408,"name":"i beat the last giant","steam_id":76561198080524596,"connected_time":7959000000000,"state":"active","ping":44},{"user_id":437,"name":"sora (live!)","steam_id":76561198096547662,"connected_time":5591000000000,"state":"active","ping":52},{"user_id":419,"name":"Minimi","steam_id":76561198873850443,"connected_time":7232000000000,"state":"active","ping":47},{"user_id":421,"name":"ashley","steam_id":76561198448551449,"connected_time":6597000000000,"state":"active","ping":41},{"user_id":492,"name":"yeahfam","steam_id":76561198330481190,"connected_time":545000000000,"state":"active","ping":45},{"user_id":418,"name":"Clown :o)","steam_id":76561198074657015,"connected_time":7277000000000,"state":"active","ping":59},{"user_id":493,"name":"Çodar","steam_id":76561198235518444,"connected_time":467000000000,"state":"active","ping":35},{"user_id":468,"name":"Pinkchup","steam_id":76561198106802803,"connected_time":3137000000000,"state":"active","ping":76},{"user_id":446,"name":"beebo","steam_id":76561199120277007,"connected_time":4729000000000,"state":"active","ping":43}]},{"server_id":114,"name":"Uncletopia | London | 2 | All Maps","name_short":"lon-2","host":"lon-1.uk.uncletopia.com","port":27025,"enabled":true,"region":"eu","cc":"gb","latitude":51.509865,"longitude":-0.118092,"reserved":0,"last_update":"0001-01-01T00:00:00Z","name_a2s":"Uncletopia | London | 2 | All Maps","protocol":17,"map":"pl_swiftwater_final1","folder":"tf","game":"Team Fortress","app_id":440,"player_count":24,"max_players":24,"Bots":0,"server_type":"Dedicated","server_os":"Linux","password":true,"vac":true,"version":"7961495","steam_id":85568392924470941,"keywords":["nocrits","nodmgspread","payload","uncletopia"],"game_id":440,"stv_port":27026,"stv_name":"Uncletopia | London | 2 | All Maps | STV","players":[{"user_id":655,"name":"Isaac Boush","steam_id":76561198179746529,"connected_time":658000000000,"state":"active","ping":68},{"user_id":628,"name":"free back real estate","steam_id":76561197999437155,"connected_time":2221000000000,"state":"active","ping":43},{"user_id":654,"name":"StrugglinStuntman","steam_id":76561198103352338,"connected_time":670000000000,"state":"active","ping":146},{"user_id":509,"name":"starlightartist","steam_id":76561198050608456,"connected_time":10734000000000,"state":"active","ping":45},{"user_id":659,"name":"epic gaming","steam_id":76561198119495513,"connected_time":580000000000,"state":"active","ping":38},{"user_id":662,"name":"Iris","steam_id":76561198430295815,"connected_time":463000000000,"state":"active","ping":62},{"user_id":657,"name":"Grumps","steam_id":76561198014384637,"connected_time":617000000000,"state":"active","ping":45},{"user_id":619,"name":"Yali_Ekstein","steam_id":76561199147884934,"connected_time":3191000000000,"state":"active","ping":91},{"user_id":653,"name":"etc","steam_id":76561197998394797,"connected_time":720000000000,"state":"active","ping":58},{"user_id":658,"name":"Marty Pants","steam_id":76561198004449634,"connected_time":602000000000,"state":"active","ping":45},{"user_id":664,"name":"SynthBox3","steam_id":76561199094075745,"connected_time":336000000000,"state":"active","ping":91},{"user_id":660,"name":"Cereal","steam_id":76561198128418112,"connected_time":553000000000,"state":"active","ping":123},{"user_id":638,"name":"tube sock","steam_id":76561198073576350,"connected_time":1602000000000,"state":"active","ping":82},{"user_id":639,"name":"rez777ka","steam_id":76561198107605938,"connected_time":1589000000000,"state":"active","ping":91},{"user_id":661,"name":"compact disc","steam_id":76561198154677956,"connected_time":528000000000,"state":"active","ping":67},{"user_id":629,"name":"shr1mple","steam_id":76561198173537027,"connected_time":1909000000000,"state":"active","ping":78},{"user_id":640,"name":"Clover","steam_id":76561198315908102,"connected_time":1587000000000,"state":"active","ping":49},{"user_id":641,"name":"Joe","steam_id":76561198145639903,"connected_time":1581000000000,"state":"active","ping":90},{"user_id":648,"name":"Dr. Hannibal Erekter","steam_id":76561198256093319,"connected_time":1028000000000,"state":"active","ping":78},{"user_id":651,"name":"King Nugget","steam_id":76561198134037464,"connected_time":749000000000,"state":"active","ping":61},{"user_id":642,"name":"tone","steam_id":76561197975301462,"connected_time":1576000000000,"state":"active","ping":63},{"user_id":652,"name":"the rat","steam_id":76561198079101313,"connected_time":735000000000,"state":"active","ping":41},{"user_id":649,"name":"Sparky","steam_id":76561198036754195,"connected_time":1026000000000,"state":"active","ping":47},{"user_id":508,"name":"funny","steam_id":76561198055586726,"connected_time":10859000000000,"state":"active","ping":42}]},{"server_id":320,"name":"Uncletopia | London | 3 | All Maps","name_short":"lon-3","host":"lon-1.uk.uncletopia.com","port":27035,"enabled":true,"region":"eu","cc":"gb","latitude":51.509865,"longitude":-0.118092,"reserved":0,"last_update":"0001-01-01T00:00:00Z","name_a2s":"Uncletopia | London | 3 | All Maps","protocol":17,"map":"cp_steel","folder":"tf","game":"Team Fortress","app_id":440,"player_count":24,"max_players":24,"Bots":0,"server_type":"Dedicated","server_os":"Linux","password":true,"vac":true,"version":"7961495","steam_id":85568392924510192,"keywords":["cp","nocrits","nodmgspread","uncletopia"],"game_id":440,"stv_port":27036,"stv_name":"Uncletopia | London | 3 | All Maps | STV","players":[{"user_id":447,"name":"gitlitwitit","steam_id":76561197980019054,"connected_time":2098000000000,"state":"active","ping":60},{"user_id":450,"name":"mary","steam_id":76561198014828037,"connected_time":1903000000000,"state":"active","ping":55},{"user_id":406,"name":"Jabukowy11 #Poland","steam_id":76561198190466475,"connected_time":4675000000000,"state":"active","ping":94},{"user_id":464,"name":"STiNGHAN","steam_id":76561198023989090,"connected_time":765000000000,"state":"active","ping":73},{"user_id":457,"name":"Pjuske","steam_id":76561198013943953,"connected_time":1063000000000,"state":"active","ping":63},{"user_id":438,"name":"GorkaMorka","steam_id":76561198323830346,"connected_time":2269000000000,"state":"active","ping":57},{"user_id":468,"name":"Leviin_","steam_id":76561198066978511,"connected_time":506000000000,"state":"active","ping":37},{"user_id":466,"name":"Biglet","steam_id":76561198077243439,"connected_time":576000000000,"state":"active","ping":32},{"user_id":434,"name":"Vershal Smershal","steam_id":76561198116223995,"connected_time":2921000000000,"state":"active","ping":55},{"user_id":469,"name":"Woad Raider","steam_id":76561198215485788,"connected_time":405000000000,"state":"active","ping":65},{"user_id":432,"name":"beggle","steam_id":76561198038671894,"connected_time":2989000000000,"state":"active","ping":45},{"user_id":409,"name":"Caramel","steam_id":76561198021214844,"connected_time":4590000000000,"state":"active","ping":45},{"user_id":448,"name":"Butcher My Jokes","steam_id":76561198112720511,"connected_time":1994000000000,"state":"active","ping":46},{"user_id":463,"name":"Liquid Sheet","steam_id":76561198021496120,"connected_time":846000000000,"state":"active","ping":89},{"user_id":444,"name":"Gorgeous George","steam_id":76561198144256544,"connected_time":2172000000000,"state":"active","ping":46},{"user_id":458,"name":"Dowsy","steam_id":76561198086439113,"connected_time":1053000000000,"state":"active","ping":71},{"user_id":437,"name":"agent youppii","steam_id":76561198055264447,"connected_time":2614000000000,"state":"active","ping":56},{"user_id":467,"name":"Water","steam_id":76561198154851729,"connected_time":564000000000,"state":"active","ping":75},{"user_id":411,"name":"sticks","steam_id":76561198127099299,"connected_time":4550000000000,"state":"active","ping":42},{"user_id":461,"name":"Pan","steam_id":76561198436871448,"connected_time":918000000000,"state":"active","ping":46},{"user_id":470,"name":"Internetowy Pies","steam_id":76561198005719732,"connected_time":286000000000,"state":"active","ping":62},{"user_id":472,"name":"gagalak","steam_id":76561198089979108,"connected_time":120000000000,"state":"active","ping":101},{"user_id":431,"name":"toad","steam_id":76561198085007043,"connected_time":3086000000000,"state":"active","ping":59},{"user_id":413,"name":"Cioly","steam_id":76561198257791981,"connected_time":4511000000000,"state":"active","ping":66}]},{"server_id":321,"name":"Uncletopia | London | 4 | All Maps","name_short":"lon-4","host":"lon-1.uk.uncletopia.com","port":27045,"enabled":true,"region":"eu","cc":"gb","latitude":51.509865,"longitude":-0.118092,"reserved":0,"last_update":"0001-01-01T00:00:00Z","name_a2s":"Uncletopia | London | 4 | All Maps","protocol":17,"map":"koth_viaduct","folder":"tf","game":"Team Fortress","app_id":440,"player_count":0,"max_players":24,"Bots":0,"server_type":"Dedicated","server_os":"Linux","password":true,"vac":true,"version":"7961495","steam_id":85568392924510193,"keywords":["cp","nocrits","nodmgspread","uncletopia"],"game_id":440,"stv_port":27046,"stv_name":"Uncletopia | London | 4 | All Maps | STV","players":null},{"server_id":21,"name":"Uncletopia | London | 5 | All Maps","name_short":"lon-5","host":"lon-1.uk.uncletopia.com","port":27055,"enabled":true,"region":"eu","cc":"gb","latitude":51.509865,"longitude":-0.118092,"reserved":0,"last_update":"0001-01-01T00:00:00Z","name_a2s":"Uncletopia | London | 5 | All Maps","protocol":17,"map":"koth_lakeside_final","folder":"tf","game":"Team Fortress","app_id":440,"player_count":0,"max_players":24,"Bots":0,"server_type":"Dedicated","server_os":"Linux","password":true,"vac":true,"version":"7961495","steam_id":85568392924742829,"keywords":["cp","nocrits","nodmgspread","uncletopia"],"game_id":440,"stv_port":27056,"stv_name":"Uncletopia | London | 5 | All Maps | STV","players":null},{"server_id":22,"name":"Uncletopia | London | 6 | All Maps","name_short":"lon-6","host":"lon-1.uk.uncletopia.com","port":27065,"enabled":true,"region":"eu","cc":"gb","latitude":51.509865,"longitude":-0.118092,"reserved":0,"last_update":"0001-01-01T00:00:00Z","name_a2s":"Uncletopia | London | 6 | All Maps","protocol":17,"map":"cp_dustbowl","folder":"tf","game":"Team Fortress","app_id":440,"player_count":10,"max_players":24,"Bots":0,"server_type":"Dedicated","server_os":"Linux","password":true,"vac":true,"version":"7961495","steam_id":85568392924742830,"keywords":["cp","nocrits","nodmgspread","uncletopia"],"game_id":440,"stv_port":27066,"stv_name":"Uncletopia | London | 6 | All Maps | STV","players":[{"user_id":177,"name":"Maxo","steam_id":76561199102372501,"connected_time":75000000000,"state":"spawning","ping":246},{"user_id":162,"name":"1 toke 4 mars bars","steam_id":76561198056460000,"connected_time":1708000000000,"state":"active","ping":44},{"user_id":105,"name":"Silver\u003c3 (12k hours and trash)","steam_id":76561198022351828,"connected_time":6200000000000,"state":"active","ping":41},{"user_id":176,"name":"dad.","steam_id":76561198147173457,"connected_time":188000000000,"state":"active","ping":75},{"user_id":143,"name":"Jeff (♀)","steam_id":76561198280101970,"connected_time":3461000000000,"state":"active","ping":51},{"user_id":128,"name":"randem_","steam_id":76561198338793755,"connected_time":4799000000000,"state":"active","ping":39},{"user_id":125,"name":"Funny Cat Song","steam_id":76561199229682408,"connected_time":4909000000000,"state":"active","ping":40},{"user_id":172,"name":"Coololks11","steam_id":76561198093002996,"connected_time":405000000000,"state":"active","ping":62},{"user_id":168,"name":"Coac","steam_id":76561198085265740,"connected_time":819000000000,"state":"active","ping":59}]},{"server_id":40,"name":"Uncletopia | London | 7 | Stopwatch","name_short":"lon-7","host":"lon-1.uk.uncletopia.com","port":27075,"enabled":true,"region":"eu","cc":"gb","latitude":51.509865,"longitude":-0.118092,"reserved":0,"last_update":"0001-01-01T00:00:00Z","name_a2s":"Uncletopia | London | 7 | Stopwatch","protocol":17,"map":"workshop/koth_jamram_rc1a.ugc2964065613","folder":"tf","game":"Team Fortress","app_id":440,"player_count":0,"max_players":24,"Bots":0,"server_type":"Dedicated","server_os":"Linux","password":true,"vac":true,"version":"7961495","steam_id":85568392924964314,"keywords":["cp","nocrits","nodmgspread","uncletopia"],"game_id":440,"stv_port":27076,"stv_name":"Uncletopia | London | 7 | Stopwatch | STV","players":null},{"server_id":41,"name":"Uncletopia | London | 8 | Community","name_short":"lon-8","host":"lon-1.uk.uncletopia.com","port":27085,"enabled":true,"region":"eu","cc":"gb","latitude":51.509865,"longitude":-0.118092,"reserved":0,"last_update":"0001-01-01T00:00:00Z","name_a2s":"Uncletopia | London | 8 | Community","protocol":17,"map":"workshop/rd_asteroid_redux_b1.ugc2154902912","folder":"tf","game":"Team Fortress","app_id":440,"player_count":0,"max_players":24,"Bots":0,"server_type":"Dedicated","server_os":"Linux","password":true,"vac":true,"version":"7961495","steam_id":85568392924964315,"keywords":["beta","nocrits","nodmgspread","rd","uncletopia"],"game_id":440,"stv_port":27086,"stv_name":"Uncletopia | London | 8 | Community | STV","players":null},{"server_id":300,"name":"Uncletopia | Montréal | 1 | One Thousand Uncles","name_short":"mtl-1","host":"mtl-1.ca.uncletopia.com","port":27015,"enabled":true,"region":"us-east","cc":"ca","latitude":45.50889,"longitude":-73.56167,"reserved":0,"last_update":"0001-01-01T00:00:00Z","name_a2s":"Uncletopia | Montréal | 1 | One Thousand Uncles","protocol":17,"map":"pl_goldrush","folder":"tf","game":"Team Fortress","app_id":440,"player_count":18,"max_players":32,"Bots":16,"server_type":"Dedicated","server_os":"Linux","password":true,"vac":true,"version":"7961495","steam_id":85568392924500087,"keywords":["alltalk","bots","danepve","increased_maxplayers","norespawntime","payload","uncletopia"],"game_id":440,"stv_port":0,"stv_name":"","players":[{"user_id":333,"name":"Boykissing Gaming","steam_id":76561199504472610,"connected_time":268000000000,"state":"active","ping":73},{"user_id":351,"name":"D","steam_id":76561198292908619,"connected_time":3000000000,"state":"spawning","ping":83}]},{"server_id":301,"name":"Uncletopia | Montréal | 2 | One Thousand Uncles","name_short":"mtl-2","host":"mtl-1.ca.uncletopia.com","port":27025,"enabled":true,"region":"us-east","cc":"ca","latitude":45.50889,"longitude":-73.56167,"reserved":0,"last_update":"0001-01-01T00:00:00Z","name_a2s":"Uncletopia | Montréal | 2 | One Thousand Uncles","protocol":17,"map":"cp_dustbowl","folder":"tf","game":"Team Fortress","app_id":440,"player_count":21,"max_players":32,"Bots":16,"server_type":"Dedicated","server_os":"Linux","password":true,"vac":true,"version":"7961495","steam_id":85568392924500088,"keywords":["alltalk","bots","cp","danepve","increased_maxplayers","norespawntime","uncletopia"],"game_id":440,"stv_port":0,"stv_name":"","players":[{"user_id":147,"name":"triangleman","steam_id":76561198972733542,"connected_time":1133000000000,"state":"active","ping":77},{"user_id":148,"name":"jkoz472","steam_id":76561198799757633,"connected_time":492000000000,"state":"active","ping":64},{"user_id":149,"name":"Net","steam_id":76561199258143792,"connected_time":104000000000,"state":"active","ping":38},{"user_id":66,"name":"Drizzle","steam_id":76561198152143806,"connected_time":6063000000000,"state":"active","ping":76},{"user_id":63,"name":"dumbgineer","steam_id":76561199395970442,"connected_time":6809000000000,"state":"active","ping":133}]},{"server_id":302,"name":"Uncletopia | Montréal | 3 | One Thousand Uncles","name_short":"mtl-3","host":"mtl-1.ca.uncletopia.com","port":27035,"enabled":true,"region":"us-east","cc":"ca","latitude":45.50889,"longitude":-73.56167,"reserved":0,"last_update":"0001-01-01T00:00:00Z","name_a2s":"Uncletopia | Montréal | 3 | One Thousand Uncles","protocol":17,"map":"pl_upward","folder":"tf","game":"Team Fortress","app_id":440,"player_count":0,"max_players":32,"Bots":0,"server_type":"Dedicated","server_os":"Linux","password":true,"vac":true,"version":"7961495","steam_id":85568392924500089,"keywords":["alltalk","danepve","increased_maxplayers","norespawntime","payload","uncletopia"],"game_id":440,"stv_port":0,"stv_name":"","players":null},{"server_id":13,"name":"Uncletopia | New York City | 1 | All Maps","name_short":"nyc-1","host":"nyc-1.us.uncletopia.com","port":27015,"enabled":true,"region":"us-east","cc":"us","latitude":40.73061,"longitude":-73.93524,"reserved":0,"last_update":"0001-01-01T00:00:00Z","name_a2s":"Uncletopia | New York City | 1 | All Maps","protocol":17,"map":"cp_dustbowl","folder":"tf","game":"Team Fortress","app_id":440,"player_count":23,"max_players":24,"Bots":0,"server_type":"Dedicated","server_os":"Linux","password":true,"vac":true,"version":"7961495","steam_id":85568392924469993,"keywords":["cp","nocrits","nodmgspread","uncletopia"],"game_id":440,"stv_port":27016,"stv_name":"Uncletopia | New York City | 1 | All Maps | STV","players":[{"user_id":87,"name":"Dynamic","steam_id":76561198204547960,"connected_time":2088000000000,"state":"active","ping":69},{"user_id":115,"name":"the verminatrix","steam_id":76561198051210429,"connected_time":456000000000,"state":"active","ping":72},{"user_id":88,"name":"patdine","steam_id":76561198060865671,"connected_time":2074000000000,"state":"active","ping":52},{"user_id":85,"name":"Samrizo el Chorizo","steam_id":76561198009838162,"connected_time":2386000000000,"state":"active","ping":42},{"user_id":33,"name":"Fuzzele","steam_id":76561199199532696,"connected_time":5872000000000,"state":"active","ping":75},{"user_id":109,"name":"Bulk","steam_id":76561199009814535,"connected_time":799000000000,"state":"active","ping":42},{"user_id":112,"name":"Noid","steam_id":76561197980496241,"connected_time":692000000000,"state":"active","ping":73},{"user_id":110,"name":"Femboy Medic Main","steam_id":76561198268225109,"connected_time":739000000000,"state":"active","ping":68},{"user_id":100,"name":"TLG, Certified Gamer Mom","steam_id":76561198076669951,"connected_time":1602000000000,"state":"active","ping":57},{"user_id":74,"name":"kairOs.fk","steam_id":76561197972421260,"connected_time":3776000000000,"state":"active","ping":45},{"user_id":119,"name":"Glanderson booper","steam_id":76561198021223747,"connected_time":222000000000,"state":"active","ping":119},{"user_id":98,"name":"Toast","steam_id":76561199207957224,"connected_time":1713000000000,"state":"active","ping":80},{"user_id":111,"name":"Bother","steam_id":76561198336750909,"connected_time":713000000000,"state":"active","ping":44},{"user_id":113,"name":"Fredrick","steam_id":76561197981419964,"connected_time":653000000000,"state":"active","ping":44},{"user_id":83,"name":"ndvr (femboy (REAL))","steam_id":76561199379200102,"connected_time":2820000000000,"state":"active","ping":42},{"user_id":118,"name":"CheetoSmoke7","steam_id":76561198095217273,"connected_time":270000000000,"state":"active","ping":45},{"user_id":117,"name":"Koi","steam_id":76561198064411172,"connected_time":315000000000,"state":"active","ping":45},{"user_id":116,"name":"CCTV Camera","steam_id":76561198373692962,"connected_time":380000000000,"state":"active","ping":69},{"user_id":94,"name":"Kritzburgh","steam_id":76561198149466938,"connected_time":1837000000000,"state":"active","ping":56},{"user_id":95,"name":"The Horselords and Animal Gods","steam_id":76561197975094050,"connected_time":1835000000000,"state":"active","ping":116},{"user_id":108,"name":"Jason","steam_id":76561198107058140,"connected_time":973000000000,"state":"active","ping":49},{"user_id":64,"name":"thezranger","steam_id":76561198454086460,"connected_time":4998000000000,"state":"active","ping":126},{"user_id":70,"name":"emotional suppport e-cigarette","steam_id":76561198172120615,"connected_time":4323000000000,"state":"active","ping":36}]},{"server_id":14,"name":"Uncletopia | New York City | 2 | All Maps","name_short":"nyc-2","host":"nyc-1.us.uncletopia.com","port":27025,"enabled":true,"region":"us-east","cc":"us","latitude":40.73061,"longitude":-73.93524,"reserved":0,"last_update":"0001-01-01T00:00:00Z","name_a2s":"Uncletopia | New York City | 2 | All Maps","protocol":17,"map":"cp_dustbowl","folder":"tf","game":"Team Fortress","app_id":440,"player_count":23,"max_players":24,"Bots":0,"server_type":"Dedicated","server_os":"Linux","password":true,"vac":true,"version":"7961495","steam_id":85568392924469994,"keywords":["cp","nocrits","nodmgspread","uncletopia"],"game_id":440,"stv_port":27026,"stv_name":"Uncletopia | New York City | 2 | All Maps | STV","players":[{"user_id":19,"name":"BiggSlorp","steam_id":76561199130776156,"connected_time":4583000000000,"state":"active","ping":59},{"user_id":78,"name":"Ghostmeal","steam_id":76561198042380299,"connected_time":375000000000,"state":"active","ping":81},{"user_id":21,"name":"101_the_Robot","steam_id":76561198331039848,"connected_time":4309000000000,"state":"active","ping":140},{"user_id":69,"name":"Little Johnson","steam_id":76561199013067974,"connected_time":1013000000000,"state":"active","ping":85},{"user_id":37,"name":"McLovin","steam_id":76561199204836853,"connected_time":2503000000000,"state":"active","ping":60},{"user_id":71,"name":"Blippity Blop","steam_id":76561198830927973,"connected_time":908000000000,"state":"active","ping":143},{"user_id":77,"name":"your very own pocket medic","steam_id":76561199489320369,"connected_time":549000000000,"state":"active","ping":52},{"user_id":59,"name":"Russell","steam_id":76561198024159373,"connected_time":1940000000000,"state":"active","ping":75},{"user_id":40,"name":"Mediocre Gaming","steam_id":76561199230467980,"connected_time":2378000000000,"state":"active","ping":69},{"user_id":61,"name":"Mipsiek","steam_id":76561198164013471,"connected_time":1644000000000,"state":"active","ping":35},{"user_id":79,"name":"Voodo133","steam_id":76561198042670351,"connected_time":247000000000,"state":"active","ping":62},{"user_id":34,"name":"xanakin skywocker","steam_id":76561198347313393,"connected_time":2732000000000,"state":"active","ping":75},{"user_id":42,"name":"castronaut2000","steam_id":76561198263221039,"connected_time":2366000000000,"state":"active","ping":46},{"user_id":74,"name":"Smiley","steam_id":76561198056430811,"connected_time":677000000000,"state":"active","ping":60},{"user_id":39,"name":"vinny6","steam_id":76561198386735728,"connected_time":2431000000000,"state":"active","ping":51},{"user_id":70,"name":"Owtk","steam_id":76561198362380245,"connected_time":987000000000,"state":"active","ping":148},{"user_id":45,"name":"Squiddysquibbles","steam_id":76561198268476001,"connected_time":2344000000000,"state":"active","ping":45},{"user_id":73,"name":"ando","steam_id":76561198103606647,"connected_time":790000000000,"state":"active","ping":45},{"user_id":48,"name":"TheREAL$wizz1eTTV","steam_id":76561198051666604,"connected_time":2317000000000,"state":"active","ping":74},{"user_id":63,"name":"okay","steam_id":76561198024973008,"connected_time":1570000000000,"state":"active","ping":59},{"user_id":62,"name":"JJ","steam_id":76561198115405064,"connected_time":1602000000000,"state":"active","ping":80},{"user_id":60,"name":"lilac brooch...","steam_id":76561198333718916,"connected_time":1938000000000,"state":"active","ping":70},{"user_id":76,"name":"vastrobotmax","steam_id":76561198417110724,"connected_time":625000000000,"state":"active","ping":57}]},{"server_id":15,"name":"Uncletopia | New York City | 3 | Stopwatch","name_short":"nyc-3","host":"nyc-1.us.uncletopia.com","port":27035,"enabled":true,"region":"us-east","cc":"us","latitude":40.73061,"longitude":-73.93524,"reserved":0,"last_update":"0001-01-01T00:00:00Z","name_a2s":"Uncletopia | New York City | 3 | Stopwatch","protocol":17,"map":"workshop/pl_badwater_pro_v12.ugc2142942074","folder":"tf","game":"Team Fortress","app_id":440,"player_count":0,"max_players":24,"Bots":0,"server_type":"Dedicated","server_os":"Linux","password":true,"vac":true,"version":"7961495","steam_id":85568392924742820,"keywords":["nocrits","nodmgspread","payload","uncletopia"],"game_id":440,"stv_port":27036,"stv_name":"Uncletopia | New York City | 3 | Stopwatch | STV","players":null},{"server_id":16,"name":"Uncletopia | New York City | 4 | Community","name_short":"nyc-4","host":"nyc-1.us.uncletopia.com","port":27045,"enabled":true,"region":"us-east","cc":"us","latitude":40.73061,"longitude":-73.93524,"reserved":0,"last_update":"0001-01-01T00:00:00Z","name_a2s":"Uncletopia | New York City | 4 | Community","protocol":17,"map":"workshop/cp_indulge.ugc528106646","folder":"tf","game":"Team Fortress","app_id":440,"player_count":0,"max_players":24,"Bots":0,"server_type":"Dedicated","server_os":"Linux","password":true,"vac":true,"version":"7961495","steam_id":85568392924742821,"keywords":["cp","nocrits","nodmgspread","uncletopia"],"game_id":440,"stv_port":27046,"stv_name":"Uncletopia | New York City | 4 | Community | STV","players":null},{"server_id":142,"name":"Uncletopia | São Paulo | 1 | All Maps","name_short":"sao-1","host":"sao-1.br.uncletopia.com","port":27015,"enabled":true,"region":"sa","cc":"br","latitude":-23.533773,"longitude":-46.62529,"reserved":0,"last_update":"0001-01-01T00:00:00Z","name_a2s":"Uncletopia | São Paulo | 1 | All Maps","protocol":17,"map":"koth_highpass","folder":"tf","game":"Team Fortress","app_id":440,"player_count":0,"max_players":24,"Bots":0,"server_type":"Dedicated","server_os":"Linux","password":true,"vac":true,"version":"7961495","steam_id":85568392924469996,"keywords":["cp","nocrits","nodmgspread","uncletopia"],"game_id":440,"stv_port":27016,"stv_name":"Uncletopia | São Paulo | 1 | All Maps | STV","players":null},{"server_id":143,"name":"Uncletopia | São Paulo | 2 | Community","name_short":"sao-2","host":"sao-2.br.uncletopia.com","port":27015,"enabled":true,"region":"sa","cc":"br","latitude":-23.533773,"longitude":-46.62529,"reserved":0,"last_update":"0001-01-01T00:00:00Z","name_a2s":"Uncletopia | São Paulo | 2 | Community","protocol":17,"map":"workshop/cp_croissant_final.ugc458840209","folder":"tf","game":"Team Fortress","app_id":440,"player_count":0,"max_players":24,"Bots":0,"server_type":"Dedicated","server_os":"Linux","password":true,"vac":true,"version":"7961495","steam_id":85568392924485349,"keywords":["cp","nocrits","nodmgspread","uncletopia"],"game_id":440,"stv_port":27016,"stv_name":"Uncletopia | São Paulo | 2 | Community | STV","players":null},{"server_id":7,"name":"Uncletopia | Seattle | 1 | All Maps","name_short":"sea-1","host":"sea-1.us.uncletopia.com","port":27015,"enabled":true,"region":"us-west","cc":"us","latitude":47.608013,"longitude":-122.33517,"reserved":0,"last_update":"0001-01-01T00:00:00Z","name_a2s":"Uncletopia | Seattle | 1 | All Maps","protocol":17,"map":"pl_frontier_final","folder":"tf","game":"Team Fortress","app_id":440,"player_count":24,"max_players":24,"Bots":0,"server_type":"Dedicated","server_os":"Linux","password":true,"vac":true,"version":"7961495","steam_id":85568392924469997,"keywords":["nocrits","nodmgspread","payload","uncletopia"],"game_id":440,"stv_port":27016,"stv_name":"Uncletopia | Seattle | 1 | All Maps | STV","players":[{"user_id":311,"name":"Mr.Rogers","steam_id":76561198043878683,"connected_time":803000000000,"state":"active","ping":86},{"user_id":307,"name":"Lane (She/Her)","steam_id":76561199048555878,"connected_time":1059000000000,"state":"active","ping":31},{"user_id":303,"name":"Turts","steam_id":76561197998448097,"connected_time":1573000000000,"state":"active","ping":63},{"user_id":308,"name":"⛧ AlphaSatanOmega ⛧","steam_id":76561198035125511,"connected_time":1026000000000,"state":"active","ping":89},{"user_id":295,"name":"Confirmed Bachelor","steam_id":76561198441041496,"connected_time":2550000000000,"state":"active","ping":44},{"user_id":279,"name":"fried rice","steam_id":76561198928939100,"connected_time":2882000000000,"state":"active","ping":90},{"user_id":275,"name":"Arsonist Goose","steam_id":76561198147441830,"connected_time":3131000000000,"state":"active","ping":74},{"user_id":306,"name":"invenomious™","steam_id":76561199032714821,"connected_time":1092000000000,"state":"active","ping":44},{"user_id":315,"name":"Stroop","steam_id":76561198138687730,"connected_time":524000000000,"state":"active","ping":56},{"user_id":293,"name":"spookyturtle","steam_id":76561198079622859,"connected_time":2619000000000,"state":"active","ping":76},{"user_id":289,"name":"McCock","steam_id":76561199215113820,"connected_time":2695000000000,"state":"active","ping":121},{"user_id":248,"name":"o o o o o o o o o","steam_id":76561197993757506,"connected_time":5955000000000,"state":"active","ping":63},{"user_id":304,"name":"choco","steam_id":76561199013498035,"connected_time":1331000000000,"state":"active","ping":52},{"user_id":296,"name":"ed","steam_id":76561198080475712,"connected_time":2516000000000,"state":"active","ping":64},{"user_id":250,"name":"Nom Skirrett","steam_id":76561198014600788,"connected_time":5518000000000,"state":"active","ping":60},{"user_id":317,"name":"Derblitz","steam_id":76561198040953176,"connected_time":0,"state":"connecting","ping":0},{"user_id":302,"name":"Liminality","steam_id":76561198002601402,"connected_time":2306000000000,"state":"active","ping":60},{"user_id":313,"name":"MrYadaization","steam_id":76561198050770818,"connected_time":572000000000,"state":"active","ping":51},{"user_id":316,"name":"Cinnamon Crumb Donut.gaming","steam_id":76561198131011594,"connected_time":37000000000,"state":"active","ping":82},{"user_id":314,"name":"Dr. Karl, the AUS Science Guy","steam_id":76561198031278747,"connected_time":559000000000,"state":"active","ping":49},{"user_id":255,"name":"Soggy Zogg","steam_id":76561198836316052,"connected_time":4918000000000,"state":"active","ping":74},{"user_id":310,"name":"Dimple","steam_id":76561198980324190,"connected_time":900000000000,"state":"active","ping":55},{"user_id":309,"name":"The Grim Heaper","steam_id":76561197987759101,"connected_time":1015000000000,"state":"active","ping":52},{"user_id":312,"name":"Human Resources Manager","steam_id":76561198066386411,"connected_time":620000000000,"state":"active","ping":78}]},{"server_id":119,"name":"Uncletopia | Seattle | 2 | All Maps","name_short":"sea-2","host":"sea-1.us.uncletopia.com","port":27025,"enabled":true,"region":"us-west","cc":"us","latitude":47.608013,"longitude":-122.33517,"reserved":0,"last_update":"0001-01-01T00:00:00Z","name_a2s":"Uncletopia | Seattle | 2 | All Maps","protocol":17,"map":"cp_sunshine","folder":"tf","game":"Team Fortress","app_id":440,"player_count":24,"max_players":24,"Bots":0,"server_type":"Dedicated","server_os":"Linux","password":true,"vac":true,"version":"7961495","steam_id":85568392924469998,"keywords":["cp","nocrits","nodmgspread","uncletopia"],"game_id":440,"stv_port":27026,"stv_name":"Uncletopia | Seattle | 2 | All Maps | STV","players":[{"user_id":133,"name":"shitass | troutsupply.net","steam_id":76561198210572481,"connected_time":4790000000000,"state":"active","ping":75},{"user_id":207,"name":"lavender","steam_id":76561199069518286,"connected_time":362000000000,"state":"active","ping":70},{"user_id":205,"name":"VivianDawn","steam_id":76561198292292930,"connected_time":505000000000,"state":"active","ping":80},{"user_id":192,"name":"Tyth","steam_id":76561198062543298,"connected_time":1495000000000,"state":"active","ping":45},{"user_id":191,"name":"Omega\"Hell's Wall\"EXE","steam_id":76561198395291970,"connected_time":1676000000000,"state":"active","ping":83},{"user_id":194,"name":"trOutsupply.net","steam_id":76561198450073779,"connected_time":1388000000000,"state":"active","ping":46},{"user_id":147,"name":"MiTiP","steam_id":76561198868699864,"connected_time":4415000000000,"state":"active","ping":100},{"user_id":163,"name":"Cave Mushroom","steam_id":76561198090419068,"connected_time":3959000000000,"state":"active","ping":62},{"user_id":168,"name":"rhsiegetank","steam_id":76561198359829118,"connected_time":3613000000000,"state":"active","ping":59},{"user_id":199,"name":"OrangeJuice420","steam_id":76561199081745399,"connected_time":1064000000000,"state":"active","ping":47},{"user_id":208,"name":"Eden","steam_id":76561198081284664,"connected_time":301000000000,"state":"active","ping":86},{"user_id":209,"name":"Obamna","steam_id":76561199078885906,"connected_time":286000000000,"state":"active","ping":124},{"user_id":175,"name":"TylertheImperial","steam_id":76561199401195068,"connected_time":2905000000000,"state":"active","ping":80},{"user_id":210,"name":"Pah-Wraith Gul Dukat","steam_id":76561198033918106,"connected_time":286000000000,"state":"active","ping":85},{"user_id":204,"name":"ahazz","steam_id":76561198138161605,"connected_time":596000000000,"state":"active","ping":82},{"user_id":211,"name":"unnamed","steam_id":76561198240590320,"connected_time":267000000000,"state":"active","ping":75},{"user_id":212,"name":"Batso","steam_id":76561198106589452,"connected_time":265000000000,"state":"active","ping":80},{"user_id":202,"name":"Ratboy Engineer","steam_id":76561198038470280,"connected_time":1009000000000,"state":"active","ping":82},{"user_id":188,"name":"Endaro","steam_id":76561197964923081,"connected_time":1975000000000,"state":"active","ping":81},{"user_id":203,"name":"moe","steam_id":76561198929586245,"connected_time":995000000000,"state":"active","ping":70},{"user_id":214,"name":"Keyphyr","steam_id":76561198013051029,"connected_time":221000000000,"state":"active","ping":57},{"user_id":186,"name":"Robertred","steam_id":76561199062495086,"connected_time":2266000000000,"state":"active","ping":74},{"user_id":213,"name":"Havel","steam_id":76561198128016612,"connected_time":229000000000,"state":"active","ping":86},{"user_id":185,"name":"Captain","steam_id":76561197968794920,"connected_time":2395000000000,"state":"active","ping":60}]},{"server_id":406,"name":"Uncletopia | Seattle | 3 | Stopwatch","name_short":"sea-3","host":"sea-1.us.uncletopia.com","port":27035,"enabled":true,"region":"us-west","cc":"us","latitude":47.608013,"longitude":-122.33517,"reserved":0,"last_update":"0001-01-01T00:00:00Z","name_a2s":"Uncletopia | Seattle | 3 | Stopwatch","protocol":17,"map":"workshop/koth_product_final.ugc454272353","folder":"tf","game":"Team Fortress","app_id":440,"player_count":0,"max_players":24,"Bots":0,"server_type":"Dedicated","server_os":"Linux","password":true,"vac":true,"version":"7961495","steam_id":85568392924515217,"keywords":["cp","nocrits","nodmgspread","uncletopia"],"game_id":440,"stv_port":27036,"stv_name":"Uncletopia | Seattle | 3 | Stopwatch | STV","players":null},{"server_id":17,"name":"Uncletopia | San Francisco | 1 | All Maps","name_short":"sfo-1","host":"sfo-1.us.uncletopia.com","port":27015,"enabled":true,"region":"us-west","cc":"us","latitude":37.77397,"longitude":-122.4313,"reserved":0,"last_update":"0001-01-01T00:00:00Z","name_a2s":"Uncletopia | San Francisco | 1 | All Maps","protocol":17,"map":"pl_swiftwater_final1","folder":"tf","game":"Team Fortress","app_id":440,"player_count":1,"max_players":24,"Bots":0,"server_type":"Dedicated","server_os":"Linux","password":true,"vac":true,"version":"7961495","steam_id":85568392924469999,"keywords":["nocrits","nodmgspread","payload","uncletopia"],"game_id":440,"stv_port":27016,"stv_name":"Uncletopia | San Francisco | 1 | All Maps | STV","players":[{"user_id":38,"name":"Dj the egg","steam_id":76561198845135568,"connected_time":36000000000,"state":"spawning","ping":166}]},{"server_id":18,"name":"Uncletopia | San Francisco | 2 | All Maps","name_short":"sfo-2","host":"sfo-1.us.uncletopia.com","port":27025,"enabled":true,"region":"us-west","cc":"us","latitude":37.77397,"longitude":-122.4313,"reserved":0,"last_update":"0001-01-01T00:00:00Z","name_a2s":"Uncletopia | San Francisco | 2 | All Maps","protocol":17,"map":"pl_borneo","folder":"tf","game":"Team Fortress","app_id":440,"player_count":0,"max_players":24,"Bots":0,"server_type":"Dedicated","server_os":"Linux","password":true,"vac":true,"version":"7961495","steam_id":85568392924470000,"keywords":["nocrits","nodmgspread","payload","uncletopia"],"game_id":440,"stv_port":27026,"stv_name":"Uncletopia | San Francisco | 2 | All Maps | STV","players":null},{"server_id":19,"name":"Uncletopia | San Francisco | 3 | Stopwatch","name_short":"sfo-3","host":"sfo-1.us.uncletopia.com","port":27035,"enabled":true,"region":"us-west","cc":"us","latitude":37.77397,"longitude":-122.4313,"reserved":0,"last_update":"0001-01-01T00:00:00Z","name_a2s":"Uncletopia | San Francisco | 3 | Stopwatch","protocol":17,"map":"koth_highpass","folder":"tf","game":"Team Fortress","app_id":440,"player_count":0,"max_players":24,"Bots":0,"server_type":"Dedicated","server_os":"Linux","password":true,"vac":true,"version":"7961495","steam_id":85568392924742824,"keywords":["cp","nocrits","nodmgspread","uncletopia"],"game_id":440,"stv_port":27036,"stv_name":"Uncletopia | San Francisco | 3 | Stopwatch | STV","players":null},{"server_id":20,"name":"Uncletopia | San Francisco | 4 | Community","name_short":"sfo-4","host":"sfo-1.us.uncletopia.com","port":27045,"enabled":true,"region":"us-west","cc":"us","latitude":37.77397,"longitude":-122.4313,"reserved":0,"last_update":"0001-01-01T00:00:00Z","name_a2s":"Uncletopia | San Francisco | 4 | Community","protocol":17,"map":"workshop/koth_slaughter_rc1.ugc1712845210","folder":"tf","game":"Team Fortress","app_id":440,"player_count":0,"max_players":24,"Bots":0,"server_type":"Dedicated","server_os":"Linux","password":true,"vac":true,"version":"7961495","steam_id":85568392924742826,"keywords":["cp","nocrits","nodmgspread","uncletopia"],"game_id":440,"stv_port":27046,"stv_name":"Uncletopia | San Francisco | 4 | Community | STV","players":null},{"server_id":141,"name":"Uncletopia | Sydney | 1 | All Maps","name_short":"syd-1","host":"syd-1.au.uncletopia.com","port":27015,"enabled":true,"region":"au","cc":"au","latitude":-33.865143,"longitude":151.2099,"reserved":0,"last_update":"0001-01-01T00:00:00Z","name_a2s":"Uncletopia | Sydney | 1 | All Maps","protocol":17,"map":"koth_nucleus","folder":"tf","game":"Team Fortress","app_id":440,"player_count":0,"max_players":24,"Bots":0,"server_type":"Dedicated","server_os":"Linux","password":true,"vac":true,"version":"7961495","steam_id":85568392924470001,"keywords":["cp","nocrits","nodmgspread","uncletopia"],"game_id":440,"stv_port":27016,"stv_name":"Uncletopia | Sydney | 1 | All Maps | STV","players":null},{"server_id":123,"name":"Uncletopia | Sydney | 2 | All Maps","name_short":"syd-2","host":"syd-1.au.uncletopia.com","port":27025,"enabled":true,"region":"au","cc":"au","latitude":-33.865143,"longitude":151.2099,"reserved":0,"last_update":"0001-01-01T00:00:00Z","name_a2s":"Uncletopia | Sydney | 2 | All Maps","protocol":17,"map":"cp_fastlane","folder":"tf","game":"Team Fortress","app_id":440,"player_count":0,"max_players":24,"Bots":0,"server_type":"Dedicated","server_os":"Linux","password":true,"vac":true,"version":"7961495","steam_id":85568392924470002,"keywords":["cp","nocrits","nodmgspread","uncletopia"],"game_id":440,"stv_port":27026,"stv_name":"Uncletopia | Sydney | 2 | All Maps | STV","players":null},{"server_id":395,"name":"Uncletopia | Sydney | 3 | All Maps","name_short":"syd-3","host":"syd-1.au.uncletopia.com","port":27035,"enabled":true,"region":"au","cc":"au","latitude":-33.865143,"longitude":151.2099,"reserved":0,"last_update":"0001-01-01T00:00:00Z","name_a2s":"Uncletopia | Sydney | 3 | All Maps","protocol":17,"map":"cp_metalworks","folder":"tf","game":"Team Fortress","app_id":440,"player_count":0,"max_players":24,"Bots":0,"server_type":"Dedicated","server_os":"Linux","password":true,"vac":true,"version":"7961495","steam_id":85568392925194467,"keywords":["cp","nocrits","nodmgspread","uncletopia"],"game_id":440,"stv_port":27036,"stv_name":"Uncletopia | Sydney | 3 | All Maps | STV","players":null},{"server_id":396,"name":"Uncletopia | Sydney | 4 | All Maps","name_short":"syd-4","host":"syd-1.au.uncletopia.com","port":27045,"enabled":true,"region":"au","cc":"au","latitude":-33.865143,"longitude":151.2099,"reserved":0,"last_update":"0001-01-01T00:00:00Z","name_a2s":"Uncletopia | Sydney | 4 | All Maps","protocol":17,"map":"koth_cascade","folder":"tf","game":"Team Fortress","app_id":440,"player_count":0,"max_players":24,"Bots":0,"server_type":"Dedicated","server_os":"Linux","password":true,"vac":true,"version":"7961495","steam_id":85568392925397958,"keywords":["cp","nocrits","nodmgspread","uncletopia"],"game_id":440,"stv_port":27046,"stv_name":"Uncletopia | Sydney | 4 | All Maps | STV","players":null},{"server_id":58,"name":"Uncletopia | Sydney | 5 | Stopwatch","name_short":"syd-5","host":"syd-1.au.uncletopia.com","port":27055,"enabled":true,"region":"au","cc":"au","latitude":-33.865143,"longitude":151.2099,"reserved":0,"last_update":"0001-01-01T00:00:00Z","name_a2s":"Uncletopia | Sydney | 5 | Stopwatch","protocol":17,"map":"workshop/koth_product_final.ugc454272353","folder":"tf","game":"Team Fortress","app_id":440,"player_count":0,"max_players":24,"Bots":0,"server_type":"Dedicated","server_os":"Linux","password":true,"vac":true,"version":"7961495","steam_id":85568392925397959,"keywords":["cp","nocrits","nodmgspread","uncletopia"],"game_id":440,"stv_port":27056,"stv_name":"Uncletopia | Sydney | 5 | Stopwatch | STV","players":null},{"server_id":59,"name":"Uncletopia | Sydney | 6 | Community","name_short":"syd-6","host":"syd-1.au.uncletopia.com","port":27065,"enabled":true,"region":"au","cc":"au","latitude":-33.865143,"longitude":151.2099,"reserved":0,"last_update":"0001-01-01T00:00:00Z","name_a2s":"Uncletopia | Sydney | 6 | Community","protocol":17,"map":"workshop/koth_trenchfoot_ab1.ugc731436616","folder":"tf","game":"Team Fortress","app_id":440,"player_count":0,"max_players":24,"Bots":0,"server_type":"Dedicated","server_os":"Linux","password":true,"vac":true,"version":"7961495","steam_id":85568392925397960,"keywords":["cp","nocrits","nodmgspread","uncletopia"],"game_id":440,"stv_port":27066,"stv_name":"Uncletopia | Sydney | 6 | Community | STV","players":null},{"server_id":49,"name":"Uncletopia | Warsaw | 1 | One Thousand Uncles","name_short":"waw-1","host":"waw-1.pl.uncletopia.com","port":27015,"enabled":true,"region":"eu","cc":"pl","latitude":52.2297,"longitude":21.017532,"reserved":0,"last_update":"0001-01-01T00:00:00Z","name_a2s":"Uncletopia | Warsaw | 1 | One Thousand Uncles","protocol":17,"map":"cp_dustbowl","folder":"tf","game":"Team Fortress","app_id":440,"player_count":25,"max_players":32,"Bots":16,"server_type":"Dedicated","server_os":"Linux","password":true,"vac":true,"version":"7961495","steam_id":85568392925397850,"keywords":["alltalk","bots","cp","danepve","increased_maxplayers","norespawntime","uncletopia"],"game_id":440,"stv_port":0,"stv_name":"","players":[{"user_id":707,"name":"I'm Hotep","steam_id":76561198011359204,"connected_time":5261000000000,"state":"active","ping":83},{"user_id":708,"name":"iCloud Storage (Full)","steam_id":76561198020683366,"connected_time":5260000000000,"state":"active","ping":76},{"user_id":725,"name":"CMOS","steam_id":76561198080128564,"connected_time":5217000000000,"state":"active","ping":45},{"user_id":735,"name":"CARL (NPC)","steam_id":76561198892751522,"connected_time":3243000000000,"state":"active","ping":191},{"user_id":770,"name":"Artemis Alexius","steam_id":76561198418156190,"connected_time":284000000000,"state":"active","ping":111},{"user_id":736,"name":"monke","steam_id":76561199095477435,"connected_time":2546000000000,"state":"active","ping":70},{"user_id":731,"name":"El Beno","steam_id":76561197995174595,"connected_time":4236000000000,"state":"active","ping":89},{"user_id":733,"name":"tree","steam_id":76561198061189527,"connected_time":3847000000000,"state":"active","ping":171},{"user_id":737,"name":"Dragonll237","steam_id":76561198147553236,"connected_time":1603000000000,"state":"active","ping":138}]},{"server_id":50,"name":"Uncletopia | Warsaw | 2 | One Thousand Uncles","name_short":"waw-2","host":"waw-1.pl.uncletopia.com","port":27025,"enabled":true,"region":"eu","cc":"pl","latitude":52.2297,"longitude":21.017532,"reserved":0,"last_update":"0001-01-01T00:00:00Z","name_a2s":"Uncletopia | Warsaw | 2 | One Thousand Uncles","protocol":17,"map":"pl_chilly","folder":"tf","game":"Team Fortress","app_id":440,"player_count":0,"max_players":32,"Bots":0,"server_type":"Dedicated","server_os":"Linux","password":true,"vac":true,"version":"7961495","steam_id":85568392925397851,"keywords":["alltalk","danepve","increased_maxplayers","norespawntime","payload","uncletopia"],"game_id":440,"stv_port":0,"stv_name":"","players":null},{"server_id":51,"name":"Uncletopia | Warsaw | 3 | All Maps","name_short":"waw-3","host":"waw-1.pl.uncletopia.com","port":27035,"enabled":true,"region":"eu","cc":"pl","latitude":52.2297,"longitude":21.017532,"reserved":0,"last_update":"0001-01-01T00:00:00Z","name_a2s":"Uncletopia | Warsaw | 3 | All Maps","protocol":17,"map":"cp_process_final","folder":"tf","game":"Team Fortress","app_id":440,"player_count":0,"max_players":24,"Bots":0,"server_type":"Dedicated","server_os":"Linux","password":true,"vac":true,"version":"7961495","steam_id":85568392925397852,"keywords":["cp","nocrits","nodmgspread","uncletopia"],"game_id":440,"stv_port":27036,"stv_name":"Uncletopia | Warsaw | 3 | All Maps | STV","players":null},{"server_id":52,"name":"Uncletopia | Warsaw | 4 | All Maps","name_short":"waw-4","host":"waw-1.pl.uncletopia.com","port":27045,"enabled":true,"region":"eu","cc":"pl","latitude":52.2297,"longitude":21.017532,"reserved":0,"last_update":"0001-01-01T00:00:00Z","name_a2s":"Uncletopia | Warsaw | 4 | All Maps","protocol":17,"map":"koth_cascade","folder":"tf","game":"Team Fortress","app_id":440,"player_count":0,"max_players":24,"Bots":0,"server_type":"Dedicated","server_os":"Linux","password":true,"vac":true,"version":"7961495","steam_id":85568392925397853,"keywords":["cp","nocrits","nodmgspread","uncletopia"],"game_id":440,"stv_port":27046,"stv_name":"Uncletopia | Warsaw | 4 | All Maps | STV","players":null},{"server_id":53,"name":"Uncletopia | Warsaw | 5 | Stopwatch","name_short":"waw-5","host":"waw-1.pl.uncletopia.com","port":27055,"enabled":true,"region":"eu","cc":"pl","latitude":52.2297,"longitude":21.017532,"reserved":0,"last_update":"0001-01-01T00:00:00Z","name_a2s":"Uncletopia | Warsaw | 5 | Stopwatch","protocol":17,"map":"workshop/cp_reckoner_rc6.ugc674719999","folder":"tf","game":"Team Fortress","app_id":440,"player_count":0,"max_players":24,"Bots":0,"server_type":"Dedicated","server_os":"Linux","password":true,"vac":true,"version":"7961495","steam_id":85568392925397854,"keywords":["cp","nocrits","nodmgspread","uncletopia"],"game_id":440,"stv_port":27056,"stv_name":"Uncletopia | Warsaw | 5 | Stopwatch | STV","players":null},{"server_id":54,"name":"Uncletopia | Warsaw | 6 | Community","name_short":"waw-6","host":"waw-1.pl.uncletopia.com","port":27065,"enabled":true,"region":"eu","cc":"pl","latitude":52.2297,"longitude":21.017532,"reserved":0,"last_update":"0001-01-01T00:00:00Z","name_a2s":"Uncletopia | Warsaw | 6 | Community","protocol":17,"map":"workshop/pl_cactuscanyon_redux_final2.ugc2579644293","folder":"tf","game":"Team Fortress","app_id":440,"player_count":0,"max_players":24,"Bots":0,"server_type":"Dedicated","server_os":"Linux","password":true,"vac":true,"version":"7961495","steam_id":85568392925397856,"keywords":["nocrits","nodmgspread","payload","uncletopia"],"game_id":440,"stv_port":27066,"stv_name":"Uncletopia | Warsaw | 6 | Community | STV","players":null}]}