{"status":true,"message":"","result":[{"server_id":9,"name":"Uncletopia | Atlanta | 1 | All Maps","name_short":"atl-1","host":"atl-1.us.uncletopia.com","port":27015,"enabled":true,"region":"us-east","cc":"us","latitude":33.753746,"longitude":-84.38633,"reserved":0,"last_update":"0001-01-01T00:00:00Z","name_a2s":"Uncletopia | Atlanta | 1 | All Maps","protocol":17,"map":"pl_upward","folder":"tf","game":"Team Fortress","app_id":440,"player_count":24,"max_players":24,"Bots":0,"server_type":"Dedicated","server_os":"Linux","password":true,"vac":true,"version":"7961495","steam_id":85568392924469982,"keywords":["nocrits","nodmgspread","payload","uncletopia"],"game_id":440,"stv_port":27016,"stv_name":"Uncletopia | Atlanta | 1 | All Maps | STV","players":null},{"server_id":104,"name":"Uncletopia | Atlanta | 2 | All Maps","name_short":"atl-2","host":"atl-1.us.uncletopia.com","port":27025,"enabled":true,"region":"us-east","cc":"us","latitude":33.753746,"longitude":-84.38633,"reserved":0,"last_update":"0001-01-01T00:00:00Z","name_a2s":"Uncletopia | Atlanta | 2 | All Maps","protocol":17,"map":"koth_viaduct","folder":"tf","game":"Team Fortress","app_id":440,"player_count":24,"max_players":24,"Bots":0,"server_type":"Dedicated","server_os":"Linux","password":true,"vac":true,"version":"7961495","steam_id":85568392924469983,"keywords":["cp","nocrits","nodmgspread","uncletopia"],"game_id":440,"stv_port":27026,"stv_name":"Uncletopia | Atlanta | 2 | All Maps | STV","players":null},{"server_id":400,"name":"Uncletopia | Atlanta | 3 | Stopwatch","name_short":"atl-3","host":"atl-1.us.uncletopia.com","port":27035,"enabled":true,"region":"us-east","cc":"us","latitude":33.753746,"longitude":-84.38633,"reserved":0,"last_update":"0001-01-01T00:00:00Z","name_a2s":"Uncletopia | Atlanta | 3 | Stopwatch","protocol":17,"map":"pl_badwater_pro_v12","folder":"tf","game":"Team Fortress","app_id":440,"player_count":0,"max_players":24,"Bots":0,"server_type":"Dedicated","server_os":"Linux","password":true,"vac":true,"version":"7961495","steam_id":85568392924515187,"keywords":["nocrits","nodmgspread","payload","uncletopia"],"game_id":440,"stv_port":27036,"stv_name":"Uncletopia | Atlanta | 3 | Stopwatch | STV","players":null},{"server_id":401,"name":"Uncletopia | Atlanta | 4 | Community","name_short":"atl-4","host":"atl-1.us.uncletopia.com","port":27045,"enabled":true,"region":"us-east","cc":"us","latitude":33.753746,"longitude":-84.38633,"reserved":0,"last_update":"0001-01-01T00:00:00Z","name_a2s":"Uncletopia | Atlanta | 4 | Community","protocol":17,"map":"cp_villa_b19","folder":"tf","game":"Team Fortress","app_id":440,"player_count":0,"max_players":24,"Bots":0,"server_type":"Dedicated","server_os":"Linux","password":true,"vac":true,"version":"7961495","steam_id":85568392924515188,"keywords":["cp","nocrits","nodmgspread","uncletopia"],"game_id":440,"stv_port":27046,"stv_name":"Uncletopia | Atlanta | 4 | Community | STV","players":null},{"server_id":2,"name":"Uncletopia | Chicago | 1 | All Maps","name_short":"chi-1","host":"chi-1.us.uncletopia.com","port":27015,"enabled":true,"region":"us-central","cc":"us","latitude":41.881832,"longitude":-87.62318,"reserved":0,"last_update":"0001-01-01T00:00:00Z","name_a2s":"Uncletopia | Chicago | 1 | All Maps","protocol":17,"map":"pl_frontier_final","folder":"tf","game":"Team Fortress","app_id":440,"player_count":24,"max_players":24,"Bots":0,"server_type":"Dedicated","server_os":"Linux","password":true,"vac":true,"version":"7961495","steam_id":85568392924469984,"keywords":["nocrits","nodmgspread","payload","uncletopia"],"game_id":440,"stv_port":27016,"stv_name":"Uncletopia | Chicago | 1 | All Maps | STV","players":[{"user_id":245,"name":"blob","steam_id":76561198122375328,"connected_time":2590000000000,"state":"active","ping":60},{"user_id":221,"name":"Rex","steam_id":76561198138365053,"connected_time":3576000000000,"state":"active","ping":131},{"user_id":249,"name":"Natsuki the Scunt","steam_id":76561199175922684,"connected_time":2160000000000,"state":"active","ping":92},{"user_id":256,"name":"Sarah she/her \u003c3","steam_id":76561198337719478,"connected_time":1396000000000,"state":"active","ping":46},{"user_id":218,"name":"Ras","steam_id":76561198123546775,"connected_time":4289000000000,"state":"active","ping":91},{"user_id":248,"name":"ButteryJack","steam_id":76561198021691102,"connected_time":2359000000000,"state":"active","ping":106},{"user_id":229,"name":"Rock Kickass","steam_id":76561198450510841,"connected_time":3221000000000,"state":"active","ping":117},{"user_id":267,"name":"Gohma","steam_id":76561198116289349,"connected_time":462000000000,"state":"active","ping":55},{"user_id":228,"name":"Captain","steam_id":76561198155723294,"connected_time":3278000000000,"state":"active","ping":55},{"user_id":270,"name":"jables","steam_id":76561199067882406,"connected_time":364000000000,"state":"active","ping":130},{"user_id":268,"name":"pepsi","steam_id":76561198843190923,"connected_time":457000000000,"state":"active","ping":66},{"user_id":251,"name":"bigguylc","steam_id":76561198214289895,"connected_time":1973000000000,"state":"active","ping":72},{"user_id":230,"name":"DinkleBerg","steam_id":76561198891626233,"connected_time":3219000000000,"state":"active","ping":63},{"user_id":238,"name":"ChebJeb","steam_id":76561198981377081,"connected_time":2867000000000,"state":"active","ping":88},{"user_id":259,"name":"Hylic","steam_id":76561199051314589,"connected_time":943000000000,"state":"active","ping":60},{"user_id":269,"name":"linklol262","steam_id":76561198305620134,"connected_time":451000000000,"state":"active","ping":70},{"user_id":254,"name":"Astoriae!","steam_id":76561199090168858,"connected_time":1590000000000,"state":"active","ping":107},{"user_id":266,"name":"Chicken Burger","steam_id":76561198358529311,"connected_time":519000000000,"state":"active","ping":133},{"user_id":240,"name":"PoisonIvy","steam_id":76561198072384574,"connected_time":2820000000000,"state":"active","ping":54},{"user_id":265,"name":"rat mommy","steam_id":76561198088384838,"connected_time":549000000000,"state":"active","ping":74},{"user_id":258,"name":"Adam (Cursed Confetti Creature)","steam_id":76561198317690197,"connected_time":1158000000000,"state":"active","ping":50},{"user_id":261,"name":"McBarry","steam_id":76561198099214526,"connected_time":849000000000,"state":"active","ping":66},{"user_id":253,"name":"Pro Games Player","steam_id":76561198297301370,"connected_time":1920000000000,"state":"active","ping":38},{"user_id":165,"name":"not a good idea","steam_id":76561198032259680,"connected_time":11729000000000,"state":"active","ping":77}]},{"server_id":106,"name":"Uncletopia | Chicago | 2 | All Maps","name_short":"chi-2","host":"chi-1.us.uncletopia.com","port":27025,"enabled":true,"region":"us-central","cc":"us","latitude":41.881832,"longitude":-87.62318,"reserved":0,"last_update":"0001-01-01T00:00:00Z","name_a2s":"Uncletopia | Chicago | 2 | All Maps","protocol":17,"map":"cp_dustbowl","folder":"tf","game":"Team Fortress","app_id":440,"player_count":24,"max_players":24,"Bots":0,"server_type":"Dedicated","server_os":"Linux","password":true,"vac":true,"version":"7961495","steam_id":85568392924469985,"keywords":["cp","nocrits","nodmgspread","uncletopia"],"game_id":440,"stv_port":27026,"stv_name":"Uncletopia | Chicago | 2 | All Maps | STV","players":[{"user_id":244,"name":"orbisg","steam_id":76561198004133638,"connected_time":3110000000000,"state":"active","ping":103},{"user_id":230,"name":"CherriKat","steam_id":76561198821297512,"connected_time":4100000000000,"state":"active","ping":96},{"user_id":279,"name":"BeefStewLover13","steam_id":76561198076207585,"connected_time":1082000000000,"state":"active","ping":65},{"user_id":290,"name":"Glump","steam_id":76561198068199307,"connected_time":167000000000,"state":"active","ping":53},{"user_id":247,"name":"echoist","steam_id":76561198449527009,"connected_time":2893000000000,"state":"active","ping":86},{"user_id":286,"name":"SquarEgg","steam_id":76561198012575466,"connected_time":538000000000,"state":"active","ping":96},{"user_id":284,"name":"cheenis","steam_id":76561198053523136,"connected_time":949000000000,"state":"active","ping":60},{"user_id":263,"name":"Stormartillery","steam_id":76561198408982577,"connected_time":2581000000000,"state":"active","ping":78},{"user_id":267,"name":"James","steam_id":76561198149877756,"connected_time":2374000000000,"state":"active","ping":67},{"user_id":253,"name":"CyborgHexapus4","steam_id":76561198160335724,"connected_time":2798000000000,"state":"active","ping":101},{"user_id":280,"name":"The Noise","steam_id":76561199390353195,"connected_time":1072000000000,"state":"active","ping":52},{"user_id":288,"name":"Target Audience","steam_id":76561198095536103,"connected_time":373000000000,"state":"active","ping":56},{"user_id":229,"name":"Fletcher","steam_id":76561198317846538,"connected_time":4173000000000,"state":"active","ping":64},{"user_id":276,"name":"Lili W.","steam_id":76561199391478575,"connected_time":1404000000000,"state":"active","ping":107},{"user_id":281,"name":"Tired Bed","steam_id":76561198052648734,"connected_time":1064000000000,"state":"active","ping":96},{"user_id":195,"name":"vuredel","steam_id":76561197999542711,"connected_time":5885000000000,"state":"active","ping":66},{"user_id":282,"name":"cousin dusty","steam_id":76561198001488041,"connected_time":1053000000000,"state":"active","ping":84},{"user_id":285,"name":"ThePatheticMedic","steam_id":76561198873083105,"connected_time":734000000000,"state":"active","ping":59},{"user_id":289,"name":"Turtleball","steam_id":76561198039375711,"connected_time":292000000000,"state":"active","ping":73},{"user_id":270,"name":"the archmage","steam_id":76561198380018244,"connected_time":2318000000000,"state":"active","ping":74},{"user_id":271,"name":"Talented","steam_id":76561198800259660,"connected_time":2303000000000,"state":"active","ping":73},{"user_id":283,"name":"suns","steam_id":76561198079583278,"connected_time":1052000000000,"state":"active","ping":54},{"user_id":273,"name":"Polar","steam_id":76561198271964253,"connected_time":1970000000000,"state":"active","ping":78},{"user_id":262,"name":"doughboy","steam_id":76561198219012928,"connected_time":2676000000000,"state":"active","ping":106}]},{"server_id":402,"name":"Uncletopia | Chicago | 3 | All Maps","name_short":"chi-3","host":"chi-1.us.uncletopia.com","port":27035,"enabled":true,"region":"us-central","cc":"us","latitude":41.881832,"longitude":-87.62318,"reserved":0,"last_update":"0001-01-01T00:00:00Z","name_a2s":"Uncletopia | Chicago | 3 | All Maps","protocol":17,"map":"cp_metalworks","folder":"tf","game":"Team Fortress","app_id":440,"player_count":20,"max_players":24,"Bots":0,"server_type":"Dedicated","server_os":"Linux","password":true,"vac":true,"version":"7961495","steam_id":85568392924515191,"keywords":["cp","nocrits","nodmgspread","uncletopia"],"game_id":440,"stv_port":27036,"stv_name":"Uncletopia | Chicago | 3 | All Maps | STV","players":[{"user_id":540,"name":"Mexican Dragonite","steam_id":76561199054205242,"connected_time":718000000000,"state":"active","ping":120},{"user_id":541,"name":"SteveTuck","steam_id":76561198209666513,"connected_time":714000000000,"state":"active","ping":80},{"user_id":556,"name":"benjamator67","steam_id":76561198209002860,"connected_time":22000000000,"state":"spawning","ping":44},{"user_id":529,"name":"Jasper‚Ñ¢","steam_id":76561198260018463,"connected_time":2055000000000,"state":"active","ping":110},{"user_id":543,"name":"cass","steam_id":76561198074502046,"connected_time":671000000000,"state":"active","ping":117},{"user_id":514,"name":"radlovejar","steam_id":76561198148087309,"connected_time":3442000000000,"state":"active","ping":71},{"user_id":487,"name":"USDA Prime Beef","steam_id":76561198051630218,"connected_time":5844000000000,"state":"active","ping":84},{"user_id":555,"name":"MapleSyzurp","steam_id":76561197984544416,"connected_time":99000000000,"state":"active","ping":57},{"user_id":471,"name":"Shoeshocker","steam_id":76561198174302467,"connected_time":6687000000000,"state":"active","ping":58},{"user_id":545,"name":"Not_Douglas","steam_id":76561199024184136,"connected_time":658000000000,"state":"active","ping":56},{"user_id":548,"name":"uufyfuu","steam_id":76561198142787212,"connected_time":622000000000,"state":"active","ping":75},{"user_id":532,"name":"cuzimlatin2704","steam_id":76561199094752899,"connected_time":1871000000000,"state":"active","ping":81},{"user_id":495,"name":"Vorpas Jabwak","steam_id":76561198112186064,"connected_time":5476000000000,"state":"active","ping":77},{"user_id":535,"name":"thecal","steam_id":76561198307893384,"connected_time":1738000000000,"state":"active","ping":50},{"user_id":546,"name":"‚ù§Breadshot (She)‚ù§","steam_id":76561199005756738,"connected_time":653000000000,"state":"active","ping":57},{"user_id":547,"name":"Ta5K","steam_id":76561198939558155,"connected_time":646000000000,"state":"active","ping":45},{"user_id":536,"name":"Mario2109","steam_id":76561198431842219,"connected_time":958000000000,"state":"active","ping":56},{"user_id":520,"name":"Queen Frau the Round","steam_id":76561197999942134,"connected_time":2995000000000,"state":"active","ping":44},{"user_id":549,"name":"SomeRandomCat","steam_id":76561199107044061,"connected_time":621000000000,"state":"active","ping":70},{"user_id":550,"name":"BigBubble42","steam_id":76561198136286123,"connected_time":621000000000,"state":"active","ping":50}]},{"server_id":403,"name":"Uncletopia | Chicago | 4 | All Maps","name_short":"chi-4","host":"chi-1.us.uncletopia.com","port":27045,"enabled":true,"region":"us-central","cc":"us","latitude":41.881832,"longitude":-87.62318,"reserved":0,"last_update":"0001-01-01T00:00:00Z","name_a2s":"Uncletopia | Chicago | 4 | All Maps","protocol":17,"map":"cp_dustbowl","folder":"tf","game":"Team Fortress","app_id":440,"player_count":17,"max_players":24,"Bots":0,"server_type":"Dedicated","server_os":"Linux","password":true,"vac":true,"version":"7961495","steam_id":85568392924515193,"keywords":["cp","nocrits","nodmgspread","uncletopia"],"game_id":440,"stv_port":27046,"stv_name":"Uncletopia | Chicago | 4 | All Maps | STV","players":[{"user_id":276,"name":"Nephi","steam_id":76561198031525122,"connected_time":2701000000000,"state":"active","ping":84},{"user_id":322,"name":"Gamingtime","steam_id":76561198339856746,"connected_time":147000000000,"state":"active","ping":74},{"user_id":309,"name":"Six Piece Chicken McNobody","steam_id":76561198129848222,"connected_time":570000000000,"state":"active","ping":65},{"user_id":323,"name":"THE_DEFENDER625","steam_id":76561199068687025,"connected_time":30000000000,"state":"active","ping":68},{"user_id":321,"name":"Fernando Manwhore Extraordinair","steam_id":76561197975090604,"connected_time":155000000000,"state":"active","ping":85},{"user_id":255,"name":"Nassu","steam_id":76561198147367577,"connected_time":4276000000000,"state":"active","ping":67},{"user_id":270,"name":"kitchen goblin","steam_id":76561198271710504,"connected_time":3278000000000,"state":"active","ping":52},{"user_id":320,"name":"HarryjusttHarry","steam_id":76561198982810452,"connected_time":159000000000,"state":"active","ping":79},{"user_id":311,"name":"Brian","steam_id":76561198144650969,"connected_time":507000000000,"state":"active","ping":85},{"user_id":285,"name":"asbestos","steam_id":76561198079178866,"connected_time":2304000000000,"state":"active","ping":62},{"user_id":313,"name":"jodie.blend","steam_id":76561198140701807,"connected_time":499000000000,"state":"active","ping":71},{"user_id":302,"name":"Mr. Pink","steam_id":76561198065858172,"connected_time":1427000000000,"state":"active","ping":61},{"user_id":315,"name":"Los Ajolotes Hermanos","steam_id":76561198101227195,"connected_time":482000000000,"state":"active","ping":115},{"user_id":287,"name":"Honolulu","steam_id":76561198106381764,"connected_time":2265000000000,"state":"active","ping":54},{"user_id":316,"name":"Styx","steam_id":76561198158334494,"connected_time":471000000000,"state":"active","ping":47},{"user_id":291,"name":"A Big Rat","steam_id":76561197990853987,"connected_time":2141000000000,"state":"active","ping":59},{"user_id":318,"name":"vv","steam_id":76561198134813102,"connected_time":394000000000,"state":"active","ping":59}]},{"server_id":36,"name":"Uncletopia | Chicago | 5 | All Maps","name_short":"chi-5","host":"chi-2.us.uncletopia.com","port":27015,"enabled":true,"region":"us-central","cc":"us","latitude":41.881832,"longitude":-87.62318,"reserved":0,"last_update":"0001-01-01T00:00:00Z","name_a2s":"Uncletopia | Chicago | 5 | All Maps","protocol":17,"map":"koth_highpass","folder":"tf","game":"Team Fortress","app_id":440,"player_count":3,"max_players":24,"Bots":0,"server_type":"Dedicated","server_os":"Linux","password":true,"vac":true,"version":"7961495","steam_id":85568392924866362,"keywords":["cp","nocrits","nodmgspread","uncletopia"],"game_id":440,"stv_port":27016,"stv_name":"Uncletopia | Chicago | 5 | All Maps | STV","players":[{"user_id":25,"name":"leboeufbn","steam_id":76561199228923100,"connected_time":1563000000000,"state":"active","ping":79},{"user_id":26,"name":"Goose of Wisdom","steam_id":76561198233465044,"connected_time":1184000000000,"state":"active","ping":70},{"user_id":29,"name":"cg28","steam_id":76561198412583999,"connected_time":282000000000,"state":"active","ping":31}]},{"server_id":37,"name":"Uncletopia | Chicago | 6 | All Maps","name_short":"chi-6","host":"chi-2.us.uncletopia.com","port":27025,"enabled":true,"region":"us-central","cc":"us","latitude":41.881832,"longitude":-87.62318,"reserved":0,"last_update":"0001-01-01T00:00:00Z","name_a2s":"Uncletopia | Chicago | 6 | All Maps","protocol":17,"map":"cp_snakewater_final1","folder":"tf","game":"Team Fortress","app_id":440,"player_count":24,"max_players":24,"Bots":0,"server_type":"Dedicated","server_os":"Linux","password":true,"vac":true,"version":"7961495","steam_id":85568392924866363,"keywords":["cp","nocrits","nodmgspread","uncletopia"],"game_id":440,"stv_port":27026,"stv_name":"Uncletopia | Chicago | 6 | All Maps | STV","players":[{"user_id":416,"name":"GruntRule","steam_id":76561198039987143,"connected_time":529000000000,"state":"active","ping":79},{"user_id":345,"name":"loaxy's 1# enemy","steam_id":76561199016057782,"connected_time":5438000000000,"state":"active","ping":65},{"user_id":417,"name":"GooniOoni","steam_id":76561198102154561,"connected_time":482000000000,"state":"active","ping":41},{"user_id":419,"name":"Lil' Diabeetus","steam_id":76561198330119627,"connected_time":318000000000,"state":"active","ping":74},{"user_id":410,"name":"cart","steam_id":76561198253731826,"connected_time":1206000000000,"state":"active","ping":63},{"user_id":425,"name":"Apollo","steam_id":76561198319588549,"connected_time":216000000000,"state":"active","ping":81},{"user_id":426,"name":"Mavvy","steam_id":76561198254444762,"connected_time":205000000000,"state":"active","ping":96},{"user_id":361,"name":"High Roller","steam_id":76561198034467781,"connected_time":4430000000000,"state":"active","ping":72},{"user_id":392,"name":"Kitt(eh) ‚àë:3","steam_id":76561198110858518,"connected_time":2764000000000,"state":"active","ping":66},{"user_id":404,"name":"MacchuPeachu","steam_id":76561199093242587,"connected_time":1788000000000,"state":"active","ping":99},{"user_id":384,"name":"ATLS1 | Krissy","steam_id":76561197960848174,"connected_time":3541000000000,"state":"active","ping":64},{"user_id":398,"name":"Polar","steam_id":76561198096852688,"connected_time":2276000000000,"state":"active","ping":57},{"user_id":420,"name":"CyberZayne","steam_id":76561198002351356,"connected_time":316000000000,"state":"active","ping":84},{"user_id":402,"name":"MF DOOM","steam_id":76561199389287069,"connected_time":1827000000000,"state":"active","ping":71},{"user_id":421,"name":"Sunflower","steam_id":76561198081223793,"connected_time":312000000000,"state":"active","ping":57},{"user_id":428,"name":"CherryPieRed2023","steam_id":76561198998007496,"connected_time":125000000000,"state":"active","ping":106},{"user_id":411,"name":"rainintokyo","steam_id":76561198436383373,"connected_time":1073000000000,"state":"active","ping":147},{"user_id":409,"name":"rando","steam_id":76561197982325629,"connected_time":1485000000000,"state":"active","ping":75},{"user_id":414,"name":"ATL1 | to4st","steam_id":76561198981009008,"connected_time":623000000000,"state":"active","ping":54},{"user_id":371,"name":"Hello World","steam_id":76561199093925982,"connected_time":4198000000000,"state":"active","ping":101},{"user_id":429,"name":"RZA","steam_id":76561198074428237,"connected_time":114000000000,"state":"active","ping":70},{"user_id":340,"name":"Godmode","steam_id":76561198076240365,"connected_time":5517000000000,"state":"active","ping":61},{"user_id":422,"name":"Weerk","steam_id":76561199209543551,"connected_time":305000000000,"state":"active","ping":78},{"user_id":423,"name":"Punkin","steam_id":76561198334301755,"connected_time":299000000000,"state":"active","ping":70}]},{"server_id":38,"name":"Uncletopia | Chicago | 7 | Stopwatch","name_short":"chi-7","host":"chi-2.us.uncletopia.com","port":27035,"enabled":true,"region":"us-central","cc":"us","latitude":41.881832,"longitude":-87.62318,"reserved":0,"last_update":"0001-01-01T00:00:00Z","name_a2s":"Uncletopia | Chicago | 7 | Stopwatch","protocol":17,"map":"pl_badwater","folder":"tf","game":"Team Fortress","app_id":440,"player_count":0,"max_players":24,"Bots":0,"server_type":"Dedicated","server_os":"Linux","password":true,"vac":true,"version":"7961495","steam_id":85568392924866364,"keywords":["nocrits","nodmgspread","payload","uncletopia"],"game_id":440,"stv_port":27036,"stv_name":"Uncletopia | Chicago | 7 | Stopwatch | STV","players":null},{"server_id":39,"name":"Uncletopia | Chicago | 8 | Community","name_short":"chi-8","host":"chi-2.us.uncletopia.com","port":27045,"enabled":true,"region":"us-central","cc":"us","latitude":41.881832,"longitude":-87.62318,"reserved":0,"last_update":"0001-01-01T00:00:00Z","name_a2s":"Uncletopia | Chicago | 8 | Community","protocol":17,"map":"workshop/pl_barnblitz_pro7.ugc582280235","folder":"tf","game":"Team Fortress","app_id":440,"player_count":0,"max_players":24,"Bots":0,"server_type":"Dedicated","server_os":"Linux","password":true,"vac":true,"version":"7961495","steam_id":85568392924866365,"keywords":["nocrits","nodmgspread","payload","uncletopia"],"game_id":440,"stv_port":27046,"stv_name":"Uncletopia | Chicago | 8 | Community | STV","players":null},{"server_id":8,"name":"Uncletopia | Dallas | 1 | All Maps","name_short":"dal-1","host":"dal-1.us.uncletopia.com","port":27015,"enabled":true,"region":"us-central","cc":"us","latitude":32.779167,"longitude":-96.80889,"reserved":0,"last_update":"0001-01-01T00:00:00Z","name_a2s":"Uncletopia | Dallas | 1 | All Maps","protocol":17,"map":"pl_frontier_final","folder":"tf","game":"Team Fortress","app_id":440,"player_count":24,"max_players":24,"Bots":0,"server_type":"Dedicated","server_os":"Linux","password":true,"vac":true,"version":"7961495","steam_id":85568392924469986,"keywords":["nocrits","nodmgspread","payload","uncletopia"],"game_id":440,"stv_port":27016,"stv_name":"Uncletopia | Dallas | 1 | All Maps | STV","players":[{"user_id":408,"name":"TheWorstSpeedRunner","steam_id":76561199075273861,"connected_time":973000000000,"state":"active","ping":88},{"user_id":367,"name":"RusticCarp42989","steam_id":76561198361151865,"connected_time":3675000000000,"state":"active","ping":101},{"user_id":381,"name":"Kintsugi","steam_id":76561198301867054,"connected_time":2685000000000,"state":"active","ping":75},{"user_id":424,"name":"Abysa.","steam_id":76561198424398862,"connected_time":39000000000,"state":"active","ping":147},{"user_id":393,"name":"MapleSyrup","steam_id":76561199222442855,"connected_time":1880000000000,"state":"active","ping":80},{"user_id":361,"name":"pea ttv/peabeanz","steam_id":76561198119551968,"connected_time":3993000000000,"state":"active","ping":103},{"user_id":400,"name":"e doctor","steam_id":76561198081851446,"connected_time":1542000000000,"state":"active","ping":61},{"user_id":412,"name":"Gluestick","steam_id":76561199013430308,"connected_time":798000000000,"state":"active","ping":126},{"user_id":419,"name":"spiderguy","steam_id":76561198412074955,"connected_time":441000000000,"state":"active","ping":66},{"user_id":369,"name":"Minus-Abinus","steam_id":76561199080630632,"connected_time":3518000000000,"state":"active","ping":96},{"user_id":410,"name":"shokolad","steam_id":76561198431770137,"connected_time":962000000000,"state":"active","ping":45},{"user_id":420,"name":"Plague Dr.","steam_id":76561198142468986,"connected_time":343000000000,"state":"active","ping":63},{"user_id":375,"name":"FanaticSalt","steam_id":76561199380123059,"connected_time":3316000000000,"state":"active","ping":47},{"user_id":414,"name":"Dabbledornk","steam_id":76561198065241300,"connected_time":657000000000,"state":"active","ping":78},{"user_id":356,"name":"Smug","steam_id":76561198448205229,"connected_time":4136000000000,"state":"active","ping":74},{"user_id":404,"name":"OwningTundra2","steam_id":76561198936893224,"connected_time":1266000000000,"state":"active","ping":62},{"user_id":421,"name":"pipepeepi","steam_id":76561198845905873,"connected_time":342000000000,"state":"active","ping":76},{"user_id":422,"name":"webaline  =Ôºæ‚óè ‚ãè ‚óèÔºæ=","steam_id":76561199052450127,"connected_time":229000000000,"state":"active","ping":80},{"user_id":423,"name":"InvaderAlex","steam_id":76561198039232451,"connected_time":160000000000,"state":"active","ping":65},{"user_id":395,"name":"adult tim","steam_id":76561198075510786,"connected_time":1804000000000,"state":"active","ping":79},{"user_id":368,"name":"Deadline","steam_id":76561199079078845,"connected_time":3628000000000,"state":"active","ping":101},{"user_id":405,"name":"Darling","steam_id":76561198127525888,"connected_time":1176000000000,"state":"active","ping":51},{"user_id":418,"name":"tony","steam_id":76561199085242309,"connected_time":504000000000,"state":"active","ping":86},{"user_id":378,"name":"1998 Mazda b2500","steam_id":76561198883172857,"connected_time":3152000000000,"state":"active","ping":93}]},{"server_id":108,"name":"Uncletopia | Dallas | 2 | All Maps","name_short":"dal-2","host":"dal-1.us.uncletopia.com","port":27025,"enabled":true,"region":"us-central","cc":"us","latitude":32.779167,"longitude":-96.80889,"reserved":0,"last_update":"0001-01-01T00:00:00Z","name_a2s":"Uncletopia | Dallas | 2 | All Maps","protocol":17,"map":"pl_frontier_final","folder":"tf","game":"Team Fortress","app_id":440,"player_count":24,"max_players":24,"Bots":0,"server_type":"Dedicated","server_os":"Linux","password":true,"vac":true,"version":"7961495","steam_id":85568392924469988,"keywords":["nocrits","nodmgspread","payload","uncletopia"],"game_id":440,"stv_port":27026,"stv_name":"Uncletopia | Dallas | 2 | All Maps | STV","players":[{"user_id":138,"name":"Aeri","steam_id":76561198041809495,"connected_time":4403000000000,"state":"active","ping":79},{"user_id":181,"name":"Gary Busey","steam_id":76561197970096950,"connected_time":979000000000,"state":"active","ping":40},{"user_id":167,"name":"Burny Sanders","steam_id":76561197961879048,"connected_time":1489000000000,"state":"active","ping":45},{"user_id":186,"name":"FOOL","steam_id":76561198370866973,"connected_time":380000000000,"state":"active","ping":87},{"user_id":161,"name":"clooblert","steam_id":76561199199697406,"connected_time":2352000000000,"state":"active","ping":115},{"user_id":180,"name":"Jugg","steam_id":76561198081722054,"connected_time":1094000000000,"state":"active","ping":106},{"user_id":165,"name":"You Don't Nomi.","steam_id":76561197969137836,"connected_time":1847000000000,"state":"active","ping":86},{"user_id":183,"name":"narutokid37","steam_id":76561198239286750,"connected_time":667000000000,"state":"active","ping":88},{"user_id":126,"name":"Cinnifox","steam_id":76561198068773971,"connected_time":5454000000000,"state":"active","ping":83},{"user_id":128,"name":"Panda Loser","steam_id":76561198828745176,"connected_time":5036000000000,"state":"active","ping":122},{"user_id":166,"name":"the munch","steam_id":76561199164347838,"connected_time":1579000000000,"state":"active","ping":71},{"user_id":170,"name":"Autumn, The Only Good Season","steam_id":76561198103496593,"connected_time":1479000000000,"state":"active","ping":63},{"user_id":159,"name":"Easey","steam_id":76561198230316868,"connected_time":2609000000000,"state":"active","ping":64},{"user_id":187,"name":"Dat1SpenceyBoi","steam_id":76561199446171976,"connected_time":315000000000,"state":"active","ping":80},{"user_id":156,"name":"The Benefactor","steam_id":76561198307247913,"connected_time":2661000000000,"state":"active","ping":84},{"user_id":184,"name":"teaf","steam_id":76561198406252824,"connected_time":493000000000,"state":"active","ping":105},{"user_id":177,"name":"BigPimpin","steam_id":76561198119549348,"connected_time":1315000000000,"state":"active","ping":48},{"user_id":188,"name":"Drake from State Farm","steam_id":76561199069029812,"connected_time":211000000000,"state":"active","ping":101},{"user_id":178,"name":"Dirt Road","steam_id":76561198210372012,"connected_time":1225000000000,"state":"active","ping":92},{"user_id":141,"name":"Duckbeater","steam_id":76561198012421014,"connected_time":4127000000000,"state":"active","ping":96},{"user_id":179,"name":"Rango","steam_id":76561198104086771,"connected_time":1172000000000,"state":"active","ping":80},{"user_id":175,"name":"BorgortMcFlorgskut","steam_id":76561199092812012,"connected_time":1386000000000,"state":"active","ping":100},{"user_id":164,"name":"Sovereign","steam_id":76561198018841787,"connected_time":1911000000000,"state":"active","ping":104},{"user_id":189,"name":"Kaluka","steam_id":76561198036861445,"connected_time":46000000000,"state":"active","ping":95}]},{"server_id":404,"name":"Uncletopia | Dallas | 3 | All Maps","name_short":"dal-3","host":"dal-1.us.uncletopia.com","port":27035,"enabled":true,"region":"us-central","cc":"us","latitude":32.779167,"longitude":-96.80889,"reserved":0,"last_update":"0001-01-01T00:00:00Z","name_a2s":"Uncletopia | Dallas | 3 | All Maps","protocol":17,"map":"pl_upward","folder":"tf","game":"Team Fortress","app_id":440,"player_count":23,"max_players":24,"Bots":0,"server_type":"Dedicated","server_os":"Linux","password":true,"vac":true,"version":"7961495","steam_id":85568392924515219,"keywords":["nocrits","nodmgspread","payload","uncletopia"],"game_id":440,"stv_port":27036,"stv_name":"Uncletopia | Dallas | 3 | All Maps | STV","players":[{"user_id":38,"name":"catmario332","steam_id":76561199006346912,"connected_time":1368000000000,"state":"active","ping":66},{"user_id":39,"name":"UncleRockThe1st","steam_id":76561199219855400,"connected_time":1290000000000,"state":"active","ping":76},{"user_id":43,"name":"asm_ghost","steam_id":76561199205363547,"connected_time":1010000000000,"state":"active","ping":106},{"user_id":53,"name":"Space360","steam_id":76561198106743284,"connected_time":655000000000,"state":"active","ping":101},{"user_id":54,"name":"milk then cereal","steam_id":76561198047168548,"connected_time":619000000000,"state":"active","ping":79},{"user_id":67,"name":"blobb","steam_id":76561198950448488,"connected_time":159000000000,"state":"active","ping":76},{"user_id":32,"name":"cajun thotsauce","steam_id":76561198101636066,"connected_time":2171000000000,"state":"active","ping":103},{"user_id":52,"name":"Satori Komeiji","steam_id":76561198158211423,"connected_time":689000000000,"state":"active","ping":77},{"user_id":49,"name":"InkyInca","steam_id":76561199114649527,"connected_time":761000000000,"state":"active","ping":104},{"user_id":55,"name":"your little goofy homie","steam_id":76561198967158026,"connected_time":589000000000,"state":"active","ping":69},{"user_id":56,"name":"I hate names","steam_id":76561198805930937,"connected_time":584000000000,"state":"active","ping":71},{"user_id":72,"name":"Shrebbie","steam_id":76561198875230824,"connected_time":99000000000,"state":"active","ping":77},{"user_id":61,"name":"the observer","steam_id":76561198966609490,"connected_time":330000000000,"state":"active","ping":110},{"user_id":60,"name":"Sup m8","steam_id":76561198081659121,"connected_time":395000000000,"state":"active","ping":45},{"user_id":62,"name":"pup","steam_id":76561198145921847,"connected_time":264000000000,"state":"active","ping":60},{"user_id":73,"name":"Dalsmo","steam_id":76561198062947397,"connected_time":79000000000,"state":"active","ping":66},{"user_id":74,"name":"Elon Bust","steam_id":76561198053555255,"connected_time":70000000000,"state":"active","ping":61},{"user_id":66,"name":"DeKaiju","steam_id":76561198124898225,"connected_time":203000000000,"state":"active","ping":71},{"user_id":68,"name":"Yayifications","steam_id":76561198066227208,"connected_time":150000000000,"state":"active","ping":75},{"user_id":71,"name":"Ghost","steam_id":76561198426370628,"connected_time":131000000000,"state":"active","ping":74},{"user_id":70,"name":"Plutaya","steam_id":76561198054538385,"connected_time":137000000000,"state":"active","ping":62},{"user_id":75,"name":"Rick Assley","steam_id":76561198365019199,"connected_time":59000000000,"state":"active","ping":88},{"user_id":76,"name":"Spike_Spine","steam_id":76561198404102642,"connected_time":56000000000,"state":"active","ping":70}]},{"server_id":405,"name":"Uncletopia | Dallas | 4 | Community","name_short":"dal-4","host":"dal-1.us.uncletopia.com","port":27045,"enabled":true,"region":"us-central","cc":"us","latitude":32.779167,"longitude":-96.80889,"reserved":0,"last_update":"0001-01-01T00:00:00Z","name_a2s":"Uncletopia | Dallas | 4 | Community","protocol":17,"map":"workshop/cp_glassworks_rc6a.ugc454118349","folder":"tf","game":"Team Fortress","app_id":440,"player_count":0,"max_players":24,"Bots":0,"server_type":"Dedicated","server_os":"Linux","password":true,"vac":true,"version":"7961495","steam_id":85568392924515220,"keywords":["cp","nocrits","nodmgspread","uncletopia"],"game_id":440,"stv_port":27046,"stv_name":"Uncletopia | Dallas | 4 | Community | STV","players":null},{"server_id":5,"name":"Uncletopia | Frankfurt | 1 | All Maps","name_short":"frk-1","host":"frk-1.de.uncletopia.com","port":27015,"enabled":true,"region":"eu","cc":"de","latitude":50.110924,"longitude":8.682127,"reserved":0,"last_update":"0001-01-01T00:00:00Z","name_a2s":"Uncletopia | Frankfurt | 1 | All Maps","protocol":17,"map":"cp_granary","folder":"tf","game":"Team Fortress","app_id":440,"player_count":24,"max_players":24,"Bots":0,"server_type":"Dedicated","server_os":"Linux","password":true,"vac":true,"version":"7961495","steam_id":85568392924469989,"keywords":["cp","nocrits","nodmgspread","uncletopia"],"game_id":440,"stv_port":27016,"stv_name":"Uncletopia | Frankfurt | 1 | All Maps | STV","players":[{"user_id":430,"name":"o_o","steam_id":76561198113045011,"connected_time":434000000000,"state":"active","ping":91},{"user_id":436,"name":"mr.resetti","steam_id":76561198974520642,"connected_time":287000000000,"state":"active","ping":65},{"user_id":404,"name":"hananamanna","steam_id":76561198006570285,"connected_time":2348000000000,"state":"active","ping":117},{"user_id":435,"name":"King Goomba","steam_id":76561198146467813,"connected_time":340000000000,"state":"active","ping":78},{"user_id":386,"name":"endlesshills","steam_id":76561198081908373,"connected_time":3851000000000,"state":"active","ping":55},{"user_id":405,"name":"Ostara","steam_id":76561198200054489,"connected_time":2346000000000,"state":"active","ping":64},{"user_id":439,"name":"tf2 botkick simulator","steam_id":76561198001581446,"connected_time":141000000000,"state":"active","ping":88},{"user_id":418,"name":"Karl3009","steam_id":76561198131306569,"connected_time":1940000000000,"state":"active","ping":57},{"user_id":399,"name":"Udinese Dion","steam_id":76561198067931573,"connected_time":2606000000000,"state":"active","ping":51},{"user_id":419,"name":"tete","steam_id":76561198045222850,"connected_time":1920000000000,"state":"active","ping":77},{"user_id":423,"name":"Zm4j","steam_id":76561198259465946,"connected_time":1428000000000,"state":"active","ping":77},{"user_id":420,"name":"MostSereneDogeBestDoge","steam_id":76561198061196566,"connected_time":1581000000000,"state":"active","ping":77},{"user_id":359,"name":"Mischail","steam_id":76561198016127010,"connected_time":5972000000000,"state":"active","ping":75},{"user_id":406,"name":"Shromide","steam_id":76561198140382935,"connected_time":2343000000000,"state":"active","ping":72},{"user_id":431,"name":"waZywoo","steam_id":76561198313253111,"connected_time":422000000000,"state":"active","ping":70},{"user_id":407,"name":"Kamanie","steam_id":76561198135448255,"connected_time":2331000000000,"state":"active","ping":45},{"user_id":433,"name":"Voks_","steam_id":76561198159687785,"connected_time":368000000000,"state":"active","ping":70},{"user_id":339,"name":"Sheen (Khang)","steam_id":76561198371062974,"connected_time":7971000000000,"state":"active","ping":83},{"user_id":426,"name":"laser","steam_id":76561198036030697,"connected_time":940000000000,"state":"active","ping":58},{"user_id":403,"name":"aereo","steam_id":76561198846700800,"connected_time":2368000000000,"state":"active","ping":75},{"user_id":440,"name":"jaime","steam_id":76561197980590671,"connected_time":40000000000,"state":"active","ping":90},{"user_id":434,"name":"MR BUBBLES","steam_id":76561198019005259,"connected_time":366000000000,"state":"active","ping":100},{"user_id":413,"name":"Nobody","steam_id":76561198151116796,"connected_time":2198000000000,"state":"active","ping":83},{"user_id":398,"name":"matej","steam_id":76561198242482338,"connected_time":2920000000000,"state":"active","ping":72}]},{"server_id":110,"name":"Uncletopia | Frankfurt | 2 | All Maps","name_short":"frk-2","host":"frk-1.de.uncletopia.com","port":27025,"enabled":true,"region":"eu","cc":"de","latitude":50.110924,"longitude":8.682127,"reserved":0,"last_update":"0001-01-01T00:00:00Z","name_a2s":"Uncletopia | Frankfurt | 2 | All Maps","protocol":17,"map":"cp_snakewater_final1","folder":"tf","game":"Team Fortress","app_id":440,"player_count":0,"max_players":24,"Bots":0,"server_type":"Dedicated","server_os":"Linux","password":true,"vac":true,"version":"7961495","steam_id":85568392924469990,"keywords":["cp","nocrits","nodmgspread","uncletopia"],"game_id":440,"stv_port":27026,"stv_name":"Uncletopia | Frankfurt | 2 | All Maps | STV","players":null},{"server_id":308,"name":"Uncletopia | Frankfurt | 3 | All Maps","name_short":"frk-3","host":"frk-1.de.uncletopia.com","port":27035,"enabled":true,"region":"eu","cc":"de","latitude":50.110924,"longitude":8.682127,"reserved":0,"last_update":"0001-01-01T00:00:00Z","name_a2s":"Uncletopia | Frankfurt | 3 | All Maps","protocol":17,"map":"pl_pier","folder":"tf","game":"Team Fortress","app_id":440,"player_count":24,"max_players":24,"Bots":0,"server_type":"Dedicated","server_os":"Linux","password":true,"vac":true,"version":"7961495","steam_id":85568392924504274,"keywords":["nocrits","nodmgspread","payload","uncletopia"],"game_id":440,"stv_port":27036,"stv_name":"Uncletopia | Frankfurt | 3 | All Maps | STV","players":[{"user_id":408,"name":"DrFast","steam_id":76561198138637093,"connected_time":8369000000000,"state":"active","ping":65},{"user_id":485,"name":"lyudmilakh","steam_id":76561198362779878,"connected_time":2227000000000,"state":"active","ping":78},{"user_id":500,"name":"zak","steam_id":76561197998895428,"connected_time":656000000000,"state":"active","ping":49},{"user_id":482,"name":"Economic crisis","steam_id":76561198063562843,"connected_time":2259000000000,"state":"active","ping":56},{"user_id":454,"name":"caramelldancin'","steam_id":76561198193357946,"connected_time":4026000000000,"state":"active","ping":103},{"user_id":501,"name":"Valfezant","steam_id":76561199063983797,"connected_time":648000000000,"state":"active","ping":52},{"user_id":476,"name":"jabar7","steam_id":76561198055137986,"connected_time":2596000000000,"state":"active","ping":62},{"user_id":492,"name":"tired","steam_id":76561198046838168,"connected_time":1361000000000,"state":"active","ping":45},{"user_id":487,"name":"Qwerty","steam_id":76561198023525894,"connected_time":2154000000000,"state":"active","ping":76},{"user_id":473,"name":"Benzo Fury","steam_id":76561198025259336,"connected_time":3486000000000,"state":"active","ping":59},{"user_id":508,"name":"Lammet","steam_id":76561198149409729,"connected_time":513000000000,"state":"active","ping":75},{"user_id":498,"name":"KajaStorm","steam_id":76561199215842872,"connected_time":814000000000,"state":"active","ping":135},{"user_id":505,"name":"AsuX","steam_id":76561197990333289,"connected_time":610000000000,"state":"active","ping":60},{"user_id":503,"name":"F.Fazbear","steam_id":76561198406606196,"connected_time":635000000000,"state":"active","ping":66},{"user_id":502,"name":"ChPerette üéÆ","steam_id":76561198060004887,"connected_time":643000000000,"state":"active","ping":45},{"user_id":483,"name":"CaptainMac","steam_id":76561198273156139,"connected_time":2250000000000,"state":"active","ping":44},{"user_id":510,"name":"Thors","steam_id":76561197968739075,"connected_time":372000000000,"state":"active","ping":47},{"user_id":449,"name":"Laki","steam_id":76561198126078953,"connected_time":4712000000000,"state":"active","ping":132},{"user_id":495,"name":"Gryoss","steam_id":76561197999837111,"connected_time":1298000000000,"state":"active","ping":105},{"user_id":477,"name":"Time-Green","steam_id":76561198133937444,"connected_time":2537000000000,"state":"active","ping":70},{"user_id":464,"name":"REN","steam_id":76561198000596385,"connected_time":3889000000000,"state":"active","ping":70},{"user_id":497,"name":"snsmac","steam_id":76561198082821185,"connected_time":1179000000000,"state":"active","ping":52},{"user_id":507,"name":"iuSDIB8+ ≈à7","steam_id":76561198363768590,"connected_time":523000000000,"state":"active","ping":76},{"user_id":511,"name":"TidB","steam_id":76561198055342304,"connected_time":50000000000,"state":"active","ping":48}]},{"server_id":309,"name":"Uncletopia | Frankfurt | 4 | All Maps","name_short":"frk-4","host":"frk-1.de.uncletopia.com","port":27045,"enabled":true,"region":"eu","cc":"de","latitude":50.110924,"longitude":8.682127,"reserved":0,"last_update":"0001-01-01T00:00:00Z","name_a2s":"Uncletopia | Frankfurt | 4 | All Maps","protocol":17,"map":"pl_snowycoast","folder":"tf","game":"Team Fortress","app_id":440,"player_count":24,"max_players":24,"Bots":0,"server_type":"Dedicated","server_os":"Linux","password":true,"vac":true,"version":"7961495","steam_id":85568392924504275,"keywords":["nocrits","nodmgspread","payload","uncletopia"],"game_id":440,"stv_port":27046,"stv_name":"Uncletopia | Frankfurt | 4 | All Maps | STV","players":[{"user_id":539,"name":"Finnish Farmer","steam_id":76561198205366043,"connected_time":7039000000000,"state":"active","ping":83},{"user_id":601,"name":"Ziomek","steam_id":76561199131735098,"connected_time":1512000000000,"state":"active","ping":75},{"user_id":561,"name":"Sir Sandvich","steam_id":76561198213908089,"connected_time":4925000000000,"state":"active","ping":88},{"user_id":627,"name":"CRITICAL HIT!!!","steam_id":76561199205362468,"connected_time":383000000000,"state":"active","ping":107},{"user_id":609,"name":"Fenrys","steam_id":76561198353946813,"connected_time":1210000000000,"state":"active","ping":60},{"user_id":574,"name":"Dr.Blushi","steam_id":76561198043829926,"connected_time":4262000000000,"state":"active","ping":131},{"user_id":610,"name":"i have become sex","steam_id":76561198428572320,"connected_time":1148000000000,"state":"active","ping":46},{"user_id":566,"name":"Cypher","steam_id":76561197996967254,"connected_time":4821000000000,"state":"active","ping":59},{"user_id":605,"name":"smokin joe","steam_id":76561198440837262,"connected_time":1426000000000,"state":"active","ping":64},{"user_id":615,"name":"x","steam_id":76561198043837480,"connected_time":999000000000,"state":"active","ping":71},{"user_id":612,"name":"Nickel","steam_id":76561199037745941,"connected_time":1072000000000,"state":"active","ping":133},{"user_id":613,"name":"Adrian Picche","steam_id":76561198009335657,"connected_time":1061000000000,"state":"active","ping":76},{"user_id":607,"name":"Lukey","steam_id":76561198052076168,"connected_time":1393000000000,"state":"active","ping":82},{"user_id":625,"name":"kelm","steam_id":76561198027166144,"connected_time":567000000000,"state":"active","ping":78},{"user_id":570,"name":"FNF","steam_id":76561199151422826,"connected_time":4450000000000,"state":"active","ping":121},{"user_id":608,"name":"Dane_","steam_id":76561198088448077,"connected_time":1380000000000,"state":"active","ping":60},{"user_id":622,"name":"XDXDXDXDXDXDXDXDXDXDXDXDXDXDXD","steam_id":76561199221161739,"connected_time":949000000000,"state":"active","ping":46},{"user_id":616,"name":"Cheesi","steam_id":76561199417190840,"connected_time":983000000000,"state":"active","ping":164},{"user_id":628,"name":"ra","steam_id":76561198239927434,"connected_time":173000000000,"state":"active","ping":88},{"user_id":619,"name":"Nittugai","steam_id":76561198067366462,"connected_time":973000000000,"state":"active","ping":60},{"user_id":618,"name":"cora","steam_id":76561199474154775,"connected_time":979000000000,"state":"active","ping":64},{"user_id":586,"name":"BabyYodaIsMySoda","steam_id":76561198321846861,"connected_time":3018000000000,"state":"active","ping":85},{"user_id":623,"name":"FoOzTV","steam_id":76561197998636728,"connected_time":947000000000,"state":"active","ping":74},{"user_id":624,"name":"syzygium","steam_id":76561198044583116,"connected_time":922000000000,"state":"active","ping":110}]},{"server_id":310,"name":"Uncletopia | Frankfurt | 5 | All Maps","name_short":"frk-5","host":"frk-1.de.uncletopia.com","port":27055,"enabled":true,"region":"eu","cc":"de","latitude":50.110924,"longitude":8.682127,"reserved":0,"last_update":"0001-01-01T00:00:00Z","name_a2s":"Uncletopia | Frankfurt | 5 | All Maps","protocol":17,"map":"cp_sunshine","folder":"tf","game":"Team Fortress","app_id":440,"player_count":22,"max_players":24,"Bots":0,"server_type":"Dedicated","server_os":"Linux","password":true,"vac":true,"version":"7961495","steam_id":85568392924504277,"keywords":["cp","nocrits","nodmgspread","uncletopia"],"game_id":440,"stv_port":27056,"stv_name":"Uncletopia | Frankfurt | 5 | All Maps | STV","players":[{"user_id":515,"name":"Archive","steam_id":76561198071255385,"connected_time":8118000000000,"state":"active","ping":88},{"user_id":631,"name":"Risinger","steam_id":76561198079789688,"connected_time":35000000000,"state":"active","ping":64},{"user_id":613,"name":"Juhkuu","steam_id":76561198079326000,"connected_time":1231000000000,"state":"active","ping":70},{"user_id":632,"name":"Jucatron","steam_id":76561198044259577,"connected_time":17000000000,"state":"active","ping":125},{"user_id":599,"name":"Gibby","steam_id":76561198048213112,"connected_time":2276000000000,"state":"active","ping":48},{"user_id":604,"name":"Riky95","steam_id":76561198095289436,"connected_time":2047000000000,"state":"active","ping":45},{"user_id":480,"name":"ozz-man","steam_id":76561198084676522,"connected_time":11023000000000,"state":"active","ping":90},{"user_id":633,"name":"Fridge","steam_id":76561198071665589,"connected_time":11000000000,"state":"active","ping":106},{"user_id":580,"name":"chillrend_morphs_high_lod6","steam_id":76561198452963141,"connected_time":2960000000000,"state":"active","ping":70},{"user_id":627,"name":"Stealthy-W.P","steam_id":76561198280604297,"connected_time":704000000000,"state":"active","ping":62},{"user_id":485,"name":"n-ski","steam_id":76561198020550849,"connected_time":10986000000000,"state":"active","ping":76},{"user_id":629,"name":"Gruset","steam_id":76561198327512432,"connected_time":73000000000,"state":"active","ping":90},{"user_id":619,"name":"hhhhhh","steam_id":76561198031982574,"connected_time":1100000000000,"state":"active","ping":39},{"user_id":520,"name":"–ë—ã–¥–ª–∞ –≤–æ–π","steam_id":76561198041371314,"connected_time":8009000000000,"state":"active","ping":135},{"user_id":623,"name":"Raulca25","steam_id":76561199068256964,"connected_time":826000000000,"state":"active","ping":83},{"user_id":610,"name":"XuMuK","steam_id":76561198102102340,"connected_time":1677000000000,"state":"active","ping":63},{"user_id":622,"name":"abdpocoyo","steam_id":76561198094321481,"connected_time":890000000000,"state":"active","ping":74},{"user_id":621,"name":"Nonok","steam_id":76561199480685498,"connected_time":953000000000,"state":"active","ping":115},{"user_id":596,"name":"Mati [EST]","steam_id":76561197994743813,"connected_time":2536000000000,"state":"active","ping":109},{"user_id":579,"name":"dont K*LL john oliver","steam_id":76561198015918787,"connected_time":2983000000000,"state":"active","ping":70},{"user_id":611,"name":"MrBanana","steam_id":76561198116021623,"connected_time":1564000000000,"state":"active","ping":45},{"user_id":626,"name":"HelwiiHill","steam_id":76561198066730552,"connected_time":743000000000,"state":"active","ping":73}]},{"server_id":311,"name":"Uncletopia | Frankfurt | 6 | All Maps","name_short":"frk-6","host":"frk-1.de.uncletopia.com","port":27065,"enabled":true,"region":"eu","cc":"de","latitude":50.110924,"longitude":8.682127,"reserved":0,"last_update":"0001-01-01T00:00:00Z","name_a2s":"Uncletopia | Frankfurt | 6 | All Maps","protocol":17,"map":"pl_badwater","folder":"tf","game":"Team Fortress","app_id":440,"player_count":24,"max_players":24,"Bots":0,"server_type":"Dedicated","server_os":"Linux","password":true,"vac":true,"version":"7961495","steam_id":85568392924504278,"keywords":["nocrits","nodmgspread","payload","uncletopia"],"game_id":440,"stv_port":27066,"stv_name":"Uncletopia | Frankfurt | 6 | All Maps | STV","players":[{"user_id":459,"name":"katten","steam_id":76561198163615254,"connected_time":3286000000000,"state":"active","ping":59},{"user_id":493,"name":"Daxie626","steam_id":76561198394588278,"connected_time":1613000000000,"state":"active","ping":117},{"user_id":486,"name":"coella","steam_id":76561198442803577,"connected_time":2433000000000,"state":"active","ping":78},{"user_id":489,"name":"Fat Pigeon","steam_id":76561198817940142,"connected_time":2198000000000,"state":"active","ping":51},{"user_id":501,"name":"Pyrolander","steam_id":76561198050785450,"connected_time":646000000000,"state":"active","ping":67},{"user_id":469,"name":"w+m1 pyro","steam_id":76561198039097662,"connected_time":2859000000000,"state":"active","ping":75},{"user_id":496,"name":"mohemmedmokhter2005","steam_id":76561199197650506,"connected_time":1443000000000,"state":"active","ping":111},{"user_id":461,"name":"bl√•haj","steam_id":76561198094268619,"connected_time":3274000000000,"state":"active","ping":59},{"user_id":462,"name":"fluffy474","steam_id":76561198375486320,"connected_time":3266000000000,"state":"active","ping":70},{"user_id":463,"name":"Graffiti","steam_id":76561198280507478,"connected_time":3265000000000,"state":"active","ping":51},{"user_id":465,"name":"r√∂v","steam_id":76561198170330563,"connected_time":3110000000000,"state":"active","ping":101},{"user_id":470,"name":"Teryon Khan","steam_id":76561198031643268,"connected_time":2856000000000,"state":"active","ping":75},{"user_id":497,"name":"aisu","steam_id":76561198043768507,"connected_time":1245000000000,"state":"active","ping":175},{"user_id":472,"name":"busgrabb","steam_id":76561198055768465,"connected_time":2834000000000,"state":"active","ping":75},{"user_id":485,"name":"Tyler Durden","steam_id":76561199259524970,"connected_time":2580000000000,"state":"active","ping":87},{"user_id":498,"name":"squillisky","steam_id":76561198083569327,"connected_time":1234000000000,"state":"active","ping":59},{"user_id":494,"name":"gosi","steam_id":76561198084111532,"connected_time":1551000000000,"state":"active","ping":58},{"user_id":484,"name":"Jon","steam_id":76561199380849468,"connected_time":2665000000000,"state":"active","ping":61},{"user_id":500,"name":"Yssi","steam_id":76561198072365572,"connected_time":916000000000,"state":"active","ping":89},{"user_id":502,"name":"demoman","steam_id":76561198046170435,"connected_time":49000000000,"state":"active","ping":58},{"user_id":488,"name":"Boki","steam_id":76561198044553351,"connected_time":2227000000000,"state":"active","ping":74},{"user_id":481,"name":"frosty","steam_id":76561198094560834,"connected_time":2704000000000,"state":"active","ping":66},{"user_id":482,"name":"Twik","steam_id":76561198023835056,"connected_time":2701000000000,"state":"active","ping":58},{"user_id":491,"name":"cinny","steam_id":76561198832112629,"connected_time":2045000000000,"state":"active","ping":72}]},{"server_id":23,"name":"Uncletopia | Frankfurt | 7 | Stopwatch","name_short":"frk-7","host":"frk-1.de.uncletopia.com","port":27075,"enabled":true,"region":"eu","cc":"de","latitude":50.110924,"longitude":8.682127,"reserved":0,"last_update":"0001-01-01T00:00:00Z","name_a2s":"Uncletopia | Frankfurt | 7 | Stopwatch","protocol":17,"map":"koth_highpass","folder":"tf","game":"Team Fortress","app_id":440,"player_count":0,"max_players":24,"Bots":0,"server_type":"Dedicated","server_os":"Linux","password":true,"vac":true,"version":"7961495","steam_id":85568392924742827,"keywords":["cp","nocrits","nodmgspread","uncletopia"],"game_id":440,"stv_port":27076,"stv_name":"Uncletopia | Frankfurt | 7 | Stopwatch | STV","players":null},{"server_id":24,"name":"Uncletopia | Frankfurt | 8 | Community","name_short":"frk-8","host":"frk-1.de.uncletopia.com","port":27085,"enabled":true,"region":"eu","cc":"de","latitude":50.110924,"longitude":8.682127,"reserved":0,"last_update":"0001-01-01T00:00:00Z","name_a2s":"Uncletopia | Frankfurt | 8 | Community","protocol":17,"map":"workshop/pl_emerge_rc2.ugc888027758","folder":"tf","game":"Team Fortress","app_id":440,"player_count":0,"max_players":24,"Bots":0,"server_type":"Dedicated","server_os":"Linux","password":true,"vac":true,"version":"7961495","steam_id":85568392924742828,"keywords":["nocrits","nodmgspread","payload","uncletopia"],"game_id":440,"stv_port":27086,"stv_name":"Uncletopia | Frankfurt | 8 | Community | STV","players":null},{"server_id":202,"name":"Uncletopia | Hong Kong | 1 | All Maps","name_short":"hgk-1","host":"hgk-1.hk.uncletopia.com","port":27015,"enabled":true,"region":"asia","cc":"hk","latitude":22.302711,"longitude":114.177216,"reserved":0,"last_update":"0001-01-01T00:00:00Z","name_a2s":"Uncletopia | Hong Kong | 1 | All Maps","protocol":17,"map":"cp_mountainlab","folder":"tf","game":"Team Fortress","app_id":440,"player_count":0,"max_players":24,"Bots":0,"server_type":"Dedicated","server_os":"Linux","password":true,"vac":true,"version":"7961495","steam_id":85568392924494504,"keywords":["cp","nocrits","nodmgspread","uncletopia"],"game_id":440,"stv_port":27016,"stv_name":"Uncletopia | Hong Kong | 1 | All Maps | STV","players":null},{"server_id":1,"name":"Uncletopia | Los Angeles | 1 | All Maps","name_short":"lax-1","host":"lax-1.us.uncletopia.com","port":27015,"enabled":true,"region":"us-west","cc":"us","latitude":33.94279,"longitude":-118.41004,"reserved":0,"last_update":"0001-01-01T00:00:00Z","name_a2s":"Uncletopia | Los Angeles | 1 | All Maps","protocol":17,"map":"koth_viaduct","folder":"tf","game":"Team Fortress","app_id":440,"player_count":24,"max_players":24,"Bots":0,"server_type":"Dedicated","server_os":"Linux","password":true,"vac":true,"version":"7961495","steam_id":85568392924469991,"keywords":["cp","nocrits","nodmgspread","uncletopia"],"game_id":440,"stv_port":27016,"stv_name":"Uncletopia | Los Angeles | 1 | All Maps | STV","players":[{"user_id":101,"name":"SoCal Kaizer","steam_id":76561198334361081,"connected_time":251000000000,"state":"active","ping":69},{"user_id":59,"name":"HiddenEgg","steam_id":76561199045105518,"connected_time":3244000000000,"state":"active","ping":45},{"user_id":60,"name":"momus","steam_id":76561198966979196,"connected_time":3190000000000,"state":"active","ping":47},{"user_id":83,"name":"TheSpiritWolf12","steam_id":76561198186225203,"connected_time":1993000000000,"state":"active","ping":83},{"user_id":7,"name":"Dr. Ducks","steam_id":76561198116100707,"connected_time":6510000000000,"state":"active","ping":74},{"user_id":72,"name":"puffer","steam_id":76561199049164456,"connected_time":2642000000000,"state":"active","ping":68},{"user_id":84,"name":"Yoyo-Wo","steam_id":76561198880520205,"connected_time":1953000000000,"state":"active","ping":87},{"user_id":105,"name":"cool beans","steam_id":76561198045758072,"connected_time":95000000000,"state":"active","ping":66},{"user_id":100,"name":"pri¬π‚Åø·∂ú·µâ","steam_id":76561198286627157,"connected_time":275000000000,"state":"active","ping":48},{"user_id":66,"name":"don't get mad","steam_id":76561198064662875,"connected_time":3026000000000,"state":"active","ping":55},{"user_id":94,"name":"Spyincorporated","steam_id":76561198080956951,"connected_time":1558000000000,"state":"active","ping":112},{"user_id":102,"name":"CreativeName","steam_id":76561198853344895,"connected_time":251000000000,"state":"active","ping":65},{"user_id":98,"name":"Diddy Kong Racing","steam_id":76561198165530739,"connected_time":677000000000,"state":"active","ping":49},{"user_id":104,"name":"grailed scammer","steam_id":76561198150382695,"connected_time":150000000000,"state":"active","ping":107},{"user_id":106,"name":"ceres","steam_id":76561198291976960,"connected_time":76000000000,"state":"active","ping":89},{"user_id":93,"name":"Da Boo Brothas","steam_id":76561198167545395,"connected_time":1715000000000,"state":"active","ping":48},{"user_id":55,"name":"090-nsalih","steam_id":76561199467467873,"connected_time":3468000000000,"state":"active","ping":89},{"user_id":96,"name":"thebrenden08","steam_id":76561198218163460,"connected_time":903000000000,"state":"active","ping":57},{"user_id":71,"name":"blinker foo","steam_id":76561198105374054,"connected_time":2871000000000,"state":"active","ping":65},{"user_id":103,"name":"drank baby","steam_id":76561199483723843,"connected_time":244000000000,"state":"active","ping":55},{"user_id":107,"name":"Mr. Goy","steam_id":76561198354088976,"connected_time":58000000000,"state":"active","ping":45},{"user_id":91,"name":"Rommel2007","steam_id":76561198041744631,"connected_time":1740000000000,"state":"active","ping":53},{"user_id":79,"name":"laughs bigman","steam_id":76561198067714032,"connected_time":2345000000000,"state":"active","ping":49},{"user_id":89,"name":"Fluid.Pilot","steam_id":76561199013673082,"connected_time":1788000000000,"state":"active","ping":100}]},{"server_id":112,"name":"Uncletopia | Los Angeles | 2 | All Maps","name_short":"lax-2","host":"lax-1.us.uncletopia.com","port":27025,"enabled":true,"region":"us-west","cc":"us","latitude":33.94279,"longitude":-118.41004,"reserved":0,"last_update":"0001-01-01T00:00:00Z","name_a2s":"Uncletopia | Los Angeles | 2 | All Maps","protocol":17,"map":"pl_thundermountain","folder":"tf","game":"Team Fortress","app_id":440,"player_count":23,"max_players":24,"Bots":0,"server_type":"Dedicated","server_os":"Linux","password":true,"vac":true,"version":"7961495","steam_id":85568392924469992,"keywords":["nocrits","nodmgspread","payload","uncletopia"],"game_id":440,"stv_port":27026,"stv_name":"Uncletopia | Los Angeles | 2 | All Maps | STV","players":[{"user_id":434,"name":"Capt. Dominator","steam_id":76561197961154630,"connected_time":280000000000,"state":"active","ping":115},{"user_id":435,"name":"MR_KRABS_SOCCER","steam_id":76561199364746412,"connected_time":189000000000,"state":"active","ping":48},{"user_id":377,"name":"McSpazatron","steam_id":76561198955942148,"connected_time":3383000000000,"state":"active","ping":80},{"user_id":419,"name":"PRETTY D3M0N R0KKSTAR","steam_id":76561198206177593,"connected_time":864000000000,"state":"active","ping":45},{"user_id":433,"name":"Fatpoob","steam_id":76561198056730096,"connected_time":358000000000,"state":"active","ping":103},{"user_id":414,"name":"Stranger","steam_id":76561198043314392,"connected_time":1064000000000,"state":"active","ping":125},{"user_id":436,"name":"Mr. CoolGuy_(cool)","steam_id":76561199059733640,"connected_time":121000000000,"state":"active","ping":47},{"user_id":322,"name":"roach","steam_id":76561198354811369,"connected_time":5898000000000,"state":"active","ping":48},{"user_id":424,"name":"Mr Happy","steam_id":76561198067689328,"connected_time":626000000000,"state":"active","ping":96},{"user_id":437,"name":"Bestmaster202","steam_id":76561198235282680,"connected_time":116000000000,"state":"active","ping":70},{"user_id":378,"name":"monkey squirts","steam_id":76561197983101644,"connected_time":3371000000000,"state":"active","ping":45},{"user_id":438,"name":"MechanizedContortion","steam_id":76561199146092247,"connected_time":64000000000,"state":"active","ping":52},{"user_id":412,"name":"intek","steam_id":76561198052705291,"connected_time":1287000000000,"state":"active","ping":92},{"user_id":430,"name":"Word To Your Mothership","steam_id":76561198034329138,"connected_time":527000000000,"state":"active","ping":53},{"user_id":422,"name":"Freyja","steam_id":76561198207412177,"connected_time":725000000000,"state":"active","ping":80},{"user_id":429,"name":"Gravity","steam_id":76561198066875223,"connected_time":547000000000,"state":"active","ping":123},{"user_id":431,"name":"Jean Deere","steam_id":76561198105101309,"connected_time":421000000000,"state":"active","ping":121},{"user_id":397,"name":"lime creator","steam_id":76561198074047574,"connected_time":2214000000000,"state":"active","ping":46},{"user_id":374,"name":"Mister Maze","steam_id":76561197970949652,"connected_time":3758000000000,"state":"active","ping":100},{"user_id":413,"name":"CatLike Pigeon","steam_id":76561198171716030,"connected_time":1247000000000,"state":"active","ping":84},{"user_id":417,"name":"sillyjack","steam_id":76561198844273999,"connected_time":968000000000,"state":"active","ping":78},{"user_id":394,"name":"Dcoyotzi","steam_id":76561199124707627,"connected_time":2440000000000,"state":"active","ping":83},{"user_id":421,"name":"NayrTheMayor","steam_id":76561198853726475,"connected_time":857000000000,"state":"active","ping":86}]},{"server_id":324,"name":"Uncletopia | Los Angeles | 3 | All Maps","name_short":"lax-3","host":"lax-1.us.uncletopia.com","port":27035,"enabled":true,"region":"us-west","cc":"us","latitude":33.94279,"longitude":-118.41004,"reserved":0,"last_update":"0001-01-01T00:00:00Z","name_a2s":"Uncletopia | Los Angeles | 3 | All Maps","protocol":17,"map":"cp_snakewater_final1","folder":"tf","game":"Team Fortress","app_id":440,"player_count":0,"max_players":24,"Bots":0,"server_type":"Dedicated","server_os":"Linux","password":true,"vac":true,"version":"7961495","steam_id":85568392924510198,"keywords":["cp","nocrits","nodmgspread","uncletopia"],"game_id":440,"stv_port":27036,"stv_name":"Uncletopia | Los Angeles | 3 | All Maps | STV","players":null},{"server_id":25,"name":"Uncletopia | Los Angeles | 4 | Stopwatch","name_short":"lax-4","host":"lax-1.us.uncletopia.com","port":27045,"enabled":true,"region":"us-west","cc":"us","latitude":33.94279,"longitude":-118.41004,"reserved":0,"last_update":"0001-01-01T00:00:00Z","name_a2s":"Uncletopia | Los Angeles | 4 | Stopwatch","protocol":17,"map":"workshop/cp_reckoner_rc6.ugc674719999","folder":"tf","game":"Team Fortress","app_id":440,"player_count":0,"max_players":24,"Bots":0,"server_type":"Dedicated","server_os":"Linux","password":true,"vac":true,"version":"7961495","steam_id":85568392924510199,"keywords":["cp","nocrits","nodmgspread","uncletopia"],"game_id":440,"stv_port":27046,"stv_name":"Uncletopia | Los Angeles | 4 | Stopwatch | STV","players":null},{"server_id":11,"name":"Uncletopia | London | 1 | All Maps","name_short":"lon-1","host":"lon-1.uk.uncletopia.com","port":27015,"enabled":true,"region":"eu","cc":"gb","latitude":51.509865,"longitude":-0.118092,"reserved":0,"last_update":"0001-01-01T00:00:00Z","name_a2s":"Uncletopia | London | 1 | All Maps","protocol":17,"map":"pl_barnblitz","folder":"tf","game":"Team Fortress","app_id":440,"player_count":24,"max_players":24,"Bots":0,"server_type":"Dedicated","server_os":"Linux","password":true,"vac":true,"version":"7961495","steam_id":85568392924367362,"keywords":["nocrits","nodmgspread","payload","uncletopia"],"game_id":440,"stv_port":27016,"stv_name":"Uncletopia | London | 1 | All Maps | STV","players":[{"user_id":532,"name":"Danila_NRJ","steam_id":76561198090586031,"connected_time":2720000000000,"state":"active","ping":95},{"user_id":514,"name":"clean carp","steam_id":76561198127053294,"connected_time":3799000000000,"state":"active","ping":67},{"user_id":557,"name":"shooer!","steam_id":76561198110531281,"connected_time":111000000000,"state":"active","ping":70},{"user_id":534,"name":"Kphi(i)","steam_id":76561198970587061,"connected_time":2688000000000,"state":"active","ping":58},{"user_id":517,"name":"pipe bomb gaming","steam_id":76561199036776540,"connected_time":3777000000000,"state":"active","ping":72},{"user_id":542,"name":"cinder block enthusiast","steam_id":76561199062160061,"connected_time":1740000000000,"state":"active","ping":57},{"user_id":541,"name":"ein","steam_id":76561198152162834,"connected_time":1768000000000,"state":"active","ping":103},{"user_id":531,"name":"quickfast","steam_id":76561199438900919,"connected_time":2856000000000,"state":"active","ping":46},{"user_id":448,"name":"Slifer the Acorn","steam_id":76561198062255803,"connected_time":9198000000000,"state":"active","ping":73},{"user_id":555,"name":"Kahvi","steam_id":76561198723244199,"connected_time":138000000000,"state":"active","ping":75},{"user_id":538,"name":"tier 10 spellcaster","steam_id":76561198031573426,"connected_time":2189000000000,"state":"active","ping":74},{"user_id":528,"name":"owo","steam_id":76561198158209651,"connected_time":3470000000000,"state":"active","ping":67},{"user_id":493,"name":"screenshot2020-25-09","steam_id":76561198255275650,"connected_time":5370000000000,"state":"active","ping":58},{"user_id":506,"name":"Hamedius","steam_id":76561199152512027,"connected_time":4297000000000,"state":"active","ping":75},{"user_id":551,"name":"‚ôÇ Twink Hunter ‚ôÇ","steam_id":76561198397024973,"connected_time":168000000000,"state":"active","ping":35},{"user_id":558,"name":"uwu","steam_id":76561199209906710,"connected_time":107000000000,"state":"active","ping":45},{"user_id":521,"name":"jade","steam_id":76561198298576765,"connected_time":3748000000000,"state":"active","ping":66},{"user_id":527,"name":"cuddle","steam_id":76561198805181599,"connected_time":3537000000000,"state":"active","ping":53},{"user_id":550,"name":"ayadam","steam_id":76561198161515769,"connected_time":169000000000,"state":"active","ping":113},{"user_id":552,"name":"Lubrsi","steam_id":76561198040208195,"connected_time":168000000000,"state":"active","ping":47},{"user_id":556,"name":";w;","steam_id":76561199058284787,"connected_time":137000000000,"state":"active","ping":134},{"user_id":530,"name":"jermany","steam_id":76561198126599355,"connected_time":2866000000000,"state":"active","ping":41},{"user_id":540,"name":"Sixie","steam_id":76561198251675360,"connected_time":1781000000000,"state":"active","ping":56},{"user_id":549,"name":"SOPHIIEE","steam_id":76561198443798981,"connected_time":670000000000,"state":"active","ping":56}]},{"server_id":114,"name":"Uncletopia | London | 2 | All Maps","name_short":"lon-2","host":"lon-1.uk.uncletopia.com","port":27025,"enabled":true,"region":"eu","cc":"gb","latitude":51.509865,"longitude":-0.118092,"reserved":0,"last_update":"0001-01-01T00:00:00Z","name_a2s":"Uncletopia | London | 2 | All Maps","protocol":17,"map":"pl_swiftwater_final1","folder":"tf","game":"Team Fortress","app_id":440,"player_count":24,"max_players":24,"Bots":0,"server_type":"Dedicated","server_os":"Linux","password":true,"vac":true,"version":"7961495","steam_id":85568392924470941,"keywords":["nocrits","nodmgspread","payload","uncletopia"],"game_id":440,"stv_port":27026,"stv_name":"Uncletopia | London | 2 | All Maps | STV","players":[{"user_id":428,"name":"Baccoon","steam_id":76561198338323649,"connected_time":507000000000,"state":"active","ping":42},{"user_id":382,"name":"Foo.","steam_id":76561198000013666,"connected_time":4636000000000,"state":"active","ping":62},{"user_id":403,"name":"Can I get a Beep Beep","steam_id":76561198010730967,"connected_time":3026000000000,"state":"active","ping":68},{"user_id":414,"name":"Forklift Certified","steam_id":76561198001816577,"connected_time":2293000000000,"state":"active","ping":95},{"user_id":422,"name":"Vyllckart","steam_id":76561198119172997,"connected_time":631000000000,"state":"active","ping":82},{"user_id":407,"name":"GoblinGaming","steam_id":76561198360395476,"connected_time":2471000000000,"state":"active","ping":50},{"user_id":326,"name":"Ixsus\u003c3","steam_id":76561198094756869,"connected_time":7655000000000,"state":"active","ping":61},{"user_id":423,"name":"Spectra","steam_id":76561198086718879,"connected_time":625000000000,"state":"active","ping":59},{"user_id":416,"name":"Dictatorial Karelian","steam_id":76561198196736457,"connected_time":1704000000000,"state":"active","ping":84},{"user_id":409,"name":"Skyfoogle","steam_id":76561198027177883,"connected_time":2451000000000,"state":"active","ping":61},{"user_id":380,"name":"El Wiwi","steam_id":76561198134378108,"connected_time":4844000000000,"state":"active","ping":82},{"user_id":393,"name":"Shadowengell","steam_id":76561198019284410,"connected_time":4139000000000,"state":"active","ping":118},{"user_id":395,"name":"Q U E E N A L E X","steam_id":76561198186341157,"connected_time":3969000000000,"state":"active","ping":55},{"user_id":417,"name":"L I F E xq","steam_id":76561198112476786,"connected_time":1045000000000,"state":"active","ping":57},{"user_id":424,"name":"LEGEND FUMO.","steam_id":76561198061033903,"connected_time":621000000000,"state":"active","ping":59},{"user_id":364,"name":"SuntanPikachu","steam_id":76561198121242476,"connected_time":5994000000000,"state":"active","ping":57},{"user_id":425,"name":"rummy","steam_id":76561197997573379,"connected_time":598000000000,"state":"active","ping":45},{"user_id":400,"name":"LivEssense","steam_id":76561198052476979,"connected_time":3337000000000,"state":"active","ping":114},{"user_id":427,"name":"Suetolog","steam_id":76561199053090212,"connected_time":564000000000,"state":"active","ping":64},{"user_id":430,"name":"sofa king","steam_id":76561198175456289,"connected_time":477000000000,"state":"active","ping":120},{"user_id":433,"name":"Odin","steam_id":76561198087800030,"connected_time":166000000000,"state":"active","ping":40},{"user_id":432,"name":"Buddy","steam_id":76561198050185582,"connected_time":422000000000,"state":"active","ping":57},{"user_id":385,"name":"neophyte78","steam_id":76561198010009076,"connected_time":4577000000000,"state":"active","ping":53},{"user_id":406,"name":"Sicmendor ...","steam_id":76561197962107049,"connected_time":2710000000000,"state":"active","ping":71}]},{"server_id":320,"name":"Uncletopia | London | 3 | All Maps","name_short":"lon-3","host":"lon-1.uk.uncletopia.com","port":27035,"enabled":true,"region":"eu","cc":"gb","latitude":51.509865,"longitude":-0.118092,"reserved":0,"last_update":"0001-01-01T00:00:00Z","name_a2s":"Uncletopia | London | 3 | All Maps","protocol":17,"map":"pl_swiftwater_final1","folder":"tf","game":"Team Fortress","app_id":440,"player_count":23,"max_players":24,"Bots":0,"server_type":"Dedicated","server_os":"Linux","password":true,"vac":true,"version":"7961495","steam_id":85568392924510192,"keywords":["nocrits","nodmgspread","payload","uncletopia"],"game_id":440,"stv_port":27036,"stv_name":"Uncletopia | London | 3 | All Maps | STV","players":[{"user_id":379,"name":"kill pyro main with rock","steam_id":76561198072320671,"connected_time":410000000000,"state":"active","ping":33},{"user_id":356,"name":"gatl","steam_id":76561198116926545,"connected_time":801000000000,"state":"active","ping":63},{"user_id":385,"name":"Funny Cat Song","steam_id":76561199229682408,"connected_time":130000000000,"state":"active","ping":42},{"user_id":344,"name":"SirDirtbag","steam_id":76561198091890855,"connected_time":1581000000000,"state":"active","ping":82},{"user_id":383,"name":"raw chicken enjoyer","steam_id":76561198095681561,"connected_time":302000000000,"state":"active","ping":103},{"user_id":352,"name":"DelaNo","steam_id":76561199125086655,"connected_time":912000000000,"state":"active","ping":41},{"user_id":353,"name":"≈†varcas","steam_id":76561198841646694,"connected_time":854000000000,"state":"active","ping":78},{"user_id":386,"name":"night.s","steam_id":76561198326287823,"connected_time":115000000000,"state":"active","ping":77},{"user_id":354,"name":"Spich","steam_id":76561199017245962,"connected_time":848000000000,"state":"active","ping":97},{"user_id":358,"name":"DamagedGenius","steam_id":76561198353344181,"connected_time":764000000000,"state":"active","ping":67},{"user_id":367,"name":"Toxic_Cicity","steam_id":76561198165753440,"connected_time":657000000000,"state":"active","ping":104},{"user_id":388,"name":"Dr Bondus Bolongus Dongus","steam_id":76561198378657692,"connected_time":53000000000,"state":"active","ping":41},{"user_id":363,"name":"640x480","steam_id":76561198304515309,"connected_time":730000000000,"state":"active","ping":87},{"user_id":365,"name":"Jakoo","steam_id":76561198204562991,"connected_time":710000000000,"state":"active","ping":113},{"user_id":366,"name":"spurdala","steam_id":76561198886546942,"connected_time":678000000000,"state":"active","ping":60},{"user_id":368,"name":"bruh","steam_id":76561198109262927,"connected_time":651000000000,"state":"active","ping":77},{"user_id":369,"name":"Cantorna","steam_id":76561199492511143,"connected_time":645000000000,"state":"active","ping":98},{"user_id":370,"name":"sareena","steam_id":76561198810194062,"connected_time":642000000000,"state":"active","ping":75},{"user_id":372,"name":"Mymy","steam_id":76561198819871606,"connected_time":614000000000,"state":"active","ping":108},{"user_id":373,"name":"CalzoneCarl456","steam_id":76561198846982793,"connected_time":613000000000,"state":"active","ping":46},{"user_id":374,"name":"ÔΩÑÔΩÖÔΩìÔΩãÔΩíÔΩÅÔΩô","steam_id":76561198805536170,"connected_time":606000000000,"state":"active","ping":81},{"user_id":384,"name":"why rum gone","steam_id":76561198158484784,"connected_time":254000000000,"state":"active","ping":75},{"user_id":382,"name":"Moonshine Man","steam_id":76561198088010073,"connected_time":386000000000,"state":"active","ping":160}]},{"server_id":321,"name":"Uncletopia | London | 4 | All Maps","name_short":"lon-4","host":"lon-1.uk.uncletopia.com","port":27045,"enabled":true,"region":"eu","cc":"gb","latitude":51.509865,"longitude":-0.118092,"reserved":0,"last_update":"0001-01-01T00:00:00Z","name_a2s":"Uncletopia | London | 4 | All Maps","protocol":17,"map":"pl_badwater","folder":"tf","game":"Team Fortress","app_id":440,"player_count":24,"max_players":24,"Bots":0,"server_type":"Dedicated","server_os":"Linux","password":true,"vac":true,"version":"7961495","steam_id":85568392924510193,"keywords":["nocrits","nodmgspread","payload","uncletopia"],"game_id":440,"stv_port":27046,"stv_name":"Uncletopia | London | 4 | All Maps | STV","players":[{"user_id":237,"name":"Dogdigger","steam_id":76561198032893130,"connected_time":2482000000000,"state":"active","ping":101},{"user_id":258,"name":"Rai_to","steam_id":76561199013720618,"connected_time":517000000000,"state":"active","ping":88},{"user_id":261,"name":"Puss in Boots","steam_id":76561198211599767,"connected_time":416000000000,"state":"active","ping":57},{"user_id":231,"name":"Lemon","steam_id":76561198093765664,"connected_time":3035000000000,"state":"active","ping":57},{"user_id":183,"name":"Finn","steam_id":76561198179960193,"connected_time":5859000000000,"state":"active","ping":45},{"user_id":185,"name":"sarii ‚òÜ","steam_id":76561199155102111,"connected_time":5809000000000,"state":"active","ping":79},{"user_id":204,"name":"prot√´in","steam_id":76561197998423616,"connected_time":4218000000000,"state":"active","ping":73},{"user_id":229,"name":"Tattletails","steam_id":76561198055690341,"connected_time":3098000000000,"state":"active","ping":57},{"user_id":256,"name":"hakon.kippe","steam_id":76561198805587885,"connected_time":813000000000,"state":"active","ping":88},{"user_id":255,"name":"Cataleptic","steam_id":76561197997966949,"connected_time":862000000000,"state":"active","ping":60},{"user_id":260,"name":"Eidary","steam_id":76561198060002585,"connected_time":429000000000,"state":"active","ping":86},{"user_id":232,"name":"Dewisor","steam_id":76561198230971472,"connected_time":3021000000000,"state":"active","ping":84},{"user_id":241,"name":"JJ","steam_id":76561198040955086,"connected_time":2130000000000,"state":"active","ping":176},{"user_id":217,"name":"finbar","steam_id":76561198056812396,"connected_time":3522000000000,"state":"active","ping":75},{"user_id":249,"name":"≈°ansas","steam_id":76561198147277460,"connected_time":1032000000000,"state":"active","ping":61},{"user_id":245,"name":"Dommy","steam_id":76561197990864747,"connected_time":1161000000000,"state":"active","ping":56},{"user_id":259,"name":"Jeffacakes","steam_id":76561198280101970,"connected_time":517000000000,"state":"active","ping":66},{"user_id":264,"name":"Sylvanas","steam_id":76561198154904165,"connected_time":285000000000,"state":"active","ping":113},{"user_id":250,"name":"haraldÔº®Ôº°Ôº≤Ôº°Ôº¨Ôº§","steam_id":76561198116998970,"connected_time":1010000000000,"state":"active","ping":75},{"user_id":251,"name":"xX_ABDIBEAST2010_Xx","steam_id":76561198152681460,"connected_time":977000000000,"state":"active","ping":75},{"user_id":254,"name":"tm`","steam_id":76561197993580412,"connected_time":896000000000,"state":"active","ping":67},{"user_id":262,"name":"Professional facestab","steam_id":76561198258721056,"connected_time":403000000000,"state":"active","ping":58},{"user_id":257,"name":"SuperBob103","steam_id":76561199175360012,"connected_time":726000000000,"state":"active","ping":48},{"user_id":238,"name":"Not Sussy Tanuki","steam_id":76561198137289375,"connected_time":2466000000000,"state":"active","ping":104}]},{"server_id":21,"name":"Uncletopia | London | 5 | All Maps","name_short":"lon-5","host":"lon-1.uk.uncletopia.com","port":27055,"enabled":true,"region":"eu","cc":"gb","latitude":51.509865,"longitude":-0.118092,"reserved":0,"last_update":"0001-01-01T00:00:00Z","name_a2s":"Uncletopia | London | 5 | All Maps","protocol":17,"map":"koth_harvest_final","folder":"tf","game":"Team Fortress","app_id":440,"player_count":23,"max_players":24,"Bots":0,"server_type":"Dedicated","server_os":"Linux","password":true,"vac":true,"version":"7961495","steam_id":85568392924742829,"keywords":["cp","nocrits","nodmgspread","uncletopia"],"game_id":440,"stv_port":27056,"stv_name":"Uncletopia | London | 5 | All Maps | STV","players":[{"user_id":800,"name":"Cabbch","steam_id":76561198045955679,"connected_time":955000000000,"state":"active","ping":45},{"user_id":808,"name":"Joejee","steam_id":76561199122423976,"connected_time":148000000000,"state":"active","ping":62},{"user_id":761,"name":"baballe","steam_id":76561198302448192,"connected_time":3456000000000,"state":"active","ping":32},{"user_id":772,"name":"Flashback","steam_id":76561197973978552,"connected_time":2674000000000,"state":"active","ping":54},{"user_id":535,"name":"HaylingZar","steam_id":76561198053559897,"connected_time":16942000000000,"state":"active","ping":60},{"user_id":798,"name":"kilo","steam_id":76561198015641339,"connected_time":1116000000000,"state":"active","ping":75},{"user_id":791,"name":"hev 7( ^-^7)","steam_id":76561198159297690,"connected_time":1367000000000,"state":"active","ping":112},{"user_id":782,"name":"Peep","steam_id":76561198132508552,"connected_time":2256000000000,"state":"active","ping":46},{"user_id":788,"name":"_Context_","steam_id":76561199163359312,"connected_time":1516000000000,"state":"active","ping":50},{"user_id":792,"name":"everything reminds me of her","steam_id":76561198251165410,"connected_time":1357000000000,"state":"active","ping":62},{"user_id":569,"name":"Largo","steam_id":76561198844368927,"connected_time":14943000000000,"state":"active","ping":67},{"user_id":803,"name":"Skippie","steam_id":76561198102029146,"connected_time":798000000000,"state":"active","ping":82},{"user_id":797,"name":"Yuoni","steam_id":76561198088645803,"connected_time":1188000000000,"state":"active","ping":84},{"user_id":807,"name":"balanced diet","steam_id":76561198240320806,"connected_time":150000000000,"state":"active","ping":62},{"user_id":811,"name":"armadillo","steam_id":76561198324656652,"connected_time":52000000000,"state":"active","ping":54},{"user_id":794,"name":"emag live","steam_id":76561198047164140,"connected_time":1338000000000,"state":"active","ping":61},{"user_id":805,"name":"c4t","steam_id":76561199106399206,"connected_time":651000000000,"state":"active","ping":33},{"user_id":731,"name":"zazuza","steam_id":76561198049820905,"connected_time":4233000000000,"state":"active","ping":76},{"user_id":799,"name":"ScottishPerson57","steam_id":76561198130501330,"connected_time":1109000000000,"state":"active","ping":59},{"user_id":801,"name":"shoras","steam_id":76561198019680159,"connected_time":944000000000,"state":"active","ping":90},{"user_id":812,"name":"Silver","steam_id":76561198175238807,"connected_time":36000000000,"state":"active","ping":66},{"user_id":732,"name":"Vonacht","steam_id":76561198016033944,"connected_time":4232000000000,"state":"active","ping":62},{"user_id":796,"name":"gr3821","steam_id":76561198091531010,"connected_time":1326000000000,"state":"active","ping":45}]},{"server_id":22,"name":"Uncletopia | London | 6 | All Maps","name_short":"lon-6","host":"lon-1.uk.uncletopia.com","port":27065,"enabled":true,"region":"eu","cc":"gb","latitude":51.509865,"longitude":-0.118092,"reserved":0,"last_update":"0001-01-01T00:00:00Z","name_a2s":"Uncletopia | London | 6 | All Maps","protocol":17,"map":"koth_highpass","folder":"tf","game":"Team Fortress","app_id":440,"player_count":24,"max_players":24,"Bots":0,"server_type":"Dedicated","server_os":"Linux","password":true,"vac":true,"version":"7961495","steam_id":85568392924742830,"keywords":["cp","nocrits","nodmgspread","uncletopia"],"game_id":440,"stv_port":27066,"stv_name":"Uncletopia | London | 6 | All Maps | STV","players":[{"user_id":414,"name":"meow (they/them)","steam_id":76561198416657815,"connected_time":9805000000000,"state":"active","ping":114},{"user_id":464,"name":"Caliban","steam_id":76561197999696839,"connected_time":6103000000000,"state":"active","ping":133},{"user_id":528,"name":"W","steam_id":76561198273623211,"connected_time":223000000000,"state":"active","ping":102},{"user_id":508,"name":"shr","steam_id":76561198449852071,"connected_time":1903000000000,"state":"active","ping":33},{"user_id":514,"name":"carrots saved my life","steam_id":76561198069649097,"connected_time":1634000000000,"state":"active","ping":61},{"user_id":496,"name":"nug","steam_id":76561198055396568,"connected_time":2248000000000,"state":"active","ping":46},{"user_id":523,"name":"hyvakii705","steam_id":76561198086630552,"connected_time":504000000000,"state":"active","ping":90},{"user_id":526,"name":"Krefa12","steam_id":76561198268375393,"connected_time":338000000000,"state":"active","ping":101},{"user_id":502,"name":"Adam","steam_id":76561198259467867,"connected_time":2052000000000,"state":"active","ping":88},{"user_id":527,"name":"Mario Gaming","steam_id":76561199205983875,"connected_time":337000000000,"state":"active","ping":73},{"user_id":529,"name":"BELADIT","steam_id":76561198011911501,"connected_time":212000000000,"state":"active","ping":87},{"user_id":520,"name":"beebo","steam_id":76561199120277007,"connected_time":1089000000000,"state":"active","ping":44},{"user_id":511,"name":"i am green (da ba dee)","steam_id":76561198357334558,"connected_time":1758000000000,"state":"active","ping":117},{"user_id":517,"name":"VibeCat22","steam_id":76561199248330295,"connected_time":1409000000000,"state":"active","ping":52},{"user_id":488,"name":"clunk","steam_id":76561198836460767,"connected_time":2929000000000,"state":"active","ping":73},{"user_id":530,"name":"mercenarypit","steam_id":76561198161935108,"connected_time":127000000000,"state":"active","ping":59},{"user_id":532,"name":"Son Heung-Min","steam_id":76561198314364201,"connected_time":74000000000,"state":"active","ping":70},{"user_id":521,"name":"Handsome Man‚Ñ¢ Gaming","steam_id":76561198029685182,"connected_time":593000000000,"state":"active","ping":64},{"user_id":518,"name":"a r√°k egye ki a beledet","steam_id":76561198988882521,"connected_time":1373000000000,"state":"active","ping":91},{"user_id":522,"name":"Arty","steam_id":76561198160100181,"connected_time":518000000000,"state":"active","ping":62},{"user_id":491,"name":"Shovelhalfrusty","steam_id":76561198346447513,"connected_time":2908000000000,"state":"active","ping":57},{"user_id":513,"name":"the most annoying man on earth","steam_id":76561199059078922,"connected_time":1722000000000,"state":"active","ping":119},{"user_id":492,"name":"ant753","steam_id":76561198103458889,"connected_time":2905000000000,"state":"active","ping":68},{"user_id":533,"name":"oskaroku00","steam_id":76561199025360128,"connected_time":36000000000,"state":"active","ping":69}]},{"server_id":40,"name":"Uncletopia | London | 7 | Stopwatch","name_short":"lon-7","host":"lon-1.uk.uncletopia.com","port":27075,"enabled":true,"region":"eu","cc":"gb","latitude":51.509865,"longitude":-0.118092,"reserved":0,"last_update":"0001-01-01T00:00:00Z","name_a2s":"Uncletopia | London | 7 | Stopwatch","protocol":17,"map":"workshop/koth_clearcut_b15.ugc2107050255","folder":"tf","game":"Team Fortress","app_id":440,"player_count":0,"max_players":24,"Bots":0,"server_type":"Dedicated","server_os":"Linux","password":true,"vac":true,"version":"7961495","steam_id":85568392924964314,"keywords":["cp","nocrits","nodmgspread","uncletopia"],"game_id":440,"stv_port":27076,"stv_name":"Uncletopia | London | 7 | Stopwatch | STV","players":null},{"server_id":41,"name":"Uncletopia | London | 8 | Community","name_short":"lon-8","host":"lon-1.uk.uncletopia.com","port":27085,"enabled":true,"region":"eu","cc":"gb","latitude":51.509865,"longitude":-0.118092,"reserved":0,"last_update":"0001-01-01T00:00:00Z","name_a2s":"Uncletopia | London | 8 | Community","protocol":17,"map":"workshop/koth_synthetic_rc6a.ugc1549817316","folder":"tf","game":"Team Fortress","app_id":440,"player_count":3,"max_players":24,"Bots":0,"server_type":"Dedicated","server_os":"Linux","password":true,"vac":true,"version":"7961495","steam_id":85568392924964315,"keywords":["cp","nocrits","nodmgspread","uncletopia"],"game_id":440,"stv_port":27086,"stv_name":"Uncletopia | London | 8 | Community | STV","players":[{"user_id":22,"name":"LucyLime","steam_id":76561198262258698,"connected_time":983000000000,"state":"active","ping":46},{"user_id":23,"name":"painting4","steam_id":76561198067554256,"connected_time":599000000000,"state":"active","ping":75},{"user_id":25,"name":"Warpzel65","steam_id":76561198799303596,"connected_time":309000000000,"state":"active","ping":105}]},{"server_id":300,"name":"Uncletopia | Montr√©al | 1 | All Maps","name_short":"mtl-1","host":"mtl-1.ca.uncletopia.com","port":27015,"enabled":true,"region":"us-east","cc":"ca","latitude":45.50889,"longitude":-73.56167,"reserved":0,"last_update":"0001-01-01T00:00:00Z","name_a2s":"","protocol":0,"map":"","folder":"","game":"","app_id":0,"player_count":6,"max_players":0,"Bots":0,"server_type":"","server_os":"","password":false,"vac":false,"version":"","steam_id":0,"keywords":null,"game_id":0,"stv_port":0,"stv_name":"","players":[{"user_id":105,"name":"Papeese","steam_id":76561198297839897,"connected_time":2159000000000,"state":"active","ping":53},{"user_id":111,"name":"Poodle","steam_id":76561199319713877,"connected_time":1706000000000,"state":"active","ping":38},{"user_id":125,"name":"Vegerot","steam_id":76561197997843710,"connected_time":736000000000,"state":"active","ping":45},{"user_id":90,"name":"LevelRaisin","steam_id":76561198082924440,"connected_time":3387000000000,"state":"active","ping":41},{"user_id":120,"name":"The Sandwich Killer","steam_id":76561199170147545,"connected_time":1054000000000,"state":"active","ping":53},{"user_id":119,"name":"dragonofbananas","steam_id":76561198978966358,"connected_time":1317000000000,"state":"active","ping":53}]},{"server_id":301,"name":"Uncletopia | Montr√©al | 2 | ???","name_short":"mtl-2","host":"mtl-1.ca.uncletopia.com","port":27025,"enabled":true,"region":"us-east","cc":"ca","latitude":45.50889,"longitude":-73.56167,"reserved":0,"last_update":"0001-01-01T00:00:00Z","name_a2s":"","protocol":0,"map":"","folder":"","game":"","app_id":0,"player_count":0,"max_players":0,"Bots":0,"server_type":"","server_os":"","password":false,"vac":false,"version":"","steam_id":0,"keywords":null,"game_id":0,"stv_port":0,"stv_name":"","players":null},{"server_id":13,"name":"Uncletopia | New York City | 1 | All Maps","name_short":"nyc-1","host":"nyc-1.us.uncletopia.com","port":27015,"enabled":true,"region":"us-east","cc":"us","latitude":40.73061,"longitude":-73.93524,"reserved":0,"last_update":"0001-01-01T00:00:00Z","name_a2s":"Uncletopia | New York City | 1 | All Maps","protocol":17,"map":"pl_badwater","folder":"tf","game":"Team Fortress","app_id":440,"player_count":24,"max_players":24,"Bots":0,"server_type":"Dedicated","server_os":"Linux","password":true,"vac":true,"version":"7961495","steam_id":85568392924469993,"keywords":["nocrits","nodmgspread","payload","uncletopia"],"game_id":440,"stv_port":27016,"stv_name":"Uncletopia | New York City | 1 | All Maps | STV","players":[{"user_id":292,"name":"Uncle Majic the Hip Hop Magicia","steam_id":76561198107924303,"connected_time":806000000000,"state":"active","ping":44},{"user_id":277,"name":"AwakenedLaser","steam_id":76561198881657823,"connected_time":2398000000000,"state":"active","ping":147},{"user_id":296,"name":"1940's Softdrink","steam_id":76561198060955244,"connected_time":91000000000,"state":"active","ping":57},{"user_id":244,"name":"Transbian mommy GF","steam_id":76561198153233822,"connected_time":5088000000000,"state":"active","ping":98},{"user_id":268,"name":"Porcupine's Revenge!","steam_id":76561199121615234,"connected_time":3066000000000,"state":"active","ping":44},{"user_id":261,"name":"Moron","steam_id":76561198290041736,"connected_time":4053000000000,"state":"active","ping":82},{"user_id":294,"name":"Mysterious Stranger","steam_id":76561198212044371,"connected_time":442000000000,"state":"active","ping":56},{"user_id":289,"name":"Snugboo","steam_id":76561198147970327,"connected_time":1506000000000,"state":"active","ping":44},{"user_id":273,"name":"Takeover","steam_id":76561197996081461,"connected_time":2675000000000,"state":"active","ping":46},{"user_id":291,"name":"Relare","steam_id":76561198004059718,"connected_time":940000000000,"state":"active","ping":72},{"user_id":293,"name":"E4Estrogen","steam_id":76561198085813708,"connected_time":608000000000,"state":"active","ping":71},{"user_id":274,"name":"Dinosaur","steam_id":76561198854695804,"connected_time":2654000000000,"state":"active","ping":58},{"user_id":260,"name":"Fangirl","steam_id":76561198253710690,"connected_time":4329000000000,"state":"active","ping":94},{"user_id":276,"name":"bimbo blow up doll! \u003c3","steam_id":76561198959541006,"connected_time":2605000000000,"state":"active","ping":70},{"user_id":287,"name":"Fleetway","steam_id":76561198392105594,"connected_time":1875000000000,"state":"active","ping":66},{"user_id":283,"name":"ndvr","steam_id":76561199379200102,"connected_time":1997000000000,"state":"active","ping":52},{"user_id":191,"name":"Ziath","steam_id":76561198094009164,"connected_time":8092000000000,"state":"active","ping":45},{"user_id":264,"name":"Archimedes!","steam_id":76561199446023933,"connected_time":3292000000000,"state":"active","ping":116},{"user_id":263,"name":"SushiYum","steam_id":76561199376772893,"connected_time":3318000000000,"state":"active","ping":63},{"user_id":251,"name":"Mac is Bac #TransRights","steam_id":76561198307352761,"connected_time":4946000000000,"state":"active","ping":57},{"user_id":290,"name":"dulg","steam_id":76561198127640309,"connected_time":950000000000,"state":"active","ping":75},{"user_id":295,"name":"Kolum_89","steam_id":76561199184340915,"connected_time":350000000000,"state":"active","ping":122},{"user_id":284,"name":"The","steam_id":76561198359311605,"connected_time":1994000000000,"state":"active","ping":144},{"user_id":286,"name":"Syphal","steam_id":76561198149093386,"connected_time":1974000000000,"state":"active","ping":69}]},{"server_id":14,"name":"Uncletopia | New York City | 2 | All Maps","name_short":"nyc-2","host":"nyc-1.us.uncletopia.com","port":27025,"enabled":true,"region":"us-east","cc":"us","latitude":40.73061,"longitude":-73.93524,"reserved":0,"last_update":"0001-01-01T00:00:00Z","name_a2s":"Uncletopia | New York City | 2 | All Maps","protocol":17,"map":"cp_mountainlab","folder":"tf","game":"Team Fortress","app_id":440,"player_count":24,"max_players":24,"Bots":0,"server_type":"Dedicated","server_os":"Linux","password":true,"vac":true,"version":"7961495","steam_id":85568392924469994,"keywords":["cp","nocrits","nodmgspread","uncletopia"],"game_id":440,"stv_port":27026,"stv_name":"Uncletopia | New York City | 2 | All Maps | STV","players":[{"user_id":172,"name":"Rabid-Gentleman","steam_id":76561199071967379,"connected_time":1895000000000,"state":"active","ping":78},{"user_id":153,"name":"Hamz","steam_id":76561199287459211,"connected_time":2746000000000,"state":"active","ping":84},{"user_id":179,"name":"FrostStorm","steam_id":76561198142685151,"connected_time":1613000000000,"state":"active","ping":83},{"user_id":168,"name":"Cigtar","steam_id":76561198079842818,"connected_time":2164000000000,"state":"active","ping":66},{"user_id":192,"name":"superx","steam_id":76561198044976613,"connected_time":857000000000,"state":"active","ping":56},{"user_id":188,"name":"Gram Tokers Count Doinkula","steam_id":76561198112811565,"connected_time":1106000000000,"state":"active","ping":58},{"user_id":155,"name":"mvn","steam_id":76561198294258002,"connected_time":2698000000000,"state":"active","ping":44},{"user_id":196,"name":"Broadway Rose","steam_id":76561198046083342,"connected_time":318000000000,"state":"active","ping":36},{"user_id":203,"name":"LemonSolo","steam_id":76561198037769834,"connected_time":43000000000,"state":"active","ping":80},{"user_id":169,"name":"Zhong Xina","steam_id":76561198048157121,"connected_time":1977000000000,"state":"active","ping":65},{"user_id":198,"name":"The Power","steam_id":76561198060566884,"connected_time":233000000000,"state":"active","ping":111},{"user_id":175,"name":"Wolfman","steam_id":76561198095264646,"connected_time":1750000000000,"state":"active","ping":91},{"user_id":176,"name":"Tidwell","steam_id":76561198037414410,"connected_time":1707000000000,"state":"active","ping":56},{"user_id":158,"name":"Braixen","steam_id":76561198354314389,"connected_time":2612000000000,"state":"active","ping":74},{"user_id":202,"name":"gunk","steam_id":76561198120387104,"connected_time":102000000000,"state":"active","ping":55},{"user_id":204,"name":"Baron von Whoopsie","steam_id":76561197996691013,"connected_time":33000000000,"state":"active","ping":81},{"user_id":205,"name":"OfficerBean","steam_id":76561198075993573,"connected_time":23000000000,"state":"spawning","ping":71},{"user_id":201,"name":"God's Drunkest Driver","steam_id":76561199174579733,"connected_time":125000000000,"state":"active","ping":57},{"user_id":181,"name":"lego star wars on the psp","steam_id":76561198148014773,"connected_time":1584000000000,"state":"active","ping":55},{"user_id":200,"name":"Postarization","steam_id":76561199229658714,"connected_time":226000000000,"state":"active","ping":81},{"user_id":190,"name":"Poi","steam_id":76561198176914898,"connected_time":1057000000000,"state":"active","ping":83},{"user_id":193,"name":"Mak donalds","steam_id":76561198856016840,"connected_time":838000000000,"state":"active","ping":51},{"user_id":194,"name":"OKAY","steam_id":76561198091980659,"connected_time":675000000000,"state":"active","ping":59},{"user_id":187,"name":"QWERTY","steam_id":76561198211430420,"connected_time":1123000000000,"state":"active","ping":73}]},{"server_id":15,"name":"Uncletopia | New York City | 3 | Stopwatch","name_short":"nyc-3","host":"nyc-1.us.uncletopia.com","port":27035,"enabled":true,"region":"us-east","cc":"us","latitude":40.73061,"longitude":-73.93524,"reserved":0,"last_update":"0001-01-01T00:00:00Z","name_a2s":"Uncletopia | New York City | 3 | Stopwatch","protocol":17,"map":"workshop/pl_badwater_pro_v12.ugc2142942074","folder":"tf","game":"Team Fortress","app_id":440,"player_count":20,"max_players":24,"Bots":0,"server_type":"Dedicated","server_os":"Linux","password":true,"vac":true,"version":"7961495","steam_id":85568392924742820,"keywords":["nocrits","nodmgspread","payload","uncletopia"],"game_id":440,"stv_port":27036,"stv_name":"Uncletopia | New York City | 3 | Stopwatch | STV","players":[{"user_id":233,"name":"EmptyB33R","steam_id":76561198993166528,"connected_time":823000000000,"state":"active","ping":142},{"user_id":177,"name":"Pigeon","steam_id":76561199232498885,"connected_time":4524000000000,"state":"active","ping":59},{"user_id":241,"name":"g8rade","steam_id":76561198070593964,"connected_time":665000000000,"state":"active","ping":71},{"user_id":232,"name":"jeff_fan","steam_id":76561198086420687,"connected_time":864000000000,"state":"active","ping":101},{"user_id":237,"name":"Bible","steam_id":76561198042156810,"connected_time":711000000000,"state":"active","ping":68},{"user_id":235,"name":"guh","steam_id":76561197972342286,"connected_time":770000000000,"state":"active","ping":59},{"user_id":255,"name":"PieTheMan","steam_id":76561198027825469,"connected_time":51000000000,"state":"spawning","ping":164},{"user_id":183,"name":"FrostedBlakes","steam_id":76561199091619928,"connected_time":3921000000000,"state":"active","ping":73},{"user_id":229,"name":"Goat","steam_id":76561198068447650,"connected_time":1060000000000,"state":"active","ping":95},{"user_id":231,"name":"killer fish from san diego","steam_id":76561198875612039,"connected_time":875000000000,"state":"active","ping":55},{"user_id":238,"name":"i never liked jazz jerry","steam_id":76561198114011311,"connected_time":698000000000,"state":"active","ping":71},{"user_id":234,"name":"Piss Goblin","steam_id":76561198945800020,"connected_time":810000000000,"state":"active","ping":58},{"user_id":256,"name":"YungTaxCollector","steam_id":76561199107257507,"connected_time":46000000000,"state":"active","ping":69},{"user_id":246,"name":"Inevitable","steam_id":76561198210050169,"connected_time":480000000000,"state":"active","ping":49},{"user_id":247,"name":"B R O W N","steam_id":76561198047340813,"connected_time":453000000000,"state":"active","ping":64},{"user_id":254,"name":"Coach Neb","steam_id":76561198034552198,"connected_time":153000000000,"state":"active","ping":76},{"user_id":253,"name":"demomanmoding","steam_id":76561198413930183,"connected_time":322000000000,"state":"active","ping":44},{"user_id":249,"name":"Flyinglab","steam_id":76561198042161408,"connected_time":426000000000,"state":"spawning","ping":28},{"user_id":245,"name":"Skink","steam_id":76561198343428818,"connected_time":611000000000,"state":"active","ping":69},{"user_id":250,"name":"We Go Crazy","steam_id":76561198209641359,"connected_time":423000000000,"state":"active","ping":89}]},{"server_id":16,"name":"Uncletopia | New York City | 4 | Community","name_short":"nyc-4","host":"nyc-1.us.uncletopia.com","port":27045,"enabled":true,"region":"us-east","cc":"us","latitude":40.73061,"longitude":-73.93524,"reserved":0,"last_update":"0001-01-01T00:00:00Z","name_a2s":"Uncletopia | New York City | 4 | Community","protocol":17,"map":"cp_altitude","folder":"tf","game":"Team Fortress","app_id":440,"player_count":0,"max_players":24,"Bots":0,"server_type":"Dedicated","server_os":"Linux","password":true,"vac":true,"version":"7961495","steam_id":85568392924742821,"keywords":["cp","nocrits","nodmgspread","uncletopia"],"game_id":440,"stv_port":27046,"stv_name":"Uncletopia | New York City | 4 | Community | STV","players":null},{"server_id":142,"name":"Uncletopia | S√£o Paulo | 1 | All Maps","name_short":"sao-1","host":"sao-1.br.uncletopia.com","port":27015,"enabled":true,"region":"sa","cc":"br","latitude":-23.533773,"longitude":-46.62529,"reserved":0,"last_update":"0001-01-01T00:00:00Z","name_a2s":"Uncletopia | S√£o Paulo | 1 | All Maps","protocol":17,"map":"pl_borneo","folder":"tf","game":"Team Fortress","app_id":440,"player_count":0,"max_players":24,"Bots":0,"server_type":"Dedicated","server_os":"Linux","password":true,"vac":true,"version":"7961495","steam_id":85568392924469996,"keywords":["nocrits","nodmgspread","payload","uncletopia"],"game_id":440,"stv_port":27016,"stv_name":"Uncletopia | S√£o Paulo | 1 | All Maps | STV","players":null},{"server_id":143,"name":"Uncletopia | S√£o Paulo | 2 | Community","name_short":"sao-2","host":"sao-2.br.uncletopia.com","port":27015,"enabled":true,"region":"sa","cc":"br","latitude":-23.533773,"longitude":-46.62529,"reserved":0,"last_update":"0001-01-01T00:00:00Z","name_a2s":"Uncletopia | S√£o Paulo | 2 | Community","protocol":17,"map":"workshop/koth_synthetic_rc6a.ugc1549817316","folder":"tf","game":"Team Fortress","app_id":440,"player_count":0,"max_players":24,"Bots":0,"server_type":"Dedicated","server_os":"Linux","password":true,"vac":true,"version":"7961495","steam_id":85568392924485349,"keywords":["cp","nocrits","nodmgspread","uncletopia"],"game_id":440,"stv_port":27016,"stv_name":"Uncletopia | S√£o Paulo | 2 | Community | STV","players":null},{"server_id":7,"name":"Uncletopia | Seattle | 1 | All Maps","name_short":"sea-1","host":"sea-1.us.uncletopia.com","port":27015,"enabled":true,"region":"us-west","cc":"us","latitude":47.608013,"longitude":-122.33517,"reserved":0,"last_update":"0001-01-01T00:00:00Z","name_a2s":"Uncletopia | Seattle | 1 | All Maps","protocol":17,"map":"pl_swiftwater_final1","folder":"tf","game":"Team Fortress","app_id":440,"player_count":20,"max_players":24,"Bots":0,"server_type":"Dedicated","server_os":"Linux","password":true,"vac":true,"version":"7961495","steam_id":85568392924469997,"keywords":["nocrits","nodmgspread","payload","uncletopia"],"game_id":440,"stv_port":27016,"stv_name":"Uncletopia | Seattle | 1 | All Maps | STV","players":[{"user_id":166,"name":"Sir-Samuraialot","steam_id":76561198885712212,"connected_time":21000000000,"state":"active","ping":105},{"user_id":164,"name":"TheCowledWiz","steam_id":76561198016735868,"connected_time":294000000000,"state":"active","ping":44},{"user_id":89,"name":"[TTV]slendermansmoom","steam_id":76561199053946374,"connected_time":7856000000000,"state":"active","ping":52},{"user_id":134,"name":"Apollo","steam_id":76561198162364702,"connected_time":3332000000000,"state":"active","ping":45},{"user_id":167,"name":"LONG LIVE THE KING","steam_id":76561199017754044,"connected_time":15000000000,"state":"spawning","ping":58},{"user_id":138,"name":"‚ú´P‚àÄnck‚àà‚ú´","steam_id":76561198050163618,"connected_time":2602000000000,"state":"active","ping":67},{"user_id":152,"name":"A UsedNom","steam_id":76561198402832756,"connected_time":1534000000000,"state":"active","ping":38},{"user_id":140,"name":"whitr","steam_id":76561198043981478,"connected_time":2253000000000,"state":"active","ping":58},{"user_id":139,"name":"Hassium","steam_id":76561198162541373,"connected_time":2303000000000,"state":"active","ping":57},{"user_id":160,"name":"nufan","steam_id":76561197970472142,"connected_time":674000000000,"state":"active","ping":45},{"user_id":156,"name":"Cheezbeargur","steam_id":76561198164702899,"connected_time":1055000000000,"state":"active","ping":67},{"user_id":141,"name":"Tungsten","steam_id":76561198312854342,"connected_time":2240000000000,"state":"active","ping":46},{"user_id":163,"name":"weegeebad","steam_id":76561198280841437,"connected_time":461000000000,"state":"active","ping":109},{"user_id":154,"name":"Themasterman75","steam_id":76561199385573293,"connected_time":1090000000000,"state":"active","ping":56},{"user_id":157,"name":"Warhead","steam_id":76561198067746049,"connected_time":1030000000000,"state":"active","ping":60},{"user_id":144,"name":"tagos","steam_id":76561199073587732,"connected_time":2175000000000,"state":"active","ping":74},{"user_id":151,"name":"Dr. Karl, the AUS Science Guy","steam_id":76561198031278747,"connected_time":1603000000000,"state":"active","ping":45},{"user_id":142,"name":"Day Man","steam_id":76561198067154807,"connected_time":2240000000000,"state":"active","ping":45},{"user_id":150,"name":"Wafflemuscle","steam_id":76561198868628982,"connected_time":1664000000000,"state":"active","ping":33},{"user_id":161,"name":"kenZino","steam_id":76561197967971192,"connected_time":527000000000,"state":"active","ping":41}]},{"server_id":119,"name":"Uncletopia | Seattle | 2 | All Maps","name_short":"sea-2","host":"sea-1.us.uncletopia.com","port":27025,"enabled":true,"region":"us-west","cc":"us","latitude":47.608013,"longitude":-122.33517,"reserved":0,"last_update":"0001-01-01T00:00:00Z","name_a2s":"Uncletopia | Seattle | 2 | All Maps","protocol":17,"map":"pl_badwater","folder":"tf","game":"Team Fortress","app_id":440,"player_count":3,"max_players":24,"Bots":0,"server_type":"Dedicated","server_os":"Linux","password":true,"vac":true,"version":"7961495","steam_id":85568392924469998,"keywords":["nocrits","nodmgspread","payload","uncletopia"],"game_id":440,"stv_port":27026,"stv_name":"Uncletopia | Seattle | 2 | All Maps | STV","players":[{"user_id":25,"name":"ilun","steam_id":76561198042913843,"connected_time":614000000000,"state":"active","ping":57},{"user_id":26,"name":"a cat plushie","steam_id":76561198080046542,"connected_time":604000000000,"state":"active","ping":45},{"user_id":27,"name":"Dispencer Lover","steam_id":76561199059653595,"connected_time":176000000000,"state":"active","ping":32}]},{"server_id":406,"name":"Uncletopia | Seattle | 3 | Stopwatch","name_short":"sea-3","host":"sea-1.us.uncletopia.com","port":27035,"enabled":true,"region":"us-west","cc":"us","latitude":47.608013,"longitude":-122.33517,"reserved":0,"last_update":"0001-01-01T00:00:00Z","name_a2s":"Uncletopia | Seattle | 3 | Stopwatch","protocol":17,"map":"koth_lakeside_final","folder":"tf","game":"Team Fortress","app_id":440,"player_count":0,"max_players":24,"Bots":0,"server_type":"Dedicated","server_os":"Linux","password":true,"vac":true,"version":"7961495","steam_id":85568392924515217,"keywords":["cp","nocrits","nodmgspread","uncletopia"],"game_id":440,"stv_port":27036,"stv_name":"Uncletopia | Seattle | 3 | Stopwatch | STV","players":null},{"server_id":17,"name":"Uncletopia | San Francisco | 1 | All Maps","name_short":"sfo-1","host":"sfo-1.us.uncletopia.com","port":27015,"enabled":true,"region":"us-west","cc":"us","latitude":37.77397,"longitude":-122.4313,"reserved":0,"last_update":"0001-01-01T00:00:00Z","name_a2s":"Uncletopia | San Francisco | 1 | All Maps","protocol":17,"map":"cp_process_final","folder":"tf","game":"Team Fortress","app_id":440,"player_count":0,"max_players":24,"Bots":0,"server_type":"Dedicated","server_os":"Linux","password":true,"vac":true,"version":"7961495","steam_id":85568392924469999,"keywords":["cp","nocrits","nodmgspread","uncletopia"],"game_id":440,"stv_port":27016,"stv_name":"Uncletopia | San Francisco | 1 | All Maps | STV","players":null},{"server_id":18,"name":"Uncletopia | San Francisco | 2 | All Maps","name_short":"sfo-2","host":"sfo-1.us.uncletopia.com","port":27025,"enabled":true,"region":"us-west","cc":"us","latitude":37.77397,"longitude":-122.4313,"reserved":0,"last_update":"0001-01-01T00:00:00Z","name_a2s":"Uncletopia | San Francisco | 2 | All Maps","protocol":17,"map":"koth_cascade","folder":"tf","game":"Team Fortress","app_id":440,"player_count":0,"max_players":24,"Bots":0,"server_type":"Dedicated","server_os":"Linux","password":true,"vac":true,"version":"7961495","steam_id":85568392924470000,"keywords":["cp","nocrits","nodmgspread","uncletopia"],"game_id":440,"stv_port":27026,"stv_name":"Uncletopia | San Francisco | 2 | All Maps | STV","players":null},{"server_id":19,"name":"Uncletopia | San Francisco | 3 | Stopwatch","name_short":"sfo-3","host":"sfo-1.us.uncletopia.com","port":27035,"enabled":true,"region":"us-west","cc":"us","latitude":37.77397,"longitude":-122.4313,"reserved":0,"last_update":"0001-01-01T00:00:00Z","name_a2s":"Uncletopia | San Francisco | 3 | Stopwatch","protocol":17,"map":"pl_upward","folder":"tf","game":"Team Fortress","app_id":440,"player_count":0,"max_players":24,"Bots":0,"server_type":"Dedicated","server_os":"Linux","password":true,"vac":true,"version":"7961495","steam_id":85568392924742824,"keywords":["nocrits","nodmgspread","payload","uncletopia"],"game_id":440,"stv_port":27036,"stv_name":"Uncletopia | San Francisco | 3 | Stopwatch | STV","players":null},{"server_id":20,"name":"Uncletopia | San Francisco | 4 | Community","name_short":"sfo-4","host":"sfo-1.us.uncletopia.com","port":27045,"enabled":true,"region":"us-west","cc":"us","latitude":37.77397,"longitude":-122.4313,"reserved":0,"last_update":"0001-01-01T00:00:00Z","name_a2s":"Uncletopia | San Francisco | 4 | Community","protocol":17,"map":"workshop/pl_divulgence_b4b.ugc2884808746","folder":"tf","game":"Team Fortress","app_id":440,"player_count":0,"max_players":24,"Bots":0,"server_type":"Dedicated","server_os":"Linux","password":true,"vac":true,"version":"7961495","steam_id":85568392924742826,"keywords":["nocrits","nodmgspread","payload","uncletopia"],"game_id":440,"stv_port":27046,"stv_name":"Uncletopia | San Francisco | 4 | Community | STV","players":null},{"server_id":141,"name":"Uncletopia | Sydney | 1 | All Maps","name_short":"syd-1","host":"syd-1.au.uncletopia.com","port":27015,"enabled":true,"region":"au","cc":"au","latitude":-33.865143,"longitude":151.2099,"reserved":0,"last_update":"0001-01-01T00:00:00Z","name_a2s":"Uncletopia | Sydney | 1 | All Maps","protocol":17,"map":"koth_viaduct","folder":"tf","game":"Team Fortress","app_id":440,"player_count":0,"max_players":24,"Bots":0,"server_type":"Dedicated","server_os":"Linux","password":true,"vac":true,"version":"7961495","steam_id":85568392924470001,"keywords":["cp","nocrits","nodmgspread","uncletopia"],"game_id":440,"stv_port":27016,"stv_name":"Uncletopia | Sydney | 1 | All Maps | STV","players":null},{"server_id":123,"name":"Uncletopia | Sydney | 2 | All Maps","name_short":"syd-2","host":"syd-1.au.uncletopia.com","port":27025,"enabled":true,"region":"au","cc":"au","latitude":-33.865143,"longitude":151.2099,"reserved":0,"last_update":"0001-01-01T00:00:00Z","name_a2s":"Uncletopia | Sydney | 2 | All Maps","protocol":17,"map":"koth_lakeside_final","folder":"tf","game":"Team Fortress","app_id":440,"player_count":0,"max_players":24,"Bots":0,"server_type":"Dedicated","server_os":"Linux","password":true,"vac":true,"version":"7961495","steam_id":85568392924470002,"keywords":["cp","nocrits","nodmgspread","uncletopia"],"game_id":440,"stv_port":27026,"stv_name":"Uncletopia | Sydney | 2 | All Maps | STV","players":null},{"server_id":395,"name":"Uncletopia | Sydney | 3 | All Maps","name_short":"syd-3","host":"syd-1.au.uncletopia.com","port":27035,"enabled":true,"region":"au","cc":"au","latitude":-33.865143,"longitude":151.2099,"reserved":0,"last_update":"0001-01-01T00:00:00Z","name_a2s":"Uncletopia | Sydney | 3 | All Maps","protocol":17,"map":"pl_frontier_final","folder":"tf","game":"Team Fortress","app_id":440,"player_count":0,"max_players":24,"Bots":0,"server_type":"Dedicated","server_os":"Linux","password":true,"vac":true,"version":"7961495","steam_id":85568392925194467,"keywords":["nocrits","nodmgspread","payload","uncletopia"],"game_id":440,"stv_port":27036,"stv_name":"Uncletopia | Sydney | 3 | All Maps | STV","players":null},{"server_id":396,"name":"Uncletopia | Sydney | 4 | All Maps","name_short":"syd-4","host":"syd-1.au.uncletopia.com","port":27045,"enabled":true,"region":"au","cc":"au","latitude":-33.865143,"longitude":151.2099,"reserved":0,"last_update":"0001-01-01T00:00:00Z","name_a2s":"Uncletopia | Sydney | 4 | All Maps","protocol":17,"map":"cp_process_final","folder":"tf","game":"Team Fortress","app_id":440,"player_count":0,"max_players":24,"Bots":0,"server_type":"Dedicated","server_os":"Linux","password":true,"vac":true,"version":"7961495","steam_id":85568392925397958,"keywords":["cp","nocrits","nodmgspread","uncletopia"],"game_id":440,"stv_port":27046,"stv_name":"Uncletopia | Sydney | 4 | All Maps | STV","players":null},{"server_id":58,"name":"Uncletopia | Sydney | 5 | Stopwatch","name_short":"syd-5","host":"syd-1.au.uncletopia.com","port":27055,"enabled":true,"region":"au","cc":"au","latitude":-33.865143,"longitude":151.2099,"reserved":0,"last_update":"0001-01-01T00:00:00Z","name_a2s":"Uncletopia | Sydney | 5 | Stopwatch","protocol":17,"map":"pl_frontier_final","folder":"tf","game":"Team Fortress","app_id":440,"player_count":0,"max_players":24,"Bots":0,"server_type":"Dedicated","server_os":"Linux","password":true,"vac":true,"version":"7961495","steam_id":85568392925397959,"keywords":["nocrits","nodmgspread","payload","uncletopia"],"game_id":440,"stv_port":27056,"stv_name":"Uncletopia | Sydney | 5 | Stopwatch | STV","players":null},{"server_id":59,"name":"Uncletopia | Sydney | 6 | Community","name_short":"syd-6","host":"syd-1.au.uncletopia.com","port":27065,"enabled":true,"region":"au","cc":"au","latitude":-33.865143,"longitude":151.2099,"reserved":0,"last_update":"0001-01-01T00:00:00Z","name_a2s":"Uncletopia | Sydney | 6 | Community","protocol":17,"map":"cp_sunshine","folder":"tf","game":"Team Fortress","app_id":440,"player_count":0,"max_players":24,"Bots":0,"server_type":"Dedicated","server_os":"Linux","password":true,"vac":true,"version":"7961495","steam_id":85568392925397960,"keywords":["cp","nocrits","nodmgspread","uncletopia"],"game_id":440,"stv_port":27066,"stv_name":"Uncletopia | Sydney | 6 | Community | STV","players":null},{"server_id":49,"name":"Uncletopia | Warsaw | 1 | All Maps","name_short":"waw-1","host":"waw-1.pl.uncletopia.com","port":27015,"enabled":true,"region":"eu","cc":"pl","latitude":52.2297,"longitude":21.017532,"reserved":0,"last_update":"0001-01-01T00:00:00Z","name_a2s":"Uncletopia | Warsaw | 1 | All Maps","protocol":17,"map":"koth_lakeside_final","folder":"tf","game":"Team Fortress","app_id":440,"player_count":0,"max_players":24,"Bots":0,"server_type":"Dedicated","server_os":"Linux","password":true,"vac":true,"version":"7961495","steam_id":85568392925397850,"keywords":["cp","nocrits","nodmgspread","uncletopia"],"game_id":440,"stv_port":27016,"stv_name":"Uncletopia | Warsaw | 1 | All Maps | STV","players":null},{"server_id":50,"name":"Uncletopia | Warsaw | 2 | All Maps","name_short":"waw-2","host":"waw-1.pl.uncletopia.com","port":27025,"enabled":true,"region":"eu","cc":"pl","latitude":52.2297,"longitude":21.017532,"reserved":0,"last_update":"0001-01-01T00:00:00Z","name_a2s":"Uncletopia | Warsaw | 2 | All Maps","protocol":17,"map":"plr_hightower","folder":"tf","game":"Team Fortress","app_id":440,"player_count":4,"max_players":24,"Bots":0,"server_type":"Dedicated","server_os":"Linux","password":true,"vac":true,"version":"7961495","steam_id":85568392925397851,"keywords":["nocrits","nodmgspread","payload","uncletopia"],"game_id":440,"stv_port":27026,"stv_name":"Uncletopia | Warsaw | 2 | All Maps | STV","players":[{"user_id":41,"name":"39","steam_id":76561199091672937,"connected_time":2915000000000,"state":"active","ping":90},{"user_id":42,"name":"goblin z polsk√Ωch krajin","steam_id":76561198406483941,"connected_time":2359000000000,"state":"active","ping":72},{"user_id":43,"name":"stefanbejenari","steam_id":76561199466718294,"connected_time":1841000000000,"state":"active","ping":82},{"user_id":44,"name":"abrax lft","steam_id":76561198252035180,"connected_time":1232000000000,"state":"active","ping":35}]},{"server_id":51,"name":"Uncletopia | Warsaw | 3 | All Maps","name_short":"waw-3","host":"waw-1.pl.uncletopia.com","port":27035,"enabled":true,"region":"eu","cc":"pl","latitude":52.2297,"longitude":21.017532,"reserved":0,"last_update":"0001-01-01T00:00:00Z","name_a2s":"Uncletopia | Warsaw | 3 | All Maps","protocol":17,"map":"koth_lakeside_final","folder":"tf","game":"Team Fortress","app_id":440,"player_count":0,"max_players":24,"Bots":0,"server_type":"Dedicated","server_os":"Linux","password":true,"vac":true,"version":"7961495","steam_id":85568392925397852,"keywords":["cp","nocrits","nodmgspread","uncletopia"],"game_id":440,"stv_port":27036,"stv_name":"Uncletopia | Warsaw | 3 | All Maps | STV","players":null},{"server_id":52,"name":"Uncletopia | Warsaw | 4 | All Maps","name_short":"waw-4","host":"waw-1.pl.uncletopia.com","port":27045,"enabled":true,"region":"eu","cc":"pl","latitude":52.2297,"longitude":21.017532,"reserved":0,"last_update":"0001-01-01T00:00:00Z","name_a2s":"Uncletopia | Warsaw | 4 | All Maps","protocol":17,"map":"ctf_2fort","folder":"tf","game":"Team Fortress","app_id":440,"player_count":21,"max_players":24,"Bots":0,"server_type":"Dedicated","server_os":"Linux","password":true,"vac":true,"version":"7961495","steam_id":85568392925397853,"keywords":["ctf","nocrits","nodmgspread","uncletopia"],"game_id":440,"stv_port":27046,"stv_name":"Uncletopia | Warsaw | 4 | All Maps | STV","players":[{"user_id":122,"name":"zssz","steam_id":76561198148400154,"connected_time":1295000000000,"state":"active","ping":41},{"user_id":129,"name":"CuJIA_TPAHCJIuTA","steam_id":76561198149654361,"connected_time":33000000000,"state":"active","ping":63},{"user_id":126,"name":"Azri Tower","steam_id":76561198238526796,"connected_time":423000000000,"state":"active","ping":82},{"user_id":125,"name":"Jack Baker","steam_id":76561198145890045,"connected_time":810000000000,"state":"active","ping":88},{"user_id":123,"name":"grat","steam_id":76561198109058754,"connected_time":1161000000000,"state":"active","ping":101},{"user_id":130,"name":"Yowai mo","steam_id":76561198211609745,"connected_time":5000000000,"state":"spawning","ping":56},{"user_id":31,"name":"Juice Box","steam_id":76561199071833454,"connected_time":8080000000000,"state":"active","ping":79},{"user_id":108,"name":"Sanyaba_08","steam_id":76561199186583687,"connected_time":2324000000000,"state":"active","ping":119},{"user_id":109,"name":"sru308863","steam_id":76561199229647942,"connected_time":2322000000000,"state":"active","ping":121},{"user_id":111,"name":"Palkia","steam_id":76561199164395510,"connected_time":2158000000000,"state":"active","ping":132},{"user_id":106,"name":"Puhaur","steam_id":76561198404557509,"connected_time":2488000000000,"state":"active","ping":68},{"user_id":124,"name":"[Dz| VOZO","steam_id":76561197999093652,"connected_time":1158000000000,"state":"active","ping":144},{"user_id":84,"name":"not as f2p","steam_id":76561198333850661,"connected_time":4684000000000,"state":"active","ping":72},{"user_id":99,"name":"Benersan the Bread","steam_id":76561198047413192,"connected_time":2968000000000,"state":"active","ping":94},{"user_id":118,"name":"Black Mesa Employee","steam_id":76561198184151394,"connected_time":1869000000000,"state":"active","ping":74},{"user_id":119,"name":"@1opgloryboyz","steam_id":76561198046754534,"connected_time":1799000000000,"state":"active","ping":94},{"user_id":59,"name":"Filin_Fill","steam_id":76561198044037139,"connected_time":6335000000000,"state":"active","ping":75},{"user_id":110,"name":"Lone Stranger","steam_id":76561198994639500,"connected_time":2248000000000,"state":"active","ping":80},{"user_id":114,"name":"klaus","steam_id":76561198150394201,"connected_time":2056000000000,"state":"active","ping":69},{"user_id":92,"name":"BGH1009","steam_id":76561198894761820,"connected_time":3731000000000,"state":"active","ping":77},{"user_id":117,"name":"ILoveMyMom420Blaze","steam_id":76561198981016492,"connected_time":1947000000000,"state":"active","ping":45}]},{"server_id":53,"name":"Uncletopia | Warsaw | 5 | Stopwatch","name_short":"waw-5","host":"waw-1.pl.uncletopia.com","port":27055,"enabled":true,"region":"eu","cc":"pl","latitude":52.2297,"longitude":21.017532,"reserved":0,"last_update":"0001-01-01T00:00:00Z","name_a2s":"Uncletopia | Warsaw | 5 | Stopwatch","protocol":17,"map":"workshop/koth_ramjam_rc1.ugc459778887","folder":"tf","game":"Team Fortress","app_id":440,"player_count":0,"max_players":24,"Bots":0,"server_type":"Dedicated","server_os":"Linux","password":true,"vac":true,"version":"7961495","steam_id":85568392925397854,"keywords":["cp","nocrits","nodmgspread","uncletopia"],"game_id":440,"stv_port":27056,"stv_name":"Uncletopia | Warsaw | 5 | Stopwatch | STV","players":null},{"server_id":54,"name":"Uncletopia | Warsaw | 6 | Community","name_short":"waw-6","host":"waw-1.pl.uncletopia.com","port":27065,"enabled":true,"region":"eu","cc":"pl","latitude":52.2297,"longitude":21.017532,"reserved":0,"last_update":"0001-01-01T00:00:00Z","name_a2s":"Uncletopia | Warsaw | 6 | Community","protocol":17,"map":"workshop/koth_kemptown_rc1.ugc767410655","folder":"tf","game":"Team Fortress","app_id":440,"player_count":0,"max_players":24,"Bots":0,"server_type":"Dedicated","server_os":"Linux","password":true,"vac":true,"version":"7961495","steam_id":85568392925397856,"keywords":["cp","nocrits","nodmgspread","uncletopia"],"game_id":440,"stv_port":27066,"stv_name":"Uncletopia | Warsaw | 6 | Community | STV","players":null}]}