{"status":true,"message":"","result":[{"server_id":9,"name":"Uncletopia | Atlanta | 1 | All Maps","name_short":"atl-1","host":"atl-1.us.uncletopia.com","port":27015,"enabled":true,"region":"us-east","cc":"us","latitude":33.753746,"longitude":-84.38633,"reserved":0,"last_update":"0001-01-01T00:00:00Z","name_a2s":"Uncletopia | Atlanta | 1 | All Maps","protocol":17,"map":"pl_swiftwater_final1","folder":"tf","game":"Team Fortress","app_id":440,"player_count":24,"max_players":24,"Bots":0,"server_type":"Dedicated","server_os":"Linux","password":true,"vac":true,"version":"7961495","steam_id":85568392924469982,"keywords":["nocrits","nodmgspread","payload","uncletopia"],"game_id":440,"stv_port":27016,"stv_name":"Uncletopia | Atlanta | 1 | All Maps | STV","players":[{"user_id":303,"name":"SomeScuffedKid","steam_id":76561198086113234,"connected_time":1307000000000,"state":"active","ping":85},{"user_id":314,"name":"Xavibite","steam_id":76561198209380493,"connected_time":503000000000,"state":"active","ping":62},{"user_id":299,"name":"Alphowlet98","steam_id":76561199093985532,"connected_time":1450000000000,"state":"active","ping":122},{"user_id":291,"name":"MilkToast","steam_id":76561198167959226,"connected_time":2067000000000,"state":"active","ping":67},{"user_id":305,"name":"HemoTox","steam_id":76561197999713466,"connected_time":1283000000000,"state":"active","ping":53},{"user_id":315,"name":"Dat Lion Boi","steam_id":76561198043856765,"connected_time":462000000000,"state":"active","ping":61},{"user_id":273,"name":"BIG HOG","steam_id":76561198079923652,"connected_time":3388000000000,"state":"active","ping":65},{"user_id":296,"name":"ATL1 | cola","steam_id":76561198374390458,"connected_time":1725000000000,"state":"active","ping":77},{"user_id":287,"name":"SamFec","steam_id":76561198414538682,"connected_time":2232000000000,"state":"active","ping":101},{"user_id":258,"name":"lu","steam_id":76561198080731872,"connected_time":5395000000000,"state":"active","ping":94},{"user_id":275,"name":"Albino Jellyfish","steam_id":76561198208561097,"connected_time":3106000000000,"state":"active","ping":55},{"user_id":267,"name":"lil hog","steam_id":76561199230929836,"connected_time":4539000000000,"state":"active","ping":83},{"user_id":316,"name":"CWCLONE","steam_id":76561198132459460,"connected_time":457000000000,"state":"active","ping":68},{"user_id":283,"name":"Flint","steam_id":76561198066547582,"connected_time":2527000000000,"state":"active","ping":116},{"user_id":241,"name":"Okpar","steam_id":76561199221067945,"connected_time":7710000000000,"state":"active","ping":81},{"user_id":242,"name":"Onyx","steam_id":76561198275349640,"connected_time":7623000000000,"state":"active","ping":77},{"user_id":264,"name":"trianamarco780","steam_id":76561199084319677,"connected_time":4804000000000,"state":"active","ping":121},{"user_id":306,"name":"Que-sus-dilla","steam_id":76561198125712564,"connected_time":1263000000000,"state":"active","ping":124},{"user_id":307,"name":"sansa musa","steam_id":76561198163723555,"connected_time":1252000000000,"state":"active","ping":74},{"user_id":289,"name":"kite","steam_id":76561198346516392,"connected_time":2128000000000,"state":"active","ping":86},{"user_id":317,"name":"HOLY SHIT ITS TITTY LAND!!!!!!","steam_id":76561199389283507,"connected_time":395000000000,"state":"active","ping":99},{"user_id":227,"name":"coolkid","steam_id":76561198072600034,"connected_time":8551000000000,"state":"active","ping":99},{"user_id":262,"name":"Bunni","steam_id":76561198045391493,"connected_time":4860000000000,"state":"active","ping":72},{"user_id":311,"name":"the keebler","steam_id":76561199486326945,"connected_time":1212000000000,"state":"active","ping":72}]},{"server_id":104,"name":"Uncletopia | Atlanta | 2 | All Maps","name_short":"atl-2","host":"atl-1.us.uncletopia.com","port":27025,"enabled":true,"region":"us-east","cc":"us","latitude":33.753746,"longitude":-84.38633,"reserved":0,"last_update":"0001-01-01T00:00:00Z","name_a2s":"Uncletopia | Atlanta | 2 | All Maps","protocol":17,"map":"pl_swiftwater_final1","folder":"tf","game":"Team Fortress","app_id":440,"player_count":24,"max_players":24,"Bots":0,"server_type":"Dedicated","server_os":"Linux","password":true,"vac":true,"version":"7961495","steam_id":85568392924469983,"keywords":["nocrits","nodmgspread","payload","uncletopia"],"game_id":440,"stv_port":27026,"stv_name":"Uncletopia | Atlanta | 2 | All Maps | STV","players":[{"user_id":20,"name":"Resident Goober","steam_id":76561199205471969,"connected_time":7005000000000,"state":"active","ping":86},{"user_id":72,"name":"Reckless Klondike","steam_id":76561198060904416,"connected_time":3311000000000,"state":"active","ping":77},{"user_id":99,"name":"Acid-talon","steam_id":76561198039545578,"connected_time":1291000000000,"state":"active","ping":76},{"user_id":68,"name":"Beta Fish","steam_id":76561198073504861,"connected_time":3708000000000,"state":"active","ping":46},{"user_id":94,"name":"lionel messi","steam_id":76561198138455706,"connected_time":1848000000000,"state":"active","ping":103},{"user_id":117,"name":"Waffle Wannabe","steam_id":76561198064510650,"connected_time":162000000000,"state":"active","ping":65},{"user_id":29,"name":"torres","steam_id":76561198965797029,"connected_time":5800000000000,"state":"active","ping":107},{"user_id":115,"name":"brains","steam_id":76561198197388678,"connected_time":337000000000,"state":"active","ping":45},{"user_id":95,"name":"lucin","steam_id":76561198258062078,"connected_time":1840000000000,"state":"active","ping":60},{"user_id":116,"name":"really hot pocket","steam_id":76561198239297686,"connected_time":334000000000,"state":"active","ping":91},{"user_id":88,"name":"Architect","steam_id":76561198015242016,"connected_time":2660000000000,"state":"active","ping":60},{"user_id":111,"name":"Mr. Overtime","steam_id":76561199241105445,"connected_time":403000000000,"state":"active","ping":171},{"user_id":83,"name":"Cheeseburger","steam_id":76561198044131927,"connected_time":2885000000000,"state":"active","ping":45},{"user_id":92,"name":"Milk carton","steam_id":76561198967876347,"connected_time":2116000000000,"state":"active","ping":85},{"user_id":106,"name":"Spazmatic Dingus","steam_id":76561198117514263,"connected_time":937000000000,"state":"active","ping":103},{"user_id":109,"name":"FenderBender","steam_id":76561198106379456,"connected_time":434000000000,"state":"active","ping":110},{"user_id":110,"name":"inphlate","steam_id":76561199016973013,"connected_time":432000000000,"state":"active","ping":71},{"user_id":102,"name":"JustAnotherPlayer","steam_id":76561198852738657,"connected_time":1259000000000,"state":"active","ping":217},{"user_id":114,"name":"C^a^L","steam_id":76561198241124222,"connected_time":356000000000,"state":"active","ping":105},{"user_id":98,"name":"Sone","steam_id":76561198069601032,"connected_time":1819000000000,"state":"active","ping":85},{"user_id":113,"name":"rf","steam_id":76561198195359229,"connected_time":385000000000,"state":"active","ping":105},{"user_id":47,"name":"Vaudeville Villain","steam_id":76561197991063996,"connected_time":5042000000000,"state":"active","ping":81},{"user_id":65,"name":"Tweek Tweak","steam_id":76561198445739792,"connected_time":3883000000000,"state":"active","ping":69},{"user_id":74,"name":"Morallusionist","steam_id":76561199480240111,"connected_time":3187000000000,"state":"active","ping":71}]},{"server_id":400,"name":"Uncletopia | Atlanta | 3 | Stopwatch","name_short":"atl-3","host":"atl-1.us.uncletopia.com","port":27035,"enabled":true,"region":"us-east","cc":"us","latitude":33.753746,"longitude":-84.38633,"reserved":0,"last_update":"0001-01-01T00:00:00Z","name_a2s":"Uncletopia | Atlanta | 3 | Stopwatch","protocol":17,"map":"pl_upward","folder":"tf","game":"Team Fortress","app_id":440,"player_count":16,"max_players":24,"Bots":0,"server_type":"Dedicated","server_os":"Linux","password":true,"vac":true,"version":"7961495","steam_id":85568392924515187,"keywords":["nocrits","nodmgspread","payload","uncletopia"],"game_id":440,"stv_port":27036,"stv_name":"Uncletopia | Atlanta | 3 | Stopwatch | STV","players":[{"user_id":82,"name":"garbuglio","steam_id":76561198012371111,"connected_time":135000000000,"state":"active","ping":61},{"user_id":41,"name":"101_the_Robot","steam_id":76561198331039848,"connected_time":3506000000000,"state":"active","ping":130},{"user_id":85,"name":"Gluppo","steam_id":76561198379320087,"connected_time":85000000000,"state":"active","ping":77},{"user_id":58,"name":"Val E. Mato","steam_id":76561199095127790,"connected_time":2453000000000,"state":"active","ping":67},{"user_id":71,"name":"Blippity Blop","steam_id":76561198830927973,"connected_time":1154000000000,"state":"active","ping":151},{"user_id":38,"name":"YeeboBeebo","steam_id":76561198812879907,"connected_time":4127000000000,"state":"active","ping":77},{"user_id":80,"name":"Lobstar","steam_id":76561198015310322,"connected_time":210000000000,"state":"active","ping":65},{"user_id":75,"name":"P.U. Poopenhauser","steam_id":76561198012093679,"connected_time":464000000000,"state":"active","ping":94},{"user_id":77,"name":"Robot_mann","steam_id":76561198340434264,"connected_time":379000000000,"state":"active","ping":71},{"user_id":81,"name":"HERO","steam_id":76561199014268529,"connected_time":145000000000,"state":"active","ping":62},{"user_id":86,"name":"Warpy","steam_id":76561198055852599,"connected_time":84000000000,"state":"active","ping":102},{"user_id":84,"name":"Bim","steam_id":76561198155979811,"connected_time":116000000000,"state":"active","ping":59},{"user_id":48,"name":"Yiggs_","steam_id":76561198058742814,"connected_time":2878000000000,"state":"active","ping":73},{"user_id":87,"name":"smugmirk","steam_id":76561198880748680,"connected_time":66000000000,"state":"active","ping":62},{"user_id":88,"name":"Grease Magician","steam_id":76561198285410854,"connected_time":60000000000,"state":"active","ping":89},{"user_id":63,"name":"Lee-Ch","steam_id":76561198164980622,"connected_time":2254000000000,"state":"active","ping":62}]},{"server_id":401,"name":"Uncletopia | Atlanta | 4 | Community","name_short":"atl-4","host":"atl-1.us.uncletopia.com","port":27045,"enabled":true,"region":"us-east","cc":"us","latitude":33.753746,"longitude":-84.38633,"reserved":0,"last_update":"0001-01-01T00:00:00Z","name_a2s":"Uncletopia | Atlanta | 4 | Community","protocol":17,"map":"workshop/koth_slaughter_rc1.ugc1712845210","folder":"tf","game":"Team Fortress","app_id":440,"player_count":1,"max_players":24,"Bots":0,"server_type":"Dedicated","server_os":"Linux","password":true,"vac":true,"version":"7961495","steam_id":85568392924515188,"keywords":["cp","nocrits","nodmgspread","uncletopia"],"game_id":440,"stv_port":27046,"stv_name":"Uncletopia | Atlanta | 4 | Community | STV","players":[{"user_id":3389,"name":"Sweet Jesus","steam_id":76561198060068046,"connected_time":168000000000,"state":"connecting","ping":0}]},{"server_id":2,"name":"Uncletopia | Chicago | 1 | All Maps","name_short":"chi-1","host":"chi-1.us.uncletopia.com","port":27015,"enabled":true,"region":"us-central","cc":"us","latitude":41.881832,"longitude":-87.62318,"reserved":0,"last_update":"0001-01-01T00:00:00Z","name_a2s":"Uncletopia | Chicago | 1 | All Maps","protocol":17,"map":"pl_pier","folder":"tf","game":"Team Fortress","app_id":440,"player_count":24,"max_players":24,"Bots":0,"server_type":"Dedicated","server_os":"Linux","password":true,"vac":true,"version":"7961495","steam_id":85568392924469984,"keywords":["nocrits","nodmgspread","payload","uncletopia"],"game_id":440,"stv_port":27016,"stv_name":"Uncletopia | Chicago | 1 | All Maps | STV","players":[{"user_id":494,"name":"unalive_air","steam_id":76561199500246210,"connected_time":3483000000000,"state":"active","ping":67},{"user_id":506,"name":"blob","steam_id":76561198122375328,"connected_time":2987000000000,"state":"active","ping":56},{"user_id":519,"name":"swam","steam_id":76561198412916626,"connected_time":2065000000000,"state":"active","ping":75},{"user_id":533,"name":"._.","steam_id":76561198300316801,"connected_time":1156000000000,"state":"active","ping":56},{"user_id":523,"name":"H C N","steam_id":76561198106290021,"connected_time":1905000000000,"state":"active","ping":70},{"user_id":528,"name":"what","steam_id":76561198082336619,"connected_time":1627000000000,"state":"active","ping":83},{"user_id":539,"name":"Mix","steam_id":76561198835593895,"connected_time":370000000000,"state":"active","ping":71},{"user_id":537,"name":"Glaggleland Spokesperson :)))","steam_id":76561198396789061,"connected_time":927000000000,"state":"active","ping":86},{"user_id":534,"name":"FUSION","steam_id":76561197972659738,"connected_time":1133000000000,"state":"active","ping":55},{"user_id":526,"name":"Pizza McLizza","steam_id":76561198063540910,"connected_time":1782000000000,"state":"active","ping":70},{"user_id":515,"name":"je'mond","steam_id":76561198113990147,"connected_time":2256000000000,"state":"active","ping":90},{"user_id":536,"name":"roast pig with apple in mouth","steam_id":76561198051353647,"connected_time":1024000000000,"state":"active","ping":64},{"user_id":538,"name":"cadian guard drop engineer","steam_id":76561199104829802,"connected_time":917000000000,"state":"active","ping":119},{"user_id":524,"name":"TallBit","steam_id":76561199059748976,"connected_time":1884000000000,"state":"active","ping":59},{"user_id":532,"name":"leumas","steam_id":76561198240408540,"connected_time":1337000000000,"state":"active","ping":59},{"user_id":518,"name":"JtsRes","steam_id":76561197994809241,"connected_time":2222000000000,"state":"active","ping":63},{"user_id":511,"name":"Snom","steam_id":76561198333827920,"connected_time":2482000000000,"state":"active","ping":101},{"user_id":535,"name":"fear_the-penguins","steam_id":76561199013292217,"connected_time":1082000000000,"state":"active","ping":74},{"user_id":529,"name":"Wuncle Dumps","steam_id":76561198067167895,"connected_time":1512000000000,"state":"active","ping":67},{"user_id":527,"name":"Butters495","steam_id":76561197998689042,"connected_time":1762000000000,"state":"active","ping":77},{"user_id":531,"name":"Ms Twig","steam_id":76561198144111736,"connected_time":1484000000000,"state":"active","ping":55},{"user_id":480,"name":"nalezinik","steam_id":76561198030026119,"connected_time":5169000000000,"state":"active","ping":60},{"user_id":408,"name":"HOMIE","steam_id":76561198057325155,"connected_time":11084000000000,"state":"active","ping":64},{"user_id":492,"name":"Robot Rocker","steam_id":76561198050718267,"connected_time":3740000000000,"state":"active","ping":67}]},{"server_id":106,"name":"Uncletopia | Chicago | 2 | All Maps","name_short":"chi-2","host":"chi-1.us.uncletopia.com","port":27025,"enabled":true,"region":"us-central","cc":"us","latitude":41.881832,"longitude":-87.62318,"reserved":0,"last_update":"0001-01-01T00:00:00Z","name_a2s":"Uncletopia | Chicago | 2 | All Maps","protocol":17,"map":"pl_barnblitz","folder":"tf","game":"Team Fortress","app_id":440,"player_count":24,"max_players":24,"Bots":0,"server_type":"Dedicated","server_os":"Linux","password":true,"vac":true,"version":"7961495","steam_id":85568392924469985,"keywords":["nocrits","nodmgspread","payload","uncletopia"],"game_id":440,"stv_port":27026,"stv_name":"Uncletopia | Chicago | 2 | All Maps | STV","players":[{"user_id":171,"name":"D.E.O","steam_id":76561198096992957,"connected_time":3040000000000,"state":"active","ping":129},{"user_id":13,"name":"medd","steam_id":76561198078238722,"connected_time":14337000000000,"state":"active","ping":99},{"user_id":209,"name":"Squigly","steam_id":76561198084811625,"connected_time":755000000000,"state":"active","ping":73},{"user_id":162,"name":"PPFitzenreit","steam_id":76561199381005210,"connected_time":3637000000000,"state":"active","ping":81},{"user_id":160,"name":"-=Bits=-Dinkleberg","steam_id":76561198080367616,"connected_time":3768000000000,"state":"active","ping":70},{"user_id":177,"name":"Winter the Witchie","steam_id":76561198151971178,"connected_time":2292000000000,"state":"active","ping":59},{"user_id":142,"name":"Mer","steam_id":76561198192171041,"connected_time":5846000000000,"state":"active","ping":127},{"user_id":179,"name":"Dominias","steam_id":76561198259120452,"connected_time":2224000000000,"state":"active","ping":71},{"user_id":212,"name":"3ggsalad3","steam_id":76561199386969191,"connected_time":697000000000,"state":"active","ping":51},{"user_id":197,"name":"R‚ô°bert Leonard III","steam_id":76561197995560676,"connected_time":1385000000000,"state":"active","ping":75},{"user_id":163,"name":"Deluxe_Taco34","steam_id":76561199037653437,"connected_time":3634000000000,"state":"active","ping":110},{"user_id":215,"name":"nhbiker","steam_id":76561198081277675,"connected_time":479000000000,"state":"active","ping":59},{"user_id":159,"name":"Dr_Cecil","steam_id":76561198873862113,"connected_time":4127000000000,"state":"active","ping":151},{"user_id":216,"name":"Aggressive Pedestrian","steam_id":76561199229771413,"connected_time":71000000000,"state":"active","ping":60},{"user_id":210,"name":"ThatGamingKiwi","steam_id":76561199170522237,"connected_time":747000000000,"state":"active","ping":81},{"user_id":211,"name":"dirty30","steam_id":76561198021226566,"connected_time":719000000000,"state":"active","ping":97},{"user_id":208,"name":"Der Krieger105","steam_id":76561197978384609,"connected_time":772000000000,"state":"active","ping":86},{"user_id":174,"name":"Jerk Tryhard (roleplay)","steam_id":76561199470538309,"connected_time":2625000000000,"state":"active","ping":60},{"user_id":183,"name":"yELLow","steam_id":76561198178488195,"connected_time":2181000000000,"state":"active","ping":69},{"user_id":202,"name":"CoconutRice","steam_id":76561198114909164,"connected_time":907000000000,"state":"active","ping":52},{"user_id":185,"name":"Tlord","steam_id":76561198086967416,"connected_time":2141000000000,"state":"active","ping":57},{"user_id":206,"name":"Migute","steam_id":76561198332012726,"connected_time":788000000000,"state":"active","ping":85},{"user_id":194,"name":"What's My Age Again?","steam_id":76561198035304483,"connected_time":1597000000000,"state":"active","ping":48},{"user_id":191,"name":"leesh","steam_id":76561198079603938,"connected_time":1920000000000,"state":"active","ping":63}]},{"server_id":402,"name":"Uncletopia | Chicago | 3 | All Maps","name_short":"chi-3","host":"chi-1.us.uncletopia.com","port":27035,"enabled":true,"region":"us-central","cc":"us","latitude":41.881832,"longitude":-87.62318,"reserved":0,"last_update":"0001-01-01T00:00:00Z","name_a2s":"Uncletopia | Chicago | 3 | All Maps","protocol":17,"map":"koth_nucleus","folder":"tf","game":"Team Fortress","app_id":440,"player_count":23,"max_players":24,"Bots":0,"server_type":"Dedicated","server_os":"Linux","password":true,"vac":true,"version":"7961495","steam_id":85568392924515191,"keywords":["cp","nocrits","nodmgspread","uncletopia"],"game_id":440,"stv_port":27036,"stv_name":"Uncletopia | Chicago | 3 | All Maps | STV","players":[{"user_id":450,"name":"Lae","steam_id":76561198185527278,"connected_time":1033000000000,"state":"active","ping":82},{"user_id":468,"name":"Chicken","steam_id":76561198855273194,"connected_time":283000000000,"state":"active","ping":55},{"user_id":463,"name":"corned beef","steam_id":76561199366782761,"connected_time":764000000000,"state":"active","ping":156},{"user_id":464,"name":"Lead Licker","steam_id":76561198162668339,"connected_time":371000000000,"state":"active","ping":72},{"user_id":472,"name":"Mengle","steam_id":76561198001953684,"connected_time":52000000000,"state":"active","ping":58},{"user_id":449,"name":"Anne of Green Gables","steam_id":76561197997405111,"connected_time":1235000000000,"state":"active","ping":84},{"user_id":460,"name":"Legit_Jaxer","steam_id":76561198172234053,"connected_time":779000000000,"state":"active","ping":130},{"user_id":427,"name":"Wild_Rumpus","steam_id":76561198066393719,"connected_time":2873000000000,"state":"active","ping":55},{"user_id":432,"name":"‚ù§Ô∏èShady","steam_id":76561198125947844,"connected_time":2476000000000,"state":"active","ping":89},{"user_id":469,"name":"Terminal Brain Rot","steam_id":76561198112594672,"connected_time":272000000000,"state":"active","ping":67},{"user_id":461,"name":"menonamed","steam_id":76561198199564382,"connected_time":778000000000,"state":"active","ping":73},{"user_id":444,"name":"JHLO","steam_id":76561198074359967,"connected_time":1461000000000,"state":"active","ping":72},{"user_id":465,"name":"Jimjonjoe","steam_id":76561199195695913,"connected_time":350000000000,"state":"active","ping":68},{"user_id":466,"name":"CabezaGrande","steam_id":76561197972555502,"connected_time":347000000000,"state":"active","ping":76},{"user_id":470,"name":"log","steam_id":76561198386992717,"connected_time":131000000000,"state":"active","ping":69},{"user_id":471,"name":"Bear Nuts","steam_id":76561198257083599,"connected_time":125000000000,"state":"active","ping":50},{"user_id":411,"name":"seemquell","steam_id":76561199003380346,"connected_time":3585000000000,"state":"active","ping":57},{"user_id":414,"name":"Red","steam_id":76561198800066692,"connected_time":3565000000000,"state":"active","ping":64},{"user_id":433,"name":"bane","steam_id":76561198196769297,"connected_time":2475000000000,"state":"active","ping":53},{"user_id":417,"name":"dfox","steam_id":76561198079199051,"connected_time":3497000000000,"state":"active","ping":75},{"user_id":457,"name":"GreatTimBones","steam_id":76561198409145748,"connected_time":824000000000,"state":"active","ping":84},{"user_id":446,"name":"DrBadAim","steam_id":76561198382369742,"connected_time":1398000000000,"state":"active","ping":62},{"user_id":467,"name":"Mad Rex512","steam_id":76561198193533117,"connected_time":347000000000,"state":"active","ping":51}]},{"server_id":403,"name":"Uncletopia | Chicago | 4 | All Maps","name_short":"chi-4","host":"chi-1.us.uncletopia.com","port":27045,"enabled":true,"region":"us-central","cc":"us","latitude":41.881832,"longitude":-87.62318,"reserved":0,"last_update":"0001-01-01T00:00:00Z","name_a2s":"Uncletopia | Chicago | 4 | All Maps","protocol":17,"map":"cp_sunshine","folder":"tf","game":"Team Fortress","app_id":440,"player_count":24,"max_players":24,"Bots":0,"server_type":"Dedicated","server_os":"Linux","password":true,"vac":true,"version":"7961495","steam_id":85568392924515193,"keywords":["cp","nocrits","nodmgspread","uncletopia"],"game_id":440,"stv_port":27046,"stv_name":"Uncletopia | Chicago | 4 | All Maps | STV","players":[{"user_id":324,"name":"Strangelove","steam_id":76561198353773611,"connected_time":1430000000000,"state":"active","ping":82},{"user_id":345,"name":"Monterfart","steam_id":76561198125034271,"connected_time":306000000000,"state":"active","ping":68},{"user_id":302,"name":"warren","steam_id":76561198136331136,"connected_time":3416000000000,"state":"active","ping":76},{"user_id":343,"name":"Railnation2005","steam_id":76561198189330642,"connected_time":584000000000,"state":"active","ping":105},{"user_id":342,"name":"{ null }","steam_id":76561197960366877,"connected_time":767000000000,"state":"active","ping":54},{"user_id":313,"name":"BigPapaBrogan","steam_id":76561199012814165,"connected_time":2774000000000,"state":"active","ping":85},{"user_id":306,"name":"ZeroFour","steam_id":76561198209641323,"connected_time":2960000000000,"state":"active","ping":55},{"user_id":169,"name":"D(b) Hell","steam_id":76561198067869016,"connected_time":12403000000000,"state":"active","ping":44},{"user_id":323,"name":"GMFD! Juustin","steam_id":76561198121922413,"connected_time":1446000000000,"state":"active","ping":104},{"user_id":334,"name":"Spartaguy","steam_id":76561198128789957,"connected_time":1043000000000,"state":"active","ping":59},{"user_id":159,"name":"Schizoid Despot","steam_id":76561198141902905,"connected_time":12798000000000,"state":"active","ping":61},{"user_id":280,"name":"[NAME-REDACTED]","steam_id":76561198035682975,"connected_time":4702000000000,"state":"active","ping":68},{"user_id":347,"name":"Headshotsnake","steam_id":76561198067130248,"connected_time":176000000000,"state":"active","ping":61},{"user_id":261,"name":"mild mannered mystery man","steam_id":76561198072095399,"connected_time":6976000000000,"state":"active","ping":47},{"user_id":341,"name":"SpongedSocks","steam_id":76561198374009086,"connected_time":873000000000,"state":"active","ping":68},{"user_id":329,"name":"THE CUMEST LORD","steam_id":76561198061412592,"connected_time":1179000000000,"state":"active","ping":71},{"user_id":332,"name":"Captain Demytri","steam_id":76561198097998607,"connected_time":1109000000000,"state":"active","ping":46},{"user_id":308,"name":"Duke Skywalker","steam_id":76561199231296521,"connected_time":2938000000000,"state":"active","ping":72},{"user_id":344,"name":"jan kili","steam_id":76561198289894834,"connected_time":513000000000,"state":"active","ping":100},{"user_id":312,"name":"BL√òRG","steam_id":76561198036126673,"connected_time":2885000000000,"state":"active","ping":82},{"user_id":351,"name":"Nyle","steam_id":76561198045652639,"connected_time":48000000000,"state":"active","ping":133},{"user_id":325,"name":"Not a Russian","steam_id":76561198880311217,"connected_time":1394000000000,"state":"active","ping":71},{"user_id":309,"name":"NUt","steam_id":76561198031007966,"connected_time":2931000000000,"state":"active","ping":67},{"user_id":346,"name":"Dongus","steam_id":76561197979056451,"connected_time":300000000000,"state":"active","ping":91}]},{"server_id":36,"name":"Uncletopia | Chicago | 5 | All Maps","name_short":"chi-5","host":"chi-2.us.uncletopia.com","port":27015,"enabled":true,"region":"us-central","cc":"us","latitude":41.881832,"longitude":-87.62318,"reserved":0,"last_update":"0001-01-01T00:00:00Z","name_a2s":"Uncletopia | Chicago | 5 | All Maps","protocol":17,"map":"pl_pier","folder":"tf","game":"Team Fortress","app_id":440,"player_count":24,"max_players":24,"Bots":0,"server_type":"Dedicated","server_os":"Linux","password":true,"vac":true,"version":"7961495","steam_id":85568392924866362,"keywords":["nocrits","nodmgspread","payload","uncletopia"],"game_id":440,"stv_port":27016,"stv_name":"Uncletopia | Chicago | 5 | All Maps | STV","players":[{"user_id":102,"name":"Haveltherock27","steam_id":76561199219844391,"connected_time":2378000000000,"state":"active","ping":79},{"user_id":103,"name":"ƒê√Ø…ê»ê…π…¶…Üa","steam_id":76561198981411945,"connected_time":2272000000000,"state":"active","ping":94},{"user_id":109,"name":"THE LAW","steam_id":76561198085700801,"connected_time":1714000000000,"state":"active","ping":70},{"user_id":105,"name":"SadDragonMan","steam_id":76561198358280010,"connected_time":1950000000000,"state":"active","ping":73},{"user_id":107,"name":"dnasty","steam_id":76561199060575719,"connected_time":1781000000000,"state":"active","ping":99},{"user_id":108,"name":"wheresgeorge","steam_id":76561198986281248,"connected_time":1776000000000,"state":"active","ping":76},{"user_id":110,"name":"LegendaireNic","steam_id":76561198211753861,"connected_time":1651000000000,"state":"active","ping":65},{"user_id":136,"name":"ahab","steam_id":76561198211780469,"connected_time":575000000000,"state":"active","ping":35},{"user_id":112,"name":"Tomfoolery","steam_id":76561199260306425,"connected_time":1588000000000,"state":"active","ping":119},{"user_id":113,"name":"uhooter","steam_id":76561198007829078,"connected_time":1571000000000,"state":"active","ping":56},{"user_id":114,"name":"Sud","steam_id":76561199102300588,"connected_time":1514000000000,"state":"active","ping":118},{"user_id":132,"name":"brotalium","steam_id":76561198055439054,"connected_time":1276000000000,"state":"active","ping":80},{"user_id":137,"name":"Lilith","steam_id":76561198125102885,"connected_time":286000000000,"state":"active","ping":70},{"user_id":116,"name":"Nooper_96","steam_id":76561199454809640,"connected_time":1461000000000,"state":"active","ping":79},{"user_id":138,"name":"SiltyStar85","steam_id":76561198309175923,"connected_time":128000000000,"state":"active","ping":104},{"user_id":118,"name":"Buttons :)","steam_id":76561198139478534,"connected_time":1437000000000,"state":"active","ping":122},{"user_id":77,"name":"MrKokonut","steam_id":76561198879575825,"connected_time":3547000000000,"state":"active","ping":65},{"user_id":134,"name":"Gloiben Glubula","steam_id":76561198045441307,"connected_time":1049000000000,"state":"active","ping":78},{"user_id":121,"name":"ChilliBean Avenger","steam_id":76561197986896464,"connected_time":1404000000000,"state":"active","ping":101},{"user_id":130,"name":"oopsboom24","steam_id":76561199105248648,"connected_time":1302000000000,"state":"active","ping":103},{"user_id":135,"name":"car crash compilation #34","steam_id":76561198042773724,"connected_time":908000000000,"state":"active","ping":102},{"user_id":131,"name":"JellyParrot","steam_id":76561199190990163,"connected_time":1300000000000,"state":"active","ping":70},{"user_id":128,"name":"guappodiablo2","steam_id":76561198132087785,"connected_time":1333000000000,"state":"active","ping":69},{"user_id":126,"name":"Yogenfruz","steam_id":76561198039460264,"connected_time":1378000000000,"state":"active","ping":88}]},{"server_id":37,"name":"Uncletopia | Chicago | 6 | All Maps","name_short":"chi-6","host":"chi-2.us.uncletopia.com","port":27025,"enabled":true,"region":"us-central","cc":"us","latitude":41.881832,"longitude":-87.62318,"reserved":0,"last_update":"0001-01-01T00:00:00Z","name_a2s":"Uncletopia | Chicago | 6 | All Maps","protocol":17,"map":"pl_snowycoast","folder":"tf","game":"Team Fortress","app_id":440,"player_count":24,"max_players":24,"Bots":0,"server_type":"Dedicated","server_os":"Linux","password":true,"vac":true,"version":"7961495","steam_id":85568392924866363,"keywords":["nocrits","nodmgspread","payload","uncletopia"],"game_id":440,"stv_port":27026,"stv_name":"Uncletopia | Chicago | 6 | All Maps | STV","players":[{"user_id":132,"name":"stealthy","steam_id":76561198071386492,"connected_time":2000000000,"state":"spawning","ping":47},{"user_id":126,"name":"Sicko Mode (Chris Pratt Cover)","steam_id":76561198315786174,"connected_time":592000000000,"state":"active","ping":69},{"user_id":109,"name":"Kyle","steam_id":76561198053855881,"connected_time":2054000000000,"state":"active","ping":69},{"user_id":121,"name":"David Deluise School of Acting","steam_id":76561198062360755,"connected_time":994000000000,"state":"active","ping":50},{"user_id":58,"name":"American Dad","steam_id":76561198059711448,"connected_time":5641000000000,"state":"active","ping":75},{"user_id":111,"name":"LittleFieryOne","steam_id":76561198107463724,"connected_time":1976000000000,"state":"active","ping":58},{"user_id":106,"name":"ind","steam_id":76561198834358497,"connected_time":2172000000000,"state":"active","ping":83},{"user_id":130,"name":"Major Coom","steam_id":76561198038371512,"connected_time":55000000000,"state":"active","ping":91},{"user_id":113,"name":"Servaos","steam_id":76561198113244990,"connected_time":1892000000000,"state":"active","ping":64},{"user_id":114,"name":"ManHandledLemons","steam_id":76561198119547375,"connected_time":1880000000000,"state":"active","ping":56},{"user_id":115,"name":"ark","steam_id":76561198041066271,"connected_time":1879000000000,"state":"active","ping":77},{"user_id":116,"name":"bonk man","steam_id":76561198386542309,"connected_time":1855000000000,"state":"active","ping":94},{"user_id":73,"name":"fakeness","steam_id":76561198018811206,"connected_time":4530000000000,"state":"active","ping":80},{"user_id":92,"name":"sooley","steam_id":76561198134500189,"connected_time":2913000000000,"state":"active","ping":45},{"user_id":100,"name":"Goomba gaming","steam_id":76561199470354045,"connected_time":2498000000000,"state":"active","ping":122},{"user_id":117,"name":"menace","steam_id":76561198319142233,"connected_time":1854000000000,"state":"active","ping":47},{"user_id":125,"name":"bumrusherz","steam_id":76561198440658195,"connected_time":641000000000,"state":"active","ping":80},{"user_id":122,"name":"Missing Minus","steam_id":76561198120822928,"connected_time":990000000000,"state":"active","ping":60},{"user_id":131,"name":"oppenheimer style","steam_id":76561198026664629,"connected_time":23000000000,"state":"active","ping":59},{"user_id":62,"name":"IAmAProfesonal","steam_id":76561199171858953,"connected_time":5500000000000,"state":"active","ping":42},{"user_id":63,"name":"wewos","steam_id":76561198243965308,"connected_time":5282000000000,"state":"active","ping":81},{"user_id":55,"name":"sooty","steam_id":76561198830243167,"connected_time":6343000000000,"state":"active","ping":75},{"user_id":118,"name":"B.","steam_id":76561198040445907,"connected_time":1836000000000,"state":"active","ping":75},{"user_id":68,"name":"playguy carter","steam_id":76561198080679337,"connected_time":4641000000000,"state":"active","ping":60}]},{"server_id":38,"name":"Uncletopia | Chicago | 7 | Stopwatch","name_short":"chi-7","host":"chi-2.us.uncletopia.com","port":27035,"enabled":true,"region":"us-central","cc":"us","latitude":41.881832,"longitude":-87.62318,"reserved":0,"last_update":"0001-01-01T00:00:00Z","name_a2s":"Uncletopia | Chicago | 7 | Stopwatch","protocol":17,"map":"cp_metalworks","folder":"tf","game":"Team Fortress","app_id":440,"player_count":0,"max_players":24,"Bots":0,"server_type":"Dedicated","server_os":"Linux","password":true,"vac":true,"version":"7961495","steam_id":85568392924866364,"keywords":["cp","nocrits","nodmgspread","uncletopia"],"game_id":440,"stv_port":27036,"stv_name":"Uncletopia | Chicago | 7 | Stopwatch | STV","players":null},{"server_id":39,"name":"Uncletopia | Chicago | 8 | Community","name_short":"chi-8","host":"chi-2.us.uncletopia.com","port":27045,"enabled":true,"region":"us-central","cc":"us","latitude":41.881832,"longitude":-87.62318,"reserved":0,"last_update":"0001-01-01T00:00:00Z","name_a2s":"Uncletopia | Chicago | 8 | Community","protocol":17,"map":"workshop/cp_indulge.ugc528106646","folder":"tf","game":"Team Fortress","app_id":440,"player_count":0,"max_players":24,"Bots":0,"server_type":"Dedicated","server_os":"Linux","password":true,"vac":true,"version":"7961495","steam_id":85568392924866365,"keywords":["cp","nocrits","nodmgspread","uncletopia"],"game_id":440,"stv_port":27046,"stv_name":"Uncletopia | Chicago | 8 | Community | STV","players":null},{"server_id":8,"name":"Uncletopia | Dallas | 1 | All Maps","name_short":"dal-1","host":"dal-1.us.uncletopia.com","port":27015,"enabled":true,"region":"us-central","cc":"us","latitude":32.779167,"longitude":-96.80889,"reserved":0,"last_update":"0001-01-01T00:00:00Z","name_a2s":"Uncletopia | Dallas | 1 | All Maps","protocol":17,"map":"cp_process_final","folder":"tf","game":"Team Fortress","app_id":440,"player_count":22,"max_players":24,"Bots":0,"server_type":"Dedicated","server_os":"Linux","password":true,"vac":true,"version":"7961495","steam_id":85568392924469986,"keywords":["cp","nocrits","nodmgspread","uncletopia"],"game_id":440,"stv_port":27016,"stv_name":"Uncletopia | Dallas | 1 | All Maps | STV","players":[{"user_id":259,"name":"jeff","steam_id":76561198059450566,"connected_time":1135000000000,"state":"active","ping":90},{"user_id":270,"name":"yes","steam_id":76561199226277457,"connected_time":636000000000,"state":"active","ping":55},{"user_id":272,"name":"PowerGem3000","steam_id":76561198944644691,"connected_time":598000000000,"state":"active","ping":83},{"user_id":251,"name":"Muffin","steam_id":76561198209987299,"connected_time":1388000000000,"state":"active","ping":152},{"user_id":246,"name":"Darling","steam_id":76561198127525888,"connected_time":1434000000000,"state":"active","ping":45},{"user_id":262,"name":"Pan Wizard","steam_id":76561198031939694,"connected_time":990000000000,"state":"active","ping":91},{"user_id":275,"name":"jake.watson1","steam_id":76561198101522470,"connected_time":173000000000,"state":"active","ping":87},{"user_id":202,"name":"Titar Industries","steam_id":76561198143078476,"connected_time":5213000000000,"state":"active","ping":86},{"user_id":258,"name":"‚ô©Karma‚ô©","steam_id":76561199453410299,"connected_time":1144000000000,"state":"active","ping":87},{"user_id":260,"name":"Crazy Insane Proboscis Monkey","steam_id":76561198061011176,"connected_time":1133000000000,"state":"active","ping":91},{"user_id":228,"name":"copium","steam_id":76561198870453115,"connected_time":2780000000000,"state":"active","ping":82},{"user_id":185,"name":"conner","steam_id":76561198052911241,"connected_time":6738000000000,"state":"active","ping":91},{"user_id":253,"name":"Stoat","steam_id":76561199110723156,"connected_time":1369000000000,"state":"active","ping":95},{"user_id":201,"name":"Koffy","steam_id":76561198184386039,"connected_time":5623000000000,"state":"active","ping":70},{"user_id":254,"name":"Voltaire!","steam_id":76561198047528141,"connected_time":1365000000000,"state":"active","ping":83},{"user_id":227,"name":"THRONGLER","steam_id":76561198198563466,"connected_time":3133000000000,"state":"active","ping":42},{"user_id":212,"name":"HÃ∑ÃãÃîÃúÕîIÃ∏ÕäÃ±ÃòMÃµÃÖÃÖÃúÃº","steam_id":76561199186496740,"connected_time":4945000000000,"state":"active","ping":110},{"user_id":223,"name":"Squids023","steam_id":76561199013031576,"connected_time":3868000000000,"state":"active","ping":111},{"user_id":276,"name":"otw way to mars off the bars","steam_id":76561199085974120,"connected_time":48000000000,"state":"active","ping":85},{"user_id":273,"name":"Fu Qian Qian","steam_id":76561199081837220,"connected_time":557000000000,"state":"active","ping":70},{"user_id":271,"name":"HalfDead","steam_id":76561198049700226,"connected_time":630000000000,"state":"active","ping":102},{"user_id":236,"name":"JuanPonchoGringo‚Ñ¢","steam_id":76561198038046899,"connected_time":2498000000000,"state":"active","ping":85}]},{"server_id":108,"name":"Uncletopia | Dallas | 2 | All Maps","name_short":"dal-2","host":"dal-1.us.uncletopia.com","port":27025,"enabled":true,"region":"us-central","cc":"us","latitude":32.779167,"longitude":-96.80889,"reserved":0,"last_update":"0001-01-01T00:00:00Z","name_a2s":"Uncletopia | Dallas | 2 | All Maps","protocol":17,"map":"cp_mountainlab","folder":"tf","game":"Team Fortress","app_id":440,"player_count":23,"max_players":24,"Bots":0,"server_type":"Dedicated","server_os":"Linux","password":true,"vac":true,"version":"7961495","steam_id":85568392924469988,"keywords":["cp","nocrits","nodmgspread","uncletopia"],"game_id":440,"stv_port":27026,"stv_name":"Uncletopia | Dallas | 2 | All Maps | STV","players":[{"user_id":319,"name":"pablo","steam_id":76561199182194253,"connected_time":837000000000,"state":"active","ping":119},{"user_id":328,"name":"SmugCoffeeMan","steam_id":76561198040765030,"connected_time":122000000000,"state":"active","ping":61},{"user_id":290,"name":"2JZ_","steam_id":76561198064027289,"connected_time":2342000000000,"state":"active","ping":77},{"user_id":322,"name":"npc energy","steam_id":76561198035342207,"connected_time":551000000000,"state":"active","ping":54},{"user_id":329,"name":"-W3E- grim10465","steam_id":76561198045698581,"connected_time":94000000000,"state":"active","ping":75},{"user_id":291,"name":"Quick-Fix","steam_id":76561198295501978,"connected_time":2262000000000,"state":"active","ping":55},{"user_id":297,"name":"Dryruins","steam_id":76561198927146689,"connected_time":1854000000000,"state":"active","ping":99},{"user_id":308,"name":"Jack \"Hee Ho\" Frost","steam_id":76561198353395198,"connected_time":1233000000000,"state":"active","ping":83},{"user_id":321,"name":"Alkimia","steam_id":76561198385763137,"connected_time":622000000000,"state":"active","ping":124},{"user_id":315,"name":"Stealthguy724","steam_id":76561198195961430,"connected_time":1156000000000,"state":"active","ping":94},{"user_id":271,"name":"Limoki","steam_id":76561198416803878,"connected_time":2826000000000,"state":"active","ping":45},{"user_id":324,"name":"Toasterduds","steam_id":76561198163477584,"connected_time":397000000000,"state":"active","ping":84},{"user_id":310,"name":"Admiral Orangutan","steam_id":76561198382763119,"connected_time":1206000000000,"state":"active","ping":118},{"user_id":299,"name":"Insizhen","steam_id":76561198051352605,"connected_time":1655000000000,"state":"active","ping":56},{"user_id":316,"name":"artichoke","steam_id":76561198980994364,"connected_time":1105000000000,"state":"active","ping":106},{"user_id":330,"name":"Matches_                       ","steam_id":76561198048925904,"connected_time":16000000000,"state":"active","ping":86},{"user_id":312,"name":"fast","steam_id":76561199199975880,"connected_time":1178000000000,"state":"active","ping":48},{"user_id":278,"name":"Rock Kickass","steam_id":76561198450510841,"connected_time":2675000000000,"state":"active","ping":106},{"user_id":320,"name":"Excalibrine","steam_id":76561198129312118,"connected_time":826000000000,"state":"active","ping":93},{"user_id":323,"name":"Shabooyaroll-call","steam_id":76561198112306237,"connected_time":506000000000,"state":"active","ping":85},{"user_id":318,"name":"clanker","steam_id":76561198880773196,"connected_time":848000000000,"state":"active","ping":126},{"user_id":293,"name":"VicLoL","steam_id":76561198045580784,"connected_time":2183000000000,"state":"active","ping":87},{"user_id":313,"name":"Pasta La Vista","steam_id":76561198129450033,"connected_time":1175000000000,"state":"active","ping":69}]},{"server_id":404,"name":"Uncletopia | Dallas | 3 | All Maps","name_short":"dal-3","host":"dal-1.us.uncletopia.com","port":27035,"enabled":true,"region":"us-central","cc":"us","latitude":32.779167,"longitude":-96.80889,"reserved":0,"last_update":"0001-01-01T00:00:00Z","name_a2s":"Uncletopia | Dallas | 3 | All Maps","protocol":17,"map":"koth_lakeside_final","folder":"tf","game":"Team Fortress","app_id":440,"player_count":23,"max_players":24,"Bots":0,"server_type":"Dedicated","server_os":"Linux","password":true,"vac":true,"version":"7961495","steam_id":85568392924515219,"keywords":["cp","nocrits","nodmgspread","uncletopia"],"game_id":440,"stv_port":27036,"stv_name":"Uncletopia | Dallas | 3 | All Maps | STV","players":[{"user_id":412,"name":"Mr.President","steam_id":76561198971144834,"connected_time":573000000000,"state":"active","ping":65},{"user_id":410,"name":"Magnet Dood","steam_id":76561198364178746,"connected_time":593000000000,"state":"active","ping":85},{"user_id":394,"name":"kool_aids3","steam_id":76561198314435679,"connected_time":1550000000000,"state":"active","ping":84},{"user_id":415,"name":"Scrumpy Main","steam_id":76561198146302597,"connected_time":247000000000,"state":"active","ping":88},{"user_id":403,"name":"MrBurgerItHere","steam_id":76561198902777035,"connected_time":846000000000,"state":"active","ping":85},{"user_id":405,"name":"beats I'll do it over again","steam_id":76561199245717718,"connected_time":751000000000,"state":"active","ping":83},{"user_id":383,"name":"get scrongled, idiot","steam_id":76561198115874625,"connected_time":1800000000000,"state":"active","ping":94},{"user_id":399,"name":".Sizzle","steam_id":76561198163266519,"connected_time":1090000000000,"state":"active","ping":161},{"user_id":384,"name":"Raz","steam_id":76561198002426150,"connected_time":1739000000000,"state":"active","ping":45},{"user_id":408,"name":"reymundo","steam_id":76561197989412830,"connected_time":645000000000,"state":"active","ping":89},{"user_id":397,"name":"eryn üó∫","steam_id":76561198004433070,"connected_time":1219000000000,"state":"active","ping":56},{"user_id":401,"name":"Peppino Pizza Tower","steam_id":76561198046502179,"connected_time":975000000000,"state":"active","ping":74},{"user_id":407,"name":"Cardboxboard","steam_id":76561198309483806,"connected_time":686000000000,"state":"active","ping":70},{"user_id":362,"name":"Thequirka","steam_id":76561198968058652,"connected_time":3000000000000,"state":"active","ping":107},{"user_id":363,"name":"whorgampus","steam_id":76561198043610132,"connected_time":2993000000000,"state":"active","ping":74},{"user_id":378,"name":"tf2player001","steam_id":76561199497314797,"connected_time":2535000000000,"state":"active","ping":122},{"user_id":411,"name":"squid game","steam_id":76561199248960166,"connected_time":586000000000,"state":"active","ping":86},{"user_id":387,"name":"penzfan","steam_id":76561198230422640,"connected_time":1710000000000,"state":"active","ping":77},{"user_id":368,"name":"Liebestr√§ume","steam_id":76561198038862034,"connected_time":2933000000000,"state":"active","ping":69},{"user_id":398,"name":"framp down","steam_id":76561198006316527,"connected_time":1126000000000,"state":"active","ping":82},{"user_id":413,"name":"Í∞ÄÏßú ÌïúÍµ≠Ïù∏","steam_id":76561198092135570,"connected_time":573000000000,"state":"active","ping":45},{"user_id":402,"name":"Alchemist","steam_id":76561198094238189,"connected_time":950000000000,"state":"active","ping":72},{"user_id":373,"name":"Ockulus","steam_id":76561199069638460,"connected_time":2849000000000,"state":"active","ping":87}]},{"server_id":405,"name":"Uncletopia | Dallas | 4 | Community","name_short":"dal-4","host":"dal-1.us.uncletopia.com","port":27045,"enabled":true,"region":"us-central","cc":"us","latitude":32.779167,"longitude":-96.80889,"reserved":0,"last_update":"0001-01-01T00:00:00Z","name_a2s":"Uncletopia | Dallas | 4 | Community","protocol":17,"map":"workshop/cp_bruhstbowl_b6.ugc2878604990","folder":"tf","game":"Team Fortress","app_id":440,"player_count":19,"max_players":24,"Bots":0,"server_type":"Dedicated","server_os":"Linux","password":true,"vac":true,"version":"7961495","steam_id":85568392924515220,"keywords":["cp","nocrits","nodmgspread","uncletopia"],"game_id":440,"stv_port":27046,"stv_name":"Uncletopia | Dallas | 4 | Community | STV","players":[{"user_id":136,"name":"Smoky Haus","steam_id":76561199040586542,"connected_time":1558000000000,"state":"active","ping":94},{"user_id":141,"name":"gulch","steam_id":76561199227946025,"connected_time":1145000000000,"state":"active","ping":71},{"user_id":171,"name":"‚ú©Boski‚ú©","steam_id":76561197999945008,"connected_time":126000000000,"state":"active","ping":86},{"user_id":129,"name":"Yeti","steam_id":76561199226373771,"connected_time":2081000000000,"state":"active","ping":44},{"user_id":172,"name":"Andrew","steam_id":76561198070615190,"connected_time":54000000000,"state":"active","ping":104},{"user_id":162,"name":"CompactedOhio21","steam_id":76561198283196939,"connected_time":295000000000,"state":"active","ping":47},{"user_id":163,"name":"Watt","steam_id":76561198083798206,"connected_time":253000000000,"state":"active","ping":129},{"user_id":164,"name":"‚òºBarracuda‚òº","steam_id":76561198013022083,"connected_time":249000000000,"state":"active","ping":55},{"user_id":148,"name":"The Real Slim Shady (fake)","steam_id":76561199387631760,"connected_time":706000000000,"state":"active","ping":86},{"user_id":159,"name":"DusterDan35","steam_id":76561198309129093,"connected_time":398000000000,"state":"active","ping":105},{"user_id":165,"name":"‚õß1-800-INN-KEEP‚õß","steam_id":76561198012055277,"connected_time":229000000000,"state":"active","ping":87},{"user_id":173,"name":"Clubs","steam_id":76561198059235131,"connected_time":44000000000,"state":"active","ping":129},{"user_id":155,"name":"Snivy64","steam_id":76561198423445376,"connected_time":508000000000,"state":"active","ping":71},{"user_id":168,"name":"King Cotton","steam_id":76561198292444376,"connected_time":167000000000,"state":"active","ping":70},{"user_id":170,"name":"Viennetta","steam_id":76561198044088335,"connected_time":141000000000,"state":"active","ping":103},{"user_id":160,"name":"Ch4rl33","steam_id":76561198037008621,"connected_time":346000000000,"state":"active","ping":72},{"user_id":169,"name":"thai","steam_id":76561198052462287,"connected_time":166000000000,"state":"active","ping":90},{"user_id":66,"name":"fregley","steam_id":76561198060070002,"connected_time":7024000000000,"state":"active","ping":60},{"user_id":68,"name":"Manny Heffley","steam_id":76561198135137213,"connected_time":6948000000000,"state":"active","ping":46}]},{"server_id":5,"name":"Uncletopia | Frankfurt | 1 | All Maps","name_short":"frk-1","host":"frk-1.de.uncletopia.com","port":27015,"enabled":true,"region":"eu","cc":"de","latitude":50.110924,"longitude":8.682127,"reserved":0,"last_update":"0001-01-01T00:00:00Z","name_a2s":"Uncletopia | Frankfurt | 1 | All Maps","protocol":17,"map":"pl_thundermountain","folder":"tf","game":"Team Fortress","app_id":440,"player_count":22,"max_players":24,"Bots":0,"server_type":"Dedicated","server_os":"Linux","password":true,"vac":true,"version":"7961495","steam_id":85568392924469989,"keywords":["nocrits","nodmgspread","payload","uncletopia"],"game_id":440,"stv_port":27016,"stv_name":"Uncletopia | Frankfurt | 1 | All Maps | STV","players":[{"user_id":941,"name":"Fu Manchu","steam_id":76561197995224539,"connected_time":5463000000000,"state":"active","ping":77},{"user_id":998,"name":"Odinmuninn99","steam_id":76561198393712705,"connected_time":963000000000,"state":"active","ping":106},{"user_id":995,"name":"random_player691","steam_id":76561199209946306,"connected_time":1119000000000,"state":"active","ping":68},{"user_id":1007,"name":"swallowed 10 pennies please hel","steam_id":76561198055816412,"connected_time":100000000000,"state":"active","ping":59},{"user_id":967,"name":"MR BUBBLES","steam_id":76561198019005259,"connected_time":3444000000000,"state":"active","ping":96},{"user_id":978,"name":"joachym","steam_id":76561198428579761,"connected_time":2659000000000,"state":"active","ping":55},{"user_id":1000,"name":"Sodsboy","steam_id":76561198030482006,"connected_time":734000000000,"state":"active","ping":52},{"user_id":968,"name":"agent_richi","steam_id":76561199218542987,"connected_time":3440000000000,"state":"active","ping":48},{"user_id":990,"name":"shakebell","steam_id":76561197970795094,"connected_time":1574000000000,"state":"active","ping":70},{"user_id":999,"name":"\u003e\u003c\u003e","steam_id":76561198152392309,"connected_time":892000000000,"state":"active","ping":44},{"user_id":964,"name":"Nuuskis","steam_id":76561198084042012,"connected_time":3824000000000,"state":"active","ping":87},{"user_id":971,"name":"frutta","steam_id":76561198131786352,"connected_time":3382000000000,"state":"active","ping":86},{"user_id":975,"name":"TheDeath","steam_id":76561198265038954,"connected_time":3132000000000,"state":"active","ping":65},{"user_id":947,"name":"pardner","steam_id":76561198451471161,"connected_time":4922000000000,"state":"active","ping":64},{"user_id":983,"name":"filthy","steam_id":76561198089069719,"connected_time":2283000000000,"state":"active","ping":72},{"user_id":961,"name":"Coke Zero","steam_id":76561198158562873,"connected_time":4025000000000,"state":"active","ping":59},{"user_id":1001,"name":".Aq","steam_id":76561198043376092,"connected_time":729000000000,"state":"active","ping":94},{"user_id":1002,"name":"[DOVA] Oh Don Piano","steam_id":76561198301788106,"connected_time":586000000000,"state":"active","ping":83},{"user_id":1004,"name":"direct","steam_id":76561198300798948,"connected_time":425000000000,"state":"active","ping":73},{"user_id":935,"name":"Dr. Jabbinton","steam_id":76561198180007387,"connected_time":5749000000000,"state":"active","ping":45},{"user_id":992,"name":"selzic ‚òÖ","steam_id":76561198068100717,"connected_time":1566000000000,"state":"active","ping":53},{"user_id":853,"name":"Syll","steam_id":76561198040736202,"connected_time":11513000000000,"state":"active","ping":89}]},{"server_id":110,"name":"Uncletopia | Frankfurt | 2 | All Maps","name_short":"frk-2","host":"frk-1.de.uncletopia.com","port":27025,"enabled":true,"region":"eu","cc":"de","latitude":50.110924,"longitude":8.682127,"reserved":0,"last_update":"0001-01-01T00:00:00Z","name_a2s":"Uncletopia | Frankfurt | 2 | All Maps","protocol":17,"map":"koth_viaduct","folder":"tf","game":"Team Fortress","app_id":440,"player_count":0,"max_players":24,"Bots":0,"server_type":"Dedicated","server_os":"Linux","password":true,"vac":true,"version":"7961495","steam_id":85568392924469990,"keywords":["cp","nocrits","nodmgspread","uncletopia"],"game_id":440,"stv_port":27026,"stv_name":"Uncletopia | Frankfurt | 2 | All Maps | STV","players":null},{"server_id":308,"name":"Uncletopia | Frankfurt | 3 | All Maps","name_short":"frk-3","host":"frk-1.de.uncletopia.com","port":27035,"enabled":true,"region":"eu","cc":"de","latitude":50.110924,"longitude":8.682127,"reserved":0,"last_update":"0001-01-01T00:00:00Z","name_a2s":"Uncletopia | Frankfurt | 3 | All Maps","protocol":17,"map":"koth_lakeside_final","folder":"tf","game":"Team Fortress","app_id":440,"player_count":0,"max_players":24,"Bots":0,"server_type":"Dedicated","server_os":"Linux","password":true,"vac":true,"version":"7961495","steam_id":85568392924504274,"keywords":["cp","nocrits","nodmgspread","uncletopia"],"game_id":440,"stv_port":27036,"stv_name":"Uncletopia | Frankfurt | 3 | All Maps | STV","players":null},{"server_id":309,"name":"Uncletopia | Frankfurt | 4 | All Maps","name_short":"frk-4","host":"frk-1.de.uncletopia.com","port":27045,"enabled":true,"region":"eu","cc":"de","latitude":50.110924,"longitude":8.682127,"reserved":0,"last_update":"0001-01-01T00:00:00Z","name_a2s":"Uncletopia | Frankfurt | 4 | All Maps","protocol":17,"map":"koth_highpass","folder":"tf","game":"Team Fortress","app_id":440,"player_count":0,"max_players":24,"Bots":0,"server_type":"Dedicated","server_os":"Linux","password":true,"vac":true,"version":"7961495","steam_id":85568392924504275,"keywords":["cp","nocrits","nodmgspread","uncletopia"],"game_id":440,"stv_port":27046,"stv_name":"Uncletopia | Frankfurt | 4 | All Maps | STV","players":null},{"server_id":310,"name":"Uncletopia | Frankfurt | 5 | All Maps","name_short":"frk-5","host":"frk-1.de.uncletopia.com","port":27055,"enabled":true,"region":"eu","cc":"de","latitude":50.110924,"longitude":8.682127,"reserved":0,"last_update":"0001-01-01T00:00:00Z","name_a2s":"Uncletopia | Frankfurt | 5 | All Maps","protocol":17,"map":"pl_badwater","folder":"tf","game":"Team Fortress","app_id":440,"player_count":22,"max_players":24,"Bots":0,"server_type":"Dedicated","server_os":"Linux","password":true,"vac":true,"version":"7961495","steam_id":85568392924504277,"keywords":["nocrits","nodmgspread","payload","uncletopia"],"game_id":440,"stv_port":27056,"stv_name":"Uncletopia | Frankfurt | 5 | All Maps | STV","players":[{"user_id":778,"name":"M√§lli Jari","steam_id":76561198060954095,"connected_time":3085000000000,"state":"active","ping":106},{"user_id":820,"name":"[SSRB] Kiri","steam_id":76561198193983787,"connected_time":206000000000,"state":"active","ping":121},{"user_id":782,"name":"tone","steam_id":76561197975301462,"connected_time":2977000000000,"state":"active","ping":74},{"user_id":771,"name":"etc","steam_id":76561197998394797,"connected_time":3341000000000,"state":"active","ping":59},{"user_id":792,"name":"SparkyDoodles - Artist","steam_id":76561198060128235,"connected_time":2381000000000,"state":"active","ping":66},{"user_id":821,"name":"–æ–ª–∏–≤–µ—Ä –¥–µ—Ä–µ–≤–æ","steam_id":76561198029700306,"connected_time":34000000000,"state":"active","ping":94},{"user_id":818,"name":"Frogito","steam_id":76561198153649060,"connected_time":386000000000,"state":"active","ping":69},{"user_id":784,"name":"Toasted Toby","steam_id":76561198002139581,"connected_time":2904000000000,"state":"active","ping":64},{"user_id":794,"name":"HexStar","steam_id":76561198114027574,"connected_time":2374000000000,"state":"active","ping":74},{"user_id":817,"name":"CashMoney","steam_id":76561198108389190,"connected_time":1064000000000,"state":"active","ping":70},{"user_id":788,"name":"jones","steam_id":76561198044434971,"connected_time":2809000000000,"state":"active","ping":56},{"user_id":811,"name":"Cosmetic brain","steam_id":76561198055936410,"connected_time":1398000000000,"state":"active","ping":89},{"user_id":750,"name":"azzy","steam_id":76561198061293740,"connected_time":4609000000000,"state":"active","ping":77},{"user_id":804,"name":"N o","steam_id":76561199084604017,"connected_time":1671000000000,"state":"active","ping":99},{"user_id":763,"name":"Doctor Rudy G. Numpad","steam_id":76561198440881106,"connected_time":3861000000000,"state":"active","ping":65},{"user_id":810,"name":"Guppy","steam_id":76561198135398757,"connected_time":1499000000000,"state":"active","ping":63},{"user_id":800,"name":"Merciz","steam_id":76561197971808715,"connected_time":2207000000000,"state":"active","ping":92},{"user_id":551,"name":"else1","steam_id":76561197996558319,"connected_time":18787000000000,"state":"active","ping":76},{"user_id":815,"name":"Blur","steam_id":76561198062314111,"connected_time":1187000000000,"state":"active","ping":146},{"user_id":816,"name":"lun","steam_id":76561198321709121,"connected_time":1163000000000,"state":"active","ping":74},{"user_id":791,"name":"Stop The Violence","steam_id":76561198044876779,"connected_time":2714000000000,"state":"active","ping":75},{"user_id":802,"name":"Ender_DragonYT... GGDROP.COM","steam_id":76561198946735113,"connected_time":1818000000000,"state":"active","ping":74}]},{"server_id":311,"name":"Uncletopia | Frankfurt | 6 | All Maps","name_short":"frk-6","host":"frk-1.de.uncletopia.com","port":27065,"enabled":true,"region":"eu","cc":"de","latitude":50.110924,"longitude":8.682127,"reserved":0,"last_update":"0001-01-01T00:00:00Z","name_a2s":"Uncletopia | Frankfurt | 6 | All Maps","protocol":17,"map":"pl_frontier_final","folder":"tf","game":"Team Fortress","app_id":440,"player_count":0,"max_players":24,"Bots":0,"server_type":"Dedicated","server_os":"Linux","password":true,"vac":true,"version":"7961495","steam_id":85568392924504278,"keywords":["nocrits","nodmgspread","payload","uncletopia"],"game_id":440,"stv_port":27066,"stv_name":"Uncletopia | Frankfurt | 6 | All Maps | STV","players":null},{"server_id":23,"name":"Uncletopia | Frankfurt | 7 | Stopwatch","name_short":"frk-7","host":"frk-1.de.uncletopia.com","port":27075,"enabled":true,"region":"eu","cc":"de","latitude":50.110924,"longitude":8.682127,"reserved":0,"last_update":"0001-01-01T00:00:00Z","name_a2s":"Uncletopia | Frankfurt | 7 | Stopwatch","protocol":17,"map":"workshop/pl_vigil_rc10.ugc1266210012","folder":"tf","game":"Team Fortress","app_id":440,"player_count":0,"max_players":24,"Bots":0,"server_type":"Dedicated","server_os":"Linux","password":true,"vac":true,"version":"7961495","steam_id":85568392924742827,"keywords":["nocrits","nodmgspread","payload","uncletopia"],"game_id":440,"stv_port":27076,"stv_name":"Uncletopia | Frankfurt | 7 | Stopwatch | STV","players":null},{"server_id":24,"name":"Uncletopia | Frankfurt | 8 | Community","name_short":"frk-8","host":"frk-1.de.uncletopia.com","port":27085,"enabled":true,"region":"eu","cc":"de","latitude":50.110924,"longitude":8.682127,"reserved":0,"last_update":"0001-01-01T00:00:00Z","name_a2s":"Uncletopia | Frankfurt | 8 | Community","protocol":17,"map":"workshop/cp_bruhstbowl_b6.ugc2878604990","folder":"tf","game":"Team Fortress","app_id":440,"player_count":0,"max_players":24,"Bots":0,"server_type":"Dedicated","server_os":"Linux","password":true,"vac":true,"version":"7961495","steam_id":85568392924742828,"keywords":["cp","nocrits","nodmgspread","uncletopia"],"game_id":440,"stv_port":27086,"stv_name":"Uncletopia | Frankfurt | 8 | Community | STV","players":null},{"server_id":202,"name":"Uncletopia | Hong Kong | 1 | All Maps","name_short":"hgk-1","host":"hgk-1.hk.uncletopia.com","port":27015,"enabled":true,"region":"asia","cc":"hk","latitude":22.302711,"longitude":114.177216,"reserved":0,"last_update":"0001-01-01T00:00:00Z","name_a2s":"Uncletopia | Hong Kong | 1 | All Maps","protocol":17,"map":"pl_frontier_final","folder":"tf","game":"Team Fortress","app_id":440,"player_count":0,"max_players":24,"Bots":0,"server_type":"Dedicated","server_os":"Linux","password":true,"vac":true,"version":"7961495","steam_id":85568392924494504,"keywords":["nocrits","nodmgspread","payload","uncletopia"],"game_id":440,"stv_port":27016,"stv_name":"Uncletopia | Hong Kong | 1 | All Maps | STV","players":null},{"server_id":1,"name":"Uncletopia | Los Angeles | 1 | All Maps","name_short":"lax-1","host":"lax-1.us.uncletopia.com","port":27015,"enabled":true,"region":"us-west","cc":"us","latitude":33.94279,"longitude":-118.41004,"reserved":0,"last_update":"0001-01-01T00:00:00Z","name_a2s":"Uncletopia | Los Angeles | 1 | All Maps","protocol":17,"map":"pl_upward","folder":"tf","game":"Team Fortress","app_id":440,"player_count":6,"max_players":24,"Bots":0,"server_type":"Dedicated","server_os":"Linux","password":true,"vac":true,"version":"7961495","steam_id":85568392924469991,"keywords":["nocrits","nodmgspread","payload","uncletopia"],"game_id":440,"stv_port":27016,"stv_name":"Uncletopia | Los Angeles | 1 | All Maps | STV","players":[{"user_id":24,"name":"TheDoctorIsIn","steam_id":76561198322058639,"connected_time":599000000000,"state":"active","ping":87},{"user_id":25,"name":"TheSpy","steam_id":76561198997837361,"connected_time":336000000000,"state":"active","ping":103},{"user_id":26,"name":"nfseskimo","steam_id":76561198078745666,"connected_time":326000000000,"state":"active","ping":61},{"user_id":27,"name":"THEPYRO","steam_id":76561199500566951,"connected_time":317000000000,"state":"active","ping":122},{"user_id":28,"name":"S O U N D W A V E","steam_id":76561198093417449,"connected_time":179000000000,"state":"active","ping":44},{"user_id":29,"name":"kreeper700","steam_id":76561199495556056,"connected_time":114000000000,"state":"active","ping":56}]},{"server_id":112,"name":"Uncletopia | Los Angeles | 2 | All Maps","name_short":"lax-2","host":"lax-1.us.uncletopia.com","port":27025,"enabled":true,"region":"us-west","cc":"us","latitude":33.94279,"longitude":-118.41004,"reserved":0,"last_update":"0001-01-01T00:00:00Z","name_a2s":"Uncletopia | Los Angeles | 2 | All Maps","protocol":17,"map":"pl_badwater","folder":"tf","game":"Team Fortress","app_id":440,"player_count":23,"max_players":24,"Bots":0,"server_type":"Dedicated","server_os":"Linux","password":true,"vac":true,"version":"7961495","steam_id":85568392924469992,"keywords":["nocrits","nodmgspread","payload","uncletopia"],"game_id":440,"stv_port":27026,"stv_name":"Uncletopia | Los Angeles | 2 | All Maps | STV","players":[{"user_id":40,"name":"Seshreb","steam_id":76561198846614634,"connected_time":4227000000000,"state":"active","ping":56},{"user_id":87,"name":"Stranded","steam_id":76561198139648047,"connected_time":886000000000,"state":"active","ping":55},{"user_id":91,"name":"RocketofPanda","steam_id":76561198133133187,"connected_time":277000000000,"state":"active","ping":70},{"user_id":65,"name":"jdm","steam_id":76561199497603020,"connected_time":2860000000000,"state":"active","ping":51},{"user_id":83,"name":"magunyamu","steam_id":76561198823083676,"connected_time":926000000000,"state":"active","ping":57},{"user_id":61,"name":"SneekiCheekiQbone","steam_id":76561198045077980,"connected_time":3344000000000,"state":"active","ping":43},{"user_id":29,"name":"imng","steam_id":76561198014988031,"connected_time":4726000000000,"state":"active","ping":102},{"user_id":90,"name":"Mugen","steam_id":76561198411174773,"connected_time":657000000000,"state":"active","ping":48},{"user_id":75,"name":"Culprit Shy","steam_id":76561198206506481,"connected_time":1579000000000,"state":"active","ping":59},{"user_id":67,"name":"XxDragon4321xX","steam_id":76561198046705735,"connected_time":2411000000000,"state":"active","ping":71},{"user_id":76,"name":"BrightOrangeMango","steam_id":76561198023144607,"connected_time":1560000000000,"state":"active","ping":63},{"user_id":74,"name":"oog","steam_id":76561199089730744,"connected_time":1908000000000,"state":"active","ping":68},{"user_id":89,"name":"HeroOfTime","steam_id":76561199096218001,"connected_time":865000000000,"state":"active","ping":54},{"user_id":70,"name":"blozet","steam_id":76561199120161035,"connected_time":2119000000000,"state":"active","ping":109},{"user_id":55,"name":"Fran√ßois Vi√®te","steam_id":76561198072975518,"connected_time":3754000000000,"state":"active","ping":100},{"user_id":42,"name":"Platinum","steam_id":76561198052463484,"connected_time":4164000000000,"state":"active","ping":48},{"user_id":84,"name":"cheeseburg","steam_id":76561199401175120,"connected_time":925000000000,"state":"active","ping":65},{"user_id":86,"name":"DeepLarkem","steam_id":76561198823247730,"connected_time":907000000000,"state":"active","ping":53},{"user_id":45,"name":"awe","steam_id":76561198338739253,"connected_time":4142000000000,"state":"active","ping":54},{"user_id":88,"name":"JoySlip","steam_id":76561198269476149,"connected_time":886000000000,"state":"active","ping":58},{"user_id":82,"name":"small meth pouch","steam_id":76561198130412963,"connected_time":930000000000,"state":"active","ping":86},{"user_id":58,"name":"hyaz, +rep.","steam_id":76561199100342013,"connected_time":3610000000000,"state":"active","ping":45},{"user_id":64,"name":"The Geezer Bandit","steam_id":76561199059733640,"connected_time":2877000000000,"state":"active","ping":46}]},{"server_id":324,"name":"Uncletopia | Los Angeles | 3 | All Maps","name_short":"lax-3","host":"lax-1.us.uncletopia.com","port":27035,"enabled":true,"region":"us-west","cc":"us","latitude":33.94279,"longitude":-118.41004,"reserved":0,"last_update":"0001-01-01T00:00:00Z","name_a2s":"Uncletopia | Los Angeles | 3 | All Maps","protocol":17,"map":"pl_upward","folder":"tf","game":"Team Fortress","app_id":440,"player_count":0,"max_players":24,"Bots":0,"server_type":"Dedicated","server_os":"Linux","password":true,"vac":true,"version":"7961495","steam_id":85568392924510198,"keywords":["nocrits","nodmgspread","payload","uncletopia"],"game_id":440,"stv_port":27036,"stv_name":"Uncletopia | Los Angeles | 3 | All Maps | STV","players":null},{"server_id":25,"name":"Uncletopia | Los Angeles | 4 | Stopwatch","name_short":"lax-4","host":"lax-1.us.uncletopia.com","port":27045,"enabled":true,"region":"us-west","cc":"us","latitude":33.94279,"longitude":-118.41004,"reserved":0,"last_update":"0001-01-01T00:00:00Z","name_a2s":"Uncletopia | Los Angeles | 4 | Stopwatch","protocol":17,"map":"pl_barnblitz","folder":"tf","game":"Team Fortress","app_id":440,"player_count":0,"max_players":24,"Bots":0,"server_type":"Dedicated","server_os":"Linux","password":true,"vac":true,"version":"7961495","steam_id":85568392924510199,"keywords":["nocrits","nodmgspread","payload","uncletopia"],"game_id":440,"stv_port":27046,"stv_name":"Uncletopia | Los Angeles | 4 | Stopwatch | STV","players":null},{"server_id":11,"name":"Uncletopia | London | 1 | All Maps","name_short":"lon-1","host":"lon-1.uk.uncletopia.com","port":27015,"enabled":true,"region":"eu","cc":"gb","latitude":51.509865,"longitude":-0.118092,"reserved":0,"last_update":"0001-01-01T00:00:00Z","name_a2s":"Uncletopia | London | 1 | All Maps","protocol":17,"map":"pl_swiftwater_final1","folder":"tf","game":"Team Fortress","app_id":440,"player_count":22,"max_players":24,"Bots":0,"server_type":"Dedicated","server_os":"Linux","password":true,"vac":true,"version":"7961495","steam_id":85568392924367362,"keywords":["nocrits","nodmgspread","payload","uncletopia"],"game_id":440,"stv_port":27016,"stv_name":"Uncletopia | London | 1 | All Maps | STV","players":[{"user_id":689,"name":"TEACUPS AND KETTLES","steam_id":76561198083017384,"connected_time":4788000000000,"state":"active","ping":53},{"user_id":744,"name":"stroyo","steam_id":76561198409592046,"connected_time":195000000000,"state":"active","ping":45},{"user_id":725,"name":"Chippo","steam_id":76561198343198306,"connected_time":2136000000000,"state":"active","ping":61},{"user_id":604,"name":"SuperBob103","steam_id":76561199175360012,"connected_time":14578000000000,"state":"active","ping":48},{"user_id":738,"name":"Joe","steam_id":76561198145639903,"connected_time":334000000000,"state":"active","ping":90},{"user_id":736,"name":"beebo","steam_id":76561199120277007,"connected_time":377000000000,"state":"active","ping":45},{"user_id":653,"name":"Borat","steam_id":76561198122226417,"connected_time":8750000000000,"state":"active","ping":45},{"user_id":731,"name":"Cancer bad :(","steam_id":76561198090243828,"connected_time":753000000000,"state":"active","ping":90},{"user_id":742,"name":"aless","steam_id":76561198941165698,"connected_time":288000000000,"state":"active","ping":47},{"user_id":712,"name":"GLUEEATER hedon","steam_id":76561198249832770,"connected_time":3347000000000,"state":"active","ping":45},{"user_id":743,"name":"mad milk enjoyer","steam_id":76561198219346513,"connected_time":285000000000,"state":"active","ping":98},{"user_id":706,"name":"Shallaska","steam_id":76561198019030896,"connected_time":3414000000000,"state":"active","ping":56},{"user_id":739,"name":"breakfast burrito","steam_id":76561198148606969,"connected_time":332000000000,"state":"active","ping":71},{"user_id":740,"name":"rez777ka","steam_id":76561198107605938,"connected_time":331000000000,"state":"active","ping":102},{"user_id":726,"name":"Asfedia","steam_id":76561199386836351,"connected_time":1960000000000,"state":"active","ping":62},{"user_id":745,"name":"Morno","steam_id":76561198028519110,"connected_time":35000000000,"state":"spawning","ping":83},{"user_id":735,"name":"Kaibz","steam_id":76561197975012611,"connected_time":521000000000,"state":"active","ping":38},{"user_id":741,"name":"Vap","steam_id":76561197999702200,"connected_time":300000000000,"state":"active","ping":45},{"user_id":717,"name":"teddy","steam_id":76561198007436837,"connected_time":2813000000000,"state":"active","ping":44},{"user_id":678,"name":"sora","steam_id":76561198096547662,"connected_time":6373000000000,"state":"active","ping":54},{"user_id":680,"name":"Purps","steam_id":76561198053886680,"connected_time":6190000000000,"state":"active","ping":33},{"user_id":649,"name":"Mei","steam_id":76561198363464483,"connected_time":9411000000000,"state":"active","ping":76}]},{"server_id":114,"name":"Uncletopia | London | 2 | All Maps","name_short":"lon-2","host":"lon-1.uk.uncletopia.com","port":27025,"enabled":true,"region":"eu","cc":"gb","latitude":51.509865,"longitude":-0.118092,"reserved":0,"last_update":"0001-01-01T00:00:00Z","name_a2s":"Uncletopia | London | 2 | All Maps","protocol":17,"map":"pl_upward","folder":"tf","game":"Team Fortress","app_id":440,"player_count":22,"max_players":24,"Bots":0,"server_type":"Dedicated","server_os":"Linux","password":true,"vac":true,"version":"7961495","steam_id":85568392924470941,"keywords":["nocrits","nodmgspread","payload","uncletopia"],"game_id":440,"stv_port":27026,"stv_name":"Uncletopia | London | 2 | All Maps | STV","players":[{"user_id":967,"name":"bl0ke","steam_id":76561198012526576,"connected_time":1059000000000,"state":"active","ping":42},{"user_id":957,"name":"H-say","steam_id":76561198177400362,"connected_time":2994000000000,"state":"active","ping":99},{"user_id":961,"name":"kriegabald","steam_id":76561198072987833,"connected_time":2418000000000,"state":"active","ping":63},{"user_id":941,"name":"Bobirulez","steam_id":76561198009125458,"connected_time":3373000000000,"state":"active","ping":88},{"user_id":975,"name":"Name","steam_id":76561197990757157,"connected_time":7000000000,"state":"spawning","ping":72},{"user_id":926,"name":"volkiano","steam_id":76561198319802031,"connected_time":4566000000000,"state":"active","ping":46},{"user_id":947,"name":"Sorexsum","steam_id":76561198137086495,"connected_time":3231000000000,"state":"active","ping":70},{"user_id":971,"name":"Paste","steam_id":76561198139275322,"connected_time":359000000000,"state":"active","ping":66},{"user_id":964,"name":"i simply am not here","steam_id":76561198051852765,"connected_time":2368000000000,"state":"active","ping":71},{"user_id":929,"name":"cold#panda","steam_id":76561199220136710,"connected_time":4183000000000,"state":"active","ping":125},{"user_id":956,"name":"Leo","steam_id":76561198277086310,"connected_time":3096000000000,"state":"active","ping":54},{"user_id":936,"name":"Mr_Pulse_","steam_id":76561198095001602,"connected_time":3621000000000,"state":"active","ping":100},{"user_id":946,"name":"Doctor Marijuana","steam_id":76561198288289879,"connected_time":3260000000000,"state":"active","ping":47},{"user_id":966,"name":"Infantile Pillock","steam_id":76561198283851362,"connected_time":1095000000000,"state":"active","ping":69},{"user_id":972,"name":"schmick h_stt 0","steam_id":76561198039537958,"connected_time":357000000000,"state":"active","ping":41},{"user_id":969,"name":"Cabbch","steam_id":76561198045955679,"connected_time":666000000000,"state":"active","ping":44},{"user_id":974,"name":"Incoming","steam_id":76561199062581310,"connected_time":325000000000,"state":"active","ping":137},{"user_id":951,"name":"syms","steam_id":76561198066679812,"connected_time":3169000000000,"state":"active","ping":81},{"user_id":970,"name":"puddlebee [TooManyCooks]","steam_id":76561198046635233,"connected_time":368000000000,"state":"active","ping":62},{"user_id":968,"name":"RIBS GROW BACK","steam_id":76561198123659806,"connected_time":810000000000,"state":"active","ping":99},{"user_id":955,"name":"sad monkey","steam_id":76561198116530769,"connected_time":3155000000000,"state":"active","ping":98}]},{"server_id":320,"name":"Uncletopia | London | 3 | All Maps","name_short":"lon-3","host":"lon-1.uk.uncletopia.com","port":27035,"enabled":true,"region":"eu","cc":"gb","latitude":51.509865,"longitude":-0.118092,"reserved":0,"last_update":"0001-01-01T00:00:00Z","name_a2s":"Uncletopia | London | 3 | All Maps","protocol":17,"map":"koth_viaduct","folder":"tf","game":"Team Fortress","app_id":440,"player_count":0,"max_players":24,"Bots":0,"server_type":"Dedicated","server_os":"Linux","password":true,"vac":true,"version":"7961495","steam_id":85568392924510192,"keywords":["cp","nocrits","nodmgspread","uncletopia"],"game_id":440,"stv_port":27036,"stv_name":"Uncletopia | London | 3 | All Maps | STV","players":null},{"server_id":321,"name":"Uncletopia | London | 4 | All Maps","name_short":"lon-4","host":"lon-1.uk.uncletopia.com","port":27045,"enabled":true,"region":"eu","cc":"gb","latitude":51.509865,"longitude":-0.118092,"reserved":0,"last_update":"0001-01-01T00:00:00Z","name_a2s":"Uncletopia | London | 4 | All Maps","protocol":17,"map":"pl_snowycoast","folder":"tf","game":"Team Fortress","app_id":440,"player_count":0,"max_players":24,"Bots":0,"server_type":"Dedicated","server_os":"Linux","password":true,"vac":true,"version":"7961495","steam_id":85568392924510193,"keywords":["nocrits","nodmgspread","payload","uncletopia"],"game_id":440,"stv_port":27046,"stv_name":"Uncletopia | London | 4 | All Maps | STV","players":null},{"server_id":21,"name":"Uncletopia | London | 5 | All Maps","name_short":"lon-5","host":"lon-1.uk.uncletopia.com","port":27055,"enabled":true,"region":"eu","cc":"gb","latitude":51.509865,"longitude":-0.118092,"reserved":0,"last_update":"0001-01-01T00:00:00Z","name_a2s":"Uncletopia | London | 5 | All Maps","protocol":17,"map":"pl_barnblitz","folder":"tf","game":"Team Fortress","app_id":440,"player_count":18,"max_players":24,"Bots":0,"server_type":"Dedicated","server_os":"Linux","password":true,"vac":true,"version":"7961495","steam_id":85568392924742829,"keywords":["nocrits","nodmgspread","payload","uncletopia"],"game_id":440,"stv_port":27056,"stv_name":"Uncletopia | London | 5 | All Maps | STV","players":[{"user_id":656,"name":"Walter","steam_id":76561198204396417,"connected_time":210000000000,"state":"active","ping":148},{"user_id":623,"name":"Hunter64","steam_id":76561199121947938,"connected_time":3099000000000,"state":"active","ping":52},{"user_id":657,"name":"BELADIT","steam_id":76561198011911501,"connected_time":164000000000,"state":"active","ping":82},{"user_id":619,"name":"Luciat","steam_id":76561198114216087,"connected_time":3156000000000,"state":"active","ping":40},{"user_id":622,"name":"SpidermansHoe","steam_id":76561199245385617,"connected_time":3122000000000,"state":"active","ping":53},{"user_id":624,"name":"demi-god","steam_id":76561198218440699,"connected_time":3098000000000,"state":"active","ping":101},{"user_id":635,"name":"remi, she wrote.","steam_id":76561198044045655,"connected_time":2233000000000,"state":"active","ping":84},{"user_id":625,"name":"Knightmare","steam_id":76561198153019338,"connected_time":3093000000000,"state":"active","ping":64},{"user_id":633,"name":"Jayem","steam_id":76561198076470685,"connected_time":2901000000000,"state":"active","ping":67},{"user_id":639,"name":"yo g would u make me a sandwich","steam_id":76561199062586342,"connected_time":2017000000000,"state":"active","ping":67},{"user_id":637,"name":"Valfezant","steam_id":76561199063983797,"connected_time":2200000000000,"state":"active","ping":62},{"user_id":636,"name":"Bart","steam_id":76561198276910428,"connected_time":2232000000000,"state":"active","ping":85},{"user_id":653,"name":"Collisto","steam_id":76561198023609460,"connected_time":495000000000,"state":"active","ping":86},{"user_id":628,"name":"goblin","steam_id":76561198170334258,"connected_time":3054000000000,"state":"active","ping":81},{"user_id":652,"name":"Mimic","steam_id":76561198064890253,"connected_time":571000000000,"state":"active","ping":115},{"user_id":648,"name":"FireStorm","steam_id":76561198350478325,"connected_time":980000000000,"state":"active","ping":33},{"user_id":654,"name":"Dangerous Andrew","steam_id":76561198067218981,"connected_time":469000000000,"state":"active","ping":59},{"user_id":644,"name":"‚òÅ Lou1smeister ‚òÅ","steam_id":76561198004032968,"connected_time":1703000000000,"state":"active","ping":75}]},{"server_id":22,"name":"Uncletopia | London | 6 | All Maps","name_short":"lon-6","host":"lon-1.uk.uncletopia.com","port":27065,"enabled":true,"region":"eu","cc":"gb","latitude":51.509865,"longitude":-0.118092,"reserved":0,"last_update":"0001-01-01T00:00:00Z","name_a2s":"Uncletopia | London | 6 | All Maps","protocol":17,"map":"plr_nightfall_final","folder":"tf","game":"Team Fortress","app_id":440,"player_count":0,"max_players":24,"Bots":0,"server_type":"Dedicated","server_os":"Linux","password":true,"vac":true,"version":"7961495","steam_id":85568392924742830,"keywords":["nocrits","nodmgspread","payload","uncletopia"],"game_id":440,"stv_port":27066,"stv_name":"Uncletopia | London | 6 | All Maps | STV","players":null},{"server_id":40,"name":"Uncletopia | London | 7 | Stopwatch","name_short":"lon-7","host":"lon-1.uk.uncletopia.com","port":27075,"enabled":true,"region":"eu","cc":"gb","latitude":51.509865,"longitude":-0.118092,"reserved":0,"last_update":"0001-01-01T00:00:00Z","name_a2s":"Uncletopia | London | 7 | Stopwatch","protocol":17,"map":"cp_granary","folder":"tf","game":"Team Fortress","app_id":440,"player_count":0,"max_players":24,"Bots":0,"server_type":"Dedicated","server_os":"Linux","password":true,"vac":true,"version":"7961495","steam_id":85568392924964314,"keywords":["cp","nocrits","nodmgspread","uncletopia"],"game_id":440,"stv_port":27076,"stv_name":"Uncletopia | London | 7 | Stopwatch | STV","players":null},{"server_id":41,"name":"Uncletopia | London | 8 | Community","name_short":"lon-8","host":"lon-1.uk.uncletopia.com","port":27085,"enabled":true,"region":"eu","cc":"gb","latitude":51.509865,"longitude":-0.118092,"reserved":0,"last_update":"0001-01-01T00:00:00Z","name_a2s":"Uncletopia | London | 8 | Community","protocol":17,"map":"workshop/pl_highwood_b13.ugc1769496557","folder":"tf","game":"Team Fortress","app_id":440,"player_count":0,"max_players":24,"Bots":0,"server_type":"Dedicated","server_os":"Linux","password":true,"vac":true,"version":"7961495","steam_id":85568392924964315,"keywords":["nocrits","nodmgspread","payload","uncletopia"],"game_id":440,"stv_port":27086,"stv_name":"Uncletopia | London | 8 | Community | STV","players":null},{"server_id":300,"name":"Uncletopia | Montr√©al | 1 | One Thousand Uncles","name_short":"mtl-1","host":"mtl-1.ca.uncletopia.com","port":27015,"enabled":true,"region":"us-east","cc":"ca","latitude":45.50889,"longitude":-73.56167,"reserved":0,"last_update":"0001-01-01T00:00:00Z","name_a2s":"","protocol":0,"map":"","folder":"","game":"","app_id":0,"player_count":12,"max_players":0,"Bots":0,"server_type":"","server_os":"","password":false,"vac":false,"version":"","steam_id":0,"keywords":null,"game_id":0,"stv_port":0,"stv_name":"","players":[{"user_id":417,"name":"4","steam_id":76561198833384755,"connected_time":2099000000000,"state":"active","ping":53},{"user_id":412,"name":"Seek \u0026 Destroy","steam_id":76561199153776236,"connected_time":3954000000000,"state":"active","ping":76},{"user_id":416,"name":"Cervid√©","steam_id":76561198098579497,"connected_time":3150000000000,"state":"active","ping":36},{"user_id":434,"name":"Rhutebeer","steam_id":76561198018302761,"connected_time":1183000000000,"state":"active","ping":103},{"user_id":435,"name":"minenice","steam_id":76561198300878163,"connected_time":1048000000000,"state":"active","ping":38},{"user_id":436,"name":"pupil ;)","steam_id":76561198047293356,"connected_time":961000000000,"state":"active","ping":41},{"user_id":437,"name":"WM1 PYRO","steam_id":76561198045893896,"connected_time":815000000000,"state":"active","ping":99},{"user_id":445,"name":"coolfalcon168","steam_id":76561198948665710,"connected_time":97000000000,"state":"active","ping":57},{"user_id":439,"name":"Vision Spire","steam_id":76561198095923905,"connected_time":580000000000,"state":"active","ping":50},{"user_id":441,"name":"Lyxfex","steam_id":76561198050166082,"connected_time":301000000000,"state":"active","ping":36},{"user_id":442,"name":"jcera","steam_id":76561198882985900,"connected_time":250000000000,"state":"active","ping":59},{"user_id":443,"name":"iamtheSpicer","steam_id":76561198263557044,"connected_time":183000000000,"state":"active","ping":90}]},{"server_id":301,"name":"Uncletopia | Montr√©al | 2 | One Thousand Uncles","name_short":"mtl-2","host":"mtl-1.ca.uncletopia.com","port":27025,"enabled":true,"region":"us-east","cc":"ca","latitude":45.50889,"longitude":-73.56167,"reserved":0,"last_update":"0001-01-01T00:00:00Z","name_a2s":"","protocol":0,"map":"","folder":"","game":"","app_id":0,"player_count":1,"max_players":0,"Bots":0,"server_type":"","server_os":"","password":false,"vac":false,"version":"","steam_id":0,"keywords":null,"game_id":0,"stv_port":0,"stv_name":"","players":[{"user_id":130,"name":"pootis gaming","steam_id":76561199479429863,"connected_time":658000000000,"state":"active","ping":47}]},{"server_id":302,"name":"Uncletopia | Montr√©al | 3 | One Thousand Uncles","name_short":"mtl-3","host":"mtl-1.ca.uncletopia.com","port":27035,"enabled":true,"region":"us-east","cc":"ca","latitude":45.50889,"longitude":-73.56167,"reserved":0,"last_update":"0001-01-01T00:00:00Z","name_a2s":"","protocol":0,"map":"","folder":"","game":"","app_id":0,"player_count":0,"max_players":0,"Bots":0,"server_type":"","server_os":"","password":false,"vac":false,"version":"","steam_id":0,"keywords":null,"game_id":0,"stv_port":0,"stv_name":"","players":null},{"server_id":13,"name":"Uncletopia | New York City | 1 | All Maps","name_short":"nyc-1","host":"nyc-1.us.uncletopia.com","port":27015,"enabled":true,"region":"us-east","cc":"us","latitude":40.73061,"longitude":-73.93524,"reserved":0,"last_update":"0001-01-01T00:00:00Z","name_a2s":"Uncletopia | New York City | 1 | All Maps","protocol":17,"map":"pl_badwater","folder":"tf","game":"Team Fortress","app_id":440,"player_count":23,"max_players":24,"Bots":0,"server_type":"Dedicated","server_os":"Linux","password":true,"vac":true,"version":"7961495","steam_id":85568392924469993,"keywords":["nocrits","nodmgspread","payload","uncletopia"],"game_id":440,"stv_port":27016,"stv_name":"Uncletopia | New York City | 1 | All Maps | STV","players":[{"user_id":279,"name":"Eccentric","steam_id":76561198850391975,"connected_time":292000000000,"state":"active","ping":66},{"user_id":276,"name":"gxno","steam_id":76561198302676077,"connected_time":402000000000,"state":"active","ping":42},{"user_id":280,"name":"Cat on Your Porch","steam_id":76561197979078330,"connected_time":283000000000,"state":"active","ping":68},{"user_id":243,"name":"Saac Mann","steam_id":76561198991649853,"connected_time":2260000000000,"state":"active","ping":37},{"user_id":263,"name":"Wahooka","steam_id":76561197962240925,"connected_time":1166000000000,"state":"active","ping":48},{"user_id":278,"name":"Gotta Move That Gear Up","steam_id":76561197993467034,"connected_time":312000000000,"state":"active","ping":76},{"user_id":262,"name":"vanta","steam_id":76561198084317504,"connected_time":1550000000000,"state":"active","ping":60},{"user_id":247,"name":"giogioboi235","steam_id":76561199102124882,"connected_time":2083000000000,"state":"active","ping":57},{"user_id":248,"name":"·óúÀ¨·óú","steam_id":76561198049076233,"connected_time":2071000000000,"state":"active","ping":52},{"user_id":261,"name":"Spearmint","steam_id":76561198134215373,"connected_time":1573000000000,"state":"active","ping":46},{"user_id":250,"name":"Jesse Bear","steam_id":76561198217075305,"connected_time":1990000000000,"state":"active","ping":70},{"user_id":270,"name":"Orange Triangle","steam_id":76561198320498182,"connected_time":743000000000,"state":"active","ping":86},{"user_id":281,"name":"Fuzzy Toast","steam_id":76561198028067781,"connected_time":269000000000,"state":"active","ping":59},{"user_id":271,"name":"Anamm","steam_id":76561198328762510,"connected_time":648000000000,"state":"active","ping":51},{"user_id":217,"name":"jenna ortega real","steam_id":76561199501253431,"connected_time":4242000000000,"state":"active","ping":35},{"user_id":269,"name":"Bebo","steam_id":76561198045916445,"connected_time":778000000000,"state":"active","ping":84},{"user_id":274,"name":"R{FITH}‚Ñ¢ Z4LTte","steam_id":76561198283258068,"connected_time":479000000000,"state":"active","ping":49},{"user_id":226,"name":"87987974","steam_id":76561198046948758,"connected_time":3939000000000,"state":"active","ping":71},{"user_id":187,"name":"SuperNovaFox","steam_id":76561198052172564,"connected_time":6920000000000,"state":"active","ping":76},{"user_id":282,"name":"ventus51701","steam_id":76561198207372741,"connected_time":256000000000,"state":"active","ping":45},{"user_id":283,"name":"Oh No! It's Twister!","steam_id":76561198016791916,"connected_time":231000000000,"state":"active","ping":103},{"user_id":266,"name":"The Terio Lebron","steam_id":76561199085731190,"connected_time":897000000000,"state":"active","ping":86},{"user_id":272,"name":"Arthur SSJ2","steam_id":76561198043678479,"connected_time":574000000000,"state":"active","ping":75}]},{"server_id":14,"name":"Uncletopia | New York City | 2 | All Maps","name_short":"nyc-2","host":"nyc-1.us.uncletopia.com","port":27025,"enabled":true,"region":"us-east","cc":"us","latitude":40.73061,"longitude":-73.93524,"reserved":0,"last_update":"0001-01-01T00:00:00Z","name_a2s":"Uncletopia | New York City | 2 | All Maps","protocol":17,"map":"pl_borneo","folder":"tf","game":"Team Fortress","app_id":440,"player_count":24,"max_players":24,"Bots":0,"server_type":"Dedicated","server_os":"Linux","password":true,"vac":true,"version":"7961495","steam_id":85568392924469994,"keywords":["nocrits","nodmgspread","payload","uncletopia"],"game_id":440,"stv_port":27026,"stv_name":"Uncletopia | New York City | 2 | All Maps | STV","players":[{"user_id":214,"name":"Johnny Lawrence #JohnnyMaxxing","steam_id":76561199367141671,"connected_time":870000000000,"state":"active","ping":49},{"user_id":238,"name":"nina levin","steam_id":76561197998546201,"connected_time":42000000000,"state":"active","ping":85},{"user_id":234,"name":"Menace to Sobriety","steam_id":76561198245103000,"connected_time":292000000000,"state":"active","ping":55},{"user_id":182,"name":"TheBoxWizard","steam_id":76561198447992832,"connected_time":4076000000000,"state":"active","ping":46},{"user_id":205,"name":"villain","steam_id":76561198306677358,"connected_time":2100000000000,"state":"active","ping":59},{"user_id":142,"name":"Voracious Puma","steam_id":76561197963621649,"connected_time":7917000000000,"state":"active","ping":91},{"user_id":158,"name":"BeerPowder","steam_id":76561198058129400,"connected_time":6407000000000,"state":"active","ping":53},{"user_id":226,"name":"M249 | Spectre","steam_id":76561198118334485,"connected_time":557000000000,"state":"active","ping":61},{"user_id":235,"name":"mollusk_obliteration","steam_id":76561198085388962,"connected_time":265000000000,"state":"active","ping":83},{"user_id":202,"name":"frid","steam_id":76561198005806915,"connected_time":2186000000000,"state":"active","ping":68},{"user_id":187,"name":"dumpster defender","steam_id":76561198270926835,"connected_time":3067000000000,"state":"active","ping":101},{"user_id":200,"name":"TheMadHattah","steam_id":76561198066587266,"connected_time":2414000000000,"state":"active","ping":66},{"user_id":237,"name":"certified wrapist","steam_id":76561199147181622,"connected_time":223000000000,"state":"active","ping":125},{"user_id":231,"name":"FAKE TAXI PRANKS","steam_id":76561198136746987,"connected_time":359000000000,"state":"active","ping":84},{"user_id":236,"name":"F2P","steam_id":76561199501469347,"connected_time":233000000000,"state":"active","ping":92},{"user_id":213,"name":"Pathara44","steam_id":76561198048238620,"connected_time":1070000000000,"state":"active","ping":82},{"user_id":139,"name":"GoldtoothFour","steam_id":76561198055529332,"connected_time":8258000000000,"state":"active","ping":68},{"user_id":198,"name":"Max","steam_id":76561198029782094,"connected_time":2476000000000,"state":"active","ping":72},{"user_id":209,"name":"Poyo Boyo","steam_id":76561198010201227,"connected_time":1452000000000,"state":"active","ping":84},{"user_id":232,"name":"slowdance","steam_id":76561198097427947,"connected_time":339000000000,"state":"active","ping":160},{"user_id":219,"name":"loscemo","steam_id":76561197994884609,"connected_time":816000000000,"state":"active","ping":81},{"user_id":204,"name":"CornDog","steam_id":76561198249446918,"connected_time":2131000000000,"state":"active","ping":40},{"user_id":174,"name":"G2 DamDam","steam_id":76561198173095997,"connected_time":5327000000000,"state":"active","ping":51},{"user_id":221,"name":"Artic_Ryuu","steam_id":76561198182194918,"connected_time":778000000000,"state":"active","ping":104}]},{"server_id":15,"name":"Uncletopia | New York City | 3 | Stopwatch","name_short":"nyc-3","host":"nyc-1.us.uncletopia.com","port":27035,"enabled":true,"region":"us-east","cc":"us","latitude":40.73061,"longitude":-73.93524,"reserved":0,"last_update":"0001-01-01T00:00:00Z","name_a2s":"Uncletopia | New York City | 3 | Stopwatch","protocol":17,"map":"pl_borneo","folder":"tf","game":"Team Fortress","app_id":440,"player_count":2,"max_players":24,"Bots":0,"server_type":"Dedicated","server_os":"Linux","password":true,"vac":true,"version":"7961495","steam_id":85568392924742820,"keywords":["nocrits","nodmgspread","payload","uncletopia"],"game_id":440,"stv_port":27036,"stv_name":"Uncletopia | New York City | 3 | Stopwatch | STV","players":[{"user_id":9,"name":"Local Milf","steam_id":76561199500043428,"connected_time":239000000000,"state":"active","ping":53},{"user_id":10,"name":"Worcestershire Sauce","steam_id":76561199058049384,"connected_time":208000000000,"state":"active","ping":58}]},{"server_id":16,"name":"Uncletopia | New York City | 4 | Community","name_short":"nyc-4","host":"nyc-1.us.uncletopia.com","port":27045,"enabled":true,"region":"us-east","cc":"us","latitude":40.73061,"longitude":-73.93524,"reserved":0,"last_update":"0001-01-01T00:00:00Z","name_a2s":"Uncletopia | New York City | 4 | Community","protocol":17,"map":"workshop/koth_ramjam_rc1.ugc459778887","folder":"tf","game":"Team Fortress","app_id":440,"player_count":0,"max_players":24,"Bots":0,"server_type":"Dedicated","server_os":"Linux","password":true,"vac":true,"version":"7961495","steam_id":85568392924742821,"keywords":["cp","nocrits","nodmgspread","uncletopia"],"game_id":440,"stv_port":27046,"stv_name":"Uncletopia | New York City | 4 | Community | STV","players":null},{"server_id":142,"name":"Uncletopia | S√£o Paulo | 1 | All Maps","name_short":"sao-1","host":"sao-1.br.uncletopia.com","port":27015,"enabled":true,"region":"sa","cc":"br","latitude":-23.533773,"longitude":-46.62529,"reserved":0,"last_update":"0001-01-01T00:00:00Z","name_a2s":"Uncletopia | S√£o Paulo | 1 | All Maps","protocol":17,"map":"koth_cascade","folder":"tf","game":"Team Fortress","app_id":440,"player_count":0,"max_players":24,"Bots":0,"server_type":"Dedicated","server_os":"Linux","password":true,"vac":true,"version":"7961495","steam_id":85568392924469996,"keywords":["cp","nocrits","nodmgspread","uncletopia"],"game_id":440,"stv_port":27016,"stv_name":"Uncletopia | S√£o Paulo | 1 | All Maps | STV","players":null},{"server_id":143,"name":"Uncletopia | S√£o Paulo | 2 | Community","name_short":"sao-2","host":"sao-2.br.uncletopia.com","port":27015,"enabled":true,"region":"sa","cc":"br","latitude":-23.533773,"longitude":-46.62529,"reserved":0,"last_update":"0001-01-01T00:00:00Z","name_a2s":"Uncletopia | S√£o Paulo | 2 | Community","protocol":17,"map":"workshop/koth_product_final.ugc454272353","folder":"tf","game":"Team Fortress","app_id":440,"player_count":0,"max_players":24,"Bots":0,"server_type":"Dedicated","server_os":"Linux","password":true,"vac":true,"version":"7961495","steam_id":85568392924485349,"keywords":["cp","nocrits","nodmgspread","uncletopia"],"game_id":440,"stv_port":27016,"stv_name":"Uncletopia | S√£o Paulo | 2 | Community | STV","players":null},{"server_id":7,"name":"Uncletopia | Seattle | 1 | All Maps","name_short":"sea-1","host":"sea-1.us.uncletopia.com","port":27015,"enabled":true,"region":"us-west","cc":"us","latitude":47.608013,"longitude":-122.33517,"reserved":0,"last_update":"0001-01-01T00:00:00Z","name_a2s":"Uncletopia | Seattle | 1 | All Maps","protocol":17,"map":"cp_egypt_final","folder":"tf","game":"Team Fortress","app_id":440,"player_count":24,"max_players":24,"Bots":0,"server_type":"Dedicated","server_os":"Linux","password":true,"vac":true,"version":"7961495","steam_id":85568392924469997,"keywords":["cp","nocrits","nodmgspread","uncletopia"],"game_id":440,"stv_port":27016,"stv_name":"Uncletopia | Seattle | 1 | All Maps | STV","players":[{"user_id":276,"name":"greenpeace","steam_id":76561197983221708,"connected_time":4585000000000,"state":"active","ping":60},{"user_id":292,"name":"Tomato","steam_id":76561197996472649,"connected_time":3147000000000,"state":"active","ping":118},{"user_id":326,"name":"Sniff","steam_id":76561198010270922,"connected_time":133000000000,"state":"active","ping":56},{"user_id":235,"name":"slushy :))","steam_id":76561198135281802,"connected_time":8064000000000,"state":"active","ping":37},{"user_id":320,"name":"Emmy Kat","steam_id":76561198185115417,"connected_time":476000000000,"state":"active","ping":57},{"user_id":272,"name":"goos  e","steam_id":76561198036774894,"connected_time":4892000000000,"state":"active","ping":42},{"user_id":285,"name":"fwoov","steam_id":76561198129166260,"connected_time":3565000000000,"state":"active","ping":75},{"user_id":310,"name":"Alltrex","steam_id":76561198202254225,"connected_time":1182000000000,"state":"active","ping":48},{"user_id":270,"name":"mansteam905","steam_id":76561199488421021,"connected_time":5004000000000,"state":"active","ping":125},{"user_id":327,"name":"zinnk","steam_id":76561198092081825,"connected_time":94000000000,"state":"active","ping":60},{"user_id":311,"name":"green bean","steam_id":76561198113099204,"connected_time":1152000000000,"state":"active","ping":53},{"user_id":312,"name":"jayeskae","steam_id":76561198144220801,"connected_time":1145000000000,"state":"active","ping":45},{"user_id":286,"name":"FidelGuevara","steam_id":76561198368296171,"connected_time":3448000000000,"state":"active","ping":92},{"user_id":323,"name":"piss gaming","steam_id":76561198002280184,"connected_time":363000000000,"state":"active","ping":45},{"user_id":301,"name":"woodpigeon","steam_id":76561199488457138,"connected_time":2318000000000,"state":"active","ping":46},{"user_id":302,"name":"Skabbety","steam_id":76561198168044257,"connected_time":2315000000000,"state":"active","ping":37},{"user_id":313,"name":"dree says relax!","steam_id":76561198079178866,"connected_time":1135000000000,"state":"active","ping":118},{"user_id":315,"name":"mine diam","steam_id":76561198119123981,"connected_time":880000000000,"state":"active","ping":59},{"user_id":322,"name":"Blue Shell Man Guy","steam_id":76561198157985901,"connected_time":420000000000,"state":"active","ping":44},{"user_id":303,"name":"greens beans","steam_id":76561198153611491,"connected_time":2297000000000,"state":"active","ping":43},{"user_id":277,"name":"Embie","steam_id":76561198358221011,"connected_time":4403000000000,"state":"active","ping":52},{"user_id":324,"name":"Context","steam_id":76561197972634187,"connected_time":244000000000,"state":"active","ping":59},{"user_id":291,"name":"Mi cara","steam_id":76561198190771759,"connected_time":3308000000000,"state":"active","ping":116},{"user_id":328,"name":"rushy :))","steam_id":76561198065825165,"connected_time":59000000000,"state":"active","ping":94}]},{"server_id":119,"name":"Uncletopia | Seattle | 2 | All Maps","name_short":"sea-2","host":"sea-1.us.uncletopia.com","port":27025,"enabled":true,"region":"us-west","cc":"us","latitude":47.608013,"longitude":-122.33517,"reserved":0,"last_update":"0001-01-01T00:00:00Z","name_a2s":"Uncletopia | Seattle | 2 | All Maps","protocol":17,"map":"koth_harvest_final","folder":"tf","game":"Team Fortress","app_id":440,"player_count":24,"max_players":24,"Bots":0,"server_type":"Dedicated","server_os":"Linux","password":true,"vac":true,"version":"7961495","steam_id":85568392924469998,"keywords":["cp","nocrits","nodmgspread","uncletopia"],"game_id":440,"stv_port":27026,"stv_name":"Uncletopia | Seattle | 2 | All Maps | STV","players":[{"user_id":79,"name":"My_Movie.mp4","steam_id":76561198047002366,"connected_time":79000000000,"state":"active","ping":46},{"user_id":78,"name":"Hummer65","steam_id":76561198077974078,"connected_time":133000000000,"state":"active","ping":107},{"user_id":70,"name":"wugmup","steam_id":76561199096287734,"connected_time":645000000000,"state":"active","ping":128},{"user_id":65,"name":"nugit74","steam_id":76561198325736178,"connected_time":1145000000000,"state":"active","ping":60},{"user_id":57,"name":"korkskrou","steam_id":76561198422156430,"connected_time":1468000000000,"state":"active","ping":47},{"user_id":31,"name":"mafia is mafia","steam_id":76561198042574722,"connected_time":2778000000000,"state":"active","ping":55},{"user_id":67,"name":"zuma deluxe","steam_id":76561198059041027,"connected_time":984000000000,"state":"active","ping":49},{"user_id":34,"name":"Elfy","steam_id":76561199166448617,"connected_time":2242000000000,"state":"active","ping":45},{"user_id":59,"name":"I shovel mayonnaise in mouth","steam_id":76561199123118241,"connected_time":1440000000000,"state":"active","ping":71},{"user_id":37,"name":"Keamy","steam_id":76561199471434875,"connected_time":2163000000000,"state":"active","ping":42},{"user_id":72,"name":"Level 1 Crook","steam_id":76561198441098132,"connected_time":606000000000,"state":"active","ping":89},{"user_id":77,"name":"[BC] lemon","steam_id":76561198086406706,"connected_time":472000000000,"state":"active","ping":103},{"user_id":40,"name":"the man","steam_id":76561198389268114,"connected_time":2063000000000,"state":"active","ping":116},{"user_id":75,"name":"trackpad gaming | f2p","steam_id":76561198840414371,"connected_time":574000000000,"state":"active","ping":47},{"user_id":64,"name":"achoo","steam_id":76561198009091066,"connected_time":1272000000000,"state":"active","ping":49},{"user_id":74,"name":"Anxiety","steam_id":76561198365627687,"connected_time":597000000000,"state":"active","ping":75},{"user_id":55,"name":"midgetfell","steam_id":76561199081057823,"connected_time":1615000000000,"state":"active","ping":106},{"user_id":62,"name":"TriazicideChugger","steam_id":76561198093883448,"connected_time":1327000000000,"state":"active","ping":47},{"user_id":80,"name":"Lactose ‡πëÔ≠•","steam_id":76561198208256987,"connected_time":67000000000,"state":"active","ping":64},{"user_id":61,"name":"171","steam_id":76561199001918194,"connected_time":1347000000000,"state":"active","ping":75},{"user_id":49,"name":"Meepster","steam_id":76561198146305159,"connected_time":1731000000000,"state":"active","ping":58},{"user_id":50,"name":"Why","steam_id":76561199388826335,"connected_time":1718000000000,"state":"active","ping":121},{"user_id":76,"name":"KhorneBread Ô∏ª„Éá ‰∏Ä","steam_id":76561198097069958,"connected_time":566000000000,"state":"active","ping":116},{"user_id":52,"name":"Chuck McGill Gaming OwO","steam_id":76561199236737910,"connected_time":1705000000000,"state":"active","ping":119}]},{"server_id":406,"name":"Uncletopia | Seattle | 3 | Stopwatch","name_short":"sea-3","host":"sea-1.us.uncletopia.com","port":27035,"enabled":true,"region":"us-west","cc":"us","latitude":47.608013,"longitude":-122.33517,"reserved":0,"last_update":"0001-01-01T00:00:00Z","name_a2s":"Uncletopia | Seattle | 3 | Stopwatch","protocol":17,"map":"workshop/koth_ashville_final.ugc2130459942","folder":"tf","game":"Team Fortress","app_id":440,"player_count":0,"max_players":24,"Bots":0,"server_type":"Dedicated","server_os":"Linux","password":true,"vac":true,"version":"7961495","steam_id":85568392924515217,"keywords":["cp","nocrits","nodmgspread","uncletopia"],"game_id":440,"stv_port":27036,"stv_name":"Uncletopia | Seattle | 3 | Stopwatch | STV","players":null},{"server_id":17,"name":"Uncletopia | San Francisco | 1 | All Maps","name_short":"sfo-1","host":"sfo-1.us.uncletopia.com","port":27015,"enabled":true,"region":"us-west","cc":"us","latitude":37.77397,"longitude":-122.4313,"reserved":0,"last_update":"0001-01-01T00:00:00Z","name_a2s":"Uncletopia | San Francisco | 1 | All Maps","protocol":17,"map":"koth_cascade","folder":"tf","game":"Team Fortress","app_id":440,"player_count":0,"max_players":24,"Bots":0,"server_type":"Dedicated","server_os":"Linux","password":true,"vac":true,"version":"7961495","steam_id":85568392924469999,"keywords":["cp","nocrits","nodmgspread","uncletopia"],"game_id":440,"stv_port":27016,"stv_name":"Uncletopia | San Francisco | 1 | All Maps | STV","players":null},{"server_id":18,"name":"Uncletopia | San Francisco | 2 | All Maps","name_short":"sfo-2","host":"sfo-1.us.uncletopia.com","port":27025,"enabled":true,"region":"us-west","cc":"us","latitude":37.77397,"longitude":-122.4313,"reserved":0,"last_update":"0001-01-01T00:00:00Z","name_a2s":"Uncletopia | San Francisco | 2 | All Maps","protocol":17,"map":"cp_snakewater_final1","folder":"tf","game":"Team Fortress","app_id":440,"player_count":0,"max_players":24,"Bots":0,"server_type":"Dedicated","server_os":"Linux","password":true,"vac":true,"version":"7961495","steam_id":85568392924470000,"keywords":["cp","nocrits","nodmgspread","uncletopia"],"game_id":440,"stv_port":27026,"stv_name":"Uncletopia | San Francisco | 2 | All Maps | STV","players":null},{"server_id":19,"name":"Uncletopia | San Francisco | 3 | Stopwatch","name_short":"sfo-3","host":"sfo-1.us.uncletopia.com","port":27035,"enabled":true,"region":"us-west","cc":"us","latitude":37.77397,"longitude":-122.4313,"reserved":0,"last_update":"0001-01-01T00:00:00Z","name_a2s":"Uncletopia | San Francisco | 3 | Stopwatch","protocol":17,"map":"pl_pier","folder":"tf","game":"Team Fortress","app_id":440,"player_count":0,"max_players":24,"Bots":0,"server_type":"Dedicated","server_os":"Linux","password":true,"vac":true,"version":"7961495","steam_id":85568392924742824,"keywords":["nocrits","nodmgspread","payload","uncletopia"],"game_id":440,"stv_port":27036,"stv_name":"Uncletopia | San Francisco | 3 | Stopwatch | STV","players":null},{"server_id":20,"name":"Uncletopia | San Francisco | 4 | Community","name_short":"sfo-4","host":"sfo-1.us.uncletopia.com","port":27045,"enabled":true,"region":"us-west","cc":"us","latitude":37.77397,"longitude":-122.4313,"reserved":0,"last_update":"0001-01-01T00:00:00Z","name_a2s":"Uncletopia | San Francisco | 4 | Community","protocol":17,"map":"pl_pier","folder":"tf","game":"Team Fortress","app_id":440,"player_count":0,"max_players":24,"Bots":0,"server_type":"Dedicated","server_os":"Linux","password":true,"vac":true,"version":"7961495","steam_id":85568392924742826,"keywords":["nocrits","nodmgspread","payload","uncletopia"],"game_id":440,"stv_port":27046,"stv_name":"Uncletopia | San Francisco | 4 | Community | STV","players":null},{"server_id":141,"name":"Uncletopia | Sydney | 1 | All Maps","name_short":"syd-1","host":"syd-1.au.uncletopia.com","port":27015,"enabled":true,"region":"au","cc":"au","latitude":-33.865143,"longitude":151.2099,"reserved":0,"last_update":"0001-01-01T00:00:00Z","name_a2s":"Uncletopia | Sydney | 1 | All Maps","protocol":17,"map":"koth_viaduct","folder":"tf","game":"Team Fortress","app_id":440,"player_count":0,"max_players":24,"Bots":0,"server_type":"Dedicated","server_os":"Linux","password":true,"vac":true,"version":"7961495","steam_id":85568392924470001,"keywords":["cp","nocrits","nodmgspread","uncletopia"],"game_id":440,"stv_port":27016,"stv_name":"Uncletopia | Sydney | 1 | All Maps | STV","players":null},{"server_id":123,"name":"Uncletopia | Sydney | 2 | All Maps","name_short":"syd-2","host":"syd-1.au.uncletopia.com","port":27025,"enabled":true,"region":"au","cc":"au","latitude":-33.865143,"longitude":151.2099,"reserved":0,"last_update":"0001-01-01T00:00:00Z","name_a2s":"Uncletopia | Sydney | 2 | All Maps","protocol":17,"map":"koth_lakeside_final","folder":"tf","game":"Team Fortress","app_id":440,"player_count":0,"max_players":24,"Bots":0,"server_type":"Dedicated","server_os":"Linux","password":true,"vac":true,"version":"7961495","steam_id":85568392924470002,"keywords":["cp","nocrits","nodmgspread","uncletopia"],"game_id":440,"stv_port":27026,"stv_name":"Uncletopia | Sydney | 2 | All Maps | STV","players":null},{"server_id":395,"name":"Uncletopia | Sydney | 3 | All Maps","name_short":"syd-3","host":"syd-1.au.uncletopia.com","port":27035,"enabled":true,"region":"au","cc":"au","latitude":-33.865143,"longitude":151.2099,"reserved":0,"last_update":"0001-01-01T00:00:00Z","name_a2s":"Uncletopia | Sydney | 3 | All Maps","protocol":17,"map":"cp_dustbowl","folder":"tf","game":"Team Fortress","app_id":440,"player_count":0,"max_players":24,"Bots":0,"server_type":"Dedicated","server_os":"Linux","password":true,"vac":true,"version":"7961495","steam_id":85568392925194467,"keywords":["cp","nocrits","nodmgspread","uncletopia"],"game_id":440,"stv_port":27036,"stv_name":"Uncletopia | Sydney | 3 | All Maps | STV","players":null},{"server_id":396,"name":"Uncletopia | Sydney | 4 | All Maps","name_short":"syd-4","host":"syd-1.au.uncletopia.com","port":27045,"enabled":true,"region":"au","cc":"au","latitude":-33.865143,"longitude":151.2099,"reserved":0,"last_update":"0001-01-01T00:00:00Z","name_a2s":"Uncletopia | Sydney | 4 | All Maps","protocol":17,"map":"pl_snowycoast","folder":"tf","game":"Team Fortress","app_id":440,"player_count":0,"max_players":24,"Bots":0,"server_type":"Dedicated","server_os":"Linux","password":true,"vac":true,"version":"7961495","steam_id":85568392925397958,"keywords":["nocrits","nodmgspread","payload","uncletopia"],"game_id":440,"stv_port":27046,"stv_name":"Uncletopia | Sydney | 4 | All Maps | STV","players":null},{"server_id":58,"name":"Uncletopia | Sydney | 5 | Stopwatch","name_short":"syd-5","host":"syd-1.au.uncletopia.com","port":27055,"enabled":true,"region":"au","cc":"au","latitude":-33.865143,"longitude":151.2099,"reserved":0,"last_update":"0001-01-01T00:00:00Z","name_a2s":"Uncletopia | Sydney | 5 | Stopwatch","protocol":17,"map":"pl_frontier_final","folder":"tf","game":"Team Fortress","app_id":440,"player_count":0,"max_players":24,"Bots":0,"server_type":"Dedicated","server_os":"Linux","password":true,"vac":true,"version":"7961495","steam_id":85568392925397959,"keywords":["nocrits","nodmgspread","payload","uncletopia"],"game_id":440,"stv_port":27056,"stv_name":"Uncletopia | Sydney | 5 | Stopwatch | STV","players":null},{"server_id":59,"name":"Uncletopia | Sydney | 6 | Community","name_short":"syd-6","host":"syd-1.au.uncletopia.com","port":27065,"enabled":true,"region":"au","cc":"au","latitude":-33.865143,"longitude":151.2099,"reserved":0,"last_update":"0001-01-01T00:00:00Z","name_a2s":"Uncletopia | Sydney | 6 | Community","protocol":17,"map":"cp_sunshine","folder":"tf","game":"Team Fortress","app_id":440,"player_count":0,"max_players":24,"Bots":0,"server_type":"Dedicated","server_os":"Linux","password":true,"vac":true,"version":"7961495","steam_id":85568392925397960,"keywords":["cp","nocrits","nodmgspread","uncletopia"],"game_id":440,"stv_port":27066,"stv_name":"Uncletopia | Sydney | 6 | Community | STV","players":null},{"server_id":49,"name":"Uncletopia | Warsaw | 1 | One Thousand Uncles","name_short":"waw-1","host":"waw-1.pl.uncletopia.com","port":27015,"enabled":true,"region":"eu","cc":"pl","latitude":52.2297,"longitude":21.017532,"reserved":0,"last_update":"0001-01-01T00:00:00Z","name_a2s":"Uncletopia | Warsaw | 1 | One Thousand Uncles","protocol":17,"map":"pl_chilly","folder":"tf","game":"Team Fortress","app_id":440,"player_count":0,"max_players":32,"Bots":0,"server_type":"Dedicated","server_os":"Linux","password":true,"vac":true,"version":"7961495","steam_id":85568392925397850,"keywords":["alltalk","danepve","increased_maxplayers","nocrits","norespawntime","payload","uncletopia"],"game_id":440,"stv_port":0,"stv_name":"","players":null},{"server_id":50,"name":"Uncletopia | Warsaw | 2 | One Thousand Uncles","name_short":"waw-2","host":"waw-1.pl.uncletopia.com","port":27025,"enabled":true,"region":"eu","cc":"pl","latitude":52.2297,"longitude":21.017532,"reserved":0,"last_update":"0001-01-01T00:00:00Z","name_a2s":"Uncletopia | Warsaw | 2 | One Thousand Uncles","protocol":17,"map":"pl_badwater","folder":"tf","game":"Team Fortress","app_id":440,"player_count":0,"max_players":32,"Bots":0,"server_type":"Dedicated","server_os":"Linux","password":true,"vac":true,"version":"7961495","steam_id":85568392925397851,"keywords":["alltalk","danepve","increased_maxplayers","nocrits","norespawntime","payload","uncletopia"],"game_id":440,"stv_port":0,"stv_name":"","players":null},{"server_id":51,"name":"Uncletopia | Warsaw | 3 | All Maps","name_short":"waw-3","host":"waw-1.pl.uncletopia.com","port":27035,"enabled":true,"region":"eu","cc":"pl","latitude":52.2297,"longitude":21.017532,"reserved":0,"last_update":"0001-01-01T00:00:00Z","name_a2s":"Uncletopia | Warsaw | 3 | All Maps","protocol":17,"map":"koth_highpass","folder":"tf","game":"Team Fortress","app_id":440,"player_count":0,"max_players":24,"Bots":0,"server_type":"Dedicated","server_os":"Linux","password":true,"vac":true,"version":"7961495","steam_id":85568392925397852,"keywords":["cp","nocrits","nodmgspread","uncletopia"],"game_id":440,"stv_port":27036,"stv_name":"Uncletopia | Warsaw | 3 | All Maps | STV","players":null},{"server_id":52,"name":"Uncletopia | Warsaw | 4 | All Maps","name_short":"waw-4","host":"waw-1.pl.uncletopia.com","port":27045,"enabled":true,"region":"eu","cc":"pl","latitude":52.2297,"longitude":21.017532,"reserved":0,"last_update":"0001-01-01T00:00:00Z","name_a2s":"Uncletopia | Warsaw | 4 | All Maps","protocol":17,"map":"koth_lakeside_final","folder":"tf","game":"Team Fortress","app_id":440,"player_count":0,"max_players":24,"Bots":0,"server_type":"Dedicated","server_os":"Linux","password":true,"vac":true,"version":"7961495","steam_id":85568392925397853,"keywords":["cp","nocrits","nodmgspread","uncletopia"],"game_id":440,"stv_port":27046,"stv_name":"Uncletopia | Warsaw | 4 | All Maps | STV","players":null},{"server_id":53,"name":"Uncletopia | Warsaw | 5 | Stopwatch","name_short":"waw-5","host":"waw-1.pl.uncletopia.com","port":27055,"enabled":true,"region":"eu","cc":"pl","latitude":52.2297,"longitude":21.017532,"reserved":0,"last_update":"0001-01-01T00:00:00Z","name_a2s":"Uncletopia | Warsaw | 5 | Stopwatch","protocol":17,"map":"koth_lakeside_final","folder":"tf","game":"Team Fortress","app_id":440,"player_count":0,"max_players":24,"Bots":0,"server_type":"Dedicated","server_os":"Linux","password":true,"vac":true,"version":"7961495","steam_id":85568392925397854,"keywords":["cp","nocrits","nodmgspread","uncletopia"],"game_id":440,"stv_port":27056,"stv_name":"Uncletopia | Warsaw | 5 | Stopwatch | STV","players":null},{"server_id":54,"name":"Uncletopia | Warsaw | 6 | Community","name_short":"waw-6","host":"waw-1.pl.uncletopia.com","port":27065,"enabled":true,"region":"eu","cc":"pl","latitude":52.2297,"longitude":21.017532,"reserved":0,"last_update":"0001-01-01T00:00:00Z","name_a2s":"Uncletopia | Warsaw | 6 | Community","protocol":17,"map":"workshop/rd_asteroid_redux_b1.ugc2154902912","folder":"tf","game":"Team Fortress","app_id":440,"player_count":0,"max_players":24,"Bots":0,"server_type":"Dedicated","server_os":"Linux","password":true,"vac":true,"version":"7961495","steam_id":85568392925397856,"keywords":["beta","nocrits","nodmgspread","rd","uncletopia"],"game_id":440,"stv_port":27066,"stv_name":"Uncletopia | Warsaw | 6 | Community | STV","players":null}]}