{"status":true,"message":"","result":[{"server_id":9,"name":"Uncletopia | Atlanta | 1 | All Maps","name_short":"atl-1","host":"atl-1.us.uncletopia.com","port":27015,"enabled":true,"region":"us-east","cc":"us","latitude":33.753746,"longitude":-84.38633,"reserved":0,"last_update":"0001-01-01T00:00:00Z","name_a2s":"Uncletopia | Atlanta | 1 | All Maps","protocol":17,"map":"pl_pier","folder":"tf","game":"Team Fortress","app_id":440,"player_count":24,"max_players":24,"Bots":0,"server_type":"Dedicated","server_os":"Linux","password":true,"vac":true,"version":"7757534","steam_id":85568392924469982,"keywords":["nocrits","nodmgspread","payload","uncletopia"],"game_id":440,"stv_port":27016,"stv_name":"Uncletopia | Atlanta | 1 | All Maps | STV","players":[{"user_id":182,"name":"David De Bergerac","steam_id":76561198010306294,"connected_time":1401000000000,"state":"active","ping":76},{"user_id":183,"name":"Eins","steam_id":76561199030343810,"connected_time":1398000000000,"state":"active","ping":40},{"user_id":91,"name":"AJsurfer","steam_id":76561198897045252,"connected_time":7973000000000,"state":"active","ping":35},{"user_id":171,"name":"Notation","steam_id":76561198119509319,"connected_time":1729000000000,"state":"active","ping":45},{"user_id":194,"name":"O'Keearns","steam_id":76561198042213797,"connected_time":519000000000,"state":"active","ping":48},{"user_id":154,"name":"I have a dream... mrNiceguy","steam_id":76561198053176402,"connected_time":2983000000000,"state":"active","ping":175},{"user_id":181,"name":"ash","steam_id":76561198127890645,"connected_time":1413000000000,"state":"active","ping":71},{"user_id":150,"name":"Waffle Wannabe","steam_id":76561198064510650,"connected_time":3481000000000,"state":"active","ping":68},{"user_id":202,"name":"PerpetuaForever","steam_id":76561198347444353,"connected_time":370000000000,"state":"active","ping":88},{"user_id":203,"name":"Broadsword","steam_id":76561198011160411,"connected_time":344000000000,"state":"active","ping":64},{"user_id":204,"name":"ATL1 | Avo","steam_id":76561197993340494,"connected_time":247000000000,"state":"active","ping":60},{"user_id":178,"name":"Bali","steam_id":76561198038693845,"connected_time":1571000000000,"state":"active","ping":71},{"user_id":170,"name":"atl1lonelyy","steam_id":76561198968001329,"connected_time":1776000000000,"state":"active","ping":47},{"user_id":161,"name":"Poo","steam_id":76561198265144507,"connected_time":2770000000000,"state":"active","ping":81},{"user_id":200,"name":"Brown_Dream","steam_id":76561198975766145,"connected_time":382000000000,"state":"active","ping":77},{"user_id":158,"name":"Fedsmoker","steam_id":76561198047372130,"connected_time":2874000000000,"state":"active","ping":84},{"user_id":153,"name":"Monkey Mode","steam_id":76561197961267543,"connected_time":3043000000000,"state":"active","ping":61},{"user_id":130,"name":"halfpint","steam_id":76561198148217618,"connected_time":5756000000000,"state":"active","ping":60},{"user_id":162,"name":"MaybeMars","steam_id":76561198084736804,"connected_time":2760000000000,"state":"active","ping":71},{"user_id":53,"name":"scuba doo warfare","steam_id":76561198018761740,"connected_time":10975000000000,"state":"active","ping":79},{"user_id":119,"name":"lil hog","steam_id":76561199230929836,"connected_time":6957000000000,"state":"active","ping":92},{"user_id":192,"name":"Motorol¬™","steam_id":76561198358119669,"connected_time":709000000000,"state":"active","ping":135},{"user_id":166,"name":"Kiso ÁÅ´","steam_id":76561198141026844,"connected_time":2424000000000,"state":"active","ping":121},{"user_id":201,"name":"Dr. drips","steam_id":76561198209380493,"connected_time":381000000000,"state":"active","ping":66}]},{"server_id":104,"name":"Uncletopia | Atlanta | 2 | All Maps","name_short":"atl-2","host":"atl-1.us.uncletopia.com","port":27025,"enabled":true,"region":"us-east","cc":"us","latitude":33.753746,"longitude":-84.38633,"reserved":0,"last_update":"0001-01-01T00:00:00Z","name_a2s":"Uncletopia | Atlanta | 2 | All Maps","protocol":17,"map":"cp_sunshine","folder":"tf","game":"Team Fortress","app_id":440,"player_count":3,"max_players":24,"Bots":0,"server_type":"Dedicated","server_os":"Linux","password":true,"vac":true,"version":"7757534","steam_id":85568392924469983,"keywords":["cp","nocrits","nodmgspread","uncletopia"],"game_id":440,"stv_port":27026,"stv_name":"Uncletopia | Atlanta | 2 | All Maps | STV","players":[{"user_id":22,"name":"the piss maker","steam_id":76561199338113724,"connected_time":196000000000,"state":"active","ping":99},{"user_id":23,"name":"ThePacBruno","steam_id":76561198046084545,"connected_time":188000000000,"state":"active","ping":180},{"user_id":24,"name":"box","steam_id":76561198985635309,"connected_time":8000000000,"state":"spawning","ping":72}]},{"server_id":400,"name":"Uncletopia | Atlanta | 3 | Community","name_short":"atl-3","host":"atl-1.us.uncletopia.com","port":27035,"enabled":true,"region":"us-east","cc":"us","latitude":33.753746,"longitude":-84.38633,"reserved":0,"last_update":"0001-01-01T00:00:00Z","name_a2s":"Uncletopia | Atlanta | 3 | Community","protocol":17,"map":"workshop/cp_caldera_rc2.ugc2834196889","folder":"tf","game":"Team Fortress","app_id":440,"player_count":0,"max_players":24,"Bots":0,"server_type":"Dedicated","server_os":"Linux","password":true,"vac":true,"version":"7757534","steam_id":85568392924515187,"keywords":["cp","nocrits","nodmgspread","uncletopia"],"game_id":440,"stv_port":27036,"stv_name":"Uncletopia | Atlanta | 3 | Community | STV","players":null},{"server_id":401,"name":"Uncletopia | Atlanta | 4 | No Payload","name_short":"atl-4","host":"atl-1.us.uncletopia.com","port":27045,"enabled":true,"region":"us-east","cc":"us","latitude":33.753746,"longitude":-84.38633,"reserved":0,"last_update":"0001-01-01T00:00:00Z","name_a2s":"","protocol":0,"map":"","folder":"","game":"","app_id":0,"player_count":0,"max_players":0,"Bots":0,"server_type":"","server_os":"","password":false,"vac":false,"version":"","steam_id":0,"keywords":null,"game_id":0,"stv_port":0,"stv_name":"","players":null},{"server_id":2,"name":"Uncletopia | Chicago | 1 | All Maps","name_short":"chi-1","host":"chi-1.us.uncletopia.com","port":27015,"enabled":true,"region":"us-central","cc":"us","latitude":41.881832,"longitude":-87.62318,"reserved":0,"last_update":"0001-01-01T00:00:00Z","name_a2s":"Uncletopia | Chicago | 1 | All Maps","protocol":17,"map":"pl_upward","folder":"tf","game":"Team Fortress","app_id":440,"player_count":24,"max_players":24,"Bots":0,"server_type":"Dedicated","server_os":"Linux","password":true,"vac":true,"version":"7757534","steam_id":85568392924469984,"keywords":["nocrits","nodmgspread","payload","uncletopia"],"game_id":440,"stv_port":27016,"stv_name":"Uncletopia | Chicago | 1 | All Maps | STV","players":[{"user_id":257,"name":"Yarn","steam_id":76561199227148369,"connected_time":151000000000,"state":"active","ping":91},{"user_id":251,"name":"goober","steam_id":76561199014881883,"connected_time":601000000000,"state":"active","ping":71},{"user_id":197,"name":"chipperguy","steam_id":76561199060302023,"connected_time":4139000000000,"state":"active","ping":93},{"user_id":208,"name":"BasicPeaches","steam_id":76561198190890150,"connected_time":3451000000000,"state":"active","ping":79},{"user_id":206,"name":"coyne","steam_id":76561197997350766,"connected_time":3790000000000,"state":"active","ping":61},{"user_id":214,"name":"femboy foxboy","steam_id":76561198056432756,"connected_time":3019000000000,"state":"active","ping":52},{"user_id":215,"name":"[DEEP] Danmar33","steam_id":76561198056453091,"connected_time":2780000000000,"state":"active","ping":48},{"user_id":211,"name":"NovaSc6ut","steam_id":76561198277163301,"connected_time":3175000000000,"state":"active","ping":65},{"user_id":258,"name":"Business skeleton","steam_id":76561198840648058,"connected_time":128000000000,"state":"active","ping":50},{"user_id":232,"name":"‚ãÜ‚ú∞ùíÆùìÉùí∂ùíæùìÅùìà","steam_id":76561198102045762,"connected_time":2421000000000,"state":"active","ping":75},{"user_id":237,"name":"DrSnickers","steam_id":76561198094050751,"connected_time":2120000000000,"state":"active","ping":85},{"user_id":246,"name":"4 life","steam_id":76561198175961598,"connected_time":946000000000,"state":"active","ping":120},{"user_id":252,"name":"Discourse","steam_id":76561198984286678,"connected_time":574000000000,"state":"active","ping":57},{"user_id":221,"name":"A Pyro Main","steam_id":76561198421760112,"connected_time":2551000000000,"state":"active","ping":51},{"user_id":249,"name":"Conceal An Brightness","steam_id":76561198934284298,"connected_time":619000000000,"state":"active","ping":68},{"user_id":247,"name":"Oceans","steam_id":76561198039030992,"connected_time":624000000000,"state":"active","ping":50},{"user_id":225,"name":"Boba T","steam_id":76561198012278650,"connected_time":2526000000000,"state":"active","ping":108},{"user_id":226,"name":"test","steam_id":76561198197388678,"connected_time":2524000000000,"state":"active","ping":79},{"user_id":227,"name":"Yam Jazzy Jim","steam_id":76561198000788950,"connected_time":2508000000000,"state":"active","ping":69},{"user_id":245,"name":"Monster","steam_id":76561198189429665,"connected_time":1018000000000,"state":"active","ping":77},{"user_id":234,"name":"Green/Black Weezer CD#36","steam_id":76561198851520459,"connected_time":2410000000000,"state":"active","ping":76},{"user_id":256,"name":"Pluto","steam_id":76561198338593690,"connected_time":209000000000,"state":"active","ping":79},{"user_id":253,"name":"Rich Kitten","steam_id":76561199152388008,"connected_time":572000000000,"state":"active","ping":55},{"user_id":236,"name":"Red/Blue Weezer CD#35","steam_id":76561199008044410,"connected_time":2403000000000,"state":"active","ping":90}]},{"server_id":106,"name":"Uncletopia | Chicago | 2 | All Maps","name_short":"chi-2","host":"chi-1.us.uncletopia.com","port":27025,"enabled":true,"region":"us-central","cc":"us","latitude":41.881832,"longitude":-87.62318,"reserved":0,"last_update":"0001-01-01T00:00:00Z","name_a2s":"Uncletopia | Chicago | 2 | All Maps","protocol":17,"map":"koth_nucleus","folder":"tf","game":"Team Fortress","app_id":440,"player_count":0,"max_players":24,"Bots":0,"server_type":"Dedicated","server_os":"Linux","password":true,"vac":true,"version":"7757534","steam_id":85568392924469985,"keywords":["cp","nocrits","nodmgspread","uncletopia"],"game_id":440,"stv_port":27026,"stv_name":"Uncletopia | Chicago | 2 | All Maps | STV","players":null},{"server_id":402,"name":"Uncletopia | Chicago | 3 | All Maps","name_short":"chi-3","host":"chi-1.us.uncletopia.com","port":27035,"enabled":true,"region":"us-central","cc":"us","latitude":41.881832,"longitude":-87.62318,"reserved":0,"last_update":"0001-01-01T00:00:00Z","name_a2s":"Uncletopia | Chicago | 3 | All Maps","protocol":17,"map":"pl_upward","folder":"tf","game":"Team Fortress","app_id":440,"player_count":24,"max_players":24,"Bots":0,"server_type":"Dedicated","server_os":"Linux","password":true,"vac":true,"version":"7757534","steam_id":85568392924515191,"keywords":["nocrits","nodmgspread","payload","uncletopia"],"game_id":440,"stv_port":27036,"stv_name":"Uncletopia | Chicago | 3 | All Maps | STV","players":[{"user_id":305,"name":"„Äé Ethereal „Äè","steam_id":76561199385170644,"connected_time":484000000000,"state":"active","ping":57},{"user_id":311,"name":"N√©oGothiqueüïØ","steam_id":76561198003467269,"connected_time":244000000000,"state":"active","ping":72},{"user_id":265,"name":"EmptyB33R","steam_id":76561198993166528,"connected_time":2114000000000,"state":"active","ping":129},{"user_id":255,"name":"P-4rio","steam_id":76561198003593070,"connected_time":2691000000000,"state":"active","ping":55},{"user_id":275,"name":"Jill the Owl","steam_id":76561197999210583,"connected_time":1922000000000,"state":"active","ping":70},{"user_id":304,"name":"gNarNar","steam_id":76561197994505205,"connected_time":507000000000,"state":"active","ping":68},{"user_id":276,"name":"Kymat","steam_id":76561198056367793,"connected_time":1737000000000,"state":"active","ping":71},{"user_id":279,"name":"Letters","steam_id":76561198035508148,"connected_time":1691000000000,"state":"active","ping":117},{"user_id":312,"name":"El-niix","steam_id":76561198044253373,"connected_time":195000000000,"state":"active","ping":175},{"user_id":313,"name":"noellemeow","steam_id":76561198159622003,"connected_time":193000000000,"state":"active","ping":63},{"user_id":295,"name":"Hemiphix","steam_id":76561198329316429,"connected_time":876000000000,"state":"active","ping":66},{"user_id":257,"name":"mischievous imp","steam_id":76561199074875663,"connected_time":2628000000000,"state":"active","ping":77},{"user_id":296,"name":"ArrowOmega","steam_id":76561198079364917,"connected_time":699000000000,"state":"active","ping":63},{"user_id":258,"name":"Ursus Ludius","steam_id":76561198025470722,"connected_time":2620000000000,"state":"active","ping":84},{"user_id":212,"name":"Cousin Corn on the Cob","steam_id":76561198049837377,"connected_time":5961000000000,"state":"active","ping":46},{"user_id":306,"name":"The good NPC","steam_id":76561198431446386,"connected_time":478000000000,"state":"active","ping":67},{"user_id":259,"name":"The Power","steam_id":76561198060566884,"connected_time":2607000000000,"state":"active","ping":129},{"user_id":310,"name":"a mass hallucination","steam_id":76561198259092181,"connected_time":322000000000,"state":"active","ping":62},{"user_id":307,"name":"Voxany","steam_id":76561198081096335,"connected_time":463000000000,"state":"active","ping":92},{"user_id":284,"name":"xavierpego64","steam_id":76561199405220871,"connected_time":1579000000000,"state":"active","ping":109},{"user_id":282,"name":"BeakerofSalt","steam_id":76561198986000125,"connected_time":1636000000000,"state":"active","ping":55},{"user_id":263,"name":"Bread Baker","steam_id":76561198185335103,"connected_time":2227000000000,"state":"active","ping":76},{"user_id":290,"name":"Captain Demytri","steam_id":76561198097998607,"connected_time":1241000000000,"state":"active","ping":45},{"user_id":293,"name":"ComputeCore167","steam_id":76561198301250353,"connected_time":990000000000,"state":"active","ping":86}]},{"server_id":403,"name":"Uncletopia | Chicago | 4 | All Maps","name_short":"chi-4","host":"chi-1.us.uncletopia.com","port":27045,"enabled":true,"region":"us-central","cc":"us","latitude":41.881832,"longitude":-87.62318,"reserved":0,"last_update":"0001-01-01T00:00:00Z","name_a2s":"Uncletopia | Chicago | 4 | All Maps","protocol":17,"map":"pl_upward","folder":"tf","game":"Team Fortress","app_id":440,"player_count":24,"max_players":24,"Bots":0,"server_type":"Dedicated","server_os":"Linux","password":true,"vac":true,"version":"7757534","steam_id":85568392924515193,"keywords":["nocrits","nodmgspread","payload","uncletopia"],"game_id":440,"stv_port":27046,"stv_name":"Uncletopia | Chicago | 4 | All Maps | STV","players":[{"user_id":469,"name":"dahperson","steam_id":76561198067207467,"connected_time":403000000000,"state":"active","ping":55},{"user_id":448,"name":"Rec","steam_id":76561198022813906,"connected_time":1803000000000,"state":"active","ping":49},{"user_id":457,"name":"aiden","steam_id":76561198449527009,"connected_time":850000000000,"state":"active","ping":63},{"user_id":464,"name":"square-","steam_id":76561198058143770,"connected_time":596000000000,"state":"active","ping":54},{"user_id":459,"name":"Proof by close enough","steam_id":76561198083345384,"connected_time":685000000000,"state":"active","ping":86},{"user_id":436,"name":"wack","steam_id":76561198095697330,"connected_time":3353000000000,"state":"active","ping":78},{"user_id":466,"name":"Female Gamer","steam_id":76561199366482682,"connected_time":591000000000,"state":"active","ping":113},{"user_id":463,"name":"FarLogicDreamer","steam_id":76561198251736808,"connected_time":634000000000,"state":"active","ping":77},{"user_id":445,"name":"SGTBrutus","steam_id":76561197967770472,"connected_time":2868000000000,"state":"active","ping":55},{"user_id":458,"name":"B.","steam_id":76561198040445907,"connected_time":774000000000,"state":"active","ping":72},{"user_id":460,"name":"Toottoot","steam_id":76561197992404836,"connected_time":674000000000,"state":"active","ping":44},{"user_id":470,"name":"Theodore Roosevelt","steam_id":76561197993295656,"connected_time":388000000000,"state":"active","ping":45},{"user_id":473,"name":"Konrad Vilulf","steam_id":76561198111124481,"connected_time":77000000000,"state":"active","ping":78},{"user_id":471,"name":"battle clown","steam_id":76561198045788371,"connected_time":343000000000,"state":"active","ping":67},{"user_id":354,"name":"yahoo.com warrior","steam_id":76561198152818418,"connected_time":8178000000000,"state":"active","ping":84},{"user_id":356,"name":"Yandex.RU Mercenary","steam_id":76561198202254225,"connected_time":8115000000000,"state":"active","ping":95},{"user_id":454,"name":"Jak(i)","steam_id":76561198076823144,"connected_time":1275000000000,"state":"active","ping":65},{"user_id":474,"name":"Slurpsie","steam_id":76561199059342667,"connected_time":5000000000,"state":"spawning","ping":51},{"user_id":472,"name":"jubb","steam_id":76561198186865526,"connected_time":341000000000,"state":"active","ping":109},{"user_id":449,"name":"tydogzilla","steam_id":76561198054254518,"connected_time":1658000000000,"state":"active","ping":58},{"user_id":389,"name":"hotmail.com legionnaire","steam_id":76561198192120869,"connected_time":5775000000000,"state":"active","ping":60},{"user_id":450,"name":"b√ºddeh","steam_id":76561198070735936,"connected_time":1657000000000,"state":"active","ping":59},{"user_id":427,"name":"g00bur","steam_id":76561197993622520,"connected_time":4324000000000,"state":"active","ping":68},{"user_id":417,"name":"gmail.com white knight","steam_id":76561198138221795,"connected_time":4732000000000,"state":"active","ping":74}]},{"server_id":36,"name":"Uncletopia | Chicago | 5 | All Maps","name_short":"chi-5","host":"chi-2.us.uncletopia.com","port":27015,"enabled":true,"region":"us-central","cc":"us","latitude":41.881832,"longitude":-87.62318,"reserved":0,"last_update":"0001-01-01T00:00:00Z","name_a2s":"Uncletopia | Chicago | 5 | All Maps","protocol":17,"map":"koth_cascade","folder":"tf","game":"Team Fortress","app_id":440,"player_count":0,"max_players":24,"Bots":0,"server_type":"Dedicated","server_os":"Linux","password":true,"vac":true,"version":"7757534","steam_id":85568392924866362,"keywords":["cp","nocrits","nodmgspread","uncletopia"],"game_id":440,"stv_port":27016,"stv_name":"Uncletopia | Chicago | 5 | All Maps | STV","players":null},{"server_id":37,"name":"Uncletopia | Chicago | 6 | All Maps","name_short":"chi-6","host":"chi-2.us.uncletopia.com","port":27025,"enabled":true,"region":"us-central","cc":"us","latitude":41.881832,"longitude":-87.62318,"reserved":0,"last_update":"0001-01-01T00:00:00Z","name_a2s":"Uncletopia | Chicago | 6 | All Maps","protocol":17,"map":"cp_mountainlab","folder":"tf","game":"Team Fortress","app_id":440,"player_count":25,"max_players":24,"Bots":0,"server_type":"Dedicated","server_os":"Linux","password":true,"vac":true,"version":"7757534","steam_id":85568392924866363,"keywords":["cp","nocrits","nodmgspread","uncletopia"],"game_id":440,"stv_port":27026,"stv_name":"Uncletopia | Chicago | 6 | All Maps | STV","players":[{"user_id":329,"name":"proon","steam_id":76561198155983535,"connected_time":1321000000000,"state":"active","ping":45},{"user_id":349,"name":"Verschlimmbesserung","steam_id":76561198024991137,"connected_time":59000000000,"state":"active","ping":73},{"user_id":346,"name":"Rat","steam_id":76561198330059340,"connected_time":532000000000,"state":"active","ping":132},{"user_id":342,"name":"Vittorio Veneto","steam_id":76561199006388533,"connected_time":781000000000,"state":"active","ping":80},{"user_id":328,"name":"Delete Youkai","steam_id":76561198042708504,"connected_time":1381000000000,"state":"active","ping":52},{"user_id":269,"name":"girlpeen supreme","steam_id":76561198031242903,"connected_time":5822000000000,"state":"active","ping":58},{"user_id":313,"name":"john","steam_id":76561198850447852,"connected_time":1953000000000,"state":"active","ping":75},{"user_id":337,"name":"B0otstrut beel","steam_id":76561198202457221,"connected_time":939000000000,"state":"active","ping":70},{"user_id":348,"name":"runescape sea_shanty2","steam_id":76561198397662124,"connected_time":91000000000,"state":"active","ping":90},{"user_id":321,"name":"Zoawsome","steam_id":76561198018758753,"connected_time":1554000000000,"state":"active","ping":52},{"user_id":301,"name":"cotton candy thief","steam_id":76561198058998371,"connected_time":2617000000000,"state":"active","ping":60},{"user_id":338,"name":"jm","steam_id":76561197996774870,"connected_time":928000000000,"state":"active","ping":61},{"user_id":345,"name":"Rein","steam_id":76561198300340427,"connected_time":641000000000,"state":"active","ping":63},{"user_id":290,"name":"I Am Alpharius","steam_id":76561198799197135,"connected_time":3672000000000,"state":"active","ping":55},{"user_id":350,"name":"Dzhoshua","steam_id":76561198071915251,"connected_time":31000000000,"state":"active","ping":61},{"user_id":316,"name":"Marcy2231","steam_id":76561198202323656,"connected_time":1942000000000,"state":"active","ping":56},{"user_id":344,"name":"Roma","steam_id":76561198445634626,"connected_time":718000000000,"state":"active","ping":92},{"user_id":324,"name":"Sublime","steam_id":76561198018268623,"connected_time":1443000000000,"state":"active","ping":76},{"user_id":343,"name":"Shaquille Oatmeal","steam_id":76561198283213819,"connected_time":754000000000,"state":"active","ping":74},{"user_id":292,"name":"Missing Minus","steam_id":76561198120822928,"connected_time":3630000000000,"state":"active","ping":60},{"user_id":306,"name":"Highphin","steam_id":76561198986584680,"connected_time":2175000000000,"state":"active","ping":61},{"user_id":351,"name":"Heisenberg","steam_id":76561198084212164,"connected_time":17000000000,"state":"spawning","ping":122},{"user_id":334,"name":"CreativeCoffeeCake","steam_id":76561198323542875,"connected_time":1041000000000,"state":"active","ping":109},{"user_id":340,"name":"Shmurg","steam_id":76561199368485421,"connected_time":903000000000,"state":"active","ping":45},{"user_id":352,"name":"bobbyreinman2009","steam_id":76561198804763186,"connected_time":15000000000,"state":"spawning","ping":70}]},{"server_id":38,"name":"Uncletopia | Chicago | 7 | Stopwatch Beta","name_short":"chi-7","host":"chi-2.us.uncletopia.com","port":27035,"enabled":true,"region":"us-central","cc":"us","latitude":41.881832,"longitude":-87.62318,"reserved":0,"last_update":"0001-01-01T00:00:00Z","name_a2s":"Uncletopia | Chicago | 7 | Stopwatch Beta","protocol":17,"map":"pl_barnblitz","folder":"tf","game":"Team Fortress","app_id":440,"player_count":0,"max_players":24,"Bots":0,"server_type":"Dedicated","server_os":"Linux","password":true,"vac":true,"version":"7757534","steam_id":85568392924866364,"keywords":["nocrits","nodmgspread","payload","uncletopia"],"game_id":440,"stv_port":27036,"stv_name":"Uncletopia | Chicago | 7 | Stopwatch Beta | STV","players":null},{"server_id":39,"name":"Uncletopia | Chicago | 8 | Community","name_short":"chi-8","host":"chi-2.us.uncletopia.com","port":27045,"enabled":true,"region":"us-central","cc":"us","latitude":41.881832,"longitude":-87.62318,"reserved":0,"last_update":"0001-01-01T00:00:00Z","name_a2s":"Uncletopia | Chicago | 8 | Community","protocol":17,"map":"koth_cascade","folder":"tf","game":"Team Fortress","app_id":440,"player_count":0,"max_players":24,"Bots":0,"server_type":"Dedicated","server_os":"Linux","password":true,"vac":true,"version":"7757534","steam_id":85568392924866365,"keywords":["cp","nocrits","nodmgspread","uncletopia"],"game_id":440,"stv_port":27046,"stv_name":"Uncletopia | Chicago | 8 | Community | STV","players":null},{"server_id":8,"name":"Uncletopia | Dallas | 1 | All Maps","name_short":"dal-1","host":"dal-1.us.uncletopia.com","port":27015,"enabled":true,"region":"us-central","cc":"us","latitude":32.779167,"longitude":-96.80889,"reserved":0,"last_update":"0001-01-01T00:00:00Z","name_a2s":"Uncletopia | Dallas | 1 | All Maps","protocol":17,"map":"pl_upward","folder":"tf","game":"Team Fortress","app_id":440,"player_count":24,"max_players":24,"Bots":0,"server_type":"Dedicated","server_os":"Linux","password":true,"vac":true,"version":"7757534","steam_id":85568392924469986,"keywords":["nocrits","nodmgspread","payload","uncletopia"],"game_id":440,"stv_port":27016,"stv_name":"Uncletopia | Dallas | 1 | All Maps | STV","players":[{"user_id":99,"name":"Incredulous Dylan","steam_id":76561197979969143,"connected_time":1909000000000,"state":"active","ping":75},{"user_id":124,"name":"Romo","steam_id":76561198243101572,"connected_time":677000000000,"state":"active","ping":77},{"user_id":116,"name":"MiKE","steam_id":76561198115112269,"connected_time":1125000000000,"state":"active","ping":65},{"user_id":75,"name":"The Cool Man","steam_id":76561198096420556,"connected_time":2627000000000,"state":"active","ping":77},{"user_id":127,"name":"Sleepy Squiddy","steam_id":76561198798931344,"connected_time":360000000000,"state":"active","ping":131},{"user_id":28,"name":"Bobby Zimmeruski","steam_id":76561198171428589,"connected_time":5954000000000,"state":"active","ping":61},{"user_id":119,"name":"fart","steam_id":76561199456639473,"connected_time":862000000000,"state":"active","ping":65},{"user_id":77,"name":"SuperFresh","steam_id":76561198200723198,"connected_time":2517000000000,"state":"active","ping":60},{"user_id":122,"name":"Commander_Volk_5","steam_id":76561198129924356,"connected_time":760000000000,"state":"active","ping":68},{"user_id":110,"name":"Worst Scenario","steam_id":76561199052130229,"connected_time":1321000000000,"state":"active","ping":90},{"user_id":126,"name":"Piss Champion","steam_id":76561198059362878,"connected_time":558000000000,"state":"active","ping":75},{"user_id":82,"name":"Winter","steam_id":76561198312741335,"connected_time":2331000000000,"state":"active","ping":120},{"user_id":120,"name":"dicksnip","steam_id":76561198356515396,"connected_time":830000000000,"state":"active","ping":55},{"user_id":84,"name":"blob","steam_id":76561198122375328,"connected_time":2290000000000,"state":"active","ping":69},{"user_id":117,"name":"Deewey","steam_id":76561198084768933,"connected_time":1095000000000,"state":"active","ping":55},{"user_id":86,"name":"Draco6257","steam_id":76561199147322448,"connected_time":2251000000000,"state":"active","ping":69},{"user_id":107,"name":"Outlander","steam_id":76561197998995746,"connected_time":1512000000000,"state":"active","ping":75},{"user_id":118,"name":"plink","steam_id":76561198057829889,"connected_time":1036000000000,"state":"active","ping":110},{"user_id":88,"name":"Project_Counter","steam_id":76561198152786076,"connected_time":2216000000000,"state":"active","ping":56},{"user_id":106,"name":"Apricot","steam_id":76561198355699935,"connected_time":1578000000000,"state":"active","ping":83},{"user_id":90,"name":"Monkery Man","steam_id":76561199083374021,"connected_time":2171000000000,"state":"active","ping":64},{"user_id":91,"name":"Dragonofponies","steam_id":76561199016800803,"connected_time":2165000000000,"state":"active","ping":56},{"user_id":113,"name":"Alice in Rubberland","steam_id":76561198087328346,"connected_time":1239000000000,"state":"active","ping":65},{"user_id":128,"name":"-Skyler-","steam_id":76561198825626764,"connected_time":260000000000,"state":"active","ping":74}]},{"server_id":108,"name":"Uncletopia | Dallas | 2 | All Maps","name_short":"dal-2","host":"dal-1.us.uncletopia.com","port":27025,"enabled":true,"region":"us-central","cc":"us","latitude":32.779167,"longitude":-96.80889,"reserved":0,"last_update":"0001-01-01T00:00:00Z","name_a2s":"Uncletopia | Dallas | 2 | All Maps","protocol":17,"map":"pl_borneo","folder":"tf","game":"Team Fortress","app_id":440,"player_count":23,"max_players":24,"Bots":0,"server_type":"Dedicated","server_os":"Linux","password":true,"vac":true,"version":"7757534","steam_id":85568392924469988,"keywords":["nocrits","nodmgspread","payload","uncletopia"],"game_id":440,"stv_port":27026,"stv_name":"Uncletopia | Dallas | 2 | All Maps | STV","players":[{"user_id":378,"name":"Jib","steam_id":76561198328210524,"connected_time":185000000000,"state":"active","ping":88},{"user_id":374,"name":"Reaper","steam_id":76561198435826103,"connected_time":862000000000,"state":"active","ping":71},{"user_id":356,"name":"icm2008","steam_id":76561199277408836,"connected_time":2415000000000,"state":"active","ping":83},{"user_id":377,"name":"adam0o0","steam_id":76561198052250279,"connected_time":188000000000,"state":"active","ping":71},{"user_id":376,"name":"DragonHunter994","steam_id":76561199076203907,"connected_time":607000000000,"state":"active","ping":58},{"user_id":339,"name":"Aircraft Carrier Princess","steam_id":76561198348354629,"connected_time":3204000000000,"state":"active","ping":122},{"user_id":362,"name":"Flooder","steam_id":76561198043792818,"connected_time":1929000000000,"state":"active","ping":170},{"user_id":385,"name":"JerlBays","steam_id":76561198096773292,"connected_time":117000000000,"state":"active","ping":61},{"user_id":359,"name":"Fuzzy","steam_id":76561199100612353,"connected_time":2336000000000,"state":"active","ping":79},{"user_id":379,"name":"fac","steam_id":76561198009818412,"connected_time":183000000000,"state":"active","ping":64},{"user_id":329,"name":"Pinder","steam_id":76561198176708643,"connected_time":4171000000000,"state":"active","ping":67},{"user_id":380,"name":"Cepheid","steam_id":76561198093333511,"connected_time":178000000000,"state":"active","ping":78},{"user_id":367,"name":"GoldtoothFour","steam_id":76561198055529332,"connected_time":1510000000000,"state":"active","ping":84},{"user_id":345,"name":"DoomoPelota","steam_id":76561198326462587,"connected_time":3095000000000,"state":"active","ping":90},{"user_id":353,"name":"Gundam Guy","steam_id":76561198178453993,"connected_time":2726000000000,"state":"active","ping":83},{"user_id":381,"name":"HeyGamingLIVE","steam_id":76561199224811007,"connected_time":148000000000,"state":"active","ping":108},{"user_id":382,"name":"Phrog","steam_id":76561199122281598,"connected_time":147000000000,"state":"active","ping":66},{"user_id":352,"name":"Sup m8","steam_id":76561198081659121,"connected_time":2812000000000,"state":"active","ping":44},{"user_id":383,"name":"Rhutebeer","steam_id":76561198018302761,"connected_time":145000000000,"state":"active","ping":86},{"user_id":384,"name":"SLiPpeRyJoe.nosound","steam_id":76561197977206359,"connected_time":126000000000,"state":"active","ping":93},{"user_id":386,"name":"LG_Fridge_User","steam_id":76561198977815014,"connected_time":114000000000,"state":"active","ping":97},{"user_id":371,"name":"oxbudy","steam_id":76561198022120207,"connected_time":1450000000000,"state":"active","ping":67},{"user_id":373,"name":"Some dude on tf2","steam_id":76561198894586082,"connected_time":1394000000000,"state":"active","ping":152}]},{"server_id":5,"name":"Uncletopia | Frankfurt | 1 | All Maps","name_short":"frk-1","host":"frk-1.de.uncletopia.com","port":27015,"enabled":true,"region":"eu","cc":"de","latitude":50.110924,"longitude":8.682127,"reserved":0,"last_update":"0001-01-01T00:00:00Z","name_a2s":"Uncletopia | Frankfurt | 1 | All Maps","protocol":17,"map":"pl_barnblitz","folder":"tf","game":"Team Fortress","app_id":440,"player_count":24,"max_players":24,"Bots":0,"server_type":"Dedicated","server_os":"Linux","password":true,"vac":true,"version":"7757534","steam_id":85568392924469989,"keywords":["nocrits","nodmgspread","payload","uncletopia"],"game_id":440,"stv_port":27016,"stv_name":"Uncletopia | Frankfurt | 1 | All Maps | STV","players":[{"user_id":768,"name":"Sch","steam_id":76561198071341689,"connected_time":3068000000000,"state":"active","ping":40},{"user_id":775,"name":"THE TUNNEL IS INCOMPLETE","steam_id":76561198183949987,"connected_time":2840000000000,"state":"active","ping":65},{"user_id":798,"name":"Ecton","steam_id":76561198025103720,"connected_time":739000000000,"state":"active","ping":62},{"user_id":780,"name":"Burger King Dante","steam_id":76561198390314734,"connected_time":2341000000000,"state":"active","ping":62},{"user_id":746,"name":"Fenidokh","steam_id":76561198856093893,"connected_time":5006000000000,"state":"active","ping":74},{"user_id":756,"name":"Yelowchy","steam_id":76561198199416121,"connected_time":4219000000000,"state":"active","ping":60},{"user_id":795,"name":"Lexios","steam_id":76561198079780864,"connected_time":937000000000,"state":"active","ping":56},{"user_id":794,"name":"0","steam_id":76561198267909207,"connected_time":942000000000,"state":"active","ping":74},{"user_id":782,"name":"AiRBiscuiT","steam_id":76561198348655114,"connected_time":2178000000000,"state":"active","ping":68},{"user_id":777,"name":"Comrade Sprinkles","steam_id":76561198035672576,"connected_time":2483000000000,"state":"active","ping":69},{"user_id":763,"name":"Man Made Mad","steam_id":76561198808819694,"connected_time":4046000000000,"state":"active","ping":46},{"user_id":412,"name":"grandpa's post-mortem photo","steam_id":76561198130116078,"connected_time":28590000000000,"state":"active","ping":92},{"user_id":783,"name":"brainrot","steam_id":76561199414716848,"connected_time":1901000000000,"state":"active","ping":68},{"user_id":769,"name":"ldshwt","steam_id":76561198090364357,"connected_time":3035000000000,"state":"active","ping":56},{"user_id":765,"name":"FluffyFoxxo69","steam_id":76561198254582506,"connected_time":3158000000000,"state":"active","ping":55},{"user_id":708,"name":"Arti","steam_id":76561197983352845,"connected_time":8150000000000,"state":"active","ping":69},{"user_id":796,"name":"Saint","steam_id":76561198003296382,"connected_time":933000000000,"state":"active","ping":64},{"user_id":754,"name":"GoudAI","steam_id":76561198103391197,"connected_time":4436000000000,"state":"active","ping":91},{"user_id":781,"name":"slozkta","steam_id":76561198282952165,"connected_time":2253000000000,"state":"active","ping":75},{"user_id":800,"name":"HimpoX","steam_id":76561198043946778,"connected_time":560000000000,"state":"active","ping":104},{"user_id":802,"name":"Hyperek","steam_id":76561198130797464,"connected_time":438000000000,"state":"active","ping":70},{"user_id":797,"name":"S ü…™·¥òE…¥O Ä","steam_id":76561197967931911,"connected_time":907000000000,"state":"active","ping":112},{"user_id":803,"name":"Wyodu","steam_id":76561198406237593,"connected_time":395000000000,"state":"active","ping":66},{"user_id":799,"name":"ScarredPixel123","steam_id":76561199165112703,"connected_time":700000000000,"state":"active","ping":75}]},{"server_id":110,"name":"Uncletopia | Frankfurt | 2 | All Maps","name_short":"frk-2","host":"frk-1.de.uncletopia.com","port":27025,"enabled":true,"region":"eu","cc":"de","latitude":50.110924,"longitude":8.682127,"reserved":0,"last_update":"0001-01-01T00:00:00Z","name_a2s":"Uncletopia | Frankfurt | 2 | All Maps","protocol":17,"map":"cp_altitude","folder":"tf","game":"Team Fortress","app_id":440,"player_count":24,"max_players":24,"Bots":0,"server_type":"Dedicated","server_os":"Linux","password":true,"vac":true,"version":"7757534","steam_id":85568392924469990,"keywords":["cp","nocrits","nodmgspread","uncletopia"],"game_id":440,"stv_port":27026,"stv_name":"Uncletopia | Frankfurt | 2 | All Maps | STV","players":[{"user_id":514,"name":"Vene","steam_id":76561198018116338,"connected_time":863000000000,"state":"active","ping":81},{"user_id":494,"name":"Lux","steam_id":76561198060417740,"connected_time":2444000000000,"state":"active","ping":49},{"user_id":509,"name":"CarBombEnthusiast","steam_id":76561199448185434,"connected_time":1017000000000,"state":"active","ping":66},{"user_id":503,"name":"tanyathsus","steam_id":76561198089522447,"connected_time":1622000000000,"state":"active","ping":69},{"user_id":511,"name":"sam-","steam_id":76561198013770973,"connected_time":929000000000,"state":"active","ping":72},{"user_id":512,"name":"cherry","steam_id":76561199006915718,"connected_time":900000000000,"state":"active","ping":67},{"user_id":493,"name":"Hildreth","steam_id":76561197995254867,"connected_time":2453000000000,"state":"active","ping":61},{"user_id":513,"name":"kotamine","steam_id":76561198068907991,"connected_time":883000000000,"state":"active","ping":68},{"user_id":517,"name":"meatsoupcube","steam_id":76561198276802249,"connected_time":815000000000,"state":"active","ping":111},{"user_id":524,"name":"BigRob","steam_id":76561198182956827,"connected_time":498000000000,"state":"active","ping":85},{"user_id":507,"name":"dochris.2","steam_id":76561198026478625,"connected_time":1141000000000,"state":"active","ping":45},{"user_id":518,"name":"Loz405 (YouTube)","steam_id":76561198799315884,"connected_time":804000000000,"state":"active","ping":73},{"user_id":465,"name":"wiping theorist","steam_id":76561198058012525,"connected_time":5182000000000,"state":"active","ping":75},{"user_id":519,"name":"[VFL] PeterStuzz","steam_id":76561198989603146,"connected_time":793000000000,"state":"active","ping":146},{"user_id":433,"name":"medicinal man","steam_id":76561198202668788,"connected_time":6942000000000,"state":"active","ping":62},{"user_id":484,"name":"Sir Skyber","steam_id":76561198064440004,"connected_time":3006000000000,"state":"active","ping":99},{"user_id":504,"name":"Jampine","steam_id":76561198040419080,"connected_time":1607000000000,"state":"active","ping":81},{"user_id":459,"name":"Step back","steam_id":76561198063855616,"connected_time":5571000000000,"state":"active","ping":75},{"user_id":464,"name":"united chunk","steam_id":76561199017850298,"connected_time":5344000000000,"state":"active","ping":72},{"user_id":525,"name":"memeku","steam_id":76561199194985181,"connected_time":418000000000,"state":"active","ping":175},{"user_id":523,"name":"Cranto","steam_id":76561198101745576,"connected_time":665000000000,"state":"active","ping":75},{"user_id":489,"name":"Eivind","steam_id":76561198159927980,"connected_time":2659000000000,"state":"active","ping":74},{"user_id":491,"name":"Menty","steam_id":76561198036748212,"connected_time":2502000000000,"state":"active","ping":47},{"user_id":527,"name":"Tywhip","steam_id":76561199207545191,"connected_time":331000000000,"state":"active","ping":60}]},{"server_id":308,"name":"Uncletopia | Frankfurt | 3 | All Maps","name_short":"frk-3","host":"frk-1.de.uncletopia.com","port":27035,"enabled":true,"region":"eu","cc":"de","latitude":50.110924,"longitude":8.682127,"reserved":0,"last_update":"0001-01-01T00:00:00Z","name_a2s":"Uncletopia | Frankfurt | 3 | All Maps","protocol":17,"map":"koth_highpass","folder":"tf","game":"Team Fortress","app_id":440,"player_count":0,"max_players":24,"Bots":0,"server_type":"Dedicated","server_os":"Linux","password":true,"vac":true,"version":"7757534","steam_id":85568392924504274,"keywords":["cp","nocrits","nodmgspread","uncletopia"],"game_id":440,"stv_port":27036,"stv_name":"Uncletopia | Frankfurt | 3 | All Maps | STV","players":null},{"server_id":309,"name":"Uncletopia | Frankfurt | 4 | All Maps","name_short":"frk-4","host":"frk-1.de.uncletopia.com","port":27045,"enabled":true,"region":"eu","cc":"de","latitude":50.110924,"longitude":8.682127,"reserved":0,"last_update":"0001-01-01T00:00:00Z","name_a2s":"Uncletopia | Frankfurt | 4 | All Maps","protocol":17,"map":"pl_swiftwater_final1","folder":"tf","game":"Team Fortress","app_id":440,"player_count":24,"max_players":24,"Bots":0,"server_type":"Dedicated","server_os":"Linux","password":true,"vac":true,"version":"7757534","steam_id":85568392924504275,"keywords":["nocrits","nodmgspread","payload","uncletopia"],"game_id":440,"stv_port":27046,"stv_name":"Uncletopia | Frankfurt | 4 | All Maps | STV","players":[{"user_id":416,"name":"Tortox","steam_id":76561198122711528,"connected_time":905000000000,"state":"active","ping":101},{"user_id":335,"name":"Syd","steam_id":76561198020515027,"connected_time":5445000000000,"state":"active","ping":61},{"user_id":417,"name":"Dewotter","steam_id":76561198007653168,"connected_time":887000000000,"state":"active","ping":72},{"user_id":391,"name":"Joro","steam_id":76561197960425543,"connected_time":2244000000000,"state":"active","ping":64},{"user_id":393,"name":"Kirvis","steam_id":76561198027831643,"connected_time":2221000000000,"state":"active","ping":77},{"user_id":409,"name":"omnibombulator","steam_id":76561198025858897,"connected_time":1080000000000,"state":"active","ping":63},{"user_id":408,"name":"Chinese censorship Bureau","steam_id":76561198397898616,"connected_time":1086000000000,"state":"active","ping":76},{"user_id":421,"name":"etc","steam_id":76561197998394797,"connected_time":592000000000,"state":"active","ping":59},{"user_id":427,"name":"kallis","steam_id":76561198970304498,"connected_time":76000000000,"state":"active","ping":84},{"user_id":368,"name":"Behind you","steam_id":76561198410598772,"connected_time":3764000000000,"state":"active","ping":60},{"user_id":388,"name":"Artur ‚òª","steam_id":76561198264297604,"connected_time":2413000000000,"state":"active","ping":81},{"user_id":382,"name":"John Noob","steam_id":76561197999170026,"connected_time":3207000000000,"state":"active","ping":98},{"user_id":410,"name":"nyanezt","steam_id":76561198253734265,"connected_time":1071000000000,"state":"active","ping":1066},{"user_id":411,"name":"Mr.killer","steam_id":76561198290584189,"connected_time":1029000000000,"state":"active","ping":92},{"user_id":422,"name":"i5","steam_id":76561198212702751,"connected_time":566000000000,"state":"active","ping":84},{"user_id":418,"name":"wren","steam_id":76561197996645029,"connected_time":853000000000,"state":"active","ping":86},{"user_id":402,"name":"Twisted Logic ‚àû","steam_id":76561198002245428,"connected_time":1561000000000,"state":"active","ping":54},{"user_id":384,"name":"Lukas","steam_id":76561198009118452,"connected_time":2896000000000,"state":"active","ping":61},{"user_id":423,"name":"Champion","steam_id":76561198202285152,"connected_time":507000000000,"state":"active","ping":60},{"user_id":372,"name":"Brian Dog","steam_id":76561198048213112,"connected_time":3683000000000,"state":"active","ping":56},{"user_id":361,"name":"balinter","steam_id":76561198103408801,"connected_time":4666000000000,"state":"active","ping":82},{"user_id":397,"name":"Meta","steam_id":76561198413073432,"connected_time":2183000000000,"state":"active","ping":71},{"user_id":420,"name":"FilipeLuk","steam_id":76561198150675438,"connected_time":634000000000,"state":"active","ping":75},{"user_id":425,"name":"Have A Blessed Day","steam_id":76561198030956814,"connected_time":276000000000,"state":"active","ping":95}]},{"server_id":310,"name":"Uncletopia | Frankfurt | 5 | All Maps","name_short":"frk-5","host":"frk-1.de.uncletopia.com","port":27055,"enabled":true,"region":"eu","cc":"de","latitude":50.110924,"longitude":8.682127,"reserved":0,"last_update":"0001-01-01T00:00:00Z","name_a2s":"Uncletopia | Frankfurt | 5 | All Maps","protocol":17,"map":"cp_steel","folder":"tf","game":"Team Fortress","app_id":440,"player_count":24,"max_players":24,"Bots":0,"server_type":"Dedicated","server_os":"Linux","password":true,"vac":true,"version":"7757534","steam_id":85568392924504277,"keywords":["cp","nocrits","nodmgspread","uncletopia"],"game_id":440,"stv_port":27056,"stv_name":"Uncletopia | Frankfurt | 5 | All Maps | STV","players":[{"user_id":206,"name":"Bond","steam_id":76561198070654906,"connected_time":2017000000000,"state":"active","ping":51},{"user_id":162,"name":"ja","steam_id":76561199228540618,"connected_time":4777000000000,"state":"active","ping":77},{"user_id":233,"name":"eldaou2009","steam_id":76561198966358094,"connected_time":599000000000,"state":"active","ping":65},{"user_id":177,"name":"Fish","steam_id":76561198182278770,"connected_time":3726000000000,"state":"active","ping":76},{"user_id":225,"name":"Baron","steam_id":76561198021901783,"connected_time":1191000000000,"state":"active","ping":70},{"user_id":218,"name":"Teecho","steam_id":76561197995269610,"connected_time":1706000000000,"state":"active","ping":72},{"user_id":188,"name":"cult","steam_id":76561198188647690,"connected_time":3276000000000,"state":"active","ping":75},{"user_id":209,"name":"midnight at midnight","steam_id":76561198238955540,"connected_time":1936000000000,"state":"active","ping":84},{"user_id":204,"name":"group chat","steam_id":76561198083615367,"connected_time":2403000000000,"state":"active","ping":46},{"user_id":236,"name":"lilly","steam_id":76561199441196540,"connected_time":427000000000,"state":"active","ping":86},{"user_id":123,"name":"Cuthbert","steam_id":76561198204649481,"connected_time":7507000000000,"state":"active","ping":96},{"user_id":232,"name":"Stabbyratbag","steam_id":76561198119531916,"connected_time":734000000000,"state":"active","ping":58},{"user_id":210,"name":"0FCKGVN","steam_id":76561198076787036,"connected_time":1930000000000,"state":"active","ping":63},{"user_id":238,"name":"Maklovitz","steam_id":76561198085556156,"connected_time":281000000000,"state":"active","ping":81},{"user_id":203,"name":"Juiceydough","steam_id":76561197997323419,"connected_time":2434000000000,"state":"active","ping":93},{"user_id":199,"name":"Nerfan20 #SaveTF2","steam_id":76561198227391788,"connected_time":2803000000000,"state":"active","ping":76},{"user_id":211,"name":"fabacher","steam_id":76561198057905272,"connected_time":1926000000000,"state":"active","ping":60},{"user_id":212,"name":"FoxyTheFish","steam_id":76561199074190919,"connected_time":1910000000000,"state":"active","ping":57},{"user_id":191,"name":"nytronytronytro","steam_id":76561198080496833,"connected_time":3242000000000,"state":"active","ping":89},{"user_id":219,"name":"my pee is red","steam_id":76561199142022395,"connected_time":1538000000000,"state":"active","ping":71},{"user_id":194,"name":"‚òÖpoyo‚òÖ","steam_id":76561198150078959,"connected_time":3166000000000,"state":"active","ping":77},{"user_id":237,"name":"owl","steam_id":76561197998066985,"connected_time":425000000000,"state":"active","ping":64},{"user_id":183,"name":"Charles Darwin","steam_id":76561197973496139,"connected_time":3389000000000,"state":"active","ping":63},{"user_id":202,"name":"Gordon","steam_id":76561198088042034,"connected_time":2724000000000,"state":"active","ping":112}]},{"server_id":311,"name":"Uncletopia | Frankfurt | 6 | All Maps","name_short":"frk-6","host":"frk-1.de.uncletopia.com","port":27065,"enabled":true,"region":"eu","cc":"de","latitude":50.110924,"longitude":8.682127,"reserved":0,"last_update":"0001-01-01T00:00:00Z","name_a2s":"Uncletopia | Frankfurt | 6 | All Maps","protocol":17,"map":"plr_nightfall_final","folder":"tf","game":"Team Fortress","app_id":440,"player_count":0,"max_players":24,"Bots":0,"server_type":"Dedicated","server_os":"Linux","password":true,"vac":true,"version":"7757534","steam_id":85568392924504278,"keywords":["nocrits","nodmgspread","payload","uncletopia"],"game_id":440,"stv_port":27066,"stv_name":"Uncletopia | Frankfurt | 6 | All Maps | STV","players":null},{"server_id":23,"name":"Uncletopia | Frankfurt | 7 | Stopwatch Beta","name_short":"frk-7","host":"frk-1.de.uncletopia.com","port":27075,"enabled":true,"region":"eu","cc":"de","latitude":50.110924,"longitude":8.682127,"reserved":0,"last_update":"0001-01-01T00:00:00Z","name_a2s":"Uncletopia | Frankfurt | 7 | Stopwatch Beta","protocol":17,"map":"workshop/koth_clearcut_b15.ugc2107050255","folder":"tf","game":"Team Fortress","app_id":440,"player_count":0,"max_players":24,"Bots":0,"server_type":"Dedicated","server_os":"Linux","password":true,"vac":true,"version":"7757534","steam_id":85568392924742827,"keywords":["cp","nocrits","nodmgspread","uncletopia"],"game_id":440,"stv_port":27076,"stv_name":"Uncletopia | Frankfurt | 7 | Stopwatch Beta | STV","players":null},{"server_id":24,"name":"Uncletopia | Frankfurt | 8 | Community","name_short":"frk-8","host":"frk-1.de.uncletopia.com","port":27085,"enabled":true,"region":"eu","cc":"de","latitude":50.110924,"longitude":8.682127,"reserved":0,"last_update":"0001-01-01T00:00:00Z","name_a2s":"Uncletopia | Frankfurt | 8 | Community","protocol":17,"map":"workshop/cp_kalinka_rc6a.ugc1272700588","folder":"tf","game":"Team Fortress","app_id":440,"player_count":0,"max_players":24,"Bots":0,"server_type":"Dedicated","server_os":"Linux","password":true,"vac":true,"version":"7757534","steam_id":85568392924742828,"keywords":["cp","nocrits","nodmgspread","uncletopia"],"game_id":440,"stv_port":27086,"stv_name":"Uncletopia | Frankfurt | 8 | Community | STV","players":null},{"server_id":202,"name":"Uncletopia | Hong Kong | 1 | All Maps","name_short":"hgk-1","host":"hgk-1.hk.uncletopia.com","port":27015,"enabled":true,"region":"asia","cc":"hk","latitude":22.302711,"longitude":114.177216,"reserved":0,"last_update":"0001-01-01T00:00:00Z","name_a2s":"Uncletopia | Hong Kong | 1 | All Maps","protocol":17,"map":"pl_borneo","folder":"tf","game":"Team Fortress","app_id":440,"player_count":0,"max_players":24,"Bots":0,"server_type":"Dedicated","server_os":"Linux","password":true,"vac":true,"version":"7757534","steam_id":85568392924494504,"keywords":["nocrits","nodmgspread","payload","uncletopia"],"game_id":440,"stv_port":27016,"stv_name":"Uncletopia | Hong Kong | 1 | All Maps | STV","players":null},{"server_id":1,"name":"Uncletopia | Los Angeles | 1 | All Maps","name_short":"lax-1","host":"lax-1.us.uncletopia.com","port":27015,"enabled":true,"region":"us-west","cc":"us","latitude":33.94279,"longitude":-118.41004,"reserved":0,"last_update":"0001-01-01T00:00:00Z","name_a2s":"Uncletopia | Los Angeles | 1 | All Maps","protocol":17,"map":"koth_lakeside_final","folder":"tf","game":"Team Fortress","app_id":440,"player_count":0,"max_players":24,"Bots":0,"server_type":"Dedicated","server_os":"Linux","password":true,"vac":true,"version":"7757534","steam_id":85568392924469991,"keywords":["cp","nocrits","nodmgspread","uncletopia"],"game_id":440,"stv_port":27016,"stv_name":"Uncletopia | Los Angeles | 1 | All Maps | STV","players":null},{"server_id":112,"name":"Uncletopia | Los Angeles | 2 | All Maps","name_short":"lax-2","host":"lax-1.us.uncletopia.com","port":27025,"enabled":true,"region":"us-west","cc":"us","latitude":33.94279,"longitude":-118.41004,"reserved":0,"last_update":"0001-01-01T00:00:00Z","name_a2s":"Uncletopia | Los Angeles | 2 | All Maps","protocol":17,"map":"pl_badwater","folder":"tf","game":"Team Fortress","app_id":440,"player_count":0,"max_players":24,"Bots":0,"server_type":"Dedicated","server_os":"Linux","password":true,"vac":true,"version":"7757534","steam_id":85568392924469992,"keywords":["nocrits","nodmgspread","payload","uncletopia"],"game_id":440,"stv_port":27026,"stv_name":"Uncletopia | Los Angeles | 2 | All Maps | STV","players":null},{"server_id":324,"name":"Uncletopia | Los Angeles | 3 | All Maps","name_short":"lax-3","host":"lax-1.us.uncletopia.com","port":27035,"enabled":true,"region":"us-west","cc":"us","latitude":33.94279,"longitude":-118.41004,"reserved":0,"last_update":"0001-01-01T00:00:00Z","name_a2s":"Uncletopia | Los Angeles | 3 | All Maps","protocol":17,"map":"pl_barnblitz","folder":"tf","game":"Team Fortress","app_id":440,"player_count":0,"max_players":24,"Bots":0,"server_type":"Dedicated","server_os":"Linux","password":true,"vac":true,"version":"7757534","steam_id":85568392924510198,"keywords":["nocrits","nodmgspread","payload","uncletopia"],"game_id":440,"stv_port":27036,"stv_name":"Uncletopia | Los Angeles | 3 | All Maps | STV","players":null},{"server_id":25,"name":"Uncletopia | Los Angeles | 4 | Stopwatch Beta","name_short":"lax-4","host":"lax-1.us.uncletopia.com","port":27045,"enabled":true,"region":"us-west","cc":"us","latitude":33.94279,"longitude":-118.41004,"reserved":0,"last_update":"0001-01-01T00:00:00Z","name_a2s":"Uncletopia | Los Angeles | 4 | Stopwatch Beta","protocol":17,"map":"pl_swiftwater_final1","folder":"tf","game":"Team Fortress","app_id":440,"player_count":0,"max_players":24,"Bots":0,"server_type":"Dedicated","server_os":"Linux","password":true,"vac":true,"version":"7757534","steam_id":85568392924510199,"keywords":["nocrits","nodmgspread","payload","uncletopia"],"game_id":440,"stv_port":27046,"stv_name":"Uncletopia | Los Angeles | 4 | Stopwatch Beta | STV","players":null},{"server_id":11,"name":"Uncletopia | London | 1 | All Maps","name_short":"lon-1","host":"lon-1.uk.uncletopia.com","port":27015,"enabled":true,"region":"eu","cc":"gb","latitude":51.509865,"longitude":-0.118092,"reserved":0,"last_update":"0001-01-01T00:00:00Z","name_a2s":"Uncletopia | London | 1 | All Maps","protocol":17,"map":"pl_upward","folder":"tf","game":"Team Fortress","app_id":440,"player_count":24,"max_players":24,"Bots":0,"server_type":"Dedicated","server_os":"Linux","password":true,"vac":true,"version":"7757534","steam_id":85568392924367362,"keywords":["nocrits","nodmgspread","payload","uncletopia"],"game_id":440,"stv_port":27016,"stv_name":"Uncletopia | London | 1 | All Maps | STV","players":[{"user_id":584,"name":"JESSIE LOVER","steam_id":76561198049840460,"connected_time":2848000000000,"state":"active","ping":60},{"user_id":610,"name":"outin","steam_id":76561198137734730,"connected_time":195000000000,"state":"active","ping":66},{"user_id":551,"name":"thespe","steam_id":76561198088225107,"connected_time":6262000000000,"state":"active","ping":67},{"user_id":609,"name":"Kafe","steam_id":76561198083673594,"connected_time":253000000000,"state":"active","ping":55},{"user_id":601,"name":"Son Goku","steam_id":76561199383437138,"connected_time":665000000000,"state":"active","ping":125},{"user_id":575,"name":"BreadBubbles","steam_id":76561198174332826,"connected_time":3799000000000,"state":"active","ping":58},{"user_id":587,"name":"It's a me Malario","steam_id":76561198176546013,"connected_time":2612000000000,"state":"active","ping":54},{"user_id":592,"name":"shooer","steam_id":76561198110531281,"connected_time":1943000000000,"state":"active","ping":91},{"user_id":578,"name":"Baki ‡∂û","steam_id":76561198193615529,"connected_time":3619000000000,"state":"active","ping":63},{"user_id":582,"name":"JESSIIEE LOVER","steam_id":76561198443798981,"connected_time":3013000000000,"state":"active","ping":53},{"user_id":597,"name":"trite","steam_id":76561197983765323,"connected_time":1092000000000,"state":"active","ping":54},{"user_id":574,"name":"unrik76","steam_id":76561198147134386,"connected_time":3848000000000,"state":"active","ping":82},{"user_id":558,"name":"SirSangoor","steam_id":76561198044462559,"connected_time":5044000000000,"state":"active","ping":107},{"user_id":608,"name":"Camo Leaf","steam_id":76561197999456575,"connected_time":314000000000,"state":"active","ping":45},{"user_id":599,"name":"nedilya","steam_id":76561198039692077,"connected_time":786000000000,"state":"active","ping":67},{"user_id":556,"name":"gnarly business","steam_id":76561198832688767,"connected_time":5055000000000,"state":"active","ping":47},{"user_id":538,"name":"dec","steam_id":76561198009660168,"connected_time":7879000000000,"state":"active","ping":59},{"user_id":602,"name":"Ooze","steam_id":76561198039642637,"connected_time":643000000000,"state":"active","ping":75},{"user_id":604,"name":"Pinkchup","steam_id":76561198106802803,"connected_time":555000000000,"state":"active","ping":78},{"user_id":600,"name":"Aaron","steam_id":76561197990046953,"connected_time":736000000000,"state":"active","ping":73},{"user_id":588,"name":"Minimi","steam_id":76561198873850443,"connected_time":2358000000000,"state":"active","ping":43},{"user_id":557,"name":"regimiro","steam_id":76561198120457008,"connected_time":5055000000000,"state":"active","ping":49},{"user_id":607,"name":"Johan","steam_id":76561199380849468,"connected_time":336000000000,"state":"active","ping":62},{"user_id":590,"name":"The Punch","steam_id":76561198212488780,"connected_time":2290000000000,"state":"active","ping":60}]},{"server_id":114,"name":"Uncletopia | London | 2 | All Maps","name_short":"lon-2","host":"lon-1.uk.uncletopia.com","port":27025,"enabled":true,"region":"eu","cc":"gb","latitude":51.509865,"longitude":-0.118092,"reserved":0,"last_update":"0001-01-01T00:00:00Z","name_a2s":"Uncletopia | London | 2 | All Maps","protocol":17,"map":"pl_barnblitz","folder":"tf","game":"Team Fortress","app_id":440,"player_count":24,"max_players":24,"Bots":0,"server_type":"Dedicated","server_os":"Linux","password":true,"vac":true,"version":"7757534","steam_id":85568392924470941,"keywords":["nocrits","nodmgspread","payload","uncletopia"],"game_id":440,"stv_port":27026,"stv_name":"Uncletopia | London | 2 | All Maps | STV","players":[{"user_id":185,"name":"Bernardez","steam_id":76561197998751142,"connected_time":1056000000000,"state":"active","ping":45},{"user_id":146,"name":"rosepinkyfuzz","steam_id":76561198018546334,"connected_time":4108000000000,"state":"active","ping":75},{"user_id":194,"name":"dylanm0909","steam_id":76561198042433442,"connected_time":395000000000,"state":"active","ping":50},{"user_id":170,"name":"Scarlet","steam_id":76561198075966579,"connected_time":1513000000000,"state":"active","ping":39},{"user_id":190,"name":"NitPig","steam_id":76561198212991935,"connected_time":860000000000,"state":"active","ping":118},{"user_id":183,"name":"goblin","steam_id":76561199010825303,"connected_time":1120000000000,"state":"active","ping":86},{"user_id":189,"name":"Meddler","steam_id":76561198033001402,"connected_time":896000000000,"state":"active","ping":44},{"user_id":167,"name":"WiiSportKing","steam_id":76561198114139081,"connected_time":2661000000000,"state":"active","ping":55},{"user_id":162,"name":"kilo","steam_id":76561198015641339,"connected_time":3411000000000,"state":"active","ping":81},{"user_id":200,"name":"Shovelhalfrusty","steam_id":76561198346447513,"connected_time":312000000000,"state":"active","ping":75},{"user_id":165,"name":"plepek","steam_id":76561198042959598,"connected_time":2845000000000,"state":"active","ping":86},{"user_id":196,"name":"R0mulone","steam_id":76561198352513792,"connected_time":354000000000,"state":"active","ping":63},{"user_id":186,"name":"Regan","steam_id":76561198100631086,"connected_time":1054000000000,"state":"active","ping":56},{"user_id":173,"name":"eeeeee","steam_id":76561198017786875,"connected_time":1489000000000,"state":"active","ping":66},{"user_id":201,"name":"ParryThat","steam_id":76561198044465881,"connected_time":309000000000,"state":"active","ping":60},{"user_id":169,"name":"Wiki","steam_id":76561198106666604,"connected_time":1548000000000,"state":"active","ping":72},{"user_id":180,"name":"M4 SOPMOD II Enjoyer","steam_id":76561198155176802,"connected_time":1339000000000,"state":"active","ping":131},{"user_id":123,"name":"Carrotcracker","steam_id":76561198034862396,"connected_time":7648000000000,"state":"active","ping":86},{"user_id":198,"name":"Mr. House (Real)","steam_id":76561198162554213,"connected_time":343000000000,"state":"active","ping":89},{"user_id":202,"name":"Seneron4","steam_id":76561198107658391,"connected_time":229000000000,"state":"active","ping":86},{"user_id":177,"name":"\u003cCH\u003e Œª T T O S Z","steam_id":76561198043438734,"connected_time":1401000000000,"state":"active","ping":62},{"user_id":128,"name":"Penis Contortionist","steam_id":76561198073663784,"connected_time":7571000000000,"state":"active","ping":34},{"user_id":155,"name":"Erior","steam_id":76561198039462080,"connected_time":3996000000000,"state":"active","ping":87},{"user_id":188,"name":"Burrito","steam_id":76561197997631364,"connected_time":1036000000000,"state":"active","ping":82}]},{"server_id":320,"name":"Uncletopia | London | 3 | All Maps","name_short":"lon-3","host":"lon-1.uk.uncletopia.com","port":27035,"enabled":true,"region":"eu","cc":"gb","latitude":51.509865,"longitude":-0.118092,"reserved":0,"last_update":"0001-01-01T00:00:00Z","name_a2s":"Uncletopia | London | 3 | All Maps","protocol":17,"map":"pl_barnblitz","folder":"tf","game":"Team Fortress","app_id":440,"player_count":24,"max_players":24,"Bots":0,"server_type":"Dedicated","server_os":"Linux","password":true,"vac":true,"version":"7757534","steam_id":85568392924510192,"keywords":["nocrits","nodmgspread","payload","uncletopia"],"game_id":440,"stv_port":27036,"stv_name":"Uncletopia | London | 3 | All Maps | STV","players":[{"user_id":596,"name":"dr. coom","steam_id":76561198172193711,"connected_time":855000000000,"state":"active","ping":46},{"user_id":569,"name":"gofdrey","steam_id":76561198121941052,"connected_time":3514000000000,"state":"active","ping":68},{"user_id":586,"name":"subway vergil","steam_id":76561199110064166,"connected_time":1670000000000,"state":"active","ping":98},{"user_id":555,"name":"Welder","steam_id":76561198355300561,"connected_time":4705000000000,"state":"active","ping":68},{"user_id":554,"name":"MAKENTAKEN","steam_id":76561199127359587,"connected_time":4857000000000,"state":"active","ping":99},{"user_id":603,"name":"hora","steam_id":76561198404470526,"connected_time":698000000000,"state":"active","ping":86},{"user_id":587,"name":"Seail_M","steam_id":76561198002405605,"connected_time":1666000000000,"state":"active","ping":61},{"user_id":543,"name":"LarsInABox","steam_id":76561198028329262,"connected_time":5371000000000,"state":"active","ping":69},{"user_id":604,"name":"Steen","steam_id":76561198122992510,"connected_time":635000000000,"state":"active","ping":36},{"user_id":568,"name":"Serton‚ôù","steam_id":76561198011061126,"connected_time":3597000000000,"state":"active","ping":72},{"user_id":593,"name":"8 Ball","steam_id":76561197960988736,"connected_time":936000000000,"state":"active","ping":47},{"user_id":527,"name":"nirakya","steam_id":76561198024488584,"connected_time":6413000000000,"state":"active","ping":45},{"user_id":588,"name":"Tom","steam_id":76561198008519979,"connected_time":1622000000000,"state":"active","ping":59},{"user_id":599,"name":"666sammy","steam_id":76561198016607625,"connected_time":826000000000,"state":"active","ping":86},{"user_id":530,"name":"ohmiclaser","steam_id":76561198356393376,"connected_time":6375000000000,"state":"active","ping":44},{"user_id":605,"name":"sasharudzik","steam_id":76561199126617781,"connected_time":105000000000,"state":"active","ping":143},{"user_id":601,"name":"tapeworms!","steam_id":76561198069649097,"connected_time":825000000000,"state":"active","ping":47},{"user_id":581,"name":"‚ù§ shrimpee‚ù§ | [she/they]","steam_id":76561198303128670,"connected_time":2120000000000,"state":"active","ping":46},{"user_id":582,"name":"addicted","steam_id":76561199129801006,"connected_time":2117000000000,"state":"active","ping":60},{"user_id":591,"name":"NotFionn","steam_id":76561198890525176,"connected_time":1039000000000,"state":"active","ping":78},{"user_id":564,"name":"big t","steam_id":76561198067179454,"connected_time":3967000000000,"state":"active","ping":44},{"user_id":592,"name":"PizzaPete123","steam_id":76561198089478290,"connected_time":1038000000000,"state":"active","ping":38},{"user_id":500,"name":"Fat Pigeon","steam_id":76561198817940142,"connected_time":7114000000000,"state":"active","ping":45},{"user_id":567,"name":"Udinese Dion","steam_id":76561198067931573,"connected_time":3865000000000,"state":"active","ping":58}]},{"server_id":321,"name":"Uncletopia | London | 4 | All Maps","name_short":"lon-4","host":"lon-1.uk.uncletopia.com","port":27045,"enabled":true,"region":"eu","cc":"gb","latitude":51.509865,"longitude":-0.118092,"reserved":0,"last_update":"0001-01-01T00:00:00Z","name_a2s":"Uncletopia | London | 4 | All Maps","protocol":17,"map":"pl_borneo","folder":"tf","game":"Team Fortress","app_id":440,"player_count":24,"max_players":24,"Bots":0,"server_type":"Dedicated","server_os":"Linux","password":true,"vac":true,"version":"7757534","steam_id":85568392924510193,"keywords":["nocrits","nodmgspread","payload","uncletopia"],"game_id":440,"stv_port":27046,"stv_name":"Uncletopia | London | 4 | All Maps | STV","players":[{"user_id":158,"name":"Enda","steam_id":76561198202980164,"connected_time":691000000000,"state":"active","ping":80},{"user_id":154,"name":"jovi_","steam_id":76561198449280552,"connected_time":991000000000,"state":"active","ping":54},{"user_id":121,"name":"Vezage","steam_id":76561198064916164,"connected_time":2088000000000,"state":"active","ping":71},{"user_id":111,"name":"UltimateSlayer","steam_id":76561198384109309,"connected_time":2610000000000,"state":"active","ping":57},{"user_id":119,"name":"Dr. Sex","steam_id":76561198078559771,"connected_time":2447000000000,"state":"active","ping":84},{"user_id":159,"name":"VasellineNtoRque","steam_id":76561198451572412,"connected_time":327000000000,"state":"active","ping":70},{"user_id":161,"name":"mmm delicious bullets","steam_id":76561198254664484,"connected_time":177000000000,"state":"active","ping":58},{"user_id":156,"name":"bimgus","steam_id":76561198208045069,"connected_time":881000000000,"state":"active","ping":52},{"user_id":114,"name":"Husk","steam_id":76561198271808519,"connected_time":2540000000000,"state":"active","ping":67},{"user_id":146,"name":"doodgie","steam_id":76561198264934115,"connected_time":1213000000000,"state":"active","ping":63},{"user_id":58,"name":"H2n9","steam_id":76561198055811259,"connected_time":5818000000000,"state":"active","ping":51},{"user_id":162,"name":"Rammtrait","steam_id":76561198016436610,"connected_time":173000000000,"state":"active","ping":84},{"user_id":62,"name":"Intruder","steam_id":76561198156128173,"connected_time":5599000000000,"state":"active","ping":73},{"user_id":61,"name":"Illegally Legal","steam_id":76561198982674420,"connected_time":5736000000000,"state":"active","ping":43},{"user_id":155,"name":"UltimateAura","steam_id":76561198338361324,"connected_time":953000000000,"state":"active","ping":41},{"user_id":140,"name":"lunaire","steam_id":76561198163344452,"connected_time":1279000000000,"state":"active","ping":90},{"user_id":132,"name":"Mr.B","steam_id":76561199204478925,"connected_time":1586000000000,"state":"active","ping":109},{"user_id":141,"name":"David Random","steam_id":76561198144497918,"connected_time":1278000000000,"state":"active","ping":76},{"user_id":163,"name":"PixelHyde","steam_id":76561198040878617,"connected_time":49000000000,"state":"spawning","ping":57},{"user_id":131,"name":"ike","steam_id":76561198039845647,"connected_time":1752000000000,"state":"active","ping":61},{"user_id":117,"name":"Bezoyalapolla","steam_id":76561198236833426,"connected_time":2472000000000,"state":"active","ping":87},{"user_id":143,"name":"Swayfire","steam_id":76561198071586356,"connected_time":1264000000000,"state":"active","ping":51},{"user_id":145,"name":"Sek","steam_id":76561198173731869,"connected_time":1244000000000,"state":"active","ping":187},{"user_id":149,"name":"eduardo","steam_id":76561198014491925,"connected_time":1131000000000,"state":"active","ping":88}]},{"server_id":21,"name":"Uncletopia | London | 5 | All Maps","name_short":"lon-5","host":"lon-1.uk.uncletopia.com","port":27055,"enabled":true,"region":"eu","cc":"gb","latitude":51.509865,"longitude":-0.118092,"reserved":0,"last_update":"0001-01-01T00:00:00Z","name_a2s":"Uncletopia | London | 5 | All Maps","protocol":17,"map":"pl_borneo","folder":"tf","game":"Team Fortress","app_id":440,"player_count":24,"max_players":24,"Bots":0,"server_type":"Dedicated","server_os":"Linux","password":true,"vac":true,"version":"7757534","steam_id":85568392924742829,"keywords":["nocrits","nodmgspread","payload","uncletopia"],"game_id":440,"stv_port":27056,"stv_name":"Uncletopia | London | 5 | All Maps | STV","players":[{"user_id":315,"name":"R@DIO","steam_id":76561197995533046,"connected_time":118000000000,"state":"active","ping":82},{"user_id":297,"name":"harryhux","steam_id":76561198228052940,"connected_time":1351000000000,"state":"active","ping":38},{"user_id":310,"name":"Night Fury","steam_id":76561197995207032,"connected_time":651000000000,"state":"active","ping":87},{"user_id":312,"name":"1 rayteon fan","steam_id":76561198393698349,"connected_time":226000000000,"state":"active","ping":39},{"user_id":307,"name":"jonbob","steam_id":76561197963506620,"connected_time":1106000000000,"state":"active","ping":51},{"user_id":291,"name":"BunkerBoy","steam_id":76561198859439313,"connected_time":2716000000000,"state":"active","ping":90},{"user_id":293,"name":"Hampter","steam_id":76561198012351470,"connected_time":2189000000000,"state":"active","ping":44},{"user_id":300,"name":"Majima Gaming HD","steam_id":76561198365750503,"connected_time":1312000000000,"state":"active","ping":38},{"user_id":290,"name":"Estamie","steam_id":76561198058527691,"connected_time":2747000000000,"state":"active","ping":71},{"user_id":296,"name":"sebciosz","steam_id":76561198275906734,"connected_time":1359000000000,"state":"active","ping":85},{"user_id":301,"name":"LeLiar","steam_id":76561199058927327,"connected_time":1299000000000,"state":"active","ping":100},{"user_id":277,"name":"quickfast","steam_id":76561199438900919,"connected_time":3188000000000,"state":"active","ping":45},{"user_id":295,"name":"jones","steam_id":76561198044434971,"connected_time":1498000000000,"state":"active","ping":70},{"user_id":302,"name":"Lynceus","steam_id":76561198131209426,"connected_time":1295000000000,"state":"active","ping":60},{"user_id":305,"name":"LemonZest","steam_id":76561199196369249,"connected_time":1275000000000,"state":"active","ping":128},{"user_id":267,"name":"Sinny","steam_id":76561197999598422,"connected_time":3525000000000,"state":"active","ping":85},{"user_id":280,"name":"Alibi","steam_id":76561198061845595,"connected_time":3151000000000,"state":"active","ping":51},{"user_id":275,"name":"beheading video from 2009","steam_id":76561198834897089,"connected_time":3412000000000,"state":"active","ping":73},{"user_id":270,"name":"Mayor Wank from Wanker Town","steam_id":76561197998253588,"connected_time":3484000000000,"state":"active","ping":60},{"user_id":285,"name":"pedestrianise gloucester rd","steam_id":76561198126022039,"connected_time":3001000000000,"state":"active","ping":48},{"user_id":311,"name":"ruskie (fake)","steam_id":76561199106215999,"connected_time":306000000000,"state":"active","ping":129},{"user_id":274,"name":"rz-/Atomic Punch","steam_id":76561199195508541,"connected_time":3450000000000,"state":"active","ping":70},{"user_id":313,"name":"stoppen","steam_id":76561197960281482,"connected_time":222000000000,"state":"active","ping":75},{"user_id":309,"name":"Bonca","steam_id":76561198137503531,"connected_time":960000000000,"state":"active","ping":77}]},{"server_id":22,"name":"Uncletopia | London | 6 | All Maps","name_short":"lon-6","host":"lon-1.uk.uncletopia.com","port":27065,"enabled":true,"region":"eu","cc":"gb","latitude":51.509865,"longitude":-0.118092,"reserved":0,"last_update":"0001-01-01T00:00:00Z","name_a2s":"Uncletopia | London | 6 | All Maps","protocol":17,"map":"koth_highpass","folder":"tf","game":"Team Fortress","app_id":440,"player_count":1,"max_players":24,"Bots":0,"server_type":"Dedicated","server_os":"Linux","password":true,"vac":true,"version":"7757534","steam_id":85568392924742830,"keywords":["cp","nocrits","nodmgspread","uncletopia"],"game_id":440,"stv_port":27066,"stv_name":"Uncletopia | London | 6 | All Maps | STV","players":[{"user_id":17,"name":"george B","steam_id":76561198104933135,"connected_time":30000000000,"state":"active","ping":90}]},{"server_id":40,"name":"Uncletopia | London | 7 | No Payload","name_short":"lon-7","host":"lon-1.uk.uncletopia.com","port":27075,"enabled":true,"region":"eu","cc":"gb","latitude":51.509865,"longitude":-0.118092,"reserved":0,"last_update":"0001-01-01T00:00:00Z","name_a2s":"Uncletopia | London | 7 | No Payload","protocol":17,"map":"cp_process_final","folder":"tf","game":"Team Fortress","app_id":440,"player_count":0,"max_players":24,"Bots":0,"server_type":"Dedicated","server_os":"Linux","password":true,"vac":true,"version":"7757534","steam_id":85568392924964314,"keywords":["cp","nocrits","nodmgspread","uncletopia"],"game_id":440,"stv_port":27076,"stv_name":"Uncletopia | London | 7 | No Payload | STV","players":null},{"server_id":41,"name":"Uncletopia | London | 8 | Community","name_short":"lon-8","host":"lon-1.uk.uncletopia.com","port":27085,"enabled":true,"region":"eu","cc":"gb","latitude":51.509865,"longitude":-0.118092,"reserved":0,"last_update":"0001-01-01T00:00:00Z","name_a2s":"Uncletopia | London | 8 | Community","protocol":17,"map":"workshop/cp_croissant_final.ugc458840209","folder":"tf","game":"Team Fortress","app_id":440,"player_count":4,"max_players":24,"Bots":0,"server_type":"Dedicated","server_os":"Linux","password":true,"vac":true,"version":"7757534","steam_id":85568392924964315,"keywords":["cp","nocrits","nodmgspread","uncletopia"],"game_id":440,"stv_port":27086,"stv_name":"Uncletopia | London | 8 | Community | STV","players":[{"user_id":47,"name":"lipaul777","steam_id":76561199090751367,"connected_time":1888000000000,"state":"active","ping":72},{"user_id":58,"name":"Artificial Unintelligence","steam_id":76561199056745987,"connected_time":33000000000,"state":"active","ping":211},{"user_id":45,"name":"carutku","steam_id":76561199179457506,"connected_time":2235000000000,"state":"active","ping":106},{"user_id":39,"name":"Kebaboi","steam_id":76561198964264191,"connected_time":2423000000000,"state":"active","ping":109}]},{"server_id":300,"name":"Uncletopia | Montr√©al | 1 | All Maps","name_short":"mtl-1","host":"mtl-1.ca.uncletopia.com","port":27015,"enabled":true,"region":"us-east","cc":"ca","latitude":45.50889,"longitude":-73.56167,"reserved":0,"last_update":"0001-01-01T00:00:00Z","name_a2s":"Uncletopia | Montr√©al | 1 | All Maps","protocol":17,"map":"koth_cascade","folder":"tf","game":"Team Fortress","app_id":440,"player_count":0,"max_players":24,"Bots":0,"server_type":"Dedicated","server_os":"Linux","password":true,"vac":true,"version":"7757534","steam_id":85568392924500087,"keywords":["cp","nocrits","nodmgspread","uncletopia"],"game_id":440,"stv_port":27016,"stv_name":"Uncletopia | Montr√©al | 1 | All Maps | STV","players":null},{"server_id":301,"name":"Uncletopia | Montr√©al | 2 | All Maps","name_short":"mtl-2","host":"mtl-1.ca.uncletopia.com","port":27025,"enabled":true,"region":"us-east","cc":"ca","latitude":45.50889,"longitude":-73.56167,"reserved":0,"last_update":"0001-01-01T00:00:00Z","name_a2s":"Uncletopia | Montr√©al | 2 | All Maps","protocol":17,"map":"pl_snowycoast","folder":"tf","game":"Team Fortress","app_id":440,"player_count":0,"max_players":24,"Bots":0,"server_type":"Dedicated","server_os":"Linux","password":true,"vac":true,"version":"7757534","steam_id":85568392924500088,"keywords":["nocrits","nodmgspread","payload","uncletopia"],"game_id":440,"stv_port":27026,"stv_name":"Uncletopia | Montr√©al | 2 | All Maps | STV","players":null},{"server_id":302,"name":"Uncletopia | Montr√©al | 3 | All Maps","name_short":"mtl-3","host":"mtl-1.ca.uncletopia.com","port":27035,"enabled":true,"region":"us-east","cc":"ca","latitude":45.50889,"longitude":-73.56167,"reserved":0,"last_update":"0001-01-01T00:00:00Z","name_a2s":"Uncletopia | Montr√©al | 3 | All Maps","protocol":17,"map":"pl_swiftwater_final1","folder":"tf","game":"Team Fortress","app_id":440,"player_count":0,"max_players":24,"Bots":0,"server_type":"Dedicated","server_os":"Linux","password":true,"vac":true,"version":"7757534","steam_id":85568392924500089,"keywords":["nocrits","nodmgspread","payload","uncletopia"],"game_id":440,"stv_port":27036,"stv_name":"Uncletopia | Montr√©al | 3 | All Maps | STV","players":null},{"server_id":303,"name":"Uncletopia | Montr√©al | 4 | No Payload","name_short":"mtl-4","host":"mtl-1.ca.uncletopia.com","port":27045,"enabled":true,"region":"us-east","cc":"ca","latitude":45.50889,"longitude":-73.56167,"reserved":0,"last_update":"0001-01-01T00:00:00Z","name_a2s":"Uncletopia | Montr√©al | 4 | No Payload","protocol":17,"map":"cp_mercenarypark","folder":"tf","game":"Team Fortress","app_id":440,"player_count":0,"max_players":24,"Bots":0,"server_type":"Dedicated","server_os":"Linux","password":true,"vac":true,"version":"7757534","steam_id":85568392924500090,"keywords":["cp","nocrits","nodmgspread","uncletopia"],"game_id":440,"stv_port":27046,"stv_name":"Uncletopia | Montr√©al | 4 | No Payload | STV","players":null},{"server_id":13,"name":"Uncletopia | New York City | 1 | All Maps","name_short":"nyc-1","host":"nyc-1.us.uncletopia.com","port":27015,"enabled":true,"region":"us-east","cc":"us","latitude":40.73061,"longitude":-73.93524,"reserved":0,"last_update":"0001-01-01T00:00:00Z","name_a2s":"Uncletopia | New York City | 1 | All Maps","protocol":17,"map":"koth_viaduct","folder":"tf","game":"Team Fortress","app_id":440,"player_count":25,"max_players":24,"Bots":0,"server_type":"Dedicated","server_os":"Linux","password":true,"vac":true,"version":"7757534","steam_id":85568392924469993,"keywords":["cp","nocrits","nodmgspread","uncletopia"],"game_id":440,"stv_port":27016,"stv_name":"Uncletopia | New York City | 1 | All Maps | STV","players":[{"user_id":18,"name":"Agent Hugh Jass","steam_id":76561199097744991,"connected_time":1389000000000,"state":"active","ping":64},{"user_id":19,"name":"Jaime","steam_id":76561198442021682,"connected_time":1310000000000,"state":"active","ping":57},{"user_id":20,"name":"Hook, Line, and Sphincter","steam_id":76561198078207743,"connected_time":1279000000000,"state":"active","ping":46},{"user_id":46,"name":"Geloman","steam_id":76561198005501322,"connected_time":28000000000,"state":"spawning","ping":63},{"user_id":45,"name":"Sexual Butt","steam_id":76561198102241399,"connected_time":162000000000,"state":"active","ping":74},{"user_id":23,"name":"Mimt1111","steam_id":76561198392370897,"connected_time":880000000000,"state":"active","ping":89},{"user_id":24,"name":"GOLDIE","steam_id":76561199375258674,"connected_time":822000000000,"state":"active","ping":115},{"user_id":25,"name":"Cicada_Man","steam_id":76561199130601341,"connected_time":814000000000,"state":"active","ping":53},{"user_id":27,"name":"BIGGEST MAC","steam_id":76561198847517098,"connected_time":616000000000,"state":"active","ping":79},{"user_id":29,"name":"Aegis","steam_id":76561198272052750,"connected_time":607000000000,"state":"active","ping":60},{"user_id":30,"name":"Buttons :)","steam_id":76561198139478534,"connected_time":605000000000,"state":"active","ping":119},{"user_id":31,"name":"discotheque","steam_id":76561198292777667,"connected_time":502000000000,"state":"active","ping":48},{"user_id":32,"name":"ArnoldGamingÔæ†Ÿ¥","steam_id":76561198040140247,"connected_time":488000000000,"state":"active","ping":82},{"user_id":33,"name":"TaBunnie","steam_id":76561198197894178,"connected_time":415000000000,"state":"active","ping":67},{"user_id":34,"name":"soup","steam_id":76561198099977572,"connected_time":377000000000,"state":"active","ping":86},{"user_id":35,"name":"im here to frag","steam_id":76561198392539722,"connected_time":355000000000,"state":"active","ping":76},{"user_id":36,"name":"benito","steam_id":76561199098569869,"connected_time":351000000000,"state":"active","ping":47},{"user_id":37,"name":"Pig","steam_id":76561198276179693,"connected_time":323000000000,"state":"active","ping":77},{"user_id":38,"name":"Brother Seamus","steam_id":76561197970450546,"connected_time":293000000000,"state":"active","ping":135},{"user_id":39,"name":"Coop Draws","steam_id":76561198238568640,"connected_time":286000000000,"state":"active","ping":59},{"user_id":40,"name":"Orbs","steam_id":76561198075938744,"connected_time":275000000000,"state":"active","ping":105},{"user_id":41,"name":"nhbiker","steam_id":76561198081277675,"connected_time":261000000000,"state":"active","ping":43},{"user_id":42,"name":"Indigolake","steam_id":76561198202215807,"connected_time":259000000000,"state":"active","ping":67},{"user_id":43,"name":"Hipp-Dip","steam_id":76561199027874633,"connected_time":245000000000,"state":"active","ping":43},{"user_id":44,"name":"Phrog","steam_id":76561199122281598,"connected_time":243000000000,"state":"connecting","ping":0}]},{"server_id":14,"name":"Uncletopia | New York City | 2 | All Maps","name_short":"nyc-2","host":"nyc-1.us.uncletopia.com","port":27025,"enabled":true,"region":"us-east","cc":"us","latitude":40.73061,"longitude":-73.93524,"reserved":0,"last_update":"0001-01-01T00:00:00Z","name_a2s":"Uncletopia | New York City | 2 | All Maps","protocol":17,"map":"koth_lakeside_final","folder":"tf","game":"Team Fortress","app_id":440,"player_count":0,"max_players":24,"Bots":0,"server_type":"Dedicated","server_os":"Linux","password":true,"vac":true,"version":"7757534","steam_id":85568392924469994,"keywords":["cp","nocrits","nodmgspread","uncletopia"],"game_id":440,"stv_port":27026,"stv_name":"Uncletopia | New York City | 2 | All Maps | STV","players":null},{"server_id":15,"name":"Uncletopia | New York City | 3 | Stopwatch Beta","name_short":"nyc-3","host":"nyc-1.us.uncletopia.com","port":27035,"enabled":true,"region":"us-east","cc":"us","latitude":40.73061,"longitude":-73.93524,"reserved":0,"last_update":"0001-01-01T00:00:00Z","name_a2s":"Uncletopia | New York City | 3 | Stopwatch Beta","protocol":17,"map":"pl_upward","folder":"tf","game":"Team Fortress","app_id":440,"player_count":0,"max_players":24,"Bots":0,"server_type":"Dedicated","server_os":"Linux","password":true,"vac":true,"version":"7757534","steam_id":85568392924742820,"keywords":["nocrits","nodmgspread","payload","uncletopia"],"game_id":440,"stv_port":27036,"stv_name":"Uncletopia | New York City | 3 | Stopwatch Beta | STV","players":null},{"server_id":16,"name":"Uncletopia | New York City | 4 | Community","name_short":"nyc-4","host":"nyc-1.us.uncletopia.com","port":27045,"enabled":true,"region":"us-east","cc":"us","latitude":40.73061,"longitude":-73.93524,"reserved":0,"last_update":"0001-01-01T00:00:00Z","name_a2s":"Uncletopia | New York City | 4 | Community","protocol":17,"map":"workshop/pl_eruption_b9a.ugc2807898013","folder":"tf","game":"Team Fortress","app_id":440,"player_count":0,"max_players":24,"Bots":0,"server_type":"Dedicated","server_os":"Linux","password":true,"vac":true,"version":"7757534","steam_id":85568392924742821,"keywords":["nocrits","nodmgspread","payload","uncletopia"],"game_id":440,"stv_port":27046,"stv_name":"Uncletopia | New York City | 4 | Community | STV","players":null},{"server_id":142,"name":"Uncletopia | S√£o Paulo | 1 | All Maps","name_short":"sao-1","host":"sao-1.br.uncletopia.com","port":27015,"enabled":true,"region":"sa","cc":"br","latitude":-23.533773,"longitude":-46.62529,"reserved":0,"last_update":"0001-01-01T00:00:00Z","name_a2s":"Uncletopia | S√£o Paulo | 1 | All Maps","protocol":17,"map":"pl_badwater","folder":"tf","game":"Team Fortress","app_id":440,"player_count":12,"max_players":24,"Bots":0,"server_type":"Dedicated","server_os":"Linux","password":true,"vac":true,"version":"7757534","steam_id":85568392924469996,"keywords":["nocrits","nodmgspread","payload","uncletopia"],"game_id":440,"stv_port":27016,"stv_name":"Uncletopia | S√£o Paulo | 1 | All Maps | STV","players":[{"user_id":8,"name":"ailuros","steam_id":76561198171349369,"connected_time":3411000000000,"state":"active","ping":35},{"user_id":14,"name":"FutanariGirl","steam_id":76561199479462702,"connected_time":2573000000000,"state":"active","ping":44},{"user_id":15,"name":"hypersonic2009","steam_id":76561198847838643,"connected_time":2524000000000,"state":"active","ping":78},{"user_id":17,"name":"Kaiser","steam_id":76561199168194896,"connected_time":1391000000000,"state":"active","ping":63},{"user_id":22,"name":"kaoru mitoma","steam_id":76561198143438576,"connected_time":921000000000,"state":"active","ping":44},{"user_id":20,"name":"mimimito","steam_id":76561198002565927,"connected_time":1067000000000,"state":"active","ping":35},{"user_id":24,"name":"Stoopid","steam_id":76561198126485401,"connected_time":728000000000,"state":"active","ping":47},{"user_id":30,"name":"Guns Blazing","steam_id":76561198379461118,"connected_time":116000000000,"state":"active","ping":179},{"user_id":26,"name":"BlackWillow73@aol.com","steam_id":76561199214230693,"connected_time":605000000000,"state":"active","ping":241},{"user_id":27,"name":"MrMeister","steam_id":76561198307194213,"connected_time":587000000000,"state":"active","ping":264},{"user_id":28,"name":"castelo_45#SAVE tf2","steam_id":76561199078529501,"connected_time":549000000000,"state":"active","ping":39},{"user_id":29,"name":"juanfa","steam_id":76561199404264543,"connected_time":536000000000,"state":"active","ping":100}]},{"server_id":143,"name":"Uncletopia | S√£o Paulo | 2 | All Maps","name_short":"sao-2","host":"sao-2.br.uncletopia.com","port":27015,"enabled":true,"region":"sa","cc":"br","latitude":-23.533773,"longitude":-46.62529,"reserved":0,"last_update":"0001-01-01T00:00:00Z","name_a2s":"Uncletopia | S√£o Paulo | 2 | All Maps","protocol":17,"map":"koth_viaduct","folder":"tf","game":"Team Fortress","app_id":440,"player_count":0,"max_players":24,"Bots":0,"server_type":"Dedicated","server_os":"Linux","password":true,"vac":true,"version":"7757534","steam_id":85568392924485349,"keywords":["cp","nocrits","nodmgspread","uncletopia"],"game_id":440,"stv_port":27016,"stv_name":"Uncletopia | S√£o Paulo | 2 | All Maps | STV","players":null},{"server_id":7,"name":"Uncletopia | Seattle | 1 | All Maps","name_short":"sea-1","host":"sea-1.us.uncletopia.com","port":27015,"enabled":true,"region":"us-west","cc":"us","latitude":47.608013,"longitude":-122.33517,"reserved":0,"last_update":"0001-01-01T00:00:00Z","name_a2s":"Uncletopia | Seattle | 1 | All Maps","protocol":17,"map":"pl_barnblitz","folder":"tf","game":"Team Fortress","app_id":440,"player_count":24,"max_players":24,"Bots":0,"server_type":"Dedicated","server_os":"Linux","password":true,"vac":true,"version":"7757534","steam_id":85568392924469997,"keywords":["nocrits","nodmgspread","payload","uncletopia"],"game_id":440,"stv_port":27016,"stv_name":"Uncletopia | Seattle | 1 | All Maps | STV","players":[{"user_id":388,"name":"PixelBoy","steam_id":76561198165768983,"connected_time":3495000000000,"state":"active","ping":124},{"user_id":504,"name":"shy guy","steam_id":76561198151246059,"connected_time":288000000000,"state":"active","ping":63},{"user_id":500,"name":"Cottontail","steam_id":76561198213634567,"connected_time":459000000000,"state":"active","ping":114},{"user_id":452,"name":"mari_","steam_id":76561198137855741,"connected_time":1204000000000,"state":"active","ping":94},{"user_id":417,"name":"Thexx ‚ù§","steam_id":76561198113823050,"connected_time":1921000000000,"state":"active","ping":49},{"user_id":485,"name":"bobo","steam_id":76561198020268561,"connected_time":684000000000,"state":"active","ping":116},{"user_id":442,"name":"watchfull","steam_id":76561198433266742,"connected_time":1430000000000,"state":"active","ping":48},{"user_id":501,"name":"Fh","steam_id":76561198000903511,"connected_time":312000000000,"state":"active","ping":60},{"user_id":502,"name":"captjosh22","steam_id":76561199092650499,"connected_time":309000000000,"state":"active","ping":131},{"user_id":457,"name":"Smiles","steam_id":76561198107197973,"connected_time":1112000000000,"state":"active","ping":73},{"user_id":363,"name":"Blitzy","steam_id":76561198149472890,"connected_time":4996000000000,"state":"active","ping":62},{"user_id":466,"name":"Cringe Guillotine User","steam_id":76561198997067030,"connected_time":999000000000,"state":"active","ping":112},{"user_id":381,"name":"üÖúüÖîüÖîüÖöüÖ¢üÖ£üÖî\ufffd\ufffd\ufffd","steam_id":76561197999748343,"connected_time":3964000000000,"state":"active","ping":100},{"user_id":436,"name":"June","steam_id":76561198141803658,"connected_time":1560000000000,"state":"active","ping":70},{"user_id":503,"name":"Cleetus","steam_id":76561198334734408,"connected_time":299000000000,"state":"active","ping":58},{"user_id":441,"name":"times table","steam_id":76561198341452558,"connected_time":1436000000000,"state":"active","ping":111},{"user_id":414,"name":"Mediarch","steam_id":76561198050765729,"connected_time":2007000000000,"state":"active","ping":52},{"user_id":505,"name":"oil","steam_id":76561198099980149,"connected_time":257000000000,"state":"active","ping":82},{"user_id":426,"name":"how do i control my guy?","steam_id":76561198158855211,"connected_time":1828000000000,"state":"active","ping":51},{"user_id":321,"name":"ratie","steam_id":76561198059399661,"connected_time":7970000000000,"state":"active","ping":86},{"user_id":428,"name":"evilOlive","steam_id":76561198106222025,"connected_time":1788000000000,"state":"active","ping":80},{"user_id":456,"name":"5392vin","steam_id":76561198880493511,"connected_time":1125000000000,"state":"active","ping":67},{"user_id":483,"name":"SirJellyRolls","steam_id":76561198119277244,"connected_time":709000000000,"state":"active","ping":72},{"user_id":432,"name":"jayeskae","steam_id":76561198144220801,"connected_time":1690000000000,"state":"active","ping":49}]},{"server_id":119,"name":"Uncletopia | Seattle | 2 | All Maps","name_short":"sea-2","host":"sea-1.us.uncletopia.com","port":27025,"enabled":true,"region":"us-west","cc":"us","latitude":47.608013,"longitude":-122.33517,"reserved":0,"last_update":"0001-01-01T00:00:00Z","name_a2s":"Uncletopia | Seattle | 2 | All Maps","protocol":17,"map":"cp_badlands","folder":"tf","game":"Team Fortress","app_id":440,"player_count":24,"max_players":24,"Bots":0,"server_type":"Dedicated","server_os":"Linux","password":true,"vac":true,"version":"7757534","steam_id":85568392924469998,"keywords":["cp","nocrits","nodmgspread","uncletopia"],"game_id":440,"stv_port":27026,"stv_name":"Uncletopia | Seattle | 2 | All Maps | STV","players":[{"user_id":163,"name":"doctor large","steam_id":76561199195836752,"connected_time":701000000000,"state":"active","ping":109},{"user_id":125,"name":"Deryn Sharp","steam_id":76561198047017346,"connected_time":2951000000000,"state":"active","ping":79},{"user_id":150,"name":"Wavelengths (they/it)","steam_id":76561197997621320,"connected_time":1397000000000,"state":"active","ping":95},{"user_id":148,"name":"Sev","steam_id":76561198053971248,"connected_time":1489000000000,"state":"active","ping":49},{"user_id":134,"name":"Training Arc","steam_id":76561198038832034,"connected_time":2284000000000,"state":"active","ping":59},{"user_id":151,"name":"Nicoarn121","steam_id":76561198156297440,"connected_time":1357000000000,"state":"active","ping":113},{"user_id":67,"name":"roanoke‚Ä∫","steam_id":76561198048007844,"connected_time":6956000000000,"state":"active","ping":75},{"user_id":149,"name":"Yosh","steam_id":76561198027078899,"connected_time":1479000000000,"state":"active","ping":83},{"user_id":158,"name":"SweetLou","steam_id":76561198064569582,"connected_time":1128000000000,"state":"active","ping":101},{"user_id":108,"name":"yup","steam_id":76561199190800520,"connected_time":4495000000000,"state":"active","ping":42},{"user_id":159,"name":"Resident Thrussy Lender","steam_id":76561198071790583,"connected_time":1113000000000,"state":"active","ping":105},{"user_id":167,"name":"ThatGamingKiwi","steam_id":76561199170522237,"connected_time":136000000000,"state":"active","ping":136},{"user_id":160,"name":"Anxiety","steam_id":76561198365627687,"connected_time":1087000000000,"state":"active","ping":86},{"user_id":126,"name":"RaidersFan34","steam_id":76561198269369893,"connected_time":2936000000000,"state":"active","ping":55},{"user_id":162,"name":"Zero","steam_id":76561199383267408,"connected_time":1009000000000,"state":"active","ping":114},{"user_id":155,"name":"Z71Jeffrey05","steam_id":76561198045992418,"connected_time":1154000000000,"state":"active","ping":60},{"user_id":165,"name":"jordanddean2016","steam_id":76561198323772677,"connected_time":419000000000,"state":"active","ping":57},{"user_id":157,"name":"89","steam_id":76561198106308056,"connected_time":1144000000000,"state":"active","ping":162},{"user_id":164,"name":"Running Riot","steam_id":76561198276310307,"connected_time":621000000000,"state":"active","ping":67},{"user_id":154,"name":"Vlasic_Garlic_Dills99","steam_id":76561198030052564,"connected_time":1233000000000,"state":"active","ping":59},{"user_id":156,"name":"tocka","steam_id":76561198106917662,"connected_time":1154000000000,"state":"active","ping":149},{"user_id":152,"name":"Fresh0c0","steam_id":76561198271933283,"connected_time":1352000000000,"state":"active","ping":113},{"user_id":153,"name":"TheSquirrelofHuscurl","steam_id":76561198073379623,"connected_time":1341000000000,"state":"active","ping":143},{"user_id":105,"name":"Els (F2P)","steam_id":76561199129761684,"connected_time":4937000000000,"state":"active","ping":130}]},{"server_id":406,"name":"Uncletopia | Seattle | 3 | Stopwatch Beta","name_short":"sea-3","host":"sea-1.us.uncletopia.com","port":27035,"enabled":true,"region":"us-west","cc":"us","latitude":47.608013,"longitude":-122.33517,"reserved":0,"last_update":"0001-01-01T00:00:00Z","name_a2s":"Uncletopia | Seattle | 3 | Stopwatch Beta","protocol":17,"map":"cp_dustbowl","folder":"tf","game":"Team Fortress","app_id":440,"player_count":0,"max_players":24,"Bots":0,"server_type":"Dedicated","server_os":"Linux","password":true,"vac":true,"version":"7757534","steam_id":85568392924515217,"keywords":["cp","nocrits","nodmgspread","uncletopia"],"game_id":440,"stv_port":27036,"stv_name":"Uncletopia | Seattle | 3 | Stopwatch Beta | STV","players":null},{"server_id":17,"name":"Uncletopia | San Francisco | 1 | All Maps","name_short":"sfo-1","host":"sfo-1.us.uncletopia.com","port":27015,"enabled":true,"region":"us-west","cc":"us","latitude":37.77397,"longitude":-122.4313,"reserved":0,"last_update":"0001-01-01T00:00:00Z","name_a2s":"Uncletopia | San Francisco | 1 | All Maps","protocol":17,"map":"cp_dustbowl","folder":"tf","game":"Team Fortress","app_id":440,"player_count":0,"max_players":24,"Bots":0,"server_type":"Dedicated","server_os":"Linux","password":true,"vac":true,"version":"7757534","steam_id":85568392924469999,"keywords":["cp","nocrits","nodmgspread","uncletopia"],"game_id":440,"stv_port":27016,"stv_name":"Uncletopia | San Francisco | 1 | All Maps | STV","players":null},{"server_id":18,"name":"Uncletopia | San Francisco | 2 | All Maps","name_short":"sfo-2","host":"sfo-1.us.uncletopia.com","port":27025,"enabled":true,"region":"us-west","cc":"us","latitude":37.77397,"longitude":-122.4313,"reserved":0,"last_update":"0001-01-01T00:00:00Z","name_a2s":"Uncletopia | San Francisco | 2 | All Maps","protocol":17,"map":"pl_barnblitz","folder":"tf","game":"Team Fortress","app_id":440,"player_count":18,"max_players":24,"Bots":0,"server_type":"Dedicated","server_os":"Linux","password":true,"vac":true,"version":"7757534","steam_id":85568392924470000,"keywords":["nocrits","nodmgspread","payload","uncletopia"],"game_id":440,"stv_port":27026,"stv_name":"Uncletopia | San Francisco | 2 | All Maps | STV","players":[{"user_id":65,"name":"salad","steam_id":76561198199055635,"connected_time":4820000000000,"state":"active","ping":59},{"user_id":107,"name":"Joosh","steam_id":76561198214599739,"connected_time":2733000000000,"state":"active","ping":61},{"user_id":99,"name":"MORE BOUNCE TO THE OUNCE","steam_id":76561198243399336,"connected_time":3097000000000,"state":"active","ping":64},{"user_id":100,"name":"DD_440","steam_id":76561199135978082,"connected_time":3074000000000,"state":"active","ping":117},{"user_id":113,"name":"Danielmaestro #SaveTF2","steam_id":76561198064161505,"connected_time":2336000000000,"state":"active","ping":140},{"user_id":121,"name":"snowcap","steam_id":76561198344164944,"connected_time":955000000000,"state":"active","ping":64},{"user_id":112,"name":"because I'll never be ‚ú®him‚ú®","steam_id":76561198261007627,"connected_time":2368000000000,"state":"active","ping":94},{"user_id":106,"name":"Konnor","steam_id":76561199136300254,"connected_time":2822000000000,"state":"active","ping":57},{"user_id":115,"name":"Heynong Man","steam_id":76561198102466085,"connected_time":2178000000000,"state":"active","ping":56},{"user_id":74,"name":"advent","steam_id":76561198136475311,"connected_time":4222000000000,"state":"active","ping":98},{"user_id":126,"name":"vanillain","steam_id":76561198058617608,"connected_time":608000000000,"state":"active","ping":59},{"user_id":122,"name":"Ghost","steam_id":76561198426370628,"connected_time":952000000000,"state":"active","ping":101},{"user_id":83,"name":"The Big Iron","steam_id":76561198117276391,"connected_time":3950000000000,"state":"active","ping":87},{"user_id":116,"name":"TheSmokingMan","steam_id":76561198032652995,"connected_time":1682000000000,"state":"active","ping":107},{"user_id":123,"name":"jeff__100","steam_id":76561198080870439,"connected_time":907000000000,"state":"active","ping":102},{"user_id":28,"name":"Sir_DankToast","steam_id":76561198385093022,"connected_time":6351000000000,"state":"active","ping":60},{"user_id":119,"name":"[chef] iron","steam_id":76561197970888616,"connected_time":1040000000000,"state":"active","ping":100},{"user_id":130,"name":"Lilac","steam_id":76561198977523626,"connected_time":173000000000,"state":"active","ping":75}]},{"server_id":19,"name":"Uncletopia | San Francisco | 3 | Stopwatch Beta","name_short":"sfo-3","host":"sfo-1.us.uncletopia.com","port":27035,"enabled":true,"region":"us-west","cc":"us","latitude":37.77397,"longitude":-122.4313,"reserved":0,"last_update":"0001-01-01T00:00:00Z","name_a2s":"Uncletopia | San Francisco | 3 | Stopwatch Beta","protocol":17,"map":"koth_lakeside_final","folder":"tf","game":"Team Fortress","app_id":440,"player_count":0,"max_players":24,"Bots":0,"server_type":"Dedicated","server_os":"Linux","password":true,"vac":true,"version":"7757534","steam_id":85568392924742824,"keywords":["cp","nocrits","nodmgspread","uncletopia"],"game_id":440,"stv_port":27036,"stv_name":"Uncletopia | San Francisco | 3 | Stopwatch Beta | STV","players":null},{"server_id":20,"name":"Uncletopia | San Francisco | 4 | Community","name_short":"sfo-4","host":"sfo-1.us.uncletopia.com","port":27045,"enabled":true,"region":"us-west","cc":"us","latitude":37.77397,"longitude":-122.4313,"reserved":0,"last_update":"0001-01-01T00:00:00Z","name_a2s":"Uncletopia | San Francisco | 4 | Community","protocol":17,"map":"workshop/cp_kalinka_rc6a.ugc1272700588","folder":"tf","game":"Team Fortress","app_id":440,"player_count":24,"max_players":24,"Bots":0,"server_type":"Dedicated","server_os":"Linux","password":true,"vac":true,"version":"7757534","steam_id":85568392924742826,"keywords":["cp","nocrits","nodmgspread","uncletopia"],"game_id":440,"stv_port":27046,"stv_name":"Uncletopia | San Francisco | 4 | Community | STV","players":[{"user_id":123,"name":"terrorism? boy howdy","steam_id":76561198844003641,"connected_time":337000000000,"state":"active","ping":64},{"user_id":101,"name":"Big kahuna","steam_id":76561198142024812,"connected_time":2351000000000,"state":"active","ping":118},{"user_id":118,"name":"Bot Karma","steam_id":76561198422386331,"connected_time":598000000000,"state":"active","ping":165},{"user_id":81,"name":"dP | I'm in a Wookie Suit","steam_id":76561198083307644,"connected_time":3937000000000,"state":"active","ping":73},{"user_id":59,"name":"Paul Blart","steam_id":76561198068110623,"connected_time":4907000000000,"state":"active","ping":69},{"user_id":119,"name":"‡∏∏","steam_id":76561198084134025,"connected_time":591000000000,"state":"active","ping":76},{"user_id":128,"name":"floppy muppet","steam_id":76561198003076261,"connected_time":47000000000,"state":"active","ping":128},{"user_id":120,"name":"gustavo fring","steam_id":76561198845291201,"connected_time":580000000000,"state":"active","ping":101},{"user_id":114,"name":"TothBrush","steam_id":76561198028254471,"connected_time":859000000000,"state":"active","ping":63},{"user_id":92,"name":"brea?","steam_id":76561198025130409,"connected_time":3178000000000,"state":"active","ping":105},{"user_id":75,"name":"dog","steam_id":76561198090737207,"connected_time":4337000000000,"state":"active","ping":60},{"user_id":109,"name":"Spicy Within Reason","steam_id":76561198066700370,"connected_time":1709000000000,"state":"active","ping":69},{"user_id":98,"name":"dml xstephx","steam_id":76561197981939331,"connected_time":2450000000000,"state":"active","ping":49},{"user_id":121,"name":"bowl.of.cereal","steam_id":76561199096006276,"connected_time":573000000000,"state":"active","ping":82},{"user_id":116,"name":"DJ Absolute Garbage","steam_id":76561198068000747,"connected_time":830000000000,"state":"active","ping":118},{"user_id":122,"name":"Queen Chrystaliana","steam_id":76561198312198313,"connected_time":378000000000,"state":"active","ping":87},{"user_id":113,"name":"Thunderchief","steam_id":76561198022802780,"connected_time":934000000000,"state":"active","ping":71},{"user_id":96,"name":"BrightOrangeMango","steam_id":76561198023144607,"connected_time":2746000000000,"state":"active","ping":75},{"user_id":125,"name":"JawnyMac","steam_id":76561198179529599,"connected_time":297000000000,"state":"active","ping":53},{"user_id":99,"name":"I_amgeneric","steam_id":76561198058605649,"connected_time":2393000000000,"state":"active","ping":76},{"user_id":100,"name":"Kaluka","steam_id":76561198036861445,"connected_time":2369000000000,"state":"active","ping":121},{"user_id":71,"name":"Dad","steam_id":76561199091290729,"connected_time":4431000000000,"state":"active","ping":97},{"user_id":127,"name":"oh god i love eatin dirt","steam_id":76561199367503820,"connected_time":277000000000,"state":"active","ping":152},{"user_id":73,"name":"Rickysuper_52","steam_id":76561198067865179,"connected_time":4378000000000,"state":"active","ping":80}]},{"server_id":141,"name":"Uncletopia | Sydney | 1 | All Maps","name_short":"syd-1","host":"syd-1.au.uncletopia.com","port":27015,"enabled":true,"region":"au","cc":"au","latitude":-33.865143,"longitude":151.2099,"reserved":0,"last_update":"0001-01-01T00:00:00Z","name_a2s":"Uncletopia | Sydney | 1 | All Maps","protocol":17,"map":"koth_viaduct","folder":"tf","game":"Team Fortress","app_id":440,"player_count":0,"max_players":24,"Bots":0,"server_type":"Dedicated","server_os":"Linux","password":true,"vac":true,"version":"7757534","steam_id":85568392924470001,"keywords":["cp","nocrits","nodmgspread","uncletopia"],"game_id":440,"stv_port":27016,"stv_name":"Uncletopia | Sydney | 1 | All Maps | STV","players":null},{"server_id":123,"name":"Uncletopia | Sydney | 2 | All Maps","name_short":"syd-2","host":"syd-1.au.uncletopia.com","port":27025,"enabled":true,"region":"au","cc":"au","latitude":-33.865143,"longitude":151.2099,"reserved":0,"last_update":"0001-01-01T00:00:00Z","name_a2s":"Uncletopia | Sydney | 2 | All Maps","protocol":17,"map":"cp_process_final","folder":"tf","game":"Team Fortress","app_id":440,"player_count":0,"max_players":24,"Bots":0,"server_type":"Dedicated","server_os":"Linux","password":true,"vac":true,"version":"7757534","steam_id":85568392924470002,"keywords":["cp","nocrits","nodmgspread","uncletopia"],"game_id":440,"stv_port":27026,"stv_name":"Uncletopia | Sydney | 2 | All Maps | STV","players":null},{"server_id":395,"name":"Uncletopia | Sydney | 3 | All Maps","name_short":"syd-3","host":"syd-1.au.uncletopia.com","port":27035,"enabled":true,"region":"au","cc":"au","latitude":-33.865143,"longitude":151.2099,"reserved":0,"last_update":"0001-01-01T00:00:00Z","name_a2s":"Uncletopia | Sydney | 3 | All Maps","protocol":17,"map":"pl_swiftwater_final1","folder":"tf","game":"Team Fortress","app_id":440,"player_count":0,"max_players":24,"Bots":0,"server_type":"Dedicated","server_os":"Linux","password":true,"vac":true,"version":"7757534","steam_id":85568392925194467,"keywords":["nocrits","nodmgspread","payload","uncletopia"],"game_id":440,"stv_port":27036,"stv_name":"Uncletopia | Sydney | 3 | All Maps | STV","players":null},{"server_id":396,"name":"Uncletopia | Sydney | 4 | All Maps","name_short":"syd-4","host":"syd-1.au.uncletopia.com","port":27045,"enabled":true,"region":"au","cc":"au","latitude":-33.865143,"longitude":151.2099,"reserved":0,"last_update":"0001-01-01T00:00:00Z","name_a2s":"Uncletopia | Sydney | 4 | All Maps","protocol":17,"map":"koth_highpass","folder":"tf","game":"Team Fortress","app_id":440,"player_count":0,"max_players":24,"Bots":0,"server_type":"Dedicated","server_os":"Linux","password":true,"vac":true,"version":"7757534","steam_id":85568392925397958,"keywords":["cp","nocrits","nodmgspread","uncletopia"],"game_id":440,"stv_port":27046,"stv_name":"Uncletopia | Sydney | 4 | All Maps | STV","players":null},{"server_id":58,"name":"Uncletopia | Sydney | 5 | Stopwatch Beta","name_short":"syd-5","host":"syd-1.au.uncletopia.com","port":27055,"enabled":true,"region":"au","cc":"au","latitude":-33.865143,"longitude":151.2099,"reserved":0,"last_update":"0001-01-01T00:00:00Z","name_a2s":"Uncletopia | Sydney | 5 | Stopwatch Beta","protocol":17,"map":"koth_cascade","folder":"tf","game":"Team Fortress","app_id":440,"player_count":0,"max_players":24,"Bots":0,"server_type":"Dedicated","server_os":"Linux","password":true,"vac":true,"version":"7757534","steam_id":85568392925397959,"keywords":["cp","nocrits","nodmgspread","uncletopia"],"game_id":440,"stv_port":27056,"stv_name":"Uncletopia | Sydney | 5 | Stopwatch Beta | STV","players":null},{"server_id":59,"name":"Uncletopia | Sydney | 6 | Community","name_short":"syd-6","host":"syd-1.au.uncletopia.com","port":27065,"enabled":true,"region":"au","cc":"au","latitude":-33.865143,"longitude":151.2099,"reserved":0,"last_update":"0001-01-01T00:00:00Z","name_a2s":"Uncletopia | Sydney | 6 | Community","protocol":17,"map":"cp_snakewater_final1","folder":"tf","game":"Team Fortress","app_id":440,"player_count":0,"max_players":24,"Bots":0,"server_type":"Dedicated","server_os":"Linux","password":true,"vac":true,"version":"7757534","steam_id":85568392925397960,"keywords":["cp","nocrits","nodmgspread","uncletopia"],"game_id":440,"stv_port":27066,"stv_name":"Uncletopia | Sydney | 6 | Community | STV","players":null},{"server_id":49,"name":"Uncletopia | Warsaw | 1 | All Maps","name_short":"waw-1","host":"waw-1.pl.uncletopia.com","port":27015,"enabled":true,"region":"eu","cc":"pl","latitude":52.2297,"longitude":21.017532,"reserved":0,"last_update":"0001-01-01T00:00:00Z","name_a2s":"","protocol":0,"map":"","folder":"","game":"","app_id":0,"player_count":0,"max_players":0,"Bots":0,"server_type":"","server_os":"","password":false,"vac":false,"version":"","steam_id":0,"keywords":null,"game_id":0,"stv_port":0,"stv_name":"","players":null},{"server_id":50,"name":"Uncletopia | Warsaw | 2 | All Maps","name_short":"waw-2","host":"waw-1.pl.uncletopia.com","port":27025,"enabled":true,"region":"eu","cc":"pl","latitude":52.2297,"longitude":21.017532,"reserved":0,"last_update":"0001-01-01T00:00:00Z","name_a2s":"Uncletopia | Warsaw | 2 | All Maps","protocol":17,"map":"pl_barnblitz","folder":"tf","game":"Team Fortress","app_id":440,"player_count":0,"max_players":24,"Bots":0,"server_type":"Dedicated","server_os":"Linux","password":true,"vac":true,"version":"7757534","steam_id":85568392925397851,"keywords":["nocrits","nodmgspread","payload","uncletopia"],"game_id":440,"stv_port":27026,"stv_name":"Uncletopia | Warsaw | 2 | All Maps | STV","players":null},{"server_id":51,"name":"Uncletopia | Warsaw | 3 | All Maps","name_short":"waw-3","host":"waw-1.pl.uncletopia.com","port":27035,"enabled":true,"region":"eu","cc":"pl","latitude":52.2297,"longitude":21.017532,"reserved":0,"last_update":"0001-01-01T00:00:00Z","name_a2s":"Uncletopia | Warsaw | 3 | All Maps","protocol":17,"map":"koth_lakeside_final","folder":"tf","game":"Team Fortress","app_id":440,"player_count":0,"max_players":24,"Bots":0,"server_type":"Dedicated","server_os":"Linux","password":true,"vac":true,"version":"7757534","steam_id":85568392925397852,"keywords":["cp","nocrits","nodmgspread","uncletopia"],"game_id":440,"stv_port":27036,"stv_name":"Uncletopia | Warsaw | 3 | All Maps | STV","players":null},{"server_id":52,"name":"Uncletopia | Warsaw | 4 | All Maps","name_short":"waw-4","host":"waw-1.pl.uncletopia.com","port":27045,"enabled":true,"region":"eu","cc":"pl","latitude":52.2297,"longitude":21.017532,"reserved":0,"last_update":"0001-01-01T00:00:00Z","name_a2s":"Uncletopia | Warsaw | 4 | All Maps","protocol":17,"map":"koth_lakeside_final","folder":"tf","game":"Team Fortress","app_id":440,"player_count":0,"max_players":24,"Bots":0,"server_type":"Dedicated","server_os":"Linux","password":true,"vac":true,"version":"7757534","steam_id":85568392925397853,"keywords":["cp","nocrits","nodmgspread","uncletopia"],"game_id":440,"stv_port":27046,"stv_name":"Uncletopia | Warsaw | 4 | All Maps | STV","players":null},{"server_id":53,"name":"Uncletopia | Warsaw | 5 | Stopwatch Beta","name_short":"waw-5","host":"waw-1.pl.uncletopia.com","port":27055,"enabled":true,"region":"eu","cc":"pl","latitude":52.2297,"longitude":21.017532,"reserved":0,"last_update":"0001-01-01T00:00:00Z","name_a2s":"Uncletopia | Warsaw | 5 | Stopwatch Beta","protocol":17,"map":"pl_borneo","folder":"tf","game":"Team Fortress","app_id":440,"player_count":0,"max_players":24,"Bots":0,"server_type":"Dedicated","server_os":"Linux","password":true,"vac":true,"version":"7757534","steam_id":85568392925397854,"keywords":["nocrits","nodmgspread","payload","uncletopia"],"game_id":440,"stv_port":27056,"stv_name":"Uncletopia | Warsaw | 5 | Stopwatch Beta | STV","players":null},{"server_id":54,"name":"Uncletopia | Warsaw | 6 | Community","name_short":"waw-6","host":"waw-1.pl.uncletopia.com","port":27065,"enabled":true,"region":"eu","cc":"pl","latitude":52.2297,"longitude":21.017532,"reserved":0,"last_update":"0001-01-01T00:00:00Z","name_a2s":"Uncletopia | Warsaw | 6 | Community","protocol":17,"map":"koth_lakeside_final","folder":"tf","game":"Team Fortress","app_id":440,"player_count":0,"max_players":24,"Bots":0,"server_type":"Dedicated","server_os":"Linux","password":true,"vac":true,"version":"7757534","steam_id":85568392925397856,"keywords":["cp","nocrits","nodmgspread","uncletopia"],"game_id":440,"stv_port":27066,"stv_name":"Uncletopia | Warsaw | 6 | Community | STV","players":null}]}