{"status":true,"message":"","result":[{"server_id":9,"name":"Uncletopia | Atlanta | 1 | All Maps","name_short":"atl-1","host":"atl-1.us.uncletopia.com","port":27015,"enabled":true,"region":"us-east","cc":"us","latitude":33.753746,"longitude":-84.38633,"reserved":0,"last_update":"0001-01-01T00:00:00Z","name_a2s":"Uncletopia | Atlanta | 1 | All Maps","protocol":17,"map":"cp_process_final","folder":"tf","game":"Team Fortress","app_id":440,"player_count":21,"max_players":24,"Bots":0,"server_type":"Dedicated","server_os":"Linux","password":true,"vac":true,"version":"7961495","steam_id":85568392924469982,"keywords":["cp","nocrits","nodmgspread","uncletopia"],"game_id":440,"stv_port":27016,"stv_name":"Uncletopia | Atlanta | 1 | All Maps | STV","players":[{"user_id":62,"name":"mayhem","steam_id":76561199246637881,"connected_time":444000000000,"state":"active","ping":58},{"user_id":47,"name":"Wso","steam_id":76561198048040111,"connected_time":1875000000000,"state":"active","ping":90},{"user_id":65,"name":"Whompert","steam_id":76561198042939624,"connected_time":89000000000,"state":"active","ping":73},{"user_id":60,"name":"you","steam_id":76561198017228729,"connected_time":838000000000,"state":"active","ping":75},{"user_id":40,"name":"Rain_OwO","steam_id":76561199007791341,"connected_time":2797000000000,"state":"active","ping":61},{"user_id":25,"name":"Jeramosa","steam_id":76561198811000094,"connected_time":2957000000000,"state":"active","ping":87},{"user_id":15,"name":"SlowBisbalito","steam_id":76561199027366888,"connected_time":3102000000000,"state":"active","ping":116},{"user_id":42,"name":"Peter griffin","steam_id":76561198277602752,"connected_time":2716000000000,"state":"active","ping":177},{"user_id":43,"name":"MinimanC","steam_id":76561198071475084,"connected_time":2318000000000,"state":"active","ping":71},{"user_id":19,"name":"mdos","steam_id":76561198332133944,"connected_time":3019000000000,"state":"active","ping":69},{"user_id":57,"name":"nettles","steam_id":76561199238923581,"connected_time":1228000000000,"state":"active","ping":117},{"user_id":50,"name":"Ok-Par","steam_id":76561199221067945,"connected_time":1790000000000,"state":"active","ping":74},{"user_id":22,"name":"Oxygen User","steam_id":76561199111975528,"connected_time":2990000000000,"state":"active","ping":72},{"user_id":23,"name":"Definitely Gay :)","steam_id":76561198988396980,"connected_time":2985000000000,"state":"active","ping":69},{"user_id":58,"name":"Za_Billy","steam_id":76561198141530923,"connected_time":1227000000000,"state":"active","ping":72},{"user_id":46,"name":"Dim","steam_id":76561198061411324,"connected_time":2065000000000,"state":"active","ping":60},{"user_id":51,"name":"Zaro","steam_id":76561198433849006,"connected_time":1769000000000,"state":"active","ping":48},{"user_id":32,"name":"carly","steam_id":76561198094118479,"connected_time":2931000000000,"state":"active","ping":98},{"user_id":61,"name":"DualiTea","steam_id":76561198081733870,"connected_time":826000000000,"state":"active","ping":74},{"user_id":64,"name":"FIJI","steam_id":76561198126087725,"connected_time":109000000000,"state":"active","ping":69},{"user_id":36,"name":"Window Licker #pride","steam_id":76561198386717007,"connected_time":2862000000000,"state":"active","ping":74}]},{"server_id":104,"name":"Uncletopia | Atlanta | 2 | All Maps","name_short":"atl-2","host":"atl-1.us.uncletopia.com","port":27025,"enabled":true,"region":"us-east","cc":"us","latitude":33.753746,"longitude":-84.38633,"reserved":0,"last_update":"0001-01-01T00:00:00Z","name_a2s":"Uncletopia | Atlanta | 2 | All Maps","protocol":17,"map":"cp_snakewater_final1","folder":"tf","game":"Team Fortress","app_id":440,"player_count":0,"max_players":24,"Bots":0,"server_type":"Dedicated","server_os":"Linux","password":true,"vac":true,"version":"7961495","steam_id":85568392924469983,"keywords":["cp","nocrits","nodmgspread","uncletopia"],"game_id":440,"stv_port":27026,"stv_name":"Uncletopia | Atlanta | 2 | All Maps | STV","players":null},{"server_id":400,"name":"Uncletopia | Atlanta | 3 | Stopwatch","name_short":"atl-3","host":"atl-1.us.uncletopia.com","port":27035,"enabled":true,"region":"us-east","cc":"us","latitude":33.753746,"longitude":-84.38633,"reserved":0,"last_update":"0001-01-01T00:00:00Z","name_a2s":"Uncletopia | Atlanta | 3 | Stopwatch","protocol":17,"map":"cp_process_final","folder":"tf","game":"Team Fortress","app_id":440,"player_count":0,"max_players":24,"Bots":0,"server_type":"Dedicated","server_os":"Linux","password":true,"vac":true,"version":"7961495","steam_id":85568392924515187,"keywords":["cp","nocrits","nodmgspread","uncletopia"],"game_id":440,"stv_port":27036,"stv_name":"Uncletopia | Atlanta | 3 | Stopwatch | STV","players":null},{"server_id":401,"name":"Uncletopia | Atlanta | 4 | Community","name_short":"atl-4","host":"atl-1.us.uncletopia.com","port":27045,"enabled":true,"region":"us-east","cc":"us","latitude":33.753746,"longitude":-84.38633,"reserved":0,"last_update":"0001-01-01T00:00:00Z","name_a2s":"Uncletopia | Atlanta | 4 | Community","protocol":17,"map":"workshop/pl_phoenix_b4a.ugc2969509359","folder":"tf","game":"Team Fortress","app_id":440,"player_count":0,"max_players":24,"Bots":0,"server_type":"Dedicated","server_os":"Linux","password":true,"vac":true,"version":"7961495","steam_id":85568392924515188,"keywords":["nocrits","nodmgspread","payload","uncletopia"],"game_id":440,"stv_port":27046,"stv_name":"Uncletopia | Atlanta | 4 | Community | STV","players":null},{"server_id":2,"name":"Uncletopia | Chicago | 1 | All Maps","name_short":"chi-1","host":"chi-1.us.uncletopia.com","port":27015,"enabled":true,"region":"us-central","cc":"us","latitude":41.881832,"longitude":-87.62318,"reserved":0,"last_update":"0001-01-01T00:00:00Z","name_a2s":"Uncletopia | Chicago | 1 | All Maps","protocol":17,"map":"cp_dustbowl","folder":"tf","game":"Team Fortress","app_id":440,"player_count":22,"max_players":24,"Bots":0,"server_type":"Dedicated","server_os":"Linux","password":true,"vac":true,"version":"7961495","steam_id":85568392924469984,"keywords":["cp","nocrits","nodmgspread","uncletopia"],"game_id":440,"stv_port":27016,"stv_name":"Uncletopia | Chicago | 1 | All Maps | STV","players":[{"user_id":152,"name":"Toasterduds","steam_id":76561198163477584,"connected_time":33000000000,"state":"active","ping":110},{"user_id":146,"name":"fried rice","steam_id":76561198928939100,"connected_time":982000000000,"state":"active","ping":76},{"user_id":111,"name":"okay","steam_id":76561198024973008,"connected_time":3825000000000,"state":"active","ping":74},{"user_id":134,"name":"Battalion's Backup","steam_id":76561198066153777,"connected_time":1986000000000,"state":"active","ping":30},{"user_id":58,"name":"Rode hard, put away wet","steam_id":76561198062764039,"connected_time":7567000000000,"state":"active","ping":68},{"user_id":135,"name":"dc","steam_id":76561199478731858,"connected_time":1953000000000,"state":"active","ping":76},{"user_id":136,"name":"Dr. Bodacious","steam_id":76561199122205825,"connected_time":1946000000000,"state":"active","ping":74},{"user_id":138,"name":"Bacchus","steam_id":76561199056815356,"connected_time":1892000000000,"state":"active","ping":60},{"user_id":150,"name":"Tom","steam_id":76561198070630154,"connected_time":739000000000,"state":"active","ping":84},{"user_id":90,"name":"Nefy","steam_id":76561198030017316,"connected_time":4893000000000,"state":"active","ping":75},{"user_id":121,"name":"HansBanans","steam_id":76561198167894050,"connected_time":3414000000000,"state":"active","ping":65},{"user_id":104,"name":"Siz","steam_id":76561198072962154,"connected_time":4450000000000,"state":"active","ping":62},{"user_id":151,"name":"Basket of Whistles","steam_id":76561198038541306,"connected_time":687000000000,"state":"active","ping":77},{"user_id":132,"name":"Slab civilnetworks.net","steam_id":76561198968032452,"connected_time":2682000000000,"state":"active","ping":75},{"user_id":149,"name":"hearthian","steam_id":76561198113235260,"connected_time":746000000000,"state":"active","ping":89},{"user_id":31,"name":"voltageG","steam_id":76561198107165710,"connected_time":8550000000000,"state":"active","ping":62},{"user_id":129,"name":"Distraction","steam_id":76561199445895882,"connected_time":3132000000000,"state":"active","ping":62},{"user_id":143,"name":"Scita","steam_id":76561198066861559,"connected_time":1579000000000,"state":"active","ping":66},{"user_id":144,"name":"Enemy goblin","steam_id":76561198045793516,"connected_time":1567000000000,"state":"active","ping":53},{"user_id":145,"name":"Fuegan Ra","steam_id":76561198287923849,"connected_time":1554000000000,"state":"active","ping":46},{"user_id":119,"name":"Karrot","steam_id":76561198058970903,"connected_time":3448000000000,"state":"active","ping":68},{"user_id":148,"name":"SoftAvocado","steam_id":76561198278375987,"connected_time":845000000000,"state":"active","ping":112}]},{"server_id":106,"name":"Uncletopia | Chicago | 2 | All Maps","name_short":"chi-2","host":"chi-1.us.uncletopia.com","port":27025,"enabled":true,"region":"us-central","cc":"us","latitude":41.881832,"longitude":-87.62318,"reserved":0,"last_update":"0001-01-01T00:00:00Z","name_a2s":"Uncletopia | Chicago | 2 | All Maps","protocol":17,"map":"koth_highpass","folder":"tf","game":"Team Fortress","app_id":440,"player_count":23,"max_players":24,"Bots":0,"server_type":"Dedicated","server_os":"Linux","password":true,"vac":true,"version":"7961495","steam_id":85568392924469985,"keywords":["cp","nocrits","nodmgspread","uncletopia"],"game_id":440,"stv_port":27026,"stv_name":"Uncletopia | Chicago | 2 | All Maps | STV","players":[{"user_id":241,"name":"corntent","steam_id":76561198824847948,"connected_time":1688000000000,"state":"active","ping":59},{"user_id":218,"name":"NighttimeNap","steam_id":76561198149183514,"connected_time":3337000000000,"state":"active","ping":110},{"user_id":262,"name":"Mythic","steam_id":76561198028616665,"connected_time":288000000000,"state":"active","ping":61},{"user_id":6,"name":"daemon","steam_id":76561198001541433,"connected_time":22191000000000,"state":"active","ping":58},{"user_id":171,"name":"Brandino!","steam_id":76561198000446932,"connected_time":7767000000000,"state":"active","ping":77},{"user_id":245,"name":"ya ya breathe","steam_id":76561198075858067,"connected_time":1157000000000,"state":"active","ping":63},{"user_id":214,"name":"divingmule","steam_id":76561197966679724,"connected_time":3579000000000,"state":"active","ping":59},{"user_id":242,"name":"IsleBound","steam_id":76561198278451717,"connected_time":1677000000000,"state":"active","ping":55},{"user_id":256,"name":"t.tv/ibbKitty  ∑:3","steam_id":76561198110858518,"connected_time":560000000000,"state":"active","ping":60},{"user_id":266,"name":"(Ô)Ô)Wandering Singer(Ô(Ô)","steam_id":76561198126477141,"connected_time":130000000000,"state":"active","ping":64},{"user_id":253,"name":"Radium","steam_id":76561198195881339,"connected_time":739000000000,"state":"active","ping":66},{"user_id":258,"name":"Boofenshmirtz","steam_id":76561198071649858,"connected_time":538000000000,"state":"active","ping":64},{"user_id":267,"name":"Bazinga's","steam_id":76561198354523202,"connected_time":114000000000,"state":"active","ping":55},{"user_id":250,"name":"Whimsy!","steam_id":76561197989578836,"connected_time":949000000000,"state":"active","ping":92},{"user_id":261,"name":"Jamie (controller)","steam_id":76561198058840477,"connected_time":381000000000,"state":"active","ping":94},{"user_id":268,"name":"Morgster","steam_id":76561198131697761,"connected_time":66000000000,"state":"active","ping":74},{"user_id":211,"name":"Fredrick","steam_id":76561197981419964,"connected_time":3873000000000,"state":"active","ping":63},{"user_id":269,"name":"f24357880","steam_id":76561199477837013,"connected_time":57000000000,"state":"active","ping":91},{"user_id":228,"name":"crab","steam_id":76561199094011002,"connected_time":2674000000000,"state":"active","ping":58},{"user_id":251,"name":"Birby","steam_id":76561198884009768,"connected_time":940000000000,"state":"active","ping":106},{"user_id":264,"name":"Deoxis110","steam_id":76561198997269000,"connected_time":256000000000,"state":"active","ping":132},{"user_id":270,"name":"milkmanjoe","steam_id":76561199273891607,"connected_time":54000000000,"state":"active","ping":66},{"user_id":226,"name":"Lmnop","steam_id":76561198038458838,"connected_time":3046000000000,"state":"active","ping":52}]},{"server_id":402,"name":"Uncletopia | Chicago | 3 | All Maps","name_short":"chi-3","host":"chi-1.us.uncletopia.com","port":27035,"enabled":true,"region":"us-central","cc":"us","latitude":41.881832,"longitude":-87.62318,"reserved":0,"last_update":"0001-01-01T00:00:00Z","name_a2s":"Uncletopia | Chicago | 3 | All Maps","protocol":17,"map":"pl_borneo","folder":"tf","game":"Team Fortress","app_id":440,"player_count":24,"max_players":24,"Bots":0,"server_type":"Dedicated","server_os":"Linux","password":true,"vac":true,"version":"7961495","steam_id":85568392924515191,"keywords":["nocrits","nodmgspread","payload","uncletopia"],"game_id":440,"stv_port":27036,"stv_name":"Uncletopia | Chicago | 3 | All Maps | STV","players":[{"user_id":7,"name":"doamgeo468","steam_id":76561199485287045,"connected_time":2554000000000,"state":"active","ping":59},{"user_id":33,"name":"ゲームは終わりました","steam_id":76561198328234905,"connected_time":669000000000,"state":"active","ping":165},{"user_id":9,"name":"gillmore.samuel","steam_id":76561198109742336,"connected_time":2455000000000,"state":"active","ping":59},{"user_id":46,"name":"_copkilla.B1G$L1M€.zaddY_","steam_id":76561198283687382,"connected_time":226000000000,"state":"active","ping":71},{"user_id":14,"name":"Fresh Lychee","steam_id":76561198045399559,"connected_time":1276000000000,"state":"active","ping":52},{"user_id":13,"name":"The World's Softest Sandwich","steam_id":76561198015577707,"connected_time":1518000000000,"state":"active","ping":77},{"user_id":15,"name":"1-800-GHOST-DANCE","steam_id":76561198835430429,"connected_time":1032000000000,"state":"active","ping":80},{"user_id":35,"name":"Training Bot [Easy]","steam_id":76561199119473164,"connected_time":637000000000,"state":"active","ping":67},{"user_id":25,"name":"DinkyDoink","steam_id":76561198240026004,"connected_time":865000000000,"state":"active","ping":70},{"user_id":26,"name":"Stolas ♥","steam_id":76561198835430280,"connected_time":845000000000,"state":"active","ping":64},{"user_id":21,"name":"inshallah","steam_id":76561198165212575,"connected_time":951000000000,"state":"active","ping":65},{"user_id":45,"name":"UNIT 220","steam_id":76561198042243497,"connected_time":392000000000,"state":"active","ping":63},{"user_id":49,"name":"Captain Malarkey","steam_id":76561198869924281,"connected_time":87000000000,"state":"active","ping":66},{"user_id":28,"name":"Ryan","steam_id":76561198370312678,"connected_time":767000000000,"state":"active","ping":63},{"user_id":39,"name":"Nolan","steam_id":76561198169648081,"connected_time":602000000000,"state":"active","ping":91},{"user_id":30,"name":"dariusen1","steam_id":76561198930935285,"connected_time":720000000000,"state":"active","ping":66},{"user_id":31,"name":"Dr. Amigo","steam_id":76561198188100987,"connected_time":714000000000,"state":"active","ping":45},{"user_id":47,"name":"• Fran •","steam_id":76561198119724479,"connected_time":160000000000,"state":"active","ping":77},{"user_id":50,"name":"fawn covered in paint thinner","steam_id":76561198043684960,"connected_time":10000000000,"state":"active","ping":98},{"user_id":38,"name":"chilis baby back ribs","steam_id":76561198813516435,"connected_time":619000000000,"state":"active","ping":93},{"user_id":40,"name":"Ligaie","steam_id":76561199121597694,"connected_time":599000000000,"state":"active","ping":75},{"user_id":48,"name":"yoshido","steam_id":76561198846313229,"connected_time":155000000000,"state":"active","ping":54},{"user_id":42,"name":"Der Krieger105","steam_id":76561197978384609,"connected_time":594000000000,"state":"active","ping":89},{"user_id":43,"name":"menonamed","steam_id":76561198199564382,"connected_time":585000000000,"state":"active","ping":62}]},{"server_id":403,"name":"Uncletopia | Chicago | 4 | All Maps","name_short":"chi-4","host":"chi-1.us.uncletopia.com","port":27045,"enabled":true,"region":"us-central","cc":"us","latitude":41.881832,"longitude":-87.62318,"reserved":0,"last_update":"0001-01-01T00:00:00Z","name_a2s":"Uncletopia | Chicago | 4 | All Maps","protocol":17,"map":"cp_gorge","folder":"tf","game":"Team Fortress","app_id":440,"player_count":24,"max_players":24,"Bots":0,"server_type":"Dedicated","server_os":"Linux","password":true,"vac":true,"version":"7961495","steam_id":85568392924515193,"keywords":["cp","nocrits","nodmgspread","uncletopia"],"game_id":440,"stv_port":27046,"stv_name":"Uncletopia | Chicago | 4 | All Maps | STV","players":[{"user_id":38,"name":"EvilsConscience","steam_id":76561198073451760,"connected_time":3231000000000,"state":"active","ping":59},{"user_id":70,"name":"xxxsinpadres","steam_id":76561198366873419,"connected_time":1755000000000,"state":"active","ping":50},{"user_id":85,"name":"definitely not cris","steam_id":76561198930426710,"connected_time":201000000000,"state":"active","ping":61},{"user_id":7,"name":"Whimsical Bruh","steam_id":76561199069973423,"connected_time":3937000000000,"state":"active","ping":54},{"user_id":84,"name":"e doctor","steam_id":76561198081851446,"connected_time":521000000000,"state":"active","ping":45},{"user_id":78,"name":"indi","steam_id":76561198045917538,"connected_time":1312000000000,"state":"active","ping":58},{"user_id":87,"name":"StudioMania (#SAVETF2)","steam_id":76561198211315795,"connected_time":188000000000,"state":"active","ping":69},{"user_id":56,"name":"Communist Killing Candy Cactus\ufffd","steam_id":76561198074980635,"connected_time":2681000000000,"state":"active","ping":122},{"user_id":40,"name":"Nukem","steam_id":76561198166236574,"connected_time":3163000000000,"state":"active","ping":79},{"user_id":47,"name":"Crabo Stabbo","steam_id":76561198061227228,"connected_time":3087000000000,"state":"active","ping":48},{"user_id":73,"name":"P.T. Barnum's Redemption Arc","steam_id":76561198136789464,"connected_time":1444000000000,"state":"active","ping":61},{"user_id":79,"name":"Fisher","steam_id":76561199092708122,"connected_time":1305000000000,"state":"active","ping":45},{"user_id":29,"name":"I cooka a da pizza","steam_id":76561198126121555,"connected_time":3408000000000,"state":"active","ping":57},{"user_id":19,"name":"Your Loyal Familiar","steam_id":76561198106476075,"connected_time":3529000000000,"state":"active","ping":80},{"user_id":20,"name":"Pledged","steam_id":76561198055445036,"connected_time":3518000000000,"state":"active","ping":72},{"user_id":42,"name":"Chelo Jengo","steam_id":76561198426191363,"connected_time":3149000000000,"state":"active","ping":59},{"user_id":49,"name":"Zeboto","steam_id":76561198078054459,"connected_time":3045000000000,"state":"active","ping":72},{"user_id":80,"name":"Kalioc","steam_id":76561198042557843,"connected_time":1284000000000,"state":"active","ping":83},{"user_id":86,"name":"GooseWithAGibus","steam_id":76561198131567365,"connected_time":198000000000,"state":"active","ping":72},{"user_id":76,"name":"airballer","steam_id":76561198165899125,"connected_time":1418000000000,"state":"active","ping":71},{"user_id":88,"name":"TRIPLE AAARON","steam_id":76561198066835150,"connected_time":134000000000,"state":"active","ping":56},{"user_id":50,"name":"smoothdaddy123","steam_id":76561198986553109,"connected_time":3039000000000,"state":"active","ping":53},{"user_id":62,"name":"Lenomon","steam_id":76561198287958321,"connected_time":2568000000000,"state":"active","ping":96},{"user_id":83,"name":"ThatGamingKiwi","steam_id":76561199170522237,"connected_time":550000000000,"state":"active","ping":75}]},{"server_id":36,"name":"Uncletopia | Chicago | 5 | All Maps","name_short":"chi-5","host":"chi-2.us.uncletopia.com","port":27015,"enabled":true,"region":"us-central","cc":"us","latitude":41.881832,"longitude":-87.62318,"reserved":0,"last_update":"0001-01-01T00:00:00Z","name_a2s":"Uncletopia | Chicago | 5 | All Maps","protocol":17,"map":"cp_mountainlab","folder":"tf","game":"Team Fortress","app_id":440,"player_count":0,"max_players":24,"Bots":0,"server_type":"Dedicated","server_os":"Linux","password":true,"vac":true,"version":"7961495","steam_id":85568392924866362,"keywords":["cp","nocrits","nodmgspread","uncletopia"],"game_id":440,"stv_port":27016,"stv_name":"Uncletopia | Chicago | 5 | All Maps | STV","players":null},{"server_id":37,"name":"Uncletopia | Chicago | 6 | All Maps","name_short":"chi-6","host":"chi-2.us.uncletopia.com","port":27025,"enabled":true,"region":"us-central","cc":"us","latitude":41.881832,"longitude":-87.62318,"reserved":0,"last_update":"0001-01-01T00:00:00Z","name_a2s":"Uncletopia | Chicago | 6 | All Maps","protocol":17,"map":"pl_borneo","folder":"tf","game":"Team Fortress","app_id":440,"player_count":0,"max_players":24,"Bots":0,"server_type":"Dedicated","server_os":"Linux","password":true,"vac":true,"version":"7961495","steam_id":85568392924866363,"keywords":["nocrits","nodmgspread","payload","uncletopia"],"game_id":440,"stv_port":27026,"stv_name":"Uncletopia | Chicago | 6 | All Maps | STV","players":null},{"server_id":38,"name":"Uncletopia | Chicago | 7 | Stopwatch","name_short":"chi-7","host":"chi-2.us.uncletopia.com","port":27035,"enabled":true,"region":"us-central","cc":"us","latitude":41.881832,"longitude":-87.62318,"reserved":0,"last_update":"0001-01-01T00:00:00Z","name_a2s":"Uncletopia | Chicago | 7 | Stopwatch","protocol":17,"map":"workshop/koth_ashville_final.ugc2130459942","folder":"tf","game":"Team Fortress","app_id":440,"player_count":0,"max_players":24,"Bots":0,"server_type":"Dedicated","server_os":"Linux","password":true,"vac":true,"version":"7961495","steam_id":85568392924866364,"keywords":["cp","nocrits","nodmgspread","uncletopia"],"game_id":440,"stv_port":27036,"stv_name":"Uncletopia | Chicago | 7 | Stopwatch | STV","players":null},{"server_id":39,"name":"Uncletopia | Chicago | 8 | Community","name_short":"chi-8","host":"chi-2.us.uncletopia.com","port":27045,"enabled":true,"region":"us-central","cc":"us","latitude":41.881832,"longitude":-87.62318,"reserved":0,"last_update":"0001-01-01T00:00:00Z","name_a2s":"Uncletopia | Chicago | 8 | Community","protocol":17,"map":"workshop/cp_caldera_rc3.ugc2834196889","folder":"tf","game":"Team Fortress","app_id":440,"player_count":0,"max_players":24,"Bots":0,"server_type":"Dedicated","server_os":"Linux","password":true,"vac":true,"version":"7961495","steam_id":85568392924866365,"keywords":["cp","nocrits","nodmgspread","uncletopia"],"game_id":440,"stv_port":27046,"stv_name":"Uncletopia | Chicago | 8 | Community | STV","players":null},{"server_id":8,"name":"Uncletopia | Dallas | 1 | All Maps","name_short":"dal-1","host":"dal-1.us.uncletopia.com","port":27015,"enabled":true,"region":"us-central","cc":"us","latitude":32.779167,"longitude":-96.80889,"reserved":0,"last_update":"0001-01-01T00:00:00Z","name_a2s":"Uncletopia | Dallas | 1 | All Maps","protocol":17,"map":"pl_pier","folder":"tf","game":"Team Fortress","app_id":440,"player_count":24,"max_players":24,"Bots":0,"server_type":"Dedicated","server_os":"Linux","password":true,"vac":true,"version":"7961495","steam_id":85568392924469986,"keywords":["nocrits","nodmgspread","payload","uncletopia"],"game_id":440,"stv_port":27016,"stv_name":"Uncletopia | Dallas | 1 | All Maps | STV","players":[{"user_id":179,"name":"Bennet","steam_id":76561198194582382,"connected_time":458000000000,"state":"active","ping":70},{"user_id":165,"name":"wunderbrad","steam_id":76561198069445905,"connected_time":1663000000000,"state":"active","ping":125},{"user_id":185,"name":"be","steam_id":76561198000824533,"connected_time":356000000000,"state":"active","ping":84},{"user_id":176,"name":"a fuddruckers","steam_id":76561198092656099,"connected_time":722000000000,"state":"active","ping":51},{"user_id":160,"name":"YOU WHAT?!","steam_id":76561198418679471,"connected_time":1906000000000,"state":"active","ping":60},{"user_id":144,"name":"Jeiyo","steam_id":76561199070161957,"connected_time":3468000000000,"state":"active","ping":77},{"user_id":100,"name":"DMM","steam_id":76561198065426171,"connected_time":6898000000000,"state":"active","ping":55},{"user_id":127,"name":"Broadsword #LGM","steam_id":76561198011160411,"connected_time":4885000000000,"state":"active","ping":79},{"user_id":180,"name":"Mr. Hankey","steam_id":76561198872852200,"connected_time":430000000000,"state":"active","ping":135},{"user_id":181,"name":"Transfem Bumblebee","steam_id":76561198119393205,"connected_time":416000000000,"state":"active","ping":53},{"user_id":182,"name":"tae","steam_id":76561198294360662,"connected_time":384000000000,"state":"active","ping":79},{"user_id":175,"name":"joyeuxnoelle","steam_id":76561198062423120,"connected_time":845000000000,"state":"active","ping":89},{"user_id":172,"name":"Rocky","steam_id":76561198048158539,"connected_time":1213000000000,"state":"active","ping":128},{"user_id":183,"name":"GrantTheMedicYT","steam_id":76561199077176696,"connected_time":375000000000,"state":"active","ping":77},{"user_id":141,"name":"dadgummit","steam_id":76561198005806915,"connected_time":3651000000000,"state":"active","ping":87},{"user_id":159,"name":"Op banana","steam_id":76561198303231451,"connected_time":2001000000000,"state":"active","ping":55},{"user_id":184,"name":"Kid B8","steam_id":76561198086764710,"connected_time":368000000000,"state":"active","ping":76},{"user_id":188,"name":"Butteryback","steam_id":76561198049642485,"connected_time":289000000000,"state":"active","ping":61},{"user_id":186,"name":"Blade Racer","steam_id":76561198155896703,"connected_time":351000000000,"state":"active","ping":75},{"user_id":187,"name":"LesbianRobot","steam_id":76561199274191548,"connected_time":350000000000,"state":"active","ping":90},{"user_id":189,"name":"kaimann_25","steam_id":76561198867926098,"connected_time":223000000000,"state":"active","ping":72},{"user_id":171,"name":"ClutchSR","steam_id":76561199018366378,"connected_time":1526000000000,"state":"active","ping":69},{"user_id":151,"name":"jaytheking05","steam_id":76561198856419769,"connected_time":3099000000000,"state":"active","ping":92},{"user_id":153,"name":"Rob","steam_id":76561199187786660,"connected_time":2391000000000,"state":"active","ping":50}]},{"server_id":108,"name":"Uncletopia | Dallas | 2 | All Maps","name_short":"dal-2","host":"dal-1.us.uncletopia.com","port":27025,"enabled":true,"region":"us-central","cc":"us","latitude":32.779167,"longitude":-96.80889,"reserved":0,"last_update":"0001-01-01T00:00:00Z","name_a2s":"Uncletopia | Dallas | 2 | All Maps","protocol":17,"map":"cp_snakewater_final1","folder":"tf","game":"Team Fortress","app_id":440,"player_count":0,"max_players":24,"Bots":0,"server_type":"Dedicated","server_os":"Linux","password":true,"vac":true,"version":"7961495","steam_id":85568392924469988,"keywords":["cp","nocrits","nodmgspread","uncletopia"],"game_id":440,"stv_port":27026,"stv_name":"Uncletopia | Dallas | 2 | All Maps | STV","players":null},{"server_id":404,"name":"Uncletopia | Dallas | 3 | All Maps","name_short":"dal-3","host":"dal-1.us.uncletopia.com","port":27035,"enabled":true,"region":"us-central","cc":"us","latitude":32.779167,"longitude":-96.80889,"reserved":0,"last_update":"0001-01-01T00:00:00Z","name_a2s":"Uncletopia | Dallas | 3 | All Maps","protocol":17,"map":"pl_upward","folder":"tf","game":"Team Fortress","app_id":440,"player_count":18,"max_players":24,"Bots":0,"server_type":"Dedicated","server_os":"Linux","password":true,"vac":true,"version":"7961495","steam_id":85568392924515219,"keywords":["nocrits","nodmgspread","payload","uncletopia"],"game_id":440,"stv_port":27036,"stv_name":"Uncletopia | Dallas | 3 | All Maps | STV","players":[{"user_id":9,"name":"♥ Tomboy ♥","steam_id":76561198069881436,"connected_time":7386000000000,"state":"active","ping":68},{"user_id":61,"name":"Topaz Tom","steam_id":76561199214479904,"connected_time":2705000000000,"state":"active","ping":85},{"user_id":79,"name":"Catgirl Explise","steam_id":76561198044413891,"connected_time":654000000000,"state":"active","ping":99},{"user_id":84,"name":"Rick Assley","steam_id":76561198365019199,"connected_time":508000000000,"state":"active","ping":91},{"user_id":73,"name":"transfem atsuko kagari","steam_id":76561198217402847,"connected_time":1187000000000,"state":"active","ping":90},{"user_id":21,"name":"Tim Williams","steam_id":76561198177327059,"connected_time":5016000000000,"state":"active","ping":87},{"user_id":91,"name":"nufyivuyda","steam_id":76561199499476489,"connected_time":27000000000,"state":"active","ping":90},{"user_id":19,"name":"Cazadon","steam_id":76561198131331701,"connected_time":5277000000000,"state":"active","ping":58},{"user_id":20,"name":"Sammi The Hylir","steam_id":76561198129848053,"connected_time":5242000000000,"state":"active","ping":173},{"user_id":71,"name":"Cam","steam_id":76561198139174433,"connected_time":1407000000000,"state":"active","ping":66},{"user_id":52,"name":"Woods","steam_id":76561198440012069,"connected_time":3429000000000,"state":"active","ping":90},{"user_id":66,"name":"Certified Hood Classic","steam_id":76561199086159354,"connected_time":2286000000000,"state":"active","ping":59},{"user_id":83,"name":"Bungus","steam_id":76561197984426574,"connected_time":538000000000,"state":"active","ping":86},{"user_id":59,"name":"Jesus","steam_id":76561198018890911,"connected_time":2755000000000,"state":"active","ping":48},{"user_id":90,"name":"That one gamer boy","steam_id":76561199166485004,"connected_time":103000000000,"state":"active","ping":56},{"user_id":43,"name":"Peluche Marisa","steam_id":76561199011452659,"connected_time":4129000000000,"state":"active","ping":110},{"user_id":45,"name":"Dr.Blunt","steam_id":76561198096333958,"connected_time":3876000000000,"state":"active","ping":75},{"user_id":60,"name":"Weegee","steam_id":76561198140095755,"connected_time":2755000000000,"state":"active","ping":79}]},{"server_id":405,"name":"Uncletopia | Dallas | 4 | Community","name_short":"dal-4","host":"dal-1.us.uncletopia.com","port":27045,"enabled":true,"region":"us-central","cc":"us","latitude":32.779167,"longitude":-96.80889,"reserved":0,"last_update":"0001-01-01T00:00:00Z","name_a2s":"Uncletopia | Dallas | 4 | Community","protocol":17,"map":"workshop/pl_vigil_rc10.ugc1266210012","folder":"tf","game":"Team Fortress","app_id":440,"player_count":0,"max_players":24,"Bots":0,"server_type":"Dedicated","server_os":"Linux","password":true,"vac":true,"version":"7961495","steam_id":85568392924515220,"keywords":["nocrits","nodmgspread","payload","uncletopia"],"game_id":440,"stv_port":27046,"stv_name":"Uncletopia | Dallas | 4 | Community | STV","players":null},{"server_id":5,"name":"Uncletopia | Frankfurt | 1 | All Maps","name_short":"frk-1","host":"frk-1.de.uncletopia.com","port":27015,"enabled":true,"region":"eu","cc":"de","latitude":50.110924,"longitude":8.682127,"reserved":0,"last_update":"0001-01-01T00:00:00Z","name_a2s":"Uncletopia | Frankfurt | 1 | All Maps","protocol":17,"map":"cp_steel","folder":"tf","game":"Team Fortress","app_id":440,"player_count":17,"max_players":24,"Bots":0,"server_type":"Dedicated","server_os":"Linux","password":true,"vac":true,"version":"7961495","steam_id":85568392924469989,"keywords":["cp","nocrits","nodmgspread","uncletopia"],"game_id":440,"stv_port":27016,"stv_name":"Uncletopia | Frankfurt | 1 | All Maps | STV","players":[{"user_id":458,"name":"watch thief","steam_id":76561198036730191,"connected_time":2416000000000,"state":"active","ping":58},{"user_id":500,"name":"РеДаНоВеЦ ^_^","steam_id":76561199032612973,"connected_time":230000000000,"state":"active","ping":68},{"user_id":505,"name":"sex tf2","steam_id":76561198147874568,"connected_time":73000000000,"state":"active","ping":105},{"user_id":501,"name":"theVad333","steam_id":76561199273469746,"connected_time":161000000000,"state":"active","ping":65},{"user_id":486,"name":"alx","steam_id":76561198013078572,"connected_time":1013000000000,"state":"active","ping":126},{"user_id":502,"name":"Sleeves","steam_id":76561198102732985,"connected_time":148000000000,"state":"active","ping":68},{"user_id":503,"name":"ihate you","steam_id":76561199428944551,"connected_time":109000000000,"state":"active","ping":53},{"user_id":504,"name":"Local Schizophrenic","steam_id":76561199114664274,"connected_time":106000000000,"state":"active","ping":190},{"user_id":506,"name":"Poltron","steam_id":76561198059972377,"connected_time":11000000000,"state":"spawning","ping":62},{"user_id":493,"name":"bottomest g","steam_id":76561198138928548,"connected_time":409000000000,"state":"active","ping":52},{"user_id":465,"name":"Transcendence Fernando","steam_id":76561197987115316,"connected_time":2205000000000,"state":"active","ping":60},{"user_id":478,"name":"Philosophos_Alpha","steam_id":76561198951264580,"connected_time":1828000000000,"state":"active","ping":103},{"user_id":452,"name":"AgentKerbal","steam_id":76561198146360194,"connected_time":3024000000000,"state":"active","ping":60},{"user_id":473,"name":"Burpman","steam_id":76561198022897937,"connected_time":2036000000000,"state":"active","ping":59},{"user_id":426,"name":"Charlie Brown","steam_id":76561199378865926,"connected_time":3984000000000,"state":"active","ping":80},{"user_id":453,"name":"MaxThoo","steam_id":76561198167904353,"connected_time":3015000000000,"state":"active","ping":76},{"user_id":480,"name":"VolcanicArts","steam_id":76561198063453246,"connected_time":1198000000000,"state":"active","ping":60}]},{"server_id":110,"name":"Uncletopia | Frankfurt | 2 | All Maps","name_short":"frk-2","host":"frk-1.de.uncletopia.com","port":27025,"enabled":true,"region":"eu","cc":"de","latitude":50.110924,"longitude":8.682127,"reserved":0,"last_update":"0001-01-01T00:00:00Z","name_a2s":"Uncletopia | Frankfurt | 2 | All Maps","protocol":17,"map":"pl_badwater","folder":"tf","game":"Team Fortress","app_id":440,"player_count":24,"max_players":24,"Bots":0,"server_type":"Dedicated","server_os":"Linux","password":true,"vac":true,"version":"7961495","steam_id":85568392924469990,"keywords":["nocrits","nodmgspread","payload","uncletopia"],"game_id":440,"stv_port":27026,"stv_name":"Uncletopia | Frankfurt | 2 | All Maps | STV","players":[{"user_id":317,"name":"Mr. Onion","steam_id":76561198153165950,"connected_time":840000000000,"state":"active","ping":130},{"user_id":269,"name":"Mancomb Seepgood","steam_id":76561197974116369,"connected_time":3216000000000,"state":"active","ping":49},{"user_id":329,"name":"Generál Kiwi","steam_id":76561198255946537,"connected_time":18000000000,"state":"active","ping":48},{"user_id":295,"name":"HopeDaGamer","steam_id":76561199487262348,"connected_time":1870000000000,"state":"active","ping":86},{"user_id":325,"name":"Purrplehaze","steam_id":76561198297604298,"connected_time":545000000000,"state":"active","ping":60},{"user_id":201,"name":"Gordon Birdman","steam_id":76561198013382324,"connected_time":8002000000000,"state":"active","ping":64},{"user_id":318,"name":"Leviticus Cornwall","steam_id":76561197993702685,"connected_time":828000000000,"state":"active","ping":96},{"user_id":320,"name":"I.C. Wiener","steam_id":76561197999912254,"connected_time":779000000000,"state":"active","ping":85},{"user_id":326,"name":"YEAH BUDDDYYYYY!!","steam_id":76561197988733568,"connected_time":482000000000,"state":"active","ping":60},{"user_id":287,"name":"I have no duck and I must quack","steam_id":76561198061920656,"connected_time":2144000000000,"state":"active","ping":72},{"user_id":324,"name":"Carpetspill","steam_id":76561198240023406,"connected_time":571000000000,"state":"active","ping":176},{"user_id":305,"name":"Bgm_","steam_id":76561198056452044,"connected_time":1430000000000,"state":"active","ping":60},{"user_id":314,"name":"Miku.Hatsune.2007","steam_id":76561198199687607,"connected_time":1026000000000,"state":"active","ping":75},{"user_id":302,"name":"jovi_","steam_id":76561198449280552,"connected_time":1698000000000,"state":"active","ping":59},{"user_id":321,"name":"nordstream bomber","steam_id":76561199401283123,"connected_time":615000000000,"state":"active","ping":75},{"user_id":328,"name":"Supercoxylac","steam_id":76561198376300138,"connected_time":192000000000,"state":"active","ping":59},{"user_id":327,"name":",","steam_id":76561198347020945,"connected_time":320000000000,"state":"active","ping":82},{"user_id":322,"name":"stegosaurus sex","steam_id":76561199120843402,"connected_time":608000000000,"state":"active","ping":47},{"user_id":308,"name":"Kekka","steam_id":76561198068667960,"connected_time":1384000000000,"state":"active","ping":59},{"user_id":300,"name":"Xx_LudZip_xX","steam_id":76561198321008764,"connected_time":1796000000000,"state":"active","ping":56},{"user_id":316,"name":"iktb","steam_id":76561199011496812,"connected_time":937000000000,"state":"active","ping":105},{"user_id":260,"name":"Snowy","steam_id":76561198169992461,"connected_time":4033000000000,"state":"active","ping":54},{"user_id":303,"name":"dongus","steam_id":76561198042774930,"connected_time":1682000000000,"state":"active","ping":89},{"user_id":264,"name":"Einsamer_Keks","steam_id":76561198148828509,"connected_time":3731000000000,"state":"active","ping":57}]},{"server_id":308,"name":"Uncletopia | Frankfurt | 3 | All Maps","name_short":"frk-3","host":"frk-1.de.uncletopia.com","port":27035,"enabled":true,"region":"eu","cc":"de","latitude":50.110924,"longitude":8.682127,"reserved":0,"last_update":"0001-01-01T00:00:00Z","name_a2s":"Uncletopia | Frankfurt | 3 | All Maps","protocol":17,"map":"cp_mercenarypark","folder":"tf","game":"Team Fortress","app_id":440,"player_count":19,"max_players":24,"Bots":0,"server_type":"Dedicated","server_os":"Linux","password":true,"vac":true,"version":"7961495","steam_id":85568392924504274,"keywords":["cp","nocrits","nodmgspread","uncletopia"],"game_id":440,"stv_port":27036,"stv_name":"Uncletopia | Frankfurt | 3 | All Maps | STV","players":[{"user_id":178,"name":"Blackgdkcb","steam_id":76561199027950389,"connected_time":1689000000000,"state":"active","ping":66},{"user_id":203,"name":"Chillkroete_109","steam_id":76561199226815479,"connected_time":66000000000,"state":"active","ping":53},{"user_id":187,"name":"I LOVE THE BISON","steam_id":76561199265289808,"connected_time":937000000000,"state":"active","ping":117},{"user_id":204,"name":"Monkey","steam_id":76561199008411791,"connected_time":51000000000,"state":"active","ping":64},{"user_id":205,"name":"dakkafex","steam_id":76561198020254869,"connected_time":45000000000,"state":"active","ping":51},{"user_id":99,"name":"LivEssense","steam_id":76561198052476979,"connected_time":6561000000000,"state":"active","ping":75},{"user_id":197,"name":"he he he haw","steam_id":76561198419323571,"connected_time":408000000000,"state":"active","ping":87},{"user_id":198,"name":"tallen","steam_id":76561198061708595,"connected_time":365000000000,"state":"active","ping":82},{"user_id":199,"name":"Murovelho","steam_id":76561198835081622,"connected_time":334000000000,"state":"active","ping":85},{"user_id":202,"name":"Driver's drunkest God","steam_id":76561198969373800,"connected_time":100000000000,"state":"active","ping":66},{"user_id":200,"name":"Vince","steam_id":76561199103000131,"connected_time":284000000000,"state":"active","ping":46},{"user_id":152,"name":"_Chelik_","steam_id":76561199076069284,"connected_time":3031000000000,"state":"active","ping":85},{"user_id":98,"name":"Optimist 50","steam_id":76561198039631442,"connected_time":6628000000000,"state":"active","ping":66},{"user_id":193,"name":"baronne","steam_id":76561198262910410,"connected_time":604000000000,"state":"active","ping":90},{"user_id":201,"name":"simeswipe","steam_id":76561198188471097,"connected_time":172000000000,"state":"active","ping":54},{"user_id":195,"name":"Laitse","steam_id":76561198073247480,"connected_time":528000000000,"state":"active","ping":94},{"user_id":163,"name":"btrayed","steam_id":76561199498456546,"connected_time":2591000000000,"state":"active","ping":59},{"user_id":131,"name":"Yuval","steam_id":76561198241802390,"connected_time":4080000000000,"state":"active","ping":96},{"user_id":190,"name":"jeff","steam_id":76561198272815746,"connected_time":756000000000,"state":"active","ping":61}]},{"server_id":309,"name":"Uncletopia | Frankfurt | 4 | All Maps","name_short":"frk-4","host":"frk-1.de.uncletopia.com","port":27045,"enabled":true,"region":"eu","cc":"de","latitude":50.110924,"longitude":8.682127,"reserved":0,"last_update":"0001-01-01T00:00:00Z","name_a2s":"Uncletopia | Frankfurt | 4 | All Maps","protocol":17,"map":"pl_pier","folder":"tf","game":"Team Fortress","app_id":440,"player_count":23,"max_players":24,"Bots":0,"server_type":"Dedicated","server_os":"Linux","password":true,"vac":true,"version":"7961495","steam_id":85568392924504275,"keywords":["nocrits","nodmgspread","payload","uncletopia"],"game_id":440,"stv_port":27046,"stv_name":"Uncletopia | Frankfurt | 4 | All Maps | STV","players":[{"user_id":260,"name":"SoaCrow","steam_id":76561198069420717,"connected_time":541000000000,"state":"active","ping":59},{"user_id":246,"name":"Natsuki","steam_id":76561198986191491,"connected_time":964000000000,"state":"active","ping":61},{"user_id":238,"name":"Nymph","steam_id":76561198042801329,"connected_time":1304000000000,"state":"active","ping":53},{"user_id":233,"name":"The spit taster","steam_id":76561198338129578,"connected_time":2330000000000,"state":"active","ping":58},{"user_id":259,"name":"fl1p","steam_id":76561198148565659,"connected_time":655000000000,"state":"active","ping":75},{"user_id":240,"name":"Finnish Farmer","steam_id":76561198205366043,"connected_time":1094000000000,"state":"active","ping":84},{"user_id":241,"name":"Moth boy","steam_id":76561198422779449,"connected_time":1089000000000,"state":"active","ping":62},{"user_id":242,"name":"°☁ Aleks","steam_id":76561198027392618,"connected_time":1037000000000,"state":"active","ping":77},{"user_id":271,"name":"Pringles","steam_id":76561198120850843,"connected_time":66000000000,"state":"active","ping":78},{"user_id":244,"name":"Angry Team Fortress 2 Nerd","steam_id":76561198970762992,"connected_time":1006000000000,"state":"active","ping":74},{"user_id":254,"name":"big lady","steam_id":76561197971716998,"connected_time":816000000000,"state":"active","ping":57},{"user_id":247,"name":"Mortime","steam_id":76561198138424226,"connected_time":962000000000,"state":"active","ping":78},{"user_id":269,"name":"OH NO UNO","steam_id":76561198031845464,"connected_time":266000000000,"state":"active","ping":70},{"user_id":249,"name":"Duktigafred","steam_id":76561199211222396,"connected_time":929000000000,"state":"active","ping":65},{"user_id":250,"name":"levap","steam_id":76561197987688539,"connected_time":916000000000,"state":"active","ping":78},{"user_id":251,"name":"Renarde","steam_id":76561199347775410,"connected_time":887000000000,"state":"active","ping":78},{"user_id":252,"name":"ballsack","steam_id":76561198973232202,"connected_time":847000000000,"state":"active","ping":94},{"user_id":253,"name":"Wumbity","steam_id":76561198007038864,"connected_time":820000000000,"state":"active","ping":140},{"user_id":216,"name":"ChesseKnight","steam_id":76561198102476339,"connected_time":3099000000000,"state":"active","ping":82},{"user_id":270,"name":"LOBZIK","steam_id":76561198114830120,"connected_time":244000000000,"state":"active","ping":75},{"user_id":256,"name":"Mébh Óg MacTíre","steam_id":76561198346399624,"connected_time":785000000000,"state":"active","ping":71},{"user_id":261,"name":"Thundercracker__","steam_id":76561199163505476,"connected_time":466000000000,"state":"active","ping":73},{"user_id":258,"name":"Skulk","steam_id":76561198068994987,"connected_time":748000000000,"state":"active","ping":71}]},{"server_id":310,"name":"Uncletopia | Frankfurt | 5 | All Maps","name_short":"frk-5","host":"frk-1.de.uncletopia.com","port":27055,"enabled":true,"region":"eu","cc":"de","latitude":50.110924,"longitude":8.682127,"reserved":0,"last_update":"0001-01-01T00:00:00Z","name_a2s":"Uncletopia | Frankfurt | 5 | All Maps","protocol":17,"map":"pl_swiftwater_final1","folder":"tf","game":"Team Fortress","app_id":440,"player_count":24,"max_players":24,"Bots":0,"server_type":"Dedicated","server_os":"Linux","password":true,"vac":true,"version":"7961495","steam_id":85568392924504277,"keywords":["nocrits","nodmgspread","payload","uncletopia"],"game_id":440,"stv_port":27056,"stv_name":"Uncletopia | Frankfurt | 5 | All Maps | STV","players":[{"user_id":494,"name":"Spinach Loving Elkman Steve","steam_id":76561198861519418,"connected_time":581000000000,"state":"active","ping":77},{"user_id":492,"name":"Trash Compactor","steam_id":76561199383047989,"connected_time":638000000000,"state":"active","ping":90},{"user_id":483,"name":"FLAKEZ4REAL","steam_id":76561197978361391,"connected_time":960000000000,"state":"active","ping":65},{"user_id":496,"name":"Skelet","steam_id":76561198051685232,"connected_time":557000000000,"state":"active","ping":58},{"user_id":493,"name":"Ling-Ling","steam_id":76561197989253579,"connected_time":622000000000,"state":"active","ping":68},{"user_id":507,"name":"holywar","steam_id":76561198272232161,"connected_time":343000000000,"state":"active","ping":62},{"user_id":491,"name":"lulu","steam_id":76561199147764133,"connected_time":657000000000,"state":"active","ping":71},{"user_id":457,"name":"T/5. Cernuno [16th IR]","steam_id":76561197977897110,"connected_time":2068000000000,"state":"active","ping":76},{"user_id":487,"name":"Kili","steam_id":76561198138456346,"connected_time":769000000000,"state":"active","ping":61},{"user_id":497,"name":"porta","steam_id":76561198876318011,"connected_time":530000000000,"state":"active","ping":46},{"user_id":498,"name":"Rayco","steam_id":76561198048013129,"connected_time":517000000000,"state":"active","ping":59},{"user_id":431,"name":"András","steam_id":76561198096947288,"connected_time":4010000000000,"state":"active","ping":57},{"user_id":484,"name":"[DOVA] Oh Don Piano","steam_id":76561198301788106,"connected_time":933000000000,"state":"active","ping":91},{"user_id":481,"name":"Largo","steam_id":76561198844368927,"connected_time":1039000000000,"state":"active","ping":75},{"user_id":500,"name":"thwee","steam_id":76561199133739473,"connected_time":510000000000,"state":"active","ping":75},{"user_id":501,"name":"bacon","steam_id":76561198032787233,"connected_time":497000000000,"state":"active","ping":80},{"user_id":502,"name":"cof","steam_id":76561199128417805,"connected_time":493000000000,"state":"active","ping":68},{"user_id":408,"name":"Nick","steam_id":76561198036109469,"connected_time":6726000000000,"state":"active","ping":79},{"user_id":489,"name":"citronous","steam_id":76561198093290934,"connected_time":727000000000,"state":"active","ping":53},{"user_id":503,"name":"Gandhi36","steam_id":76561198863280994,"connected_time":482000000000,"state":"active","ping":62},{"user_id":504,"name":"azzy","steam_id":76561198061293740,"connected_time":441000000000,"state":"active","ping":83},{"user_id":505,"name":"Dodo","steam_id":76561198001877653,"connected_time":412000000000,"state":"active","ping":54},{"user_id":506,"name":"Shawty","steam_id":76561198256704286,"connected_time":382000000000,"state":"active","ping":71},{"user_id":509,"name":"Bombilla","steam_id":76561198084281798,"connected_time":295000000000,"state":"active","ping":75}]},{"server_id":311,"name":"Uncletopia | Frankfurt | 6 | All Maps","name_short":"frk-6","host":"frk-1.de.uncletopia.com","port":27065,"enabled":true,"region":"eu","cc":"de","latitude":50.110924,"longitude":8.682127,"reserved":0,"last_update":"0001-01-01T00:00:00Z","name_a2s":"Uncletopia | Frankfurt | 6 | All Maps","protocol":17,"map":"pl_borneo","folder":"tf","game":"Team Fortress","app_id":440,"player_count":24,"max_players":24,"Bots":0,"server_type":"Dedicated","server_os":"Linux","password":true,"vac":true,"version":"7961495","steam_id":85568392924504278,"keywords":["nocrits","nodmgspread","payload","uncletopia"],"game_id":440,"stv_port":27066,"stv_name":"Uncletopia | Frankfurt | 6 | All Maps | STV","players":[{"user_id":282,"name":"Rei Ayanami","steam_id":76561198405980575,"connected_time":1921000000000,"state":"active","ping":54},{"user_id":309,"name":"warforge3","steam_id":76561199276024310,"connected_time":99000000000,"state":"active","ping":86},{"user_id":225,"name":"Efter","steam_id":76561198302457901,"connected_time":5640000000000,"state":"active","ping":86},{"user_id":289,"name":"♂ Necronomico ♂","steam_id":76561198079272212,"connected_time":1623000000000,"state":"active","ping":75},{"user_id":290,"name":"chonkster","steam_id":76561198316059681,"connected_time":1606000000000,"state":"active","ping":45},{"user_id":268,"name":"skai -TA-","steam_id":76561198184881255,"connected_time":2736000000000,"state":"active","ping":75},{"user_id":300,"name":"generic alias","steam_id":76561198271607226,"connected_time":806000000000,"state":"active","ping":90},{"user_id":307,"name":"Akisян","steam_id":76561198078706435,"connected_time":153000000000,"state":"active","ping":72},{"user_id":305,"name":"Maximilian1359","steam_id":76561198152439608,"connected_time":163000000000,"state":"active","ping":51},{"user_id":284,"name":"Sumbody","steam_id":76561198155371407,"connected_time":1902000000000,"state":"active","ping":108},{"user_id":302,"name":"chachiply","steam_id":76561198316355509,"connected_time":625000000000,"state":"active","ping":67},{"user_id":285,"name":"mieti minua mun piilossa","steam_id":76561198280507478,"connected_time":1858000000000,"state":"active","ping":60},{"user_id":174,"name":"Waltism","steam_id":76561199447676489,"connected_time":7956000000000,"state":"active","ping":82},{"user_id":299,"name":"katten","steam_id":76561198163615254,"connected_time":819000000000,"state":"active","ping":59},{"user_id":301,"name":"aaaaaa","steam_id":76561198086304421,"connected_time":805000000000,"state":"active","ping":74},{"user_id":247,"name":"0\u003e0","steam_id":76561198049741238,"connected_time":4046000000000,"state":"active","ping":92},{"user_id":292,"name":"Late","steam_id":76561198343776759,"connected_time":1592000000000,"state":"active","ping":90},{"user_id":306,"name":"Xydran","steam_id":76561198042397402,"connected_time":162000000000,"state":"active","ping":60},{"user_id":310,"name":"mesλ","steam_id":76561198324582918,"connected_time":72000000000,"state":"active","ping":97},{"user_id":304,"name":"Bobo","steam_id":76561198052308399,"connected_time":192000000000,"state":"active","ping":59},{"user_id":275,"name":"Shireco","steam_id":76561198084899921,"connected_time":2374000000000,"state":"active","ping":109},{"user_id":296,"name":"post-nuke jerma","steam_id":76561198094268619,"connected_time":1143000000000,"state":"active","ping":60},{"user_id":171,"name":"ggwp","steam_id":76561199141037141,"connected_time":8031000000000,"state":"active","ping":67},{"user_id":308,"name":"Rompompom","steam_id":76561198389982521,"connected_time":152000000000,"state":"active","ping":56}]},{"server_id":23,"name":"Uncletopia | Frankfurt | 7 | Stopwatch","name_short":"frk-7","host":"frk-1.de.uncletopia.com","port":27075,"enabled":true,"region":"eu","cc":"de","latitude":50.110924,"longitude":8.682127,"reserved":0,"last_update":"0001-01-01T00:00:00Z","name_a2s":"Uncletopia | Frankfurt | 7 | Stopwatch","protocol":17,"map":"workshop/koth_clearcut_b15.ugc2107050255","folder":"tf","game":"Team Fortress","app_id":440,"player_count":0,"max_players":24,"Bots":0,"server_type":"Dedicated","server_os":"Linux","password":true,"vac":true,"version":"7961495","steam_id":85568392924742827,"keywords":["cp","nocrits","nodmgspread","uncletopia"],"game_id":440,"stv_port":27076,"stv_name":"Uncletopia | Frankfurt | 7 | Stopwatch | STV","players":null},{"server_id":24,"name":"Uncletopia | Frankfurt | 8 | Community","name_short":"frk-8","host":"frk-1.de.uncletopia.com","port":27085,"enabled":true,"region":"eu","cc":"de","latitude":50.110924,"longitude":8.682127,"reserved":0,"last_update":"0001-01-01T00:00:00Z","name_a2s":"Uncletopia | Frankfurt | 8 | Community","protocol":17,"map":"workshop/koth_relic_rc3.ugc2965301326","folder":"tf","game":"Team Fortress","app_id":440,"player_count":0,"max_players":24,"Bots":0,"server_type":"Dedicated","server_os":"Linux","password":true,"vac":true,"version":"7961495","steam_id":85568392924742828,"keywords":["cp","nocrits","nodmgspread","uncletopia"],"game_id":440,"stv_port":27086,"stv_name":"Uncletopia | Frankfurt | 8 | Community | STV","players":null},{"server_id":202,"name":"Uncletopia | Hong Kong | 1 | All Maps","name_short":"hgk-1","host":"hgk-1.hk.uncletopia.com","port":27015,"enabled":true,"region":"asia","cc":"hk","latitude":22.302711,"longitude":114.177216,"reserved":0,"last_update":"0001-01-01T00:00:00Z","name_a2s":"Uncletopia | Hong Kong | 1 | All Maps","protocol":17,"map":"koth_cascade","folder":"tf","game":"Team Fortress","app_id":440,"player_count":3,"max_players":24,"Bots":0,"server_type":"Dedicated","server_os":"Linux","password":true,"vac":true,"version":"7961495","steam_id":85568392924494504,"keywords":["cp","nocrits","nodmgspread","uncletopia"],"game_id":440,"stv_port":27016,"stv_name":"Uncletopia | Hong Kong | 1 | All Maps | STV","players":[{"user_id":684,"name":"killman47","steam_id":76561198348487408,"connected_time":203000000000,"state":"active","ping":37},{"user_id":682,"name":"beepis","steam_id":76561198965473654,"connected_time":1536000000000,"state":"active","ping":69},{"user_id":683,"name":"Django","steam_id":76561199183631944,"connected_time":1527000000000,"state":"active","ping":146}]},{"server_id":1,"name":"Uncletopia | Los Angeles | 1 | All Maps","name_short":"lax-1","host":"lax-1.us.uncletopia.com","port":27015,"enabled":true,"region":"us-west","cc":"us","latitude":33.94279,"longitude":-118.41004,"reserved":0,"last_update":"0001-01-01T00:00:00Z","name_a2s":"Uncletopia | Los Angeles | 1 | All Maps","protocol":17,"map":"koth_lakeside_final","folder":"tf","game":"Team Fortress","app_id":440,"player_count":0,"max_players":24,"Bots":0,"server_type":"Dedicated","server_os":"Linux","password":true,"vac":true,"version":"7961495","steam_id":85568392924469991,"keywords":["cp","nocrits","nodmgspread","uncletopia"],"game_id":440,"stv_port":27016,"stv_name":"Uncletopia | Los Angeles | 1 | All Maps | STV","players":null},{"server_id":112,"name":"Uncletopia | Los Angeles | 2 | All Maps","name_short":"lax-2","host":"lax-1.us.uncletopia.com","port":27025,"enabled":true,"region":"us-west","cc":"us","latitude":33.94279,"longitude":-118.41004,"reserved":0,"last_update":"0001-01-01T00:00:00Z","name_a2s":"Uncletopia | Los Angeles | 2 | All Maps","protocol":17,"map":"koth_lazarus","folder":"tf","game":"Team Fortress","app_id":440,"player_count":0,"max_players":24,"Bots":0,"server_type":"Dedicated","server_os":"Linux","password":true,"vac":true,"version":"7961495","steam_id":85568392924469992,"keywords":["cp","nocrits","nodmgspread","uncletopia"],"game_id":440,"stv_port":27026,"stv_name":"Uncletopia | Los Angeles | 2 | All Maps | STV","players":null},{"server_id":324,"name":"Uncletopia | Los Angeles | 3 | All Maps","name_short":"lax-3","host":"lax-1.us.uncletopia.com","port":27035,"enabled":true,"region":"us-west","cc":"us","latitude":33.94279,"longitude":-118.41004,"reserved":0,"last_update":"0001-01-01T00:00:00Z","name_a2s":"Uncletopia | Los Angeles | 3 | All Maps","protocol":17,"map":"cp_powerhouse","folder":"tf","game":"Team Fortress","app_id":440,"player_count":24,"max_players":24,"Bots":0,"server_type":"Dedicated","server_os":"Linux","password":true,"vac":true,"version":"7961495","steam_id":85568392924510198,"keywords":["cp","nocrits","nodmgspread","uncletopia"],"game_id":440,"stv_port":27036,"stv_name":"Uncletopia | Los Angeles | 3 | All Maps | STV","players":[{"user_id":3,"name":"Hectic_Puppy (bday in 3 DAYS)","steam_id":76561198111645213,"connected_time":11135000000000,"state":"active","ping":45},{"user_id":114,"name":"airbudetc","steam_id":76561199125415611,"connected_time":2215000000000,"state":"active","ping":66},{"user_id":116,"name":"put fentanyl back in pepsi","steam_id":76561198238592900,"connected_time":1722000000000,"state":"active","ping":96},{"user_id":117,"name":"Kazoo","steam_id":76561199229748300,"connected_time":1708000000000,"state":"active","ping":63},{"user_id":128,"name":"NewNebula12","steam_id":76561198146473719,"connected_time":736000000000,"state":"active","ping":79},{"user_id":132,"name":"YoyoMama","steam_id":76561198260113828,"connected_time":258000000000,"state":"active","ping":59},{"user_id":125,"name":"SolarusD","steam_id":76561198029279861,"connected_time":1071000000000,"state":"active","ping":59},{"user_id":123,"name":"Insomniac","steam_id":76561199180653046,"connected_time":1165000000000,"state":"active","ping":158},{"user_id":50,"name":"ReDeMpTioN","steam_id":76561197963635567,"connected_time":6073000000000,"state":"active","ping":45},{"user_id":121,"name":"Penne","steam_id":76561198982393756,"connected_time":1324000000000,"state":"active","ping":119},{"user_id":126,"name":"Aztea","steam_id":76561198982089893,"connected_time":1045000000000,"state":"active","ping":80},{"user_id":106,"name":"The Great Eagle Scourge of 1822","steam_id":76561198325086209,"connected_time":2534000000000,"state":"active","ping":67},{"user_id":122,"name":"An00bis","steam_id":76561198044084508,"connected_time":1269000000000,"state":"active","ping":47},{"user_id":127,"name":"Statewide ballistic booty bandi","steam_id":76561199016837140,"connected_time":1029000000000,"state":"active","ping":55},{"user_id":129,"name":"kn0n","steam_id":76561198249172818,"connected_time":715000000000,"state":"active","ping":42},{"user_id":103,"name":"rmbl","steam_id":76561198150137369,"connected_time":2721000000000,"state":"active","ping":49},{"user_id":105,"name":"rad killl raccoon","steam_id":76561198980975595,"connected_time":2625000000000,"state":"active","ping":85},{"user_id":131,"name":"NGsterson","steam_id":76561198162108154,"connected_time":410000000000,"state":"active","ping":79},{"user_id":87,"name":"ToonRandom","steam_id":76561198208689031,"connected_time":3827000000000,"state":"active","ping":45},{"user_id":130,"name":"Genius Meme","steam_id":76561198162911254,"connected_time":684000000000,"state":"active","ping":66},{"user_id":120,"name":"Scorpianswag","steam_id":76561198260651036,"connected_time":1612000000000,"state":"active","ping":35},{"user_id":112,"name":"ORANGE","steam_id":76561198000401769,"connected_time":2254000000000,"state":"active","ping":75},{"user_id":99,"name":"carson","steam_id":76561198273784854,"connected_time":3127000000000,"state":"active","ping":768},{"user_id":100,"name":"᠌","steam_id":76561198013782244,"connected_time":3127000000000,"state":"active","ping":51}]},{"server_id":25,"name":"Uncletopia | Los Angeles | 4 | Stopwatch","name_short":"lax-4","host":"lax-1.us.uncletopia.com","port":27045,"enabled":true,"region":"us-west","cc":"us","latitude":33.94279,"longitude":-118.41004,"reserved":0,"last_update":"0001-01-01T00:00:00Z","name_a2s":"Uncletopia | Los Angeles | 4 | Stopwatch","protocol":17,"map":"workshop/koth_product_final.ugc454272353","folder":"tf","game":"Team Fortress","app_id":440,"player_count":0,"max_players":24,"Bots":0,"server_type":"Dedicated","server_os":"Linux","password":true,"vac":true,"version":"7961495","steam_id":85568392924510199,"keywords":["cp","nocrits","nodmgspread","uncletopia"],"game_id":440,"stv_port":27046,"stv_name":"Uncletopia | Los Angeles | 4 | Stopwatch | STV","players":null},{"server_id":11,"name":"Uncletopia | London | 1 | All Maps","name_short":"lon-1","host":"lon-1.uk.uncletopia.com","port":27015,"enabled":true,"region":"eu","cc":"gb","latitude":51.509865,"longitude":-0.118092,"reserved":0,"last_update":"0001-01-01T00:00:00Z","name_a2s":"Uncletopia | London | 1 | All Maps","protocol":17,"map":"pl_barnblitz","folder":"tf","game":"Team Fortress","app_id":440,"player_count":22,"max_players":24,"Bots":0,"server_type":"Dedicated","server_os":"Linux","password":true,"vac":true,"version":"7961495","steam_id":85568392924367362,"keywords":["nocrits","nodmgspread","payload","uncletopia"],"game_id":440,"stv_port":27016,"stv_name":"Uncletopia | London | 1 | All Maps | STV","players":[{"user_id":483,"name":"K-ófer","steam_id":76561198070712918,"connected_time":990000000000,"state":"active","ping":76},{"user_id":484,"name":"Totally_faraam","steam_id":76561199230162663,"connected_time":983000000000,"state":"active","ping":140},{"user_id":417,"name":"chocy milk addict","steam_id":76561199042178118,"connected_time":6748000000000,"state":"active","ping":67},{"user_id":490,"name":"BriLLz","steam_id":76561198142440806,"connected_time":831000000000,"state":"active","ping":75},{"user_id":446,"name":"Haha?","steam_id":76561198056882245,"connected_time":3931000000000,"state":"active","ping":31},{"user_id":494,"name":"meatsoupcube","steam_id":76561198276802249,"connected_time":568000000000,"state":"active","ping":104},{"user_id":492,"name":"t.tv/whimsybun","steam_id":76561198878171763,"connected_time":710000000000,"state":"active","ping":53},{"user_id":468,"name":"Your honor Freebird was playing","steam_id":76561198017513012,"connected_time":2348000000000,"state":"active","ping":58},{"user_id":465,"name":"hmscole09","steam_id":76561198811362788,"connected_time":2396000000000,"state":"active","ping":54},{"user_id":467,"name":"simpleaspossible","steam_id":76561198044827000,"connected_time":2349000000000,"state":"active","ping":40},{"user_id":431,"name":"ABSOLUTE UNIT","steam_id":76561197972287320,"connected_time":5909000000000,"state":"active","ping":87},{"user_id":498,"name":"mr.resetti","steam_id":76561198974520642,"connected_time":44000000000,"state":"spawning","ping":61},{"user_id":485,"name":"SLiPpeRyJoe.nosound","steam_id":76561197977206359,"connected_time":979000000000,"state":"active","ping":164},{"user_id":469,"name":"Haghehog","steam_id":76561198075729793,"connected_time":2344000000000,"state":"active","ping":123},{"user_id":470,"name":"❖ RazzorBee","steam_id":76561198092493838,"connected_time":2342000000000,"state":"active","ping":108},{"user_id":495,"name":"System","steam_id":76561199442503973,"connected_time":567000000000,"state":"active","ping":62},{"user_id":491,"name":"⸸aura⸸","steam_id":76561198066258544,"connected_time":808000000000,"state":"active","ping":63},{"user_id":493,"name":"hbivnm","steam_id":76561197996468677,"connected_time":656000000000,"state":"active","ping":62},{"user_id":489,"name":"dopamine overdose","steam_id":76561199032511302,"connected_time":872000000000,"state":"active","ping":107},{"user_id":475,"name":"slippin jimmy","steam_id":76561198090788590,"connected_time":2217000000000,"state":"active","ping":44},{"user_id":496,"name":"ExotiiC ☯","steam_id":76561198046149866,"connected_time":65000000000,"state":"active","ping":53},{"user_id":481,"name":"ein","steam_id":76561198152162834,"connected_time":1318000000000,"state":"active","ping":105}]},{"server_id":114,"name":"Uncletopia | London | 2 | All Maps","name_short":"lon-2","host":"lon-1.uk.uncletopia.com","port":27025,"enabled":true,"region":"eu","cc":"gb","latitude":51.509865,"longitude":-0.118092,"reserved":0,"last_update":"0001-01-01T00:00:00Z","name_a2s":"Uncletopia | London | 2 | All Maps","protocol":17,"map":"cp_sunshine","folder":"tf","game":"Team Fortress","app_id":440,"player_count":24,"max_players":24,"Bots":0,"server_type":"Dedicated","server_os":"Linux","password":true,"vac":true,"version":"7961495","steam_id":85568392924470941,"keywords":["cp","nocrits","nodmgspread","uncletopia"],"game_id":440,"stv_port":27026,"stv_name":"Uncletopia | London | 2 | All Maps | STV","players":[{"user_id":167,"name":"Dr. Sus","steam_id":76561198344435644,"connected_time":1844000000000,"state":"active","ping":76},{"user_id":198,"name":"dafydd","steam_id":76561198052200325,"connected_time":228000000000,"state":"active","ping":91},{"user_id":193,"name":"yeldad","steam_id":76561198447264153,"connected_time":453000000000,"state":"active","ping":113},{"user_id":144,"name":"Bladi","steam_id":76561198083358434,"connected_time":2493000000000,"state":"active","ping":89},{"user_id":190,"name":"AidenQG","steam_id":76561198864678536,"connected_time":528000000000,"state":"active","ping":65},{"user_id":172,"name":"ⓅⓁⓈ | Pink Panther","steam_id":76561198046434381,"connected_time":1593000000000,"state":"active","ping":47},{"user_id":199,"name":"Artakir","steam_id":76561198291746440,"connected_time":83000000000,"state":"active","ping":85},{"user_id":83,"name":"Ullr","steam_id":76561198140547483,"connected_time":6029000000000,"state":"active","ping":45},{"user_id":191,"name":"aaaaaaaaaa","steam_id":76561198011606851,"connected_time":524000000000,"state":"active","ping":121},{"user_id":184,"name":"cislastar","steam_id":76561198027202375,"connected_time":1019000000000,"state":"active","ping":66},{"user_id":160,"name":"Rodia","steam_id":76561197968293161,"connected_time":1930000000000,"state":"active","ping":75},{"user_id":186,"name":"ScudFXX","steam_id":76561198136603848,"connected_time":981000000000,"state":"active","ping":57},{"user_id":183,"name":"Kral1003","steam_id":76561198813600089,"connected_time":1103000000000,"state":"active","ping":96},{"user_id":181,"name":"JohnWoo981","steam_id":76561198890001563,"connected_time":1136000000000,"state":"active","ping":116},{"user_id":194,"name":"Freesah","steam_id":76561198283636523,"connected_time":369000000000,"state":"active","ping":75},{"user_id":171,"name":"Andy","steam_id":76561198046918834,"connected_time":1613000000000,"state":"active","ping":74},{"user_id":195,"name":"(1) TSM Garp","steam_id":76561198261795972,"connected_time":343000000000,"state":"active","ping":56},{"user_id":196,"name":"Cormdawg","steam_id":76561198336483216,"connected_time":331000000000,"state":"active","ping":50},{"user_id":179,"name":"TheBeardedM1G","steam_id":76561198040208946,"connected_time":1208000000000,"state":"active","ping":44},{"user_id":113,"name":"Zamorocian","steam_id":76561198076604017,"connected_time":4075000000000,"state":"active","ping":36},{"user_id":188,"name":"Itsagreyarea","steam_id":76561199496467388,"connected_time":869000000000,"state":"active","ping":124},{"user_id":158,"name":"After8","steam_id":76561198090750865,"connected_time":2101000000000,"state":"active","ping":74},{"user_id":201,"name":"LILY-CHAN","steam_id":76561198035085893,"connected_time":56000000000,"state":"active","ping":108},{"user_id":200,"name":"waitrose gaming","steam_id":76561198011450253,"connected_time":83000000000,"state":"active","ping":52}]},{"server_id":320,"name":"Uncletopia | London | 3 | All Maps","name_short":"lon-3","host":"lon-1.uk.uncletopia.com","port":27035,"enabled":true,"region":"eu","cc":"gb","latitude":51.509865,"longitude":-0.118092,"reserved":0,"last_update":"0001-01-01T00:00:00Z","name_a2s":"Uncletopia | London | 3 | All Maps","protocol":17,"map":"cp_sunshine","folder":"tf","game":"Team Fortress","app_id":440,"player_count":24,"max_players":24,"Bots":0,"server_type":"Dedicated","server_os":"Linux","password":true,"vac":true,"version":"7961495","steam_id":85568392924510192,"keywords":["cp","nocrits","nodmgspread","uncletopia"],"game_id":440,"stv_port":27036,"stv_name":"Uncletopia | London | 3 | All Maps | STV","players":[{"user_id":473,"name":"LeMustang","steam_id":76561198143497834,"connected_time":3525000000000,"state":"active","ping":54},{"user_id":565,"name":"Armitage Shanks","steam_id":76561198129755592,"connected_time":187000000000,"state":"active","ping":44},{"user_id":552,"name":"Ross from F.R.I.E.N.D.S.","steam_id":76561198008511665,"connected_time":699000000000,"state":"active","ping":50},{"user_id":553,"name":"Lorenzo Lovers","steam_id":76561198073973581,"connected_time":662000000000,"state":"active","ping":85},{"user_id":563,"name":"SirNeeco \u003c3","steam_id":76561198103014203,"connected_time":287000000000,"state":"active","ping":63},{"user_id":528,"name":"ybot23","steam_id":76561199142521512,"connected_time":1702000000000,"state":"active","ping":41},{"user_id":443,"name":"Petight","steam_id":76561197999438798,"connected_time":4138000000000,"state":"active","ping":31},{"user_id":556,"name":"necatiekmen","steam_id":76561198859023103,"connected_time":600000000000,"state":"active","ping":105},{"user_id":554,"name":"Reimu","steam_id":76561198109301435,"connected_time":648000000000,"state":"active","ping":90},{"user_id":562,"name":"cheese_man_","steam_id":76561198086617728,"connected_time":314000000000,"state":"active","ping":57},{"user_id":569,"name":"Javier dorsaless","steam_id":76561198179324075,"connected_time":64000000000,"state":"active","ping":62},{"user_id":570,"name":"night.s","steam_id":76561198326287823,"connected_time":52000000000,"state":"active","ping":75},{"user_id":494,"name":"abra-kablam","steam_id":76561198195857751,"connected_time":3202000000000,"state":"active","ping":74},{"user_id":540,"name":"♿ Erneesto ♿","steam_id":76561198157703539,"connected_time":1115000000000,"state":"active","ping":63},{"user_id":541,"name":"Kaza","steam_id":76561198033509686,"connected_time":1092000000000,"state":"active","ping":45},{"user_id":542,"name":"Venwood","steam_id":76561198126973175,"connected_time":1082000000000,"state":"active","ping":48},{"user_id":543,"name":"Personano","steam_id":76561198994355577,"connected_time":1074000000000,"state":"active","ping":53},{"user_id":561,"name":"Vamp_Moira_TTV","steam_id":76561198206111420,"connected_time":346000000000,"state":"active","ping":61},{"user_id":566,"name":"Nithle","steam_id":76561198025372740,"connected_time":176000000000,"state":"active","ping":32},{"user_id":531,"name":"Kenny Savage","steam_id":76561199049383900,"connected_time":1495000000000,"state":"active","ping":75},{"user_id":555,"name":"SuportSub99","steam_id":76561198127688900,"connected_time":625000000000,"state":"active","ping":42},{"user_id":549,"name":"small-brained bipedal primate","steam_id":76561198061220702,"connected_time":852000000000,"state":"active","ping":51},{"user_id":564,"name":"lord-carlos","steam_id":76561198025150761,"connected_time":282000000000,"state":"active","ping":65},{"user_id":567,"name":"Smarge","steam_id":76561198120035423,"connected_time":176000000000,"state":"active","ping":46}]},{"server_id":321,"name":"Uncletopia | London | 4 | All Maps","name_short":"lon-4","host":"lon-1.uk.uncletopia.com","port":27045,"enabled":true,"region":"eu","cc":"gb","latitude":51.509865,"longitude":-0.118092,"reserved":0,"last_update":"0001-01-01T00:00:00Z","name_a2s":"Uncletopia | London | 4 | All Maps","protocol":17,"map":"cp_process_final","folder":"tf","game":"Team Fortress","app_id":440,"player_count":0,"max_players":24,"Bots":0,"server_type":"Dedicated","server_os":"Linux","password":true,"vac":true,"version":"7961495","steam_id":85568392924510193,"keywords":["cp","nocrits","nodmgspread","uncletopia"],"game_id":440,"stv_port":27046,"stv_name":"Uncletopia | London | 4 | All Maps | STV","players":null},{"server_id":21,"name":"Uncletopia | London | 5 | All Maps","name_short":"lon-5","host":"lon-1.uk.uncletopia.com","port":27055,"enabled":true,"region":"eu","cc":"gb","latitude":51.509865,"longitude":-0.118092,"reserved":0,"last_update":"0001-01-01T00:00:00Z","name_a2s":"Uncletopia | London | 5 | All Maps","protocol":17,"map":"cp_snakewater_final1","folder":"tf","game":"Team Fortress","app_id":440,"player_count":24,"max_players":24,"Bots":0,"server_type":"Dedicated","server_os":"Linux","password":true,"vac":true,"version":"7961495","steam_id":85568392924742829,"keywords":["cp","nocrits","nodmgspread","uncletopia"],"game_id":440,"stv_port":27056,"stv_name":"Uncletopia | London | 5 | All Maps | STV","players":[{"user_id":433,"name":"Bobirulez","steam_id":76561198009125458,"connected_time":802000000000,"state":"active","ping":74},{"user_id":413,"name":"CalzoneCarl456","steam_id":76561198846982793,"connected_time":3017000000000,"state":"active","ping":59},{"user_id":424,"name":"I am on the TF2 Scoreboard...","steam_id":76561198043850884,"connected_time":1671000000000,"state":"active","ping":54},{"user_id":443,"name":"cinny","steam_id":76561198832112629,"connected_time":321000000000,"state":"active","ping":90},{"user_id":391,"name":"Edsuedi","steam_id":76561198074722832,"connected_time":4172000000000,"state":"active","ping":64},{"user_id":431,"name":"astra","steam_id":76561198042980579,"connected_time":804000000000,"state":"active","ping":75},{"user_id":446,"name":"SausageRoll","steam_id":76561197994072622,"connected_time":235000000000,"state":"active","ping":49},{"user_id":392,"name":"static","steam_id":76561198836825741,"connected_time":4161000000000,"state":"active","ping":44},{"user_id":387,"name":"sareena","steam_id":76561198810194062,"connected_time":4301000000000,"state":"active","ping":70},{"user_id":423,"name":"Bajas","steam_id":76561198179339326,"connected_time":1708000000000,"state":"active","ping":86},{"user_id":390,"name":"RAT BASTARD","steam_id":76561199195985387,"connected_time":4190000000000,"state":"active","ping":86},{"user_id":434,"name":"Locke","steam_id":76561198339408300,"connected_time":784000000000,"state":"active","ping":79},{"user_id":281,"name":"fence_","steam_id":76561198150386379,"connected_time":11231000000000,"state":"active","ping":53},{"user_id":439,"name":"Swift","steam_id":76561197998799889,"connected_time":529000000000,"state":"active","ping":45},{"user_id":411,"name":"medick","steam_id":76561199380849468,"connected_time":3247000000000,"state":"active","ping":62},{"user_id":448,"name":"extrableu99","steam_id":76561199465342124,"connected_time":17000000000,"state":"spawning","ping":45},{"user_id":442,"name":"Cassbacca","steam_id":76561198088403209,"connected_time":334000000000,"state":"active","ping":55},{"user_id":373,"name":"TranvesTito","steam_id":76561198140034262,"connected_time":5216000000000,"state":"active","ping":91},{"user_id":223,"name":"The Subway Scientist","steam_id":76561198193757646,"connected_time":12845000000000,"state":"active","ping":44},{"user_id":444,"name":"Reomk","steam_id":76561198309314129,"connected_time":274000000000,"state":"active","ping":76},{"user_id":436,"name":"Solymr ibn Wali Barad","steam_id":76561198044008976,"connected_time":739000000000,"state":"active","ping":65},{"user_id":447,"name":"Dr. Funkenstein","steam_id":76561197977816210,"connected_time":93000000000,"state":"active","ping":45},{"user_id":445,"name":"Not A Fake Uncletopia Server","steam_id":76561198152871288,"connected_time":264000000000,"state":"active","ping":67},{"user_id":438,"name":"Blar","steam_id":76561198042438229,"connected_time":636000000000,"state":"active","ping":55}]},{"server_id":22,"name":"Uncletopia | London | 6 | All Maps","name_short":"lon-6","host":"lon-1.uk.uncletopia.com","port":27065,"enabled":true,"region":"eu","cc":"gb","latitude":51.509865,"longitude":-0.118092,"reserved":0,"last_update":"0001-01-01T00:00:00Z","name_a2s":"Uncletopia | London | 6 | All Maps","protocol":17,"map":"pl_badwater","folder":"tf","game":"Team Fortress","app_id":440,"player_count":24,"max_players":24,"Bots":0,"server_type":"Dedicated","server_os":"Linux","password":true,"vac":true,"version":"7961495","steam_id":85568392924742830,"keywords":["nocrits","nodmgspread","payload","uncletopia"],"game_id":440,"stv_port":27066,"stv_name":"Uncletopia | London | 6 | All Maps | STV","players":[{"user_id":83,"name":"You","steam_id":76561199022242155,"connected_time":2135000000000,"state":"active","ping":86},{"user_id":121,"name":"Snail","steam_id":76561198883228947,"connected_time":65000000000,"state":"active","ping":138},{"user_id":101,"name":"skilltissues","steam_id":76561198025828664,"connected_time":1269000000000,"state":"active","ping":56},{"user_id":97,"name":"Eyy_Cucasi","steam_id":76561198271767632,"connected_time":1498000000000,"state":"active","ping":95},{"user_id":96,"name":"gαвє ησëℓ","steam_id":76561198067342352,"connected_time":1643000000000,"state":"active","ping":59},{"user_id":119,"name":"hardstuck blubber last","steam_id":76561198963378933,"connected_time":149000000000,"state":"active","ping":31},{"user_id":81,"name":"scungo","steam_id":76561198316654855,"connected_time":2175000000000,"state":"active","ping":159},{"user_id":94,"name":"kolio","steam_id":76561199113932585,"connected_time":1859000000000,"state":"active","ping":83},{"user_id":39,"name":"lordd2647","steam_id":76561199433534405,"connected_time":3143000000000,"state":"active","ping":67},{"user_id":111,"name":"asu","steam_id":76561197994492154,"connected_time":659000000000,"state":"active","ping":74},{"user_id":40,"name":"The legendery balls","steam_id":76561199139344747,"connected_time":3115000000000,"state":"active","ping":104},{"user_id":98,"name":"Jughead","steam_id":76561198000355410,"connected_time":1415000000000,"state":"active","ping":36},{"user_id":100,"name":"Dan Dan the Furious","steam_id":76561198091032527,"connected_time":1338000000000,"state":"active","ping":57},{"user_id":115,"name":"Tavish","steam_id":76561197971486686,"connected_time":432000000000,"state":"active","ping":45},{"user_id":117,"name":"Rogernuke","steam_id":76561198312815194,"connected_time":402000000000,"state":"active","ping":63},{"user_id":118,"name":"Assassin+","steam_id":76561197994310420,"connected_time":264000000000,"state":"active","ping":71},{"user_id":112,"name":"Falafel","steam_id":76561198043344845,"connected_time":604000000000,"state":"active","ping":54},{"user_id":103,"name":"Wattseyy","steam_id":76561198248567360,"connected_time":1223000000000,"state":"active","ping":35},{"user_id":106,"name":"stun","steam_id":76561198276681691,"connected_time":1041000000000,"state":"active","ping":42},{"user_id":116,"name":"alicheek_86","steam_id":76561198253553809,"connected_time":419000000000,"state":"active","ping":73},{"user_id":120,"name":"MeBandae","steam_id":76561198910770432,"connected_time":126000000000,"state":"active","ping":55},{"user_id":105,"name":"PROFILE NAME","steam_id":76561198180056982,"connected_time":1213000000000,"state":"active","ping":48},{"user_id":54,"name":"googoo ginga gagaga googoo gaga","steam_id":76561198349648942,"connected_time":2970000000000,"state":"active","ping":74},{"user_id":76,"name":"Anabolic minion","steam_id":76561198377533237,"connected_time":2384000000000,"state":"active","ping":73}]},{"server_id":40,"name":"Uncletopia | London | 7 | Stopwatch","name_short":"lon-7","host":"lon-1.uk.uncletopia.com","port":27075,"enabled":true,"region":"eu","cc":"gb","latitude":51.509865,"longitude":-0.118092,"reserved":0,"last_update":"0001-01-01T00:00:00Z","name_a2s":"Uncletopia | London | 7 | Stopwatch","protocol":17,"map":"workshop/pl_vigil_rc10.ugc1266210012","folder":"tf","game":"Team Fortress","app_id":440,"player_count":0,"max_players":24,"Bots":0,"server_type":"Dedicated","server_os":"Linux","password":true,"vac":true,"version":"7961495","steam_id":85568392924964314,"keywords":["nocrits","nodmgspread","payload","uncletopia"],"game_id":440,"stv_port":27076,"stv_name":"Uncletopia | London | 7 | Stopwatch | STV","players":null},{"server_id":41,"name":"Uncletopia | London | 8 | Community","name_short":"lon-8","host":"lon-1.uk.uncletopia.com","port":27085,"enabled":true,"region":"eu","cc":"gb","latitude":51.509865,"longitude":-0.118092,"reserved":0,"last_update":"0001-01-01T00:00:00Z","name_a2s":"Uncletopia | London | 8 | Community","protocol":17,"map":"workshop/rd_asteroid_redux_b1.ugc2154902912","folder":"tf","game":"Team Fortress","app_id":440,"player_count":0,"max_players":24,"Bots":0,"server_type":"Dedicated","server_os":"Linux","password":true,"vac":true,"version":"7961495","steam_id":85568392924964315,"keywords":["beta","nocrits","nodmgspread","rd","uncletopia"],"game_id":440,"stv_port":27086,"stv_name":"Uncletopia | London | 8 | Community | STV","players":null},{"server_id":300,"name":"Uncletopia | Montréal | 1 | One Thousand Uncles","name_short":"mtl-1","host":"mtl-1.ca.uncletopia.com","port":27015,"enabled":true,"region":"us-east","cc":"ca","latitude":45.50889,"longitude":-73.56167,"reserved":0,"last_update":"0001-01-01T00:00:00Z","name_a2s":"Uncletopia | Montréal | 1 | One Thousand Uncles","protocol":17,"map":"pl_thundermountain","folder":"tf","game":"Team Fortress","app_id":440,"player_count":26,"max_players":32,"Bots":20,"server_type":"Dedicated","server_os":"Linux","password":true,"vac":true,"version":"7961495","steam_id":85568392924500087,"keywords":["alltalk","bots","danepve","increased_maxplayers","norespawntime","payload","uncletopia"],"game_id":440,"stv_port":0,"stv_name":"","players":[{"user_id":156,"name":"puffy","steam_id":76561198411347037,"connected_time":1840000000000,"state":"active","ping":59},{"user_id":159,"name":"zmanvic","steam_id":76561198008389885,"connected_time":928000000000,"state":"active","ping":66},{"user_id":160,"name":"Watong","steam_id":76561199074388745,"connected_time":851000000000,"state":"active","ping":182},{"user_id":162,"name":"BL4CKPL4T3","steam_id":76561198983185163,"connected_time":256000000000,"state":"active","ping":224},{"user_id":163,"name":"Intro Bonito","steam_id":76561198119478838,"connected_time":39000000000,"state":"active","ping":74},{"user_id":105,"name":"Soviet Hoovy™","steam_id":76561198367792271,"connected_time":3401000000000,"state":"active","ping":68}]},{"server_id":301,"name":"Uncletopia | Montréal | 2 | One Thousand Uncles","name_short":"mtl-2","host":"mtl-1.ca.uncletopia.com","port":27025,"enabled":true,"region":"us-east","cc":"ca","latitude":45.50889,"longitude":-73.56167,"reserved":0,"last_update":"0001-01-01T00:00:00Z","name_a2s":"Uncletopia | Montréal | 2 | One Thousand Uncles","protocol":17,"map":"cp_mossrock","folder":"tf","game":"Team Fortress","app_id":440,"player_count":0,"max_players":32,"Bots":0,"server_type":"Dedicated","server_os":"Linux","password":true,"vac":true,"version":"7961495","steam_id":85568392924500088,"keywords":["alltalk","cp","danepve","increased_maxplayers","norespawntime","uncletopia"],"game_id":440,"stv_port":0,"stv_name":"","players":null},{"server_id":302,"name":"Uncletopia | Montréal | 3 | One Thousand Uncles","name_short":"mtl-3","host":"mtl-1.ca.uncletopia.com","port":27035,"enabled":true,"region":"us-east","cc":"ca","latitude":45.50889,"longitude":-73.56167,"reserved":0,"last_update":"0001-01-01T00:00:00Z","name_a2s":"Uncletopia | Montréal | 3 | One Thousand Uncles","protocol":17,"map":"pl_pier","folder":"tf","game":"Team Fortress","app_id":440,"player_count":0,"max_players":32,"Bots":0,"server_type":"Dedicated","server_os":"Linux","password":true,"vac":true,"version":"7961495","steam_id":85568392924500089,"keywords":["alltalk","danepve","increased_maxplayers","norespawntime","payload","uncletopia"],"game_id":440,"stv_port":0,"stv_name":"","players":null},{"server_id":13,"name":"Uncletopia | New York City | 1 | All Maps","name_short":"nyc-1","host":"nyc-1.us.uncletopia.com","port":27015,"enabled":true,"region":"us-east","cc":"us","latitude":40.73061,"longitude":-73.93524,"reserved":0,"last_update":"0001-01-01T00:00:00Z","name_a2s":"Uncletopia | New York City | 1 | All Maps","protocol":17,"map":"pl_barnblitz","folder":"tf","game":"Team Fortress","app_id":440,"player_count":24,"max_players":24,"Bots":0,"server_type":"Dedicated","server_os":"Linux","password":true,"vac":true,"version":"7961495","steam_id":85568392924469993,"keywords":["nocrits","nodmgspread","payload","uncletopia"],"game_id":440,"stv_port":27016,"stv_name":"Uncletopia | New York City | 1 | All Maps | STV","players":[{"user_id":230,"name":"Disco Fever","steam_id":76561198069532215,"connected_time":1070000000000,"state":"active","ping":45},{"user_id":219,"name":"Havel The Rock","steam_id":76561198086844531,"connected_time":2142000000000,"state":"active","ping":103},{"user_id":245,"name":"morty","steam_id":76561199230137467,"connected_time":15000000000,"state":"active","ping":59},{"user_id":232,"name":"Large Wooden Sign","steam_id":76561198368951702,"connected_time":1032000000000,"state":"active","ping":43},{"user_id":211,"name":"tommy","steam_id":76561198111753974,"connected_time":2840000000000,"state":"active","ping":33},{"user_id":243,"name":"VinVigo","steam_id":76561198124637954,"connected_time":167000000000,"state":"active","ping":77},{"user_id":244,"name":"Average Blahaj Enjoyer","steam_id":76561198045653074,"connected_time":42000000000,"state":"active","ping":165},{"user_id":217,"name":"Sean","steam_id":76561198023624342,"connected_time":2368000000000,"state":"active","ping":73},{"user_id":236,"name":"Dragus","steam_id":76561198032967285,"connected_time":964000000000,"state":"active","ping":64},{"user_id":231,"name":"alcovenant","steam_id":76561198066247487,"connected_time":1046000000000,"state":"active","ping":52},{"user_id":222,"name":"Tori","steam_id":76561198188021354,"connected_time":2073000000000,"state":"active","ping":52},{"user_id":206,"name":"SmiGuy","steam_id":76561198058474433,"connected_time":3221000000000,"state":"active","ping":45},{"user_id":224,"name":"Nickname","steam_id":76561197982841838,"connected_time":1982000000000,"state":"active","ping":76},{"user_id":155,"name":"OdysseyTen","steam_id":76561198133082665,"connected_time":6701000000000,"state":"active","ping":48},{"user_id":237,"name":"(˚ˎ 。)","steam_id":76561199013337543,"connected_time":961000000000,"state":"active","ping":60},{"user_id":246,"name":"swooce","steam_id":76561198156232484,"connected_time":2000000000,"state":"spawning","ping":42},{"user_id":212,"name":"LordZ19","steam_id":76561198401058967,"connected_time":2824000000000,"state":"active","ping":45},{"user_id":208,"name":"Nabsin","steam_id":76561198208345304,"connected_time":3199000000000,"state":"active","ping":61},{"user_id":109,"name":"pea ttv/peabeanz","steam_id":76561198119551968,"connected_time":10273000000000,"state":"active","ping":57},{"user_id":193,"name":"UberDog","steam_id":76561198978172607,"connected_time":3790000000000,"state":"active","ping":76},{"user_id":199,"name":"QuackRick","steam_id":76561198005514341,"connected_time":3595000000000,"state":"active","ping":56},{"user_id":238,"name":"Jeremiah Finch","steam_id":76561198046899113,"connected_time":933000000000,"state":"active","ping":76},{"user_id":228,"name":"The Notorious RBG","steam_id":76561198014275148,"connected_time":1428000000000,"state":"active","ping":47},{"user_id":215,"name":"the keebler","steam_id":76561199486326945,"connected_time":2742000000000,"state":"active","ping":74}]},{"server_id":14,"name":"Uncletopia | New York City | 2 | All Maps","name_short":"nyc-2","host":"nyc-1.us.uncletopia.com","port":27025,"enabled":true,"region":"us-east","cc":"us","latitude":40.73061,"longitude":-73.93524,"reserved":0,"last_update":"0001-01-01T00:00:00Z","name_a2s":"Uncletopia | New York City | 2 | All Maps","protocol":17,"map":"koth_lakeside_final","folder":"tf","game":"Team Fortress","app_id":440,"player_count":23,"max_players":24,"Bots":0,"server_type":"Dedicated","server_os":"Linux","password":true,"vac":true,"version":"7961495","steam_id":85568392924469994,"keywords":["cp","nocrits","nodmgspread","uncletopia"],"game_id":440,"stv_port":27026,"stv_name":"Uncletopia | New York City | 2 | All Maps | STV","players":[{"user_id":217,"name":"Gailus","steam_id":76561198319509387,"connected_time":408000000000,"state":"active","ping":62},{"user_id":209,"name":"oshawa_guy","steam_id":76561198121105098,"connected_time":561000000000,"state":"active","ping":78},{"user_id":204,"name":"Pixeled","steam_id":76561198088917077,"connected_time":860000000000,"state":"active","ping":80},{"user_id":185,"name":"cyrus!","steam_id":76561198344500089,"connected_time":1548000000000,"state":"active","ping":63},{"user_id":218,"name":"SPYCHECK ME","steam_id":76561198980994364,"connected_time":362000000000,"state":"active","ping":85},{"user_id":208,"name":"fish","steam_id":76561198120387104,"connected_time":643000000000,"state":"active","ping":53},{"user_id":222,"name":"Skab E²","steam_id":76561199126112357,"connected_time":135000000000,"state":"active","ping":70},{"user_id":199,"name":"mergesort","steam_id":76561198036658165,"connected_time":1030000000000,"state":"active","ping":54},{"user_id":193,"name":"elephantofdoom","steam_id":76561198062436835,"connected_time":1276000000000,"state":"active","ping":45},{"user_id":220,"name":"NewK_ID","steam_id":76561198059112605,"connected_time":265000000000,"state":"active","ping":50},{"user_id":223,"name":"Chord","steam_id":76561198110874021,"connected_time":120000000000,"state":"active","ping":72},{"user_id":194,"name":"Xx_gam3rberg_xX","steam_id":76561199035781025,"connected_time":1243000000000,"state":"active","ping":67},{"user_id":47,"name":"Cellus","steam_id":76561198067204847,"connected_time":12218000000000,"state":"active","ping":56},{"user_id":165,"name":"Baron von Whoopsie","steam_id":76561197996691013,"connected_time":2293000000000,"state":"active","ping":55},{"user_id":206,"name":"Oh, it's Zach","steam_id":76561198103309672,"connected_time":815000000000,"state":"active","ping":67},{"user_id":215,"name":"Sicko Mode (Chris Pratt Cover)","steam_id":76561198315786174,"connected_time":450000000000,"state":"active","ping":58},{"user_id":221,"name":"The Alex","steam_id":76561198044016385,"connected_time":198000000000,"state":"active","ping":72},{"user_id":160,"name":"emotional suppport e-cigarette","steam_id":76561198172120615,"connected_time":2593000000000,"state":"active","ping":32},{"user_id":171,"name":"HAT-WEARING™ Maggot Gamer Cat","steam_id":76561197973992705,"connected_time":2183000000000,"state":"active","ping":121},{"user_id":177,"name":"Smooth - Santana ft. Rob Thomas","steam_id":76561198145283389,"connected_time":1892000000000,"state":"active","ping":57},{"user_id":213,"name":"you forgot the sauce","steam_id":76561198387016713,"connected_time":467000000000,"state":"active","ping":57},{"user_id":214,"name":"Lilith Luz","steam_id":76561198125056977,"connected_time":451000000000,"state":"active","ping":71},{"user_id":224,"name":"TheMenace","steam_id":76561198798182095,"connected_time":94000000000,"state":"active","ping":60}]},{"server_id":15,"name":"Uncletopia | New York City | 3 | Stopwatch","name_short":"nyc-3","host":"nyc-1.us.uncletopia.com","port":27035,"enabled":true,"region":"us-east","cc":"us","latitude":40.73061,"longitude":-73.93524,"reserved":0,"last_update":"0001-01-01T00:00:00Z","name_a2s":"Uncletopia | New York City | 3 | Stopwatch","protocol":17,"map":"pl_upward","folder":"tf","game":"Team Fortress","app_id":440,"player_count":0,"max_players":24,"Bots":0,"server_type":"Dedicated","server_os":"Linux","password":true,"vac":true,"version":"7961495","steam_id":85568392924742820,"keywords":["nocrits","nodmgspread","payload","uncletopia"],"game_id":440,"stv_port":27036,"stv_name":"Uncletopia | New York City | 3 | Stopwatch | STV","players":null},{"server_id":16,"name":"Uncletopia | New York City | 4 | Community","name_short":"nyc-4","host":"nyc-1.us.uncletopia.com","port":27045,"enabled":true,"region":"us-east","cc":"us","latitude":40.73061,"longitude":-73.93524,"reserved":0,"last_update":"0001-01-01T00:00:00Z","name_a2s":"Uncletopia | New York City | 4 | Community","protocol":17,"map":"workshop/pl_shoreleave_rc2.ugc1238849347","folder":"tf","game":"Team Fortress","app_id":440,"player_count":0,"max_players":24,"Bots":0,"server_type":"Dedicated","server_os":"Linux","password":true,"vac":true,"version":"7961495","steam_id":85568392924742821,"keywords":["nocrits","nodmgspread","payload","uncletopia"],"game_id":440,"stv_port":27046,"stv_name":"Uncletopia | New York City | 4 | Community | STV","players":null},{"server_id":142,"name":"Uncletopia | São Paulo | 1 | All Maps","name_short":"sao-1","host":"sao-1.br.uncletopia.com","port":27015,"enabled":true,"region":"sa","cc":"br","latitude":-23.533773,"longitude":-46.62529,"reserved":0,"last_update":"0001-01-01T00:00:00Z","name_a2s":"Uncletopia | São Paulo | 1 | All Maps","protocol":17,"map":"koth_viaduct","folder":"tf","game":"Team Fortress","app_id":440,"player_count":0,"max_players":24,"Bots":0,"server_type":"Dedicated","server_os":"Linux","password":true,"vac":true,"version":"7961495","steam_id":85568392924469996,"keywords":["cp","nocrits","nodmgspread","uncletopia"],"game_id":440,"stv_port":27016,"stv_name":"Uncletopia | São Paulo | 1 | All Maps | STV","players":null},{"server_id":143,"name":"Uncletopia | São Paulo | 2 | Community","name_short":"sao-2","host":"sao-2.br.uncletopia.com","port":27015,"enabled":true,"region":"sa","cc":"br","latitude":-23.533773,"longitude":-46.62529,"reserved":0,"last_update":"0001-01-01T00:00:00Z","name_a2s":"Uncletopia | São Paulo | 2 | Community","protocol":17,"map":"workshop/koth_slaughter_rc1.ugc1712845210","folder":"tf","game":"Team Fortress","app_id":440,"player_count":2,"max_players":24,"Bots":0,"server_type":"Dedicated","server_os":"Linux","password":true,"vac":true,"version":"7961495","steam_id":85568392924485349,"keywords":["cp","nocrits","nodmgspread","uncletopia"],"game_id":440,"stv_port":27016,"stv_name":"Uncletopia | São Paulo | 2 | Community | STV","players":[{"user_id":6,"name":"SmoggySkewball","steam_id":76561198428665466,"connected_time":1953000000000,"state":"active","ping":97},{"user_id":8,"name":"twistedVodka","steam_id":76561199429163241,"connected_time":973000000000,"state":"active","ping":70}]},{"server_id":7,"name":"Uncletopia | Seattle | 1 | All Maps","name_short":"sea-1","host":"sea-1.us.uncletopia.com","port":27015,"enabled":true,"region":"us-west","cc":"us","latitude":47.608013,"longitude":-122.33517,"reserved":0,"last_update":"0001-01-01T00:00:00Z","name_a2s":"Uncletopia | Seattle | 1 | All Maps","protocol":17,"map":"koth_lakeside_final","folder":"tf","game":"Team Fortress","app_id":440,"player_count":0,"max_players":24,"Bots":0,"server_type":"Dedicated","server_os":"Linux","password":true,"vac":true,"version":"7961495","steam_id":85568392924469997,"keywords":["cp","nocrits","nodmgspread","uncletopia"],"game_id":440,"stv_port":27016,"stv_name":"Uncletopia | Seattle | 1 | All Maps | STV","players":null},{"server_id":119,"name":"Uncletopia | Seattle | 2 | All Maps","name_short":"sea-2","host":"sea-1.us.uncletopia.com","port":27025,"enabled":true,"region":"us-west","cc":"us","latitude":47.608013,"longitude":-122.33517,"reserved":0,"last_update":"0001-01-01T00:00:00Z","name_a2s":"Uncletopia | Seattle | 2 | All Maps","protocol":17,"map":"cp_mountainlab","folder":"tf","game":"Team Fortress","app_id":440,"player_count":0,"max_players":24,"Bots":0,"server_type":"Dedicated","server_os":"Linux","password":true,"vac":true,"version":"7961495","steam_id":85568392924469998,"keywords":["cp","nocrits","nodmgspread","uncletopia"],"game_id":440,"stv_port":27026,"stv_name":"Uncletopia | Seattle | 2 | All Maps | STV","players":null},{"server_id":406,"name":"Uncletopia | Seattle | 3 | Stopwatch","name_short":"sea-3","host":"sea-1.us.uncletopia.com","port":27035,"enabled":true,"region":"us-west","cc":"us","latitude":47.608013,"longitude":-122.33517,"reserved":0,"last_update":"0001-01-01T00:00:00Z","name_a2s":"Uncletopia | Seattle | 3 | Stopwatch","protocol":17,"map":"cp_gullywash_final1","folder":"tf","game":"Team Fortress","app_id":440,"player_count":0,"max_players":24,"Bots":0,"server_type":"Dedicated","server_os":"Linux","password":true,"vac":true,"version":"7961495","steam_id":85568392924515217,"keywords":["cp","nocrits","nodmgspread","uncletopia"],"game_id":440,"stv_port":27036,"stv_name":"Uncletopia | Seattle | 3 | Stopwatch | STV","players":null},{"server_id":17,"name":"Uncletopia | San Francisco | 1 | All Maps","name_short":"sfo-1","host":"sfo-1.us.uncletopia.com","port":27015,"enabled":true,"region":"us-west","cc":"us","latitude":37.77397,"longitude":-122.4313,"reserved":0,"last_update":"0001-01-01T00:00:00Z","name_a2s":"Uncletopia | San Francisco | 1 | All Maps","protocol":17,"map":"cp_dustbowl","folder":"tf","game":"Team Fortress","app_id":440,"player_count":0,"max_players":24,"Bots":0,"server_type":"Dedicated","server_os":"Linux","password":true,"vac":true,"version":"7961495","steam_id":85568392924469999,"keywords":["cp","nocrits","nodmgspread","uncletopia"],"game_id":440,"stv_port":27016,"stv_name":"Uncletopia | San Francisco | 1 | All Maps | STV","players":null},{"server_id":18,"name":"Uncletopia | San Francisco | 2 | All Maps","name_short":"sfo-2","host":"sfo-1.us.uncletopia.com","port":27025,"enabled":true,"region":"us-west","cc":"us","latitude":37.77397,"longitude":-122.4313,"reserved":0,"last_update":"0001-01-01T00:00:00Z","name_a2s":"Uncletopia | San Francisco | 2 | All Maps","protocol":17,"map":"pl_hoodoo_final","folder":"tf","game":"Team Fortress","app_id":440,"player_count":0,"max_players":24,"Bots":0,"server_type":"Dedicated","server_os":"Linux","password":true,"vac":true,"version":"7961495","steam_id":85568392924470000,"keywords":["nocrits","nodmgspread","payload","uncletopia"],"game_id":440,"stv_port":27026,"stv_name":"Uncletopia | San Francisco | 2 | All Maps | STV","players":null},{"server_id":19,"name":"Uncletopia | San Francisco | 3 | Stopwatch","name_short":"sfo-3","host":"sfo-1.us.uncletopia.com","port":27035,"enabled":true,"region":"us-west","cc":"us","latitude":37.77397,"longitude":-122.4313,"reserved":0,"last_update":"0001-01-01T00:00:00Z","name_a2s":"Uncletopia | San Francisco | 3 | Stopwatch","protocol":17,"map":"workshop/koth_clearcut_b15.ugc2107050255","folder":"tf","game":"Team Fortress","app_id":440,"player_count":0,"max_players":24,"Bots":0,"server_type":"Dedicated","server_os":"Linux","password":true,"vac":true,"version":"7961495","steam_id":85568392924742824,"keywords":["cp","nocrits","nodmgspread","uncletopia"],"game_id":440,"stv_port":27036,"stv_name":"Uncletopia | San Francisco | 3 | Stopwatch | STV","players":null},{"server_id":20,"name":"Uncletopia | San Francisco | 4 | Community","name_short":"sfo-4","host":"sfo-1.us.uncletopia.com","port":27045,"enabled":true,"region":"us-west","cc":"us","latitude":37.77397,"longitude":-122.4313,"reserved":0,"last_update":"0001-01-01T00:00:00Z","name_a2s":"Uncletopia | San Francisco | 4 | Community","protocol":17,"map":"workshop/pl_vigil_rc10.ugc1266210012","folder":"tf","game":"Team Fortress","app_id":440,"player_count":0,"max_players":24,"Bots":0,"server_type":"Dedicated","server_os":"Linux","password":true,"vac":true,"version":"7961495","steam_id":85568392924742826,"keywords":["nocrits","nodmgspread","payload","uncletopia"],"game_id":440,"stv_port":27046,"stv_name":"Uncletopia | San Francisco | 4 | Community | STV","players":null},{"server_id":141,"name":"Uncletopia | Sydney | 1 | All Maps","name_short":"syd-1","host":"syd-1.au.uncletopia.com","port":27015,"enabled":true,"region":"au","cc":"au","latitude":-33.865143,"longitude":151.2099,"reserved":0,"last_update":"0001-01-01T00:00:00Z","name_a2s":"Uncletopia | Sydney | 1 | All Maps","protocol":17,"map":"cp_altitude","folder":"tf","game":"Team Fortress","app_id":440,"player_count":0,"max_players":24,"Bots":0,"server_type":"Dedicated","server_os":"Linux","password":true,"vac":true,"version":"7961495","steam_id":85568392924470001,"keywords":["cp","nocrits","nodmgspread","uncletopia"],"game_id":440,"stv_port":27016,"stv_name":"Uncletopia | Sydney | 1 | All Maps | STV","players":null},{"server_id":123,"name":"Uncletopia | Sydney | 2 | All Maps","name_short":"syd-2","host":"syd-1.au.uncletopia.com","port":27025,"enabled":true,"region":"au","cc":"au","latitude":-33.865143,"longitude":151.2099,"reserved":0,"last_update":"0001-01-01T00:00:00Z","name_a2s":"Uncletopia | Sydney | 2 | All Maps","protocol":17,"map":"pl_swiftwater_final1","folder":"tf","game":"Team Fortress","app_id":440,"player_count":0,"max_players":24,"Bots":0,"server_type":"Dedicated","server_os":"Linux","password":true,"vac":true,"version":"7961495","steam_id":85568392924470002,"keywords":["nocrits","nodmgspread","payload","uncletopia"],"game_id":440,"stv_port":27026,"stv_name":"Uncletopia | Sydney | 2 | All Maps | STV","players":null},{"server_id":395,"name":"Uncletopia | Sydney | 3 | All Maps","name_short":"syd-3","host":"syd-1.au.uncletopia.com","port":27035,"enabled":true,"region":"au","cc":"au","latitude":-33.865143,"longitude":151.2099,"reserved":0,"last_update":"0001-01-01T00:00:00Z","name_a2s":"Uncletopia | Sydney | 3 | All Maps","protocol":17,"map":"koth_highpass","folder":"tf","game":"Team Fortress","app_id":440,"player_count":0,"max_players":24,"Bots":0,"server_type":"Dedicated","server_os":"Linux","password":true,"vac":true,"version":"7961495","steam_id":85568392925194467,"keywords":["cp","nocrits","nodmgspread","uncletopia"],"game_id":440,"stv_port":27036,"stv_name":"Uncletopia | Sydney | 3 | All Maps | STV","players":null},{"server_id":396,"name":"Uncletopia | Sydney | 4 | All Maps","name_short":"syd-4","host":"syd-1.au.uncletopia.com","port":27045,"enabled":true,"region":"au","cc":"au","latitude":-33.865143,"longitude":151.2099,"reserved":0,"last_update":"0001-01-01T00:00:00Z","name_a2s":"Uncletopia | Sydney | 4 | All Maps","protocol":17,"map":"koth_cascade","folder":"tf","game":"Team Fortress","app_id":440,"player_count":0,"max_players":24,"Bots":0,"server_type":"Dedicated","server_os":"Linux","password":true,"vac":true,"version":"7961495","steam_id":85568392925397958,"keywords":["cp","nocrits","nodmgspread","uncletopia"],"game_id":440,"stv_port":27046,"stv_name":"Uncletopia | Sydney | 4 | All Maps | STV","players":null},{"server_id":58,"name":"Uncletopia | Sydney | 5 | Stopwatch","name_short":"syd-5","host":"syd-1.au.uncletopia.com","port":27055,"enabled":true,"region":"au","cc":"au","latitude":-33.865143,"longitude":151.2099,"reserved":0,"last_update":"0001-01-01T00:00:00Z","name_a2s":"Uncletopia | Sydney | 5 | Stopwatch","protocol":17,"map":"workshop/koth_product_final.ugc454272353","folder":"tf","game":"Team Fortress","app_id":440,"player_count":0,"max_players":24,"Bots":0,"server_type":"Dedicated","server_os":"Linux","password":true,"vac":true,"version":"7961495","steam_id":85568392925397959,"keywords":["cp","nocrits","nodmgspread","uncletopia"],"game_id":440,"stv_port":27056,"stv_name":"Uncletopia | Sydney | 5 | Stopwatch | STV","players":null},{"server_id":59,"name":"Uncletopia | Sydney | 6 | Community","name_short":"syd-6","host":"syd-1.au.uncletopia.com","port":27065,"enabled":true,"region":"au","cc":"au","latitude":-33.865143,"longitude":151.2099,"reserved":0,"last_update":"0001-01-01T00:00:00Z","name_a2s":"Uncletopia | Sydney | 6 | Community","protocol":17,"map":"workshop/cp_mannbase_rc2a.ugc1900737467","folder":"tf","game":"Team Fortress","app_id":440,"player_count":0,"max_players":24,"Bots":0,"server_type":"Dedicated","server_os":"Linux","password":true,"vac":true,"version":"7961495","steam_id":85568392925397960,"keywords":["cp","nocrits","nodmgspread","uncletopia"],"game_id":440,"stv_port":27066,"stv_name":"Uncletopia | Sydney | 6 | Community | STV","players":null},{"server_id":49,"name":"Uncletopia | Warsaw | 1 | One Thousand Uncles","name_short":"waw-1","host":"waw-1.pl.uncletopia.com","port":27015,"enabled":true,"region":"eu","cc":"pl","latitude":52.2297,"longitude":21.017532,"reserved":0,"last_update":"0001-01-01T00:00:00Z","name_a2s":"Uncletopia | Warsaw | 1 | One Thousand Uncles","protocol":17,"map":"cp_dustbowl","folder":"tf","game":"Team Fortress","app_id":440,"player_count":0,"max_players":32,"Bots":0,"server_type":"Dedicated","server_os":"Linux","password":true,"vac":true,"version":"7961495","steam_id":85568392925397850,"keywords":["alltalk","cp","danepve","increased_maxplayers","norespawntime","uncletopia"],"game_id":440,"stv_port":0,"stv_name":"","players":null},{"server_id":50,"name":"Uncletopia | Warsaw | 2 | One Thousand Uncles","name_short":"waw-2","host":"waw-1.pl.uncletopia.com","port":27025,"enabled":true,"region":"eu","cc":"pl","latitude":52.2297,"longitude":21.017532,"reserved":0,"last_update":"0001-01-01T00:00:00Z","name_a2s":"Uncletopia | Warsaw | 2 | One Thousand Uncles","protocol":17,"map":"pl_upward","folder":"tf","game":"Team Fortress","app_id":440,"player_count":30,"max_players":32,"Bots":20,"server_type":"Dedicated","server_os":"Linux","password":true,"vac":true,"version":"7961495","steam_id":85568392925397851,"keywords":["alltalk","bots","danepve","increased_maxplayers","norespawntime","payload","uncletopia"],"game_id":440,"stv_port":0,"stv_name":"","players":[{"user_id":509,"name":"Galzra87","steam_id":76561198063414443,"connected_time":2203000000000,"state":"active","ping":90},{"user_id":511,"name":"facetious dog","steam_id":76561198095289436,"connected_time":2083000000000,"state":"active","ping":63},{"user_id":494,"name":"Squidiot","steam_id":76561198042754907,"connected_time":2907000000000,"state":"active","ping":73},{"user_id":503,"name":"The one True Mads","steam_id":76561197999204692,"connected_time":2488000000000,"state":"active","ping":86},{"user_id":516,"name":"ОберштурмЧурка","steam_id":76561198249134828,"connected_time":885000000000,"state":"active","ping":66},{"user_id":526,"name":"Distant Dreamer","steam_id":76561199029212388,"connected_time":36000000000,"state":"active","ping":49},{"user_id":525,"name":"luckyastroman","steam_id":76561199027500574,"connected_time":257000000000,"state":"active","ping":64},{"user_id":514,"name":"pomson gaming","steam_id":76561199149216429,"connected_time":1174000000000,"state":"active","ping":88},{"user_id":523,"name":"Kotlin","steam_id":76561198443331716,"connected_time":371000000000,"state":"active","ping":76},{"user_id":512,"name":"AnalBypass1989","steam_id":76561198052356557,"connected_time":2051000000000,"state":"active","ping":128}]},{"server_id":51,"name":"Uncletopia | Warsaw | 3 | All Maps","name_short":"waw-3","host":"waw-1.pl.uncletopia.com","port":27035,"enabled":true,"region":"eu","cc":"pl","latitude":52.2297,"longitude":21.017532,"reserved":0,"last_update":"0001-01-01T00:00:00Z","name_a2s":"Uncletopia | Warsaw | 3 | All Maps","protocol":17,"map":"cp_process_final","folder":"tf","game":"Team Fortress","app_id":440,"player_count":0,"max_players":24,"Bots":0,"server_type":"Dedicated","server_os":"Linux","password":true,"vac":true,"version":"7961495","steam_id":85568392925397852,"keywords":["cp","nocrits","nodmgspread","uncletopia"],"game_id":440,"stv_port":27036,"stv_name":"Uncletopia | Warsaw | 3 | All Maps | STV","players":null},{"server_id":52,"name":"Uncletopia | Warsaw | 4 | All Maps","name_short":"waw-4","host":"waw-1.pl.uncletopia.com","port":27045,"enabled":true,"region":"eu","cc":"pl","latitude":52.2297,"longitude":21.017532,"reserved":0,"last_update":"0001-01-01T00:00:00Z","name_a2s":"Uncletopia | Warsaw | 4 | All Maps","protocol":17,"map":"koth_viaduct","folder":"tf","game":"Team Fortress","app_id":440,"player_count":0,"max_players":24,"Bots":0,"server_type":"Dedicated","server_os":"Linux","password":true,"vac":true,"version":"7961495","steam_id":85568392925397853,"keywords":["cp","nocrits","nodmgspread","uncletopia"],"game_id":440,"stv_port":27046,"stv_name":"Uncletopia | Warsaw | 4 | All Maps | STV","players":null},{"server_id":53,"name":"Uncletopia | Warsaw | 5 | Stopwatch","name_short":"waw-5","host":"waw-1.pl.uncletopia.com","port":27055,"enabled":true,"region":"eu","cc":"pl","latitude":52.2297,"longitude":21.017532,"reserved":0,"last_update":"0001-01-01T00:00:00Z","name_a2s":"Uncletopia | Warsaw | 5 | Stopwatch","protocol":17,"map":"workshop/koth_product_final.ugc454272353","folder":"tf","game":"Team Fortress","app_id":440,"player_count":0,"max_players":24,"Bots":0,"server_type":"Dedicated","server_os":"Linux","password":true,"vac":true,"version":"7961495","steam_id":85568392925397854,"keywords":["cp","nocrits","nodmgspread","uncletopia"],"game_id":440,"stv_port":27056,"stv_name":"Uncletopia | Warsaw | 5 | Stopwatch | STV","players":null},{"server_id":54,"name":"Uncletopia | Warsaw | 6 | Community","name_short":"waw-6","host":"waw-1.pl.uncletopia.com","port":27065,"enabled":true,"region":"eu","cc":"pl","latitude":52.2297,"longitude":21.017532,"reserved":0,"last_update":"0001-01-01T00:00:00Z","name_a2s":"Uncletopia | Warsaw | 6 | Community","protocol":17,"map":"workshop/cp_fulgur_rc2a.ugc2068252300","folder":"tf","game":"Team Fortress","app_id":440,"player_count":0,"max_players":24,"Bots":0,"server_type":"Dedicated","server_os":"Linux","password":true,"vac":true,"version":"7961495","steam_id":85568392925397856,"keywords":["cp","nocrits","nodmgspread","uncletopia"],"game_id":440,"stv_port":27066,"stv_name":"Uncletopia | Warsaw | 6 | Community | STV","players":null}]}