{"status":true,"message":"","result":[{"server_id":9,"name":"Uncletopia | Atlanta | 1 | All Maps","name_short":"atl-1","host":"atl-1.us.uncletopia.com","port":27015,"enabled":true,"region":"us-east","cc":"us","latitude":33.753746,"longitude":-84.38633,"reserved":0,"last_update":"0001-01-01T00:00:00Z","name_a2s":"Uncletopia | Atlanta | 1 | All Maps","protocol":17,"map":"pl_upward","folder":"tf","game":"Team Fortress","app_id":440,"player_count":24,"max_players":24,"Bots":0,"server_type":"Dedicated","server_os":"Linux","password":true,"vac":true,"version":"7961495","steam_id":85568392924469982,"keywords":["nocrits","nodmgspread","payload","uncletopia"],"game_id":440,"stv_port":27016,"stv_name":"Uncletopia | Atlanta | 1 | All Maps | STV","players":[{"user_id":854,"name":"Tyco","steam_id":76561197978414167,"connected_time":285000000000,"state":"active","ping":54},{"user_id":853,"name":"Torn Ligma Mint","steam_id":76561198046562161,"connected_time":388000000000,"state":"active","ping":104},{"user_id":847,"name":"JohnFMX","steam_id":76561198175608097,"connected_time":917000000000,"state":"active","ping":46},{"user_id":832,"name":"Frank","steam_id":76561198984948713,"connected_time":1560000000000,"state":"active","ping":86},{"user_id":844,"name":"supersabir","steam_id":76561198303055397,"connected_time":1022000000000,"state":"active","ping":135},{"user_id":835,"name":"cam","steam_id":76561198073426718,"connected_time":1375000000000,"state":"active","ping":101},{"user_id":806,"name":"substance","steam_id":76561198050103868,"connected_time":3645000000000,"state":"active","ping":104},{"user_id":849,"name":"KATSURB","steam_id":76561199172118456,"connected_time":864000000000,"state":"active","ping":44},{"user_id":848,"name":"Medic!","steam_id":76561198119759695,"connected_time":880000000000,"state":"active","ping":83},{"user_id":852,"name":"mushroom espeon","steam_id":76561198892744090,"connected_time":594000000000,"state":"active","ping":60},{"user_id":814,"name":"Whisk #GOOD GAMER","steam_id":76561198272318229,"connected_time":2865000000000,"state":"active","ping":77},{"user_id":837,"name":"resh","steam_id":76561198066619792,"connected_time":1326000000000,"state":"active","ping":77},{"user_id":815,"name":"cupcup","steam_id":76561198116227192,"connected_time":2822000000000,"state":"active","ping":100},{"user_id":826,"name":"steven","steam_id":76561198173047169,"connected_time":2063000000000,"state":"active","ping":61},{"user_id":855,"name":"broomy","steam_id":76561198066089504,"connected_time":118000000000,"state":"active","ping":42},{"user_id":839,"name":"Cupcake","steam_id":76561198057888197,"connected_time":1250000000000,"state":"active","ping":69},{"user_id":829,"name":"Game Broke No Fix","steam_id":76561198028271650,"connected_time":1602000000000,"state":"active","ping":99},{"user_id":840,"name":"SmugCoffeeMan","steam_id":76561198040765030,"connected_time":1237000000000,"state":"active","ping":39},{"user_id":841,"name":"Malevo","steam_id":76561198148606522,"connected_time":1216000000000,"state":"active","ping":75},{"user_id":822,"name":"yesoko","steam_id":76561198072917024,"connected_time":2277000000000,"state":"active","ping":75},{"user_id":823,"name":"Gay Loogi Gang","steam_id":76561198097031529,"connected_time":2238000000000,"state":"active","ping":80},{"user_id":825,"name":"VOLCANIC BIRD ENEMY","steam_id":76561198366299848,"connected_time":2228000000000,"state":"active","ping":57},{"user_id":842,"name":"Larry Laffer","steam_id":76561198046832069,"connected_time":1165000000000,"state":"active","ping":60},{"user_id":843,"name":"Tobo","steam_id":76561198085846393,"connected_time":1129000000000,"state":"active","ping":75}]},{"server_id":104,"name":"Uncletopia | Atlanta | 2 | All Maps","name_short":"atl-2","host":"atl-1.us.uncletopia.com","port":27025,"enabled":true,"region":"us-east","cc":"us","latitude":33.753746,"longitude":-84.38633,"reserved":0,"last_update":"0001-01-01T00:00:00Z","name_a2s":"Uncletopia | Atlanta | 2 | All Maps","protocol":17,"map":"cp_process_final","folder":"tf","game":"Team Fortress","app_id":440,"player_count":0,"max_players":24,"Bots":0,"server_type":"Dedicated","server_os":"Linux","password":true,"vac":true,"version":"7961495","steam_id":85568392924469983,"keywords":["cp","nocrits","nodmgspread","uncletopia"],"game_id":440,"stv_port":27026,"stv_name":"Uncletopia | Atlanta | 2 | All Maps | STV","players":null},{"server_id":400,"name":"Uncletopia | Atlanta | 3 | Stopwatch","name_short":"atl-3","host":"atl-1.us.uncletopia.com","port":27035,"enabled":true,"region":"us-east","cc":"us","latitude":33.753746,"longitude":-84.38633,"reserved":0,"last_update":"0001-01-01T00:00:00Z","name_a2s":"Uncletopia | Atlanta | 3 | Stopwatch","protocol":17,"map":"workshop/koth_clearcut_b15.ugc2107050255","folder":"tf","game":"Team Fortress","app_id":440,"player_count":0,"max_players":24,"Bots":0,"server_type":"Dedicated","server_os":"Linux","password":true,"vac":true,"version":"7961495","steam_id":85568392924515187,"keywords":["cp","nocrits","nodmgspread","uncletopia"],"game_id":440,"stv_port":27036,"stv_name":"Uncletopia | Atlanta | 3 | Stopwatch | STV","players":null},{"server_id":401,"name":"Uncletopia | Atlanta | 4 | Community","name_short":"atl-4","host":"atl-1.us.uncletopia.com","port":27045,"enabled":true,"region":"us-east","cc":"us","latitude":33.753746,"longitude":-84.38633,"reserved":0,"last_update":"0001-01-01T00:00:00Z","name_a2s":"Uncletopia | Atlanta | 4 | Community","protocol":17,"map":"workshop/cp_caldera_rc3.ugc2834196889","folder":"tf","game":"Team Fortress","app_id":440,"player_count":0,"max_players":24,"Bots":0,"server_type":"Dedicated","server_os":"Linux","password":true,"vac":true,"version":"7961495","steam_id":85568392924515188,"keywords":["cp","nocrits","nodmgspread","uncletopia"],"game_id":440,"stv_port":27046,"stv_name":"Uncletopia | Atlanta | 4 | Community | STV","players":null},{"server_id":2,"name":"Uncletopia | Chicago | 1 | All Maps","name_short":"chi-1","host":"chi-1.us.uncletopia.com","port":27015,"enabled":true,"region":"us-central","cc":"us","latitude":41.881832,"longitude":-87.62318,"reserved":0,"last_update":"0001-01-01T00:00:00Z","name_a2s":"Uncletopia | Chicago | 1 | All Maps","protocol":17,"map":"pl_swiftwater_final1","folder":"tf","game":"Team Fortress","app_id":440,"player_count":24,"max_players":24,"Bots":0,"server_type":"Dedicated","server_os":"Linux","password":true,"vac":true,"version":"7961495","steam_id":85568392924469984,"keywords":["nocrits","nodmgspread","payload","uncletopia"],"game_id":440,"stv_port":27016,"stv_name":"Uncletopia | Chicago | 1 | All Maps | STV","players":[{"user_id":798,"name":"dzcreeper","steam_id":76561198072250723,"connected_time":1233000000000,"state":"active","ping":78},{"user_id":772,"name":"KnightWith_Mug","steam_id":76561198325350546,"connected_time":3125000000000,"state":"active","ping":63},{"user_id":781,"name":"mario is missing!!!","steam_id":76561198028249503,"connected_time":2732000000000,"state":"active","ping":86},{"user_id":787,"name":"Holiday Fartcruise","steam_id":76561198043851584,"connected_time":2360000000000,"state":"active","ping":114},{"user_id":800,"name":"CFFG._PSYCO{ᛏᚺᛖ ᚱᚨᚡ","steam_id":76561197972341731,"connected_time":796000000000,"state":"active","ping":84},{"user_id":796,"name":"-M4NK1ll-","steam_id":76561198181753521,"connected_time":2194000000000,"state":"active","ping":159},{"user_id":783,"name":"Chiefirons","steam_id":76561198057984431,"connected_time":2668000000000,"state":"active","ping":57},{"user_id":780,"name":"Dokkibai","steam_id":76561198355935693,"connected_time":2948000000000,"state":"active","ping":46},{"user_id":801,"name":"uufyfuu","steam_id":76561198142787212,"connected_time":649000000000,"state":"active","ping":75},{"user_id":785,"name":"★TC2","steam_id":76561198026985346,"connected_time":2420000000000,"state":"active","ping":59},{"user_id":768,"name":"Huloon","steam_id":76561198070837568,"connected_time":3517000000000,"state":"active","ping":57},{"user_id":774,"name":"SpeedrunnerNick#SaveTF2","steam_id":76561199251809758,"connected_time":3086000000000,"state":"active","ping":66},{"user_id":802,"name":"mayo","steam_id":76561198046948758,"connected_time":630000000000,"state":"active","ping":59},{"user_id":765,"name":"Scout Cuomo","steam_id":76561198345950408,"connected_time":3658000000000,"state":"active","ping":64},{"user_id":786,"name":"Gay Cake","steam_id":76561198004388831,"connected_time":2371000000000,"state":"active","ping":57},{"user_id":792,"name":"Joseph \"Biden\" Stalin","steam_id":76561198213863907,"connected_time":2349000000000,"state":"active","ping":130},{"user_id":789,"name":"ryler","steam_id":76561198087876394,"connected_time":2357000000000,"state":"active","ping":59},{"user_id":721,"name":"inshallah","steam_id":76561198165212575,"connected_time":7279000000000,"state":"active","ping":67},{"user_id":799,"name":"gatorbelt","steam_id":76561198145784505,"connected_time":982000000000,"state":"active","ping":103},{"user_id":793,"name":"baby trump vs baby joe biden","steam_id":76561198051310816,"connected_time":2347000000000,"state":"active","ping":68},{"user_id":722,"name":"YOU WHAT?!","steam_id":76561198418679471,"connected_time":7253000000000,"state":"active","ping":63},{"user_id":797,"name":"victordead121","steam_id":76561199180843121,"connected_time":1357000000000,"state":"active","ping":105},{"user_id":794,"name":"chill stoner guy w cool stories","steam_id":76561198120973162,"connected_time":2324000000000,"state":"active","ping":76},{"user_id":779,"name":"noise","steam_id":76561198081375875,"connected_time":3008000000000,"state":"active","ping":82}]},{"server_id":106,"name":"Uncletopia | Chicago | 2 | All Maps","name_short":"chi-2","host":"chi-1.us.uncletopia.com","port":27025,"enabled":true,"region":"us-central","cc":"us","latitude":41.881832,"longitude":-87.62318,"reserved":0,"last_update":"0001-01-01T00:00:00Z","name_a2s":"Uncletopia | Chicago | 2 | All Maps","protocol":17,"map":"koth_cascade","folder":"tf","game":"Team Fortress","app_id":440,"player_count":0,"max_players":24,"Bots":0,"server_type":"Dedicated","server_os":"Linux","password":true,"vac":true,"version":"7961495","steam_id":85568392924469985,"keywords":["cp","nocrits","nodmgspread","uncletopia"],"game_id":440,"stv_port":27026,"stv_name":"Uncletopia | Chicago | 2 | All Maps | STV","players":null},{"server_id":402,"name":"Uncletopia | Chicago | 3 | All Maps","name_short":"chi-3","host":"chi-1.us.uncletopia.com","port":27035,"enabled":true,"region":"us-central","cc":"us","latitude":41.881832,"longitude":-87.62318,"reserved":0,"last_update":"0001-01-01T00:00:00Z","name_a2s":"Uncletopia | Chicago | 3 | All Maps","protocol":17,"map":"cp_dustbowl","folder":"tf","game":"Team Fortress","app_id":440,"player_count":24,"max_players":24,"Bots":0,"server_type":"Dedicated","server_os":"Linux","password":true,"vac":true,"version":"7961495","steam_id":85568392924515191,"keywords":["cp","nocrits","nodmgspread","uncletopia"],"game_id":440,"stv_port":27036,"stv_name":"Uncletopia | Chicago | 3 | All Maps | STV","players":[{"user_id":617,"name":"Trundlini","steam_id":76561198810160534,"connected_time":4407000000000,"state":"active","ping":82},{"user_id":654,"name":"BOGDANOFF","steam_id":76561198026516681,"connected_time":2035000000000,"state":"active","ping":90},{"user_id":653,"name":"FartyArmpitNoise","steam_id":76561197961132458,"connected_time":2065000000000,"state":"active","ping":74},{"user_id":652,"name":"A Mysterious Gift","steam_id":76561198077838946,"connected_time":2073000000000,"state":"active","ping":57},{"user_id":651,"name":"Peaches","steam_id":76561198104804424,"connected_time":2129000000000,"state":"active","ping":59},{"user_id":666,"name":"Atheist Andreas","steam_id":76561197963797274,"connected_time":692000000000,"state":"active","ping":135},{"user_id":616,"name":"ZemkJval","steam_id":76561198154464008,"connected_time":4424000000000,"state":"active","ping":73},{"user_id":664,"name":"Kepa","steam_id":76561198091975728,"connected_time":1083000000000,"state":"active","ping":71},{"user_id":579,"name":"The Rumble Fish","steam_id":76561198074493665,"connected_time":5559000000000,"state":"active","ping":45},{"user_id":668,"name":"plutonium","steam_id":76561198319442494,"connected_time":593000000000,"state":"active","ping":94},{"user_id":667,"name":"2fort feboy #187","steam_id":76561199507702496,"connected_time":640000000000,"state":"active","ping":66},{"user_id":663,"name":"Weed Dealer","steam_id":76561198418604400,"connected_time":1537000000000,"state":"active","ping":93},{"user_id":620,"name":"SDK619","steam_id":76561198066699570,"connected_time":4340000000000,"state":"active","ping":74},{"user_id":657,"name":"viedoamges","steam_id":76561198025295263,"connected_time":1923000000000,"state":"active","ping":76},{"user_id":658,"name":"MrPopcornMan","steam_id":76561198227950712,"connected_time":1827000000000,"state":"active","ping":61},{"user_id":659,"name":"Leopardo144","steam_id":76561198342619972,"connected_time":1824000000000,"state":"active","ping":58},{"user_id":637,"name":"kat","steam_id":76561198099191938,"connected_time":3329000000000,"state":"active","ping":39},{"user_id":583,"name":"Pistol Engie Monday","steam_id":76561198409907417,"connected_time":5516000000000,"state":"active","ping":103},{"user_id":660,"name":"ekgooby","steam_id":76561198043678479,"connected_time":1777000000000,"state":"active","ping":49},{"user_id":661,"name":"awak","steam_id":76561198092135570,"connected_time":1769000000000,"state":"active","ping":68},{"user_id":650,"name":"Omni Monky","steam_id":76561198083975292,"connected_time":2374000000000,"state":"active","ping":94},{"user_id":641,"name":"GanbaRuby","steam_id":76561198044252616,"connected_time":3193000000000,"state":"active","ping":114},{"user_id":646,"name":"NeoTenico","steam_id":76561198025938411,"connected_time":2904000000000,"state":"active","ping":59},{"user_id":648,"name":"Creature","steam_id":76561198194585781,"connected_time":2837000000000,"state":"active","ping":94}]},{"server_id":403,"name":"Uncletopia | Chicago | 4 | All Maps","name_short":"chi-4","host":"chi-1.us.uncletopia.com","port":27045,"enabled":true,"region":"us-central","cc":"us","latitude":41.881832,"longitude":-87.62318,"reserved":0,"last_update":"0001-01-01T00:00:00Z","name_a2s":"Uncletopia | Chicago | 4 | All Maps","protocol":17,"map":"cp_snakewater_final1","folder":"tf","game":"Team Fortress","app_id":440,"player_count":0,"max_players":24,"Bots":0,"server_type":"Dedicated","server_os":"Linux","password":true,"vac":true,"version":"7961495","steam_id":85568392924515193,"keywords":["cp","nocrits","nodmgspread","uncletopia"],"game_id":440,"stv_port":27046,"stv_name":"Uncletopia | Chicago | 4 | All Maps | STV","players":null},{"server_id":36,"name":"Uncletopia | Chicago | 5 | All Maps","name_short":"chi-5","host":"chi-2.us.uncletopia.com","port":27015,"enabled":true,"region":"us-central","cc":"us","latitude":41.881832,"longitude":-87.62318,"reserved":0,"last_update":"0001-01-01T00:00:00Z","name_a2s":"Uncletopia | Chicago | 5 | All Maps","protocol":17,"map":"ctf_turbine","folder":"tf","game":"Team Fortress","app_id":440,"player_count":0,"max_players":24,"Bots":0,"server_type":"Dedicated","server_os":"Linux","password":true,"vac":true,"version":"7961495","steam_id":85568392924866362,"keywords":["ctf","nocrits","nodmgspread","uncletopia"],"game_id":440,"stv_port":27016,"stv_name":"Uncletopia | Chicago | 5 | All Maps | STV","players":null},{"server_id":37,"name":"Uncletopia | Chicago | 6 | All Maps","name_short":"chi-6","host":"chi-2.us.uncletopia.com","port":27025,"enabled":true,"region":"us-central","cc":"us","latitude":41.881832,"longitude":-87.62318,"reserved":0,"last_update":"0001-01-01T00:00:00Z","name_a2s":"Uncletopia | Chicago | 6 | All Maps","protocol":17,"map":"koth_suijin","folder":"tf","game":"Team Fortress","app_id":440,"player_count":24,"max_players":24,"Bots":0,"server_type":"Dedicated","server_os":"Linux","password":true,"vac":true,"version":"7961495","steam_id":85568392924866363,"keywords":["cp","nocrits","nodmgspread","uncletopia"],"game_id":440,"stv_port":27026,"stv_name":"Uncletopia | Chicago | 6 | All Maps | STV","players":[{"user_id":612,"name":"rugbyralph288","steam_id":76561198161475964,"connected_time":765000000000,"state":"active","ping":91},{"user_id":614,"name":"impulse 101","steam_id":76561197979204444,"connected_time":474000000000,"state":"active","ping":69},{"user_id":611,"name":"raya","steam_id":76561198051504581,"connected_time":807000000000,"state":"active","ping":68},{"user_id":592,"name":"Joebobio","steam_id":76561198024442760,"connected_time":2060000000000,"state":"active","ping":55},{"user_id":624,"name":"♥ Remzy ♥","steam_id":76561199239412094,"connected_time":144000000000,"state":"active","ping":131},{"user_id":617,"name":"darkvoid","steam_id":76561198094512992,"connected_time":402000000000,"state":"active","ping":46},{"user_id":622,"name":"✧.*i kiss boys✧.*","steam_id":76561198870687570,"connected_time":255000000000,"state":"active","ping":56},{"user_id":595,"name":"Fermenting Kiwi","steam_id":76561198253303497,"connected_time":1958000000000,"state":"active","ping":68},{"user_id":597,"name":"Citizen⁵","steam_id":76561198053856640,"connected_time":1881000000000,"state":"active","ping":60},{"user_id":598,"name":"Crusader's Symphony","steam_id":76561198271654093,"connected_time":1839000000000,"state":"active","ping":55},{"user_id":599,"name":"God's Strongest Warrior","steam_id":76561198823470361,"connected_time":1787000000000,"state":"active","ping":60},{"user_id":583,"name":"LavenderSys","steam_id":76561198289106015,"connected_time":2676000000000,"state":"active","ping":86},{"user_id":585,"name":"Bracey","steam_id":76561199092318246,"connected_time":2645000000000,"state":"active","ping":77},{"user_id":600,"name":"Jfunkey","steam_id":76561198062682283,"connected_time":1735000000000,"state":"active","ping":73},{"user_id":616,"name":"rot","steam_id":76561198049258493,"connected_time":404000000000,"state":"active","ping":135},{"user_id":602,"name":"Satan's Salad","steam_id":76561198043965827,"connected_time":1570000000000,"state":"active","ping":56},{"user_id":537,"name":"ATLS1 | Strange Festive","steam_id":76561198050385093,"connected_time":6678000000000,"state":"active","ping":77},{"user_id":577,"name":"fish","steam_id":76561198054070811,"connected_time":3108000000000,"state":"active","ping":107},{"user_id":550,"name":"C Papi","steam_id":76561198027779564,"connected_time":5508000000000,"state":"active","ping":61},{"user_id":619,"name":"MD","steam_id":76561197976300679,"connected_time":370000000000,"state":"active","ping":81},{"user_id":620,"name":"type \"bad med\" to kick","steam_id":76561198076402476,"connected_time":352000000000,"state":"active","ping":114},{"user_id":604,"name":"Scarecrow","steam_id":76561198045870511,"connected_time":1340000000000,"state":"active","ping":51},{"user_id":605,"name":"Lennu","steam_id":76561198060730154,"connected_time":1321000000000,"state":"active","ping":75},{"user_id":623,"name":"Steak-Pocketer","steam_id":76561198277651410,"connected_time":241000000000,"state":"active","ping":66}]},{"server_id":38,"name":"Uncletopia | Chicago | 7 | Stopwatch","name_short":"chi-7","host":"chi-2.us.uncletopia.com","port":27035,"enabled":true,"region":"us-central","cc":"us","latitude":41.881832,"longitude":-87.62318,"reserved":0,"last_update":"0001-01-01T00:00:00Z","name_a2s":"Uncletopia | Chicago | 7 | Stopwatch","protocol":17,"map":"koth_lakeside_final","folder":"tf","game":"Team Fortress","app_id":440,"player_count":0,"max_players":24,"Bots":0,"server_type":"Dedicated","server_os":"Linux","password":true,"vac":true,"version":"7961495","steam_id":85568392924866364,"keywords":["cp","nocrits","nodmgspread","uncletopia"],"game_id":440,"stv_port":27036,"stv_name":"Uncletopia | Chicago | 7 | Stopwatch | STV","players":null},{"server_id":39,"name":"Uncletopia | Chicago | 8 | Community","name_short":"chi-8","host":"chi-2.us.uncletopia.com","port":27045,"enabled":true,"region":"us-central","cc":"us","latitude":41.881832,"longitude":-87.62318,"reserved":0,"last_update":"0001-01-01T00:00:00Z","name_a2s":"Uncletopia | Chicago | 8 | Community","protocol":17,"map":"workshop/koth_slaughter_rc1.ugc1712845210","folder":"tf","game":"Team Fortress","app_id":440,"player_count":0,"max_players":24,"Bots":0,"server_type":"Dedicated","server_os":"Linux","password":true,"vac":true,"version":"7961495","steam_id":85568392924866365,"keywords":["cp","nocrits","nodmgspread","uncletopia"],"game_id":440,"stv_port":27046,"stv_name":"Uncletopia | Chicago | 8 | Community | STV","players":null},{"server_id":8,"name":"Uncletopia | Dallas | 1 | All Maps","name_short":"dal-1","host":"dal-1.us.uncletopia.com","port":27015,"enabled":true,"region":"us-central","cc":"us","latitude":32.779167,"longitude":-96.80889,"reserved":0,"last_update":"0001-01-01T00:00:00Z","name_a2s":"Uncletopia | Dallas | 1 | All Maps","protocol":17,"map":"pl_borneo","folder":"tf","game":"Team Fortress","app_id":440,"player_count":23,"max_players":24,"Bots":0,"server_type":"Dedicated","server_os":"Linux","password":true,"vac":true,"version":"7961495","steam_id":85568392924469986,"keywords":["nocrits","nodmgspread","payload","uncletopia"],"game_id":440,"stv_port":27016,"stv_name":"Uncletopia | Dallas | 1 | All Maps | STV","players":[{"user_id":595,"name":"tunaa","steam_id":76561198362763159,"connected_time":660000000000,"state":"active","ping":71},{"user_id":593,"name":"Homo Ejectus","steam_id":76561197968701952,"connected_time":976000000000,"state":"active","ping":69},{"user_id":579,"name":"AnthonyPlayz2011.ttv (UNBANNED)","steam_id":76561198246812566,"connected_time":2171000000000,"state":"active","ping":60},{"user_id":596,"name":"Female Gamer","steam_id":76561199366482682,"connected_time":486000000000,"state":"active","ping":102},{"user_id":591,"name":"Spygie","steam_id":76561198218573049,"connected_time":1048000000000,"state":"active","ping":66},{"user_id":607,"name":"Sakio","steam_id":76561198327087049,"connected_time":28000000000,"state":"active","ping":91},{"user_id":598,"name":"Irony is pretty cringy","steam_id":76561198120391460,"connected_time":454000000000,"state":"active","ping":74},{"user_id":557,"name":"roach","steam_id":76561199061380038,"connected_time":4331000000000,"state":"active","ping":63},{"user_id":575,"name":"reis","steam_id":76561199232952016,"connected_time":2954000000000,"state":"active","ping":180},{"user_id":599,"name":"Hauptmann Meade","steam_id":76561198048007962,"connected_time":364000000000,"state":"active","ping":69},{"user_id":583,"name":"thetrustydoughnut","steam_id":76561198353445256,"connected_time":1921000000000,"state":"active","ping":109},{"user_id":572,"name":"krebex","steam_id":76561198004660630,"connected_time":3452000000000,"state":"active","ping":45},{"user_id":600,"name":"exa*✩‧₊˚","steam_id":76561198044511912,"connected_time":343000000000,"state":"active","ping":76},{"user_id":601,"name":"Mr.MemeMaker","steam_id":76561198909088766,"connected_time":307000000000,"state":"active","ping":182},{"user_id":561,"name":"The Lunar Barista","steam_id":76561198180602091,"connected_time":4268000000000,"state":"active","ping":72},{"user_id":605,"name":"joe","steam_id":76561198045781320,"connected_time":236000000000,"state":"active","ping":84},{"user_id":535,"name":"Muselk, but mexican","steam_id":76561199289676387,"connected_time":5553000000000,"state":"active","ping":67},{"user_id":604,"name":"john trevolta","steam_id":76561197998867160,"connected_time":276000000000,"state":"active","ping":109},{"user_id":555,"name":"Jango","steam_id":76561198084589742,"connected_time":4606000000000,"state":"active","ping":78},{"user_id":608,"name":"Pescado Juegos","steam_id":76561198798161131,"connected_time":18000000000,"state":"active","ping":96},{"user_id":541,"name":"tsz","steam_id":76561199246231090,"connected_time":5468000000000,"state":"active","ping":71},{"user_id":574,"name":"lucid","steam_id":76561198799666244,"connected_time":2958000000000,"state":"active","ping":93},{"user_id":566,"name":"plorp","steam_id":76561199488102921,"connected_time":4230000000000,"state":"active","ping":45}]},{"server_id":108,"name":"Uncletopia | Dallas | 2 | All Maps","name_short":"dal-2","host":"dal-1.us.uncletopia.com","port":27025,"enabled":true,"region":"us-central","cc":"us","latitude":32.779167,"longitude":-96.80889,"reserved":0,"last_update":"0001-01-01T00:00:00Z","name_a2s":"Uncletopia | Dallas | 2 | All Maps","protocol":17,"map":"pl_badwater","folder":"tf","game":"Team Fortress","app_id":440,"player_count":22,"max_players":24,"Bots":0,"server_type":"Dedicated","server_os":"Linux","password":true,"vac":true,"version":"7961495","steam_id":85568392924469988,"keywords":["nocrits","nodmgspread","payload","uncletopia"],"game_id":440,"stv_port":27026,"stv_name":"Uncletopia | Dallas | 2 | All Maps | STV","players":[{"user_id":676,"name":"Asanez3","steam_id":76561198037381436,"connected_time":773000000000,"state":"active","ping":89},{"user_id":683,"name":"FeeFiFoFum","steam_id":76561198853551783,"connected_time":468000000000,"state":"active","ping":75},{"user_id":668,"name":"caca sniffer","steam_id":76561199099914725,"connected_time":1551000000000,"state":"active","ping":91},{"user_id":675,"name":"carrot cake","steam_id":76561198055174915,"connected_time":802000000000,"state":"active","ping":87},{"user_id":672,"name":"_Ati","steam_id":76561198339777801,"connected_time":976000000000,"state":"active","ping":71},{"user_id":593,"name":"Skeleton Guts™","steam_id":76561198042212602,"connected_time":6544000000000,"state":"active","ping":59},{"user_id":680,"name":"the BIGGEST fan","steam_id":76561198253710690,"connected_time":561000000000,"state":"active","ping":98},{"user_id":673,"name":"GLG MUTT","steam_id":76561198147785541,"connected_time":952000000000,"state":"active","ping":47},{"user_id":677,"name":"XIV Stick","steam_id":76561198001509374,"connected_time":766000000000,"state":"active","ping":75},{"user_id":678,"name":"Philo","steam_id":76561198061873341,"connected_time":643000000000,"state":"active","ping":75},{"user_id":679,"name":"StiaanSauce","steam_id":76561198091940547,"connected_time":638000000000,"state":"active","ping":69},{"user_id":688,"name":"UnusualOranges","steam_id":76561198414129167,"connected_time":230000000000,"state":"active","ping":66},{"user_id":647,"name":"Liver stealer","steam_id":76561199029954287,"connected_time":3389000000000,"state":"active","ping":130},{"user_id":693,"name":"Killerfish360","steam_id":76561198115029584,"connected_time":139000000000,"state":"active","ping":73},{"user_id":692,"name":"Pilot Boy","steam_id":76561198090857288,"connected_time":190000000000,"state":"active","ping":176},{"user_id":656,"name":"scardthegamer","steam_id":76561199225615142,"connected_time":2416000000000,"state":"active","ping":73},{"user_id":686,"name":"Kenku","steam_id":76561199086762926,"connected_time":339000000000,"state":"active","ping":64},{"user_id":694,"name":"Pizza Party","steam_id":76561198165730754,"connected_time":137000000000,"state":"active","ping":87},{"user_id":697,"name":"Droopy","steam_id":76561198087162645,"connected_time":59000000000,"state":"active","ping":74},{"user_id":696,"name":"Varia Maius","steam_id":76561198249997376,"connected_time":80000000000,"state":"active","ping":84},{"user_id":698,"name":"Trashgaming","steam_id":76561199184268442,"connected_time":10000000000,"state":"spawning","ping":225},{"user_id":664,"name":"Lavender (they/them)","steam_id":76561198135961731,"connected_time":2047000000000,"state":"active","ping":55}]},{"server_id":404,"name":"Uncletopia | Dallas | 3 | All Maps","name_short":"dal-3","host":"dal-1.us.uncletopia.com","port":27035,"enabled":true,"region":"us-central","cc":"us","latitude":32.779167,"longitude":-96.80889,"reserved":0,"last_update":"0001-01-01T00:00:00Z","name_a2s":"Uncletopia | Dallas | 3 | All Maps","protocol":17,"map":"pl_borneo","folder":"tf","game":"Team Fortress","app_id":440,"player_count":0,"max_players":24,"Bots":0,"server_type":"Dedicated","server_os":"Linux","password":true,"vac":true,"version":"7961495","steam_id":85568392924515219,"keywords":["nocrits","nodmgspread","payload","uncletopia"],"game_id":440,"stv_port":27036,"stv_name":"Uncletopia | Dallas | 3 | All Maps | STV","players":null},{"server_id":405,"name":"Uncletopia | Dallas | 4 | Community","name_short":"dal-4","host":"dal-1.us.uncletopia.com","port":27045,"enabled":true,"region":"us-central","cc":"us","latitude":32.779167,"longitude":-96.80889,"reserved":0,"last_update":"0001-01-01T00:00:00Z","name_a2s":"Uncletopia | Dallas | 4 | Community","protocol":17,"map":"workshop/cp_fulgur_rc2a.ugc2068252300","folder":"tf","game":"Team Fortress","app_id":440,"player_count":0,"max_players":24,"Bots":0,"server_type":"Dedicated","server_os":"Linux","password":true,"vac":true,"version":"7961495","steam_id":85568392924515220,"keywords":["cp","nocrits","nodmgspread","uncletopia"],"game_id":440,"stv_port":27046,"stv_name":"Uncletopia | Dallas | 4 | Community | STV","players":null},{"server_id":5,"name":"Uncletopia | Frankfurt | 1 | All Maps","name_short":"frk-1","host":"frk-1.de.uncletopia.com","port":27015,"enabled":true,"region":"eu","cc":"de","latitude":50.110924,"longitude":8.682127,"reserved":0,"last_update":"0001-01-01T00:00:00Z","name_a2s":"Uncletopia | Frankfurt | 1 | All Maps","protocol":17,"map":"pl_frontier_final","folder":"tf","game":"Team Fortress","app_id":440,"player_count":4,"max_players":24,"Bots":0,"server_type":"Dedicated","server_os":"Linux","password":true,"vac":true,"version":"7961495","steam_id":85568392924469989,"keywords":["nocrits","nodmgspread","payload","uncletopia"],"game_id":440,"stv_port":27016,"stv_name":"Uncletopia | Frankfurt | 1 | All Maps | STV","players":[{"user_id":5,"name":"kaigis","steam_id":76561199028415076,"connected_time":1649000000000,"state":"active","ping":74},{"user_id":11,"name":"Rejdory","steam_id":76561198416604100,"connected_time":163000000000,"state":"active","ping":45},{"user_id":9,"name":"ja","steam_id":76561199228540618,"connected_time":947000000000,"state":"active","ping":55},{"user_id":8,"name":"emil8lime","steam_id":76561199322577411,"connected_time":1003000000000,"state":"active","ping":75}]},{"server_id":110,"name":"Uncletopia | Frankfurt | 2 | All Maps","name_short":"frk-2","host":"frk-1.de.uncletopia.com","port":27025,"enabled":true,"region":"eu","cc":"de","latitude":50.110924,"longitude":8.682127,"reserved":0,"last_update":"0001-01-01T00:00:00Z","name_a2s":"Uncletopia | Frankfurt | 2 | All Maps","protocol":17,"map":"plr_hightower","folder":"tf","game":"Team Fortress","app_id":440,"player_count":0,"max_players":24,"Bots":0,"server_type":"Dedicated","server_os":"Linux","password":true,"vac":true,"version":"7961495","steam_id":85568392924469990,"keywords":["nocrits","nodmgspread","payload","uncletopia"],"game_id":440,"stv_port":27026,"stv_name":"Uncletopia | Frankfurt | 2 | All Maps | STV","players":null},{"server_id":308,"name":"Uncletopia | Frankfurt | 3 | All Maps","name_short":"frk-3","host":"frk-1.de.uncletopia.com","port":27035,"enabled":true,"region":"eu","cc":"de","latitude":50.110924,"longitude":8.682127,"reserved":0,"last_update":"0001-01-01T00:00:00Z","name_a2s":"Uncletopia | Frankfurt | 3 | All Maps","protocol":17,"map":"koth_highpass","folder":"tf","game":"Team Fortress","app_id":440,"player_count":0,"max_players":24,"Bots":0,"server_type":"Dedicated","server_os":"Linux","password":true,"vac":true,"version":"7961495","steam_id":85568392924504274,"keywords":["cp","nocrits","nodmgspread","uncletopia"],"game_id":440,"stv_port":27036,"stv_name":"Uncletopia | Frankfurt | 3 | All Maps | STV","players":null},{"server_id":309,"name":"Uncletopia | Frankfurt | 4 | All Maps","name_short":"frk-4","host":"frk-1.de.uncletopia.com","port":27045,"enabled":true,"region":"eu","cc":"de","latitude":50.110924,"longitude":8.682127,"reserved":0,"last_update":"0001-01-01T00:00:00Z","name_a2s":"Uncletopia | Frankfurt | 4 | All Maps","protocol":17,"map":"cp_gorge","folder":"tf","game":"Team Fortress","app_id":440,"player_count":0,"max_players":24,"Bots":0,"server_type":"Dedicated","server_os":"Linux","password":true,"vac":true,"version":"7961495","steam_id":85568392924504275,"keywords":["cp","nocrits","nodmgspread","uncletopia"],"game_id":440,"stv_port":27046,"stv_name":"Uncletopia | Frankfurt | 4 | All Maps | STV","players":null},{"server_id":310,"name":"Uncletopia | Frankfurt | 5 | All Maps","name_short":"frk-5","host":"frk-1.de.uncletopia.com","port":27055,"enabled":true,"region":"eu","cc":"de","latitude":50.110924,"longitude":8.682127,"reserved":0,"last_update":"0001-01-01T00:00:00Z","name_a2s":"Uncletopia | Frankfurt | 5 | All Maps","protocol":17,"map":"cp_mountainlab","folder":"tf","game":"Team Fortress","app_id":440,"player_count":0,"max_players":24,"Bots":0,"server_type":"Dedicated","server_os":"Linux","password":true,"vac":true,"version":"7961495","steam_id":85568392924504277,"keywords":["cp","nocrits","nodmgspread","uncletopia"],"game_id":440,"stv_port":27056,"stv_name":"Uncletopia | Frankfurt | 5 | All Maps | STV","players":null},{"server_id":311,"name":"Uncletopia | Frankfurt | 6 | All Maps","name_short":"frk-6","host":"frk-1.de.uncletopia.com","port":27065,"enabled":true,"region":"eu","cc":"de","latitude":50.110924,"longitude":8.682127,"reserved":0,"last_update":"0001-01-01T00:00:00Z","name_a2s":"Uncletopia | Frankfurt | 6 | All Maps","protocol":17,"map":"cp_coldfront","folder":"tf","game":"Team Fortress","app_id":440,"player_count":0,"max_players":24,"Bots":0,"server_type":"Dedicated","server_os":"Linux","password":true,"vac":true,"version":"7961495","steam_id":85568392924504278,"keywords":["cp","nocrits","nodmgspread","uncletopia"],"game_id":440,"stv_port":27066,"stv_name":"Uncletopia | Frankfurt | 6 | All Maps | STV","players":null},{"server_id":23,"name":"Uncletopia | Frankfurt | 7 | Stopwatch","name_short":"frk-7","host":"frk-1.de.uncletopia.com","port":27075,"enabled":true,"region":"eu","cc":"de","latitude":50.110924,"longitude":8.682127,"reserved":0,"last_update":"0001-01-01T00:00:00Z","name_a2s":"Uncletopia | Frankfurt | 7 | Stopwatch","protocol":17,"map":"cp_sunshine","folder":"tf","game":"Team Fortress","app_id":440,"player_count":0,"max_players":24,"Bots":0,"server_type":"Dedicated","server_os":"Linux","password":true,"vac":true,"version":"7961495","steam_id":85568392924742827,"keywords":["cp","nocrits","nodmgspread","uncletopia"],"game_id":440,"stv_port":27076,"stv_name":"Uncletopia | Frankfurt | 7 | Stopwatch | STV","players":null},{"server_id":24,"name":"Uncletopia | Frankfurt | 8 | Community","name_short":"frk-8","host":"frk-1.de.uncletopia.com","port":27085,"enabled":true,"region":"eu","cc":"de","latitude":50.110924,"longitude":8.682127,"reserved":0,"last_update":"0001-01-01T00:00:00Z","name_a2s":"Uncletopia | Frankfurt | 8 | Community","protocol":17,"map":"workshop/pl_boundary_final1.ugc456799153","folder":"tf","game":"Team Fortress","app_id":440,"player_count":0,"max_players":24,"Bots":0,"server_type":"Dedicated","server_os":"Linux","password":true,"vac":true,"version":"7961495","steam_id":85568392924742828,"keywords":["nocrits","nodmgspread","payload","uncletopia"],"game_id":440,"stv_port":27086,"stv_name":"Uncletopia | Frankfurt | 8 | Community | STV","players":null},{"server_id":202,"name":"Uncletopia | Hong Kong | 1 | All Maps","name_short":"hgk-1","host":"hgk-1.hk.uncletopia.com","port":27015,"enabled":true,"region":"asia","cc":"hk","latitude":22.302711,"longitude":114.177216,"reserved":0,"last_update":"0001-01-01T00:00:00Z","name_a2s":"Uncletopia | Hong Kong | 1 | All Maps","protocol":17,"map":"pl_barnblitz","folder":"tf","game":"Team Fortress","app_id":440,"player_count":24,"max_players":24,"Bots":0,"server_type":"Dedicated","server_os":"Linux","password":true,"vac":true,"version":"7961495","steam_id":85568392924494504,"keywords":["nocrits","nodmgspread","payload","uncletopia"],"game_id":440,"stv_port":27016,"stv_name":"Uncletopia | Hong Kong | 1 | All Maps | STV","players":[{"user_id":123,"name":"ricky","steam_id":76561199030081320,"connected_time":439000000000,"state":"active","ping":105},{"user_id":107,"name":"ryder","steam_id":76561198797699056,"connected_time":1897000000000,"state":"active","ping":102},{"user_id":110,"name":"Drutzhfer","steam_id":76561198299948446,"connected_time":1854000000000,"state":"active","ping":104},{"user_id":81,"name":"water tastes good","steam_id":76561199375947670,"connected_time":4502000000000,"state":"active","ping":72},{"user_id":111,"name":"Pillboi","steam_id":76561198011172886,"connected_time":1819000000000,"state":"active","ping":39},{"user_id":113,"name":"Dokutah, Husband of W","steam_id":76561199273390091,"connected_time":1517000000000,"state":"active","ping":72},{"user_id":92,"name":"ArcticDolphin","steam_id":76561198203626319,"connected_time":2372000000000,"state":"active","ping":150},{"user_id":102,"name":"Corbezy","steam_id":76561197993398349,"connected_time":2089000000000,"state":"active","ping":100},{"user_id":71,"name":"tiden2000","steam_id":76561198092969425,"connected_time":5943000000000,"state":"active","ping":113},{"user_id":93,"name":"BAzooKA","steam_id":76561198061628689,"connected_time":2362000000000,"state":"active","ping":58},{"user_id":116,"name":"Exclamator","steam_id":76561199065048552,"connected_time":889000000000,"state":"active","ping":164},{"user_id":68,"name":"Lunacia","steam_id":76561198429887240,"connected_time":6702000000000,"state":"active","ping":80},{"user_id":55,"name":"Jun-char","steam_id":76561198126774704,"connected_time":7258000000000,"state":"active","ping":83},{"user_id":82,"name":"a windy musian","steam_id":76561198152588681,"connected_time":4480000000000,"state":"active","ping":83},{"user_id":101,"name":"american teach you how to invad","steam_id":76561199080484744,"connected_time":2258000000000,"state":"active","ping":57},{"user_id":115,"name":"churropan","steam_id":76561199258385450,"connected_time":1378000000000,"state":"active","ping":95},{"user_id":80,"name":"vintage","steam_id":76561198230213828,"connected_time":4520000000000,"state":"active","ping":66},{"user_id":112,"name":"screaming sniper","steam_id":76561199085568674,"connected_time":1584000000000,"state":"active","ping":73},{"user_id":105,"name":"weifuong23","steam_id":76561199494717598,"connected_time":2042000000000,"state":"active","ping":91},{"user_id":108,"name":"Aprikotgecko782","steam_id":76561199133810265,"connected_time":1889000000000,"state":"active","ping":153},{"user_id":91,"name":"brizzard","steam_id":76561198048438653,"connected_time":2481000000000,"state":"active","ping":40},{"user_id":122,"name":"Nerdy Virgin","steam_id":76561198039478798,"connected_time":448000000000,"state":"active","ping":86},{"user_id":87,"name":"Haru","steam_id":76561198240627872,"connected_time":3488000000000,"state":"active","ping":48},{"user_id":125,"name":"bad at everything(f2p)","steam_id":76561199378524169,"connected_time":181000000000,"state":"active","ping":166}]},{"server_id":1,"name":"Uncletopia | Los Angeles | 1 | All Maps","name_short":"lax-1","host":"lax-1.us.uncletopia.com","port":27015,"enabled":true,"region":"us-west","cc":"us","latitude":33.94279,"longitude":-118.41004,"reserved":0,"last_update":"0001-01-01T00:00:00Z","name_a2s":"Uncletopia | Los Angeles | 1 | All Maps","protocol":17,"map":"pl_frontier_final","folder":"tf","game":"Team Fortress","app_id":440,"player_count":0,"max_players":24,"Bots":0,"server_type":"Dedicated","server_os":"Linux","password":true,"vac":true,"version":"7961495","steam_id":85568392924469991,"keywords":["nocrits","nodmgspread","payload","uncletopia"],"game_id":440,"stv_port":27016,"stv_name":"Uncletopia | Los Angeles | 1 | All Maps | STV","players":null},{"server_id":112,"name":"Uncletopia | Los Angeles | 2 | All Maps","name_short":"lax-2","host":"lax-1.us.uncletopia.com","port":27025,"enabled":true,"region":"us-west","cc":"us","latitude":33.94279,"longitude":-118.41004,"reserved":0,"last_update":"0001-01-01T00:00:00Z","name_a2s":"Uncletopia | Los Angeles | 2 | All Maps","protocol":17,"map":"pl_pier","folder":"tf","game":"Team Fortress","app_id":440,"player_count":15,"max_players":24,"Bots":0,"server_type":"Dedicated","server_os":"Linux","password":true,"vac":true,"version":"7961495","steam_id":85568392924469992,"keywords":["nocrits","nodmgspread","payload","uncletopia"],"game_id":440,"stv_port":27026,"stv_name":"Uncletopia | Los Angeles | 2 | All Maps | STV","players":[{"user_id":192,"name":"くコ:彡","steam_id":76561199200969139,"connected_time":225000000000,"state":"active","ping":115},{"user_id":193,"name":"water","steam_id":76561198840480090,"connected_time":130000000000,"state":"active","ping":68},{"user_id":157,"name":"shitass | troutsupply.net","steam_id":76561198210572481,"connected_time":3815000000000,"state":"active","ping":87},{"user_id":194,"name":"herbgrace","steam_id":76561198063324735,"connected_time":130000000000,"state":"active","ping":60},{"user_id":93,"name":"HAT-WEARING™ Maggot Gamer Cat","steam_id":76561197973992705,"connected_time":8152000000000,"state":"active","ping":53},{"user_id":195,"name":"theDarkest25","steam_id":76561198272014244,"connected_time":123000000000,"state":"active","ping":82},{"user_id":182,"name":"sola venereum","steam_id":76561198368179166,"connected_time":1692000000000,"state":"active","ping":54},{"user_id":196,"name":"Monkeybrain32","steam_id":76561198809004484,"connected_time":122000000000,"state":"active","ping":75},{"user_id":25,"name":"lol","steam_id":76561198026491738,"connected_time":10880000000000,"state":"active","ping":69},{"user_id":148,"name":"Antzen","steam_id":76561198041343470,"connected_time":4423000000000,"state":"active","ping":64},{"user_id":27,"name":"Humble Learner","steam_id":76561198066091050,"connected_time":10864000000000,"state":"active","ping":84},{"user_id":108,"name":"Rustys_Revenge","steam_id":76561198269414024,"connected_time":6863000000000,"state":"active","ping":50},{"user_id":183,"name":"adapt","steam_id":76561198156181017,"connected_time":1428000000000,"state":"active","ping":46},{"user_id":188,"name":"no vc no c","steam_id":76561197989503095,"connected_time":1123000000000,"state":"active","ping":158},{"user_id":142,"name":"fitotutus","steam_id":76561197974993253,"connected_time":4922000000000,"state":"active","ping":171}]},{"server_id":324,"name":"Uncletopia | Los Angeles | 3 | All Maps","name_short":"lax-3","host":"lax-1.us.uncletopia.com","port":27035,"enabled":true,"region":"us-west","cc":"us","latitude":33.94279,"longitude":-118.41004,"reserved":0,"last_update":"0001-01-01T00:00:00Z","name_a2s":"Uncletopia | Los Angeles | 3 | All Maps","protocol":17,"map":"koth_lakeside_final","folder":"tf","game":"Team Fortress","app_id":440,"player_count":0,"max_players":24,"Bots":0,"server_type":"Dedicated","server_os":"Linux","password":true,"vac":true,"version":"7961495","steam_id":85568392924510198,"keywords":["cp","nocrits","nodmgspread","uncletopia"],"game_id":440,"stv_port":27036,"stv_name":"Uncletopia | Los Angeles | 3 | All Maps | STV","players":null},{"server_id":25,"name":"Uncletopia | Los Angeles | 4 | Stopwatch","name_short":"lax-4","host":"lax-1.us.uncletopia.com","port":27045,"enabled":true,"region":"us-west","cc":"us","latitude":33.94279,"longitude":-118.41004,"reserved":0,"last_update":"0001-01-01T00:00:00Z","name_a2s":"Uncletopia | Los Angeles | 4 | Stopwatch","protocol":17,"map":"koth_lakeside_final","folder":"tf","game":"Team Fortress","app_id":440,"player_count":0,"max_players":24,"Bots":0,"server_type":"Dedicated","server_os":"Linux","password":true,"vac":true,"version":"7961495","steam_id":85568392924510199,"keywords":["cp","nocrits","nodmgspread","uncletopia"],"game_id":440,"stv_port":27046,"stv_name":"Uncletopia | Los Angeles | 4 | Stopwatch | STV","players":null},{"server_id":11,"name":"Uncletopia | London | 1 | All Maps","name_short":"lon-1","host":"lon-1.uk.uncletopia.com","port":27015,"enabled":true,"region":"eu","cc":"gb","latitude":51.509865,"longitude":-0.118092,"reserved":0,"last_update":"0001-01-01T00:00:00Z","name_a2s":"Uncletopia | London | 1 | All Maps","protocol":17,"map":"koth_viaduct","folder":"tf","game":"Team Fortress","app_id":440,"player_count":0,"max_players":24,"Bots":0,"server_type":"Dedicated","server_os":"Linux","password":true,"vac":true,"version":"7961495","steam_id":85568392924367362,"keywords":["cp","nocrits","nodmgspread","uncletopia"],"game_id":440,"stv_port":27016,"stv_name":"Uncletopia | London | 1 | All Maps | STV","players":null},{"server_id":114,"name":"Uncletopia | London | 2 | All Maps","name_short":"lon-2","host":"lon-1.uk.uncletopia.com","port":27025,"enabled":true,"region":"eu","cc":"gb","latitude":51.509865,"longitude":-0.118092,"reserved":0,"last_update":"0001-01-01T00:00:00Z","name_a2s":"Uncletopia | London | 2 | All Maps","protocol":17,"map":"pl_snowycoast","folder":"tf","game":"Team Fortress","app_id":440,"player_count":0,"max_players":24,"Bots":0,"server_type":"Dedicated","server_os":"Linux","password":true,"vac":true,"version":"7961495","steam_id":85568392924470941,"keywords":["nocrits","nodmgspread","payload","uncletopia"],"game_id":440,"stv_port":27026,"stv_name":"Uncletopia | London | 2 | All Maps | STV","players":null},{"server_id":320,"name":"Uncletopia | London | 3 | All Maps","name_short":"lon-3","host":"lon-1.uk.uncletopia.com","port":27035,"enabled":true,"region":"eu","cc":"gb","latitude":51.509865,"longitude":-0.118092,"reserved":0,"last_update":"0001-01-01T00:00:00Z","name_a2s":"Uncletopia | London | 3 | All Maps","protocol":17,"map":"koth_lakeside_final","folder":"tf","game":"Team Fortress","app_id":440,"player_count":0,"max_players":24,"Bots":0,"server_type":"Dedicated","server_os":"Linux","password":true,"vac":true,"version":"7961495","steam_id":85568392924510192,"keywords":["cp","nocrits","nodmgspread","uncletopia"],"game_id":440,"stv_port":27036,"stv_name":"Uncletopia | London | 3 | All Maps | STV","players":null},{"server_id":321,"name":"Uncletopia | London | 4 | All Maps","name_short":"lon-4","host":"lon-1.uk.uncletopia.com","port":27045,"enabled":true,"region":"eu","cc":"gb","latitude":51.509865,"longitude":-0.118092,"reserved":0,"last_update":"0001-01-01T00:00:00Z","name_a2s":"Uncletopia | London | 4 | All Maps","protocol":17,"map":"pl_upward","folder":"tf","game":"Team Fortress","app_id":440,"player_count":24,"max_players":24,"Bots":0,"server_type":"Dedicated","server_os":"Linux","password":true,"vac":true,"version":"7961495","steam_id":85568392924510193,"keywords":["nocrits","nodmgspread","payload","uncletopia"],"game_id":440,"stv_port":27046,"stv_name":"Uncletopia | London | 4 | All Maps | STV","players":[{"user_id":34,"name":"Tamamo","steam_id":76561198116789623,"connected_time":1227000000000,"state":"active","ping":30},{"user_id":27,"name":"goofster","steam_id":76561199052275857,"connected_time":1702000000000,"state":"active","ping":111},{"user_id":16,"name":"Pico","steam_id":76561198063552545,"connected_time":2560000000000,"state":"active","ping":93},{"user_id":35,"name":"Kiwi","steam_id":76561198825965947,"connected_time":1161000000000,"state":"active","ping":39},{"user_id":36,"name":"Sir Cauterize","steam_id":76561198047079422,"connected_time":1159000000000,"state":"active","ping":42},{"user_id":30,"name":"charsarg","steam_id":76561199087874544,"connected_time":1598000000000,"state":"active","ping":32},{"user_id":10,"name":"BlueBlueFox","steam_id":76561198053817230,"connected_time":3611000000000,"state":"active","ping":81},{"user_id":11,"name":"pulsar","steam_id":76561198842123868,"connected_time":3594000000000,"state":"active","ping":104},{"user_id":42,"name":"Lewylow","steam_id":76561198005425686,"connected_time":932000000000,"state":"active","ping":46},{"user_id":46,"name":"Sim","steam_id":76561198086641180,"connected_time":514000000000,"state":"active","ping":68},{"user_id":18,"name":"insanitY","steam_id":76561198055666742,"connected_time":2290000000000,"state":"active","ping":103},{"user_id":19,"name":"Cencut","steam_id":76561198989449047,"connected_time":2280000000000,"state":"active","ping":125},{"user_id":20,"name":"Vidrox","steam_id":76561199217854983,"connected_time":2255000000000,"state":"active","ping":89},{"user_id":21,"name":"overpromising, underdelivering","steam_id":76561198980644010,"connected_time":2175000000000,"state":"active","ping":91},{"user_id":38,"name":"HoneyBe_","steam_id":76561198288930154,"connected_time":1095000000000,"state":"active","ping":59},{"user_id":24,"name":"Nice Shot","steam_id":76561198267313008,"connected_time":1859000000000,"state":"active","ping":90},{"user_id":48,"name":"Paste","steam_id":76561198139275322,"connected_time":173000000000,"state":"active","ping":82},{"user_id":32,"name":"QuestionMark","steam_id":76561198976108019,"connected_time":1537000000000,"state":"active","ping":146},{"user_id":39,"name":"Vlad","steam_id":76561198048605526,"connected_time":982000000000,"state":"active","ping":77},{"user_id":43,"name":"Edsuedi","steam_id":76561198074722832,"connected_time":644000000000,"state":"active","ping":62},{"user_id":41,"name":"sleep addict","steam_id":76561198100694096,"connected_time":952000000000,"state":"active","ping":170},{"user_id":49,"name":"mohemmedmokhter2005","steam_id":76561199197650506,"connected_time":56000000000,"state":"active","ping":128},{"user_id":45,"name":"$t@lker_Tim","steam_id":76561198963658042,"connected_time":600000000000,"state":"active","ping":105}]},{"server_id":21,"name":"Uncletopia | London | 5 | All Maps","name_short":"lon-5","host":"lon-1.uk.uncletopia.com","port":27055,"enabled":true,"region":"eu","cc":"gb","latitude":51.509865,"longitude":-0.118092,"reserved":0,"last_update":"0001-01-01T00:00:00Z","name_a2s":"Uncletopia | London | 5 | All Maps","protocol":17,"map":"koth_lazarus","folder":"tf","game":"Team Fortress","app_id":440,"player_count":2,"max_players":24,"Bots":0,"server_type":"Dedicated","server_os":"Linux","password":true,"vac":true,"version":"7961495","steam_id":85568392924742829,"keywords":["cp","nocrits","nodmgspread","uncletopia"],"game_id":440,"stv_port":27056,"stv_name":"Uncletopia | London | 5 | All Maps | STV","players":[{"user_id":3,"name":"The worst TF2 player(Real)","steam_id":76561199184873889,"connected_time":284000000000,"state":"active","ping":47},{"user_id":4,"name":"Rummin","steam_id":76561198064739834,"connected_time":97000000000,"state":"active","ping":43}]},{"server_id":22,"name":"Uncletopia | London | 6 | All Maps","name_short":"lon-6","host":"lon-1.uk.uncletopia.com","port":27065,"enabled":true,"region":"eu","cc":"gb","latitude":51.509865,"longitude":-0.118092,"reserved":0,"last_update":"0001-01-01T00:00:00Z","name_a2s":"Uncletopia | London | 6 | All Maps","protocol":17,"map":"cp_snakewater_final1","folder":"tf","game":"Team Fortress","app_id":440,"player_count":0,"max_players":24,"Bots":0,"server_type":"Dedicated","server_os":"Linux","password":true,"vac":true,"version":"7961495","steam_id":85568392924742830,"keywords":["cp","nocrits","nodmgspread","uncletopia"],"game_id":440,"stv_port":27066,"stv_name":"Uncletopia | London | 6 | All Maps | STV","players":null},{"server_id":40,"name":"Uncletopia | London | 7 | Stopwatch","name_short":"lon-7","host":"lon-1.uk.uncletopia.com","port":27075,"enabled":true,"region":"eu","cc":"gb","latitude":51.509865,"longitude":-0.118092,"reserved":0,"last_update":"0001-01-01T00:00:00Z","name_a2s":"Uncletopia | London | 7 | Stopwatch","protocol":17,"map":"workshop/pl_badwater_pro_v12.ugc2142942074","folder":"tf","game":"Team Fortress","app_id":440,"player_count":0,"max_players":24,"Bots":0,"server_type":"Dedicated","server_os":"Linux","password":true,"vac":true,"version":"7961495","steam_id":85568392924964314,"keywords":["nocrits","nodmgspread","payload","uncletopia"],"game_id":440,"stv_port":27076,"stv_name":"Uncletopia | London | 7 | Stopwatch | STV","players":null},{"server_id":41,"name":"Uncletopia | London | 8 | Community","name_short":"lon-8","host":"lon-1.uk.uncletopia.com","port":27085,"enabled":true,"region":"eu","cc":"gb","latitude":51.509865,"longitude":-0.118092,"reserved":0,"last_update":"0001-01-01T00:00:00Z","name_a2s":"Uncletopia | London | 8 | Community","protocol":17,"map":"workshop/cp_villa_b19.ugc2113052569","folder":"tf","game":"Team Fortress","app_id":440,"player_count":0,"max_players":24,"Bots":0,"server_type":"Dedicated","server_os":"Linux","password":true,"vac":true,"version":"7961495","steam_id":85568392924964315,"keywords":["cp","nocrits","nodmgspread","uncletopia"],"game_id":440,"stv_port":27086,"stv_name":"Uncletopia | London | 8 | Community | STV","players":null},{"server_id":300,"name":"Uncletopia | Montréal | 1 | One Thousand Uncles","name_short":"mtl-1","host":"mtl-1.ca.uncletopia.com","port":27015,"enabled":true,"region":"us-east","cc":"ca","latitude":45.50889,"longitude":-73.56167,"reserved":0,"last_update":"0001-01-01T00:00:00Z","name_a2s":"Uncletopia | Montréal | 1 | One Thousand Uncles","protocol":17,"map":"pl_pier","folder":"tf","game":"Team Fortress","app_id":440,"player_count":0,"max_players":32,"Bots":0,"server_type":"Dedicated","server_os":"Linux","password":true,"vac":true,"version":"7961495","steam_id":85568392924500087,"keywords":["alltalk","danepve","increased_maxplayers","norespawntime","payload","uncletopia"],"game_id":440,"stv_port":0,"stv_name":"","players":null},{"server_id":301,"name":"Uncletopia | Montréal | 2 | One Thousand Uncles","name_short":"mtl-2","host":"mtl-1.ca.uncletopia.com","port":27025,"enabled":true,"region":"us-east","cc":"ca","latitude":45.50889,"longitude":-73.56167,"reserved":0,"last_update":"0001-01-01T00:00:00Z","name_a2s":"Uncletopia | Montréal | 2 | One Thousand Uncles","protocol":17,"map":"pl_chilly","folder":"tf","game":"Team Fortress","app_id":440,"player_count":0,"max_players":32,"Bots":0,"server_type":"Dedicated","server_os":"Linux","password":true,"vac":true,"version":"7961495","steam_id":85568392924500088,"keywords":["alltalk","danepve","increased_maxplayers","norespawntime","payload","uncletopia"],"game_id":440,"stv_port":0,"stv_name":"","players":null},{"server_id":302,"name":"Uncletopia | Montréal | 3 | One Thousand Uncles","name_short":"mtl-3","host":"mtl-1.ca.uncletopia.com","port":27035,"enabled":true,"region":"us-east","cc":"ca","latitude":45.50889,"longitude":-73.56167,"reserved":0,"last_update":"0001-01-01T00:00:00Z","name_a2s":"Uncletopia | Montréal | 3 | One Thousand Uncles","protocol":17,"map":"pl_goldrush","folder":"tf","game":"Team Fortress","app_id":440,"player_count":19,"max_players":32,"Bots":16,"server_type":"Dedicated","server_os":"Linux","password":true,"vac":true,"version":"7961495","steam_id":85568392924500089,"keywords":["alltalk","bots","danepve","increased_maxplayers","norespawntime","payload","uncletopia"],"game_id":440,"stv_port":0,"stv_name":"","players":[{"user_id":363,"name":"BoldlyGoingNowhere","steam_id":76561198092745312,"connected_time":1084000000000,"state":"active","ping":125},{"user_id":343,"name":"only a spoonful","steam_id":76561198113180616,"connected_time":7084000000000,"state":"active","ping":50},{"user_id":349,"name":"Erebus","steam_id":76561199061956673,"connected_time":5784000000000,"state":"active","ping":41}]},{"server_id":13,"name":"Uncletopia | New York City | 1 | All Maps","name_short":"nyc-1","host":"nyc-1.us.uncletopia.com","port":27015,"enabled":true,"region":"us-east","cc":"us","latitude":40.73061,"longitude":-73.93524,"reserved":0,"last_update":"0001-01-01T00:00:00Z","name_a2s":"Uncletopia | New York City | 1 | All Maps","protocol":17,"map":"pl_snowycoast","folder":"tf","game":"Team Fortress","app_id":440,"player_count":24,"max_players":24,"Bots":0,"server_type":"Dedicated","server_os":"Linux","password":true,"vac":true,"version":"7961495","steam_id":85568392924469993,"keywords":["nocrits","nodmgspread","payload","uncletopia"],"game_id":440,"stv_port":27016,"stv_name":"Uncletopia | New York City | 1 | All Maps | STV","players":[{"user_id":963,"name":"phantom","steam_id":76561197963860777,"connected_time":4026000000000,"state":"active","ping":58},{"user_id":1009,"name":"BeLL","steam_id":76561198151932192,"connected_time":292000000000,"state":"active","ping":137},{"user_id":1008,"name":"SHAUN!!!","steam_id":76561199234905923,"connected_time":555000000000,"state":"active","ping":99},{"user_id":1002,"name":"mdharsy","steam_id":76561198065831053,"connected_time":1066000000000,"state":"active","ping":93},{"user_id":929,"name":"N00SE","steam_id":76561198211473307,"connected_time":6224000000000,"state":"active","ping":73},{"user_id":984,"name":"Ignalis","steam_id":76561198025662927,"connected_time":2490000000000,"state":"active","ping":52},{"user_id":1000,"name":"oppenheimer style","steam_id":76561198026664629,"connected_time":1571000000000,"state":"active","ping":54},{"user_id":942,"name":"Jermaphobe","steam_id":76561198121831789,"connected_time":5073000000000,"state":"active","ping":54},{"user_id":1003,"name":"cumgoblin","steam_id":76561198113270138,"connected_time":1003000000000,"state":"active","ping":77},{"user_id":1010,"name":"Verathragna","steam_id":76561198067215453,"connected_time":168000000000,"state":"active","ping":47},{"user_id":1005,"name":"werecat","steam_id":76561198005091213,"connected_time":917000000000,"state":"active","ping":46},{"user_id":989,"name":"He rolls his own","steam_id":76561198058162684,"connected_time":1898000000000,"state":"active","ping":53},{"user_id":947,"name":"Pluto","steam_id":76561198012630802,"connected_time":4698000000000,"state":"active","ping":111},{"user_id":952,"name":"Zeodexic","steam_id":76561198055636655,"connected_time":4415000000000,"state":"active","ping":61},{"user_id":1006,"name":"TheCokeCrusader","steam_id":76561199290636241,"connected_time":913000000000,"state":"active","ping":75},{"user_id":1011,"name":"LEPTON","steam_id":76561198160251713,"connected_time":155000000000,"state":"active","ping":135},{"user_id":910,"name":"Veridian","steam_id":76561198096334078,"connected_time":6820000000000,"state":"active","ping":59},{"user_id":979,"name":"Fish Fisherman","steam_id":76561198018656022,"connected_time":3273000000000,"state":"active","ping":60},{"user_id":1013,"name":"Grandma","steam_id":76561198040831169,"connected_time":77000000000,"state":"active","ping":94},{"user_id":990,"name":"John Fortnite","steam_id":76561198076608253,"connected_time":1714000000000,"state":"active","ping":45},{"user_id":981,"name":"Captain Emerald The Changeling","steam_id":76561198320651177,"connected_time":2935000000000,"state":"active","ping":60},{"user_id":946,"name":"captainspatklz","steam_id":76561198432167270,"connected_time":4792000000000,"state":"active","ping":68},{"user_id":980,"name":"Pomegranate88","steam_id":76561198056385456,"connected_time":3112000000000,"state":"active","ping":62},{"user_id":1001,"name":"monsterkill4567","steam_id":76561198272986367,"connected_time":1571000000000,"state":"active","ping":109}]},{"server_id":14,"name":"Uncletopia | New York City | 2 | All Maps","name_short":"nyc-2","host":"nyc-1.us.uncletopia.com","port":27025,"enabled":true,"region":"us-east","cc":"us","latitude":40.73061,"longitude":-73.93524,"reserved":0,"last_update":"0001-01-01T00:00:00Z","name_a2s":"Uncletopia | New York City | 2 | All Maps","protocol":17,"map":"cp_altitude","folder":"tf","game":"Team Fortress","app_id":440,"player_count":0,"max_players":24,"Bots":0,"server_type":"Dedicated","server_os":"Linux","password":true,"vac":true,"version":"7961495","steam_id":85568392924469994,"keywords":["cp","nocrits","nodmgspread","uncletopia"],"game_id":440,"stv_port":27026,"stv_name":"Uncletopia | New York City | 2 | All Maps | STV","players":null},{"server_id":15,"name":"Uncletopia | New York City | 3 | Stopwatch","name_short":"nyc-3","host":"nyc-1.us.uncletopia.com","port":27035,"enabled":true,"region":"us-east","cc":"us","latitude":40.73061,"longitude":-73.93524,"reserved":0,"last_update":"0001-01-01T00:00:00Z","name_a2s":"Uncletopia | New York City | 3 | Stopwatch","protocol":17,"map":"workshop/koth_bagel_rc6.ugc2514036946","folder":"tf","game":"Team Fortress","app_id":440,"player_count":0,"max_players":24,"Bots":0,"server_type":"Dedicated","server_os":"Linux","password":true,"vac":true,"version":"7961495","steam_id":85568392924742820,"keywords":["cp","nocrits","nodmgspread","uncletopia"],"game_id":440,"stv_port":27036,"stv_name":"Uncletopia | New York City | 3 | Stopwatch | STV","players":null},{"server_id":16,"name":"Uncletopia | New York City | 4 | Community","name_short":"nyc-4","host":"nyc-1.us.uncletopia.com","port":27045,"enabled":true,"region":"us-east","cc":"us","latitude":40.73061,"longitude":-73.93524,"reserved":0,"last_update":"0001-01-01T00:00:00Z","name_a2s":"Uncletopia | New York City | 4 | Community","protocol":17,"map":"workshop/cp_villa_b19.ugc2113052569","folder":"tf","game":"Team Fortress","app_id":440,"player_count":0,"max_players":24,"Bots":0,"server_type":"Dedicated","server_os":"Linux","password":true,"vac":true,"version":"7961495","steam_id":85568392924742821,"keywords":["cp","nocrits","nodmgspread","uncletopia"],"game_id":440,"stv_port":27046,"stv_name":"Uncletopia | New York City | 4 | Community | STV","players":null},{"server_id":142,"name":"Uncletopia | São Paulo | 1 | All Maps","name_short":"sao-1","host":"sao-1.br.uncletopia.com","port":27015,"enabled":true,"region":"sa","cc":"br","latitude":-23.533773,"longitude":-46.62529,"reserved":0,"last_update":"0001-01-01T00:00:00Z","name_a2s":"Uncletopia | São Paulo | 1 | All Maps","protocol":17,"map":"koth_lakeside_final","folder":"tf","game":"Team Fortress","app_id":440,"player_count":0,"max_players":24,"Bots":0,"server_type":"Dedicated","server_os":"Linux","password":true,"vac":true,"version":"7961495","steam_id":85568392924469996,"keywords":["cp","nocrits","nodmgspread","uncletopia"],"game_id":440,"stv_port":27016,"stv_name":"Uncletopia | São Paulo | 1 | All Maps | STV","players":null},{"server_id":143,"name":"Uncletopia | São Paulo | 2 | Community","name_short":"sao-2","host":"sao-2.br.uncletopia.com","port":27015,"enabled":true,"region":"sa","cc":"br","latitude":-23.533773,"longitude":-46.62529,"reserved":0,"last_update":"0001-01-01T00:00:00Z","name_a2s":"Uncletopia | São Paulo | 2 | Community","protocol":17,"map":"workshop/koth_synthetic_rc6a.ugc1549817316","folder":"tf","game":"Team Fortress","app_id":440,"player_count":0,"max_players":24,"Bots":0,"server_type":"Dedicated","server_os":"Linux","password":true,"vac":true,"version":"7961495","steam_id":85568392924485349,"keywords":["cp","nocrits","nodmgspread","uncletopia"],"game_id":440,"stv_port":27016,"stv_name":"Uncletopia | São Paulo | 2 | Community | STV","players":null},{"server_id":7,"name":"Uncletopia | Seattle | 1 | All Maps","name_short":"sea-1","host":"sea-1.us.uncletopia.com","port":27015,"enabled":true,"region":"us-west","cc":"us","latitude":47.608013,"longitude":-122.33517,"reserved":0,"last_update":"0001-01-01T00:00:00Z","name_a2s":"Uncletopia | Seattle | 1 | All Maps","protocol":17,"map":"pl_upward","folder":"tf","game":"Team Fortress","app_id":440,"player_count":24,"max_players":24,"Bots":0,"server_type":"Dedicated","server_os":"Linux","password":true,"vac":true,"version":"7961495","steam_id":85568392924469997,"keywords":["nocrits","nodmgspread","payload","uncletopia"],"game_id":440,"stv_port":27016,"stv_name":"Uncletopia | Seattle | 1 | All Maps | STV","players":[{"user_id":679,"name":"dirge (MALLION)","steam_id":76561198125539384,"connected_time":849000000000,"state":"active","ping":103},{"user_id":624,"name":"Arsonist Goose","steam_id":76561198147441830,"connected_time":7647000000000,"state":"active","ping":73},{"user_id":690,"name":"wugmup","steam_id":76561199096287734,"connected_time":63000000000,"state":"active","ping":75},{"user_id":660,"name":"cowboy","steam_id":76561198266320078,"connected_time":3207000000000,"state":"active","ping":98},{"user_id":605,"name":"WaffleWithNoToppings","steam_id":76561199088280111,"connected_time":9374000000000,"state":"active","ping":45},{"user_id":637,"name":"Ayayayayayayayayayayayayahuasca","steam_id":76561199002906056,"connected_time":6255000000000,"state":"active","ping":49},{"user_id":593,"name":"tmm (theManMan)","steam_id":76561199488457138,"connected_time":11303000000000,"state":"active","ping":55},{"user_id":681,"name":"SkadooshPlayz","steam_id":76561198310986662,"connected_time":819000000000,"state":"active","ping":77},{"user_id":574,"name":"soup","steam_id":76561198043209046,"connected_time":13101000000000,"state":"active","ping":69},{"user_id":689,"name":"trackpad gaming | f2p","steam_id":76561198840414371,"connected_time":92000000000,"state":"active","ping":51},{"user_id":658,"name":"John Calibur","steam_id":76561197999986606,"connected_time":3753000000000,"state":"active","ping":71},{"user_id":683,"name":"Aerospine","steam_id":76561198021438134,"connected_time":718000000000,"state":"active","ping":73},{"user_id":659,"name":"Anon","steam_id":76561198109740776,"connected_time":3700000000000,"state":"active","ping":80},{"user_id":687,"name":"manchego gaming","steam_id":76561198069895678,"connected_time":207000000000,"state":"active","ping":56},{"user_id":669,"name":"kill me","steam_id":76561198032625036,"connected_time":2291000000000,"state":"active","ping":59},{"user_id":682,"name":"Simon","steam_id":76561198312388895,"connected_time":743000000000,"state":"active","ping":110},{"user_id":665,"name":"PopcornBucketGames","steam_id":76561199089562026,"connected_time":2617000000000,"state":"active","ping":40},{"user_id":688,"name":"Ting","steam_id":76561198111669760,"connected_time":173000000000,"state":"active","ping":45},{"user_id":684,"name":"Turkey Panini","steam_id":76561198067656416,"connected_time":647000000000,"state":"active","ping":103},{"user_id":661,"name":"Houdini Cache","steam_id":76561198045506970,"connected_time":3032000000000,"state":"active","ping":38},{"user_id":685,"name":"Y2K4Y","steam_id":76561198041432286,"connected_time":642000000000,"state":"active","ping":51},{"user_id":686,"name":"Tideflat","steam_id":76561198179850851,"connected_time":611000000000,"state":"active","ping":55},{"user_id":673,"name":"Schwifty Sky","steam_id":76561198044121499,"connected_time":1157000000000,"state":"active","ping":60},{"user_id":664,"name":"Finkly","steam_id":76561198049828110,"connected_time":2829000000000,"state":"active","ping":45}]},{"server_id":119,"name":"Uncletopia | Seattle | 2 | All Maps","name_short":"sea-2","host":"sea-1.us.uncletopia.com","port":27025,"enabled":true,"region":"us-west","cc":"us","latitude":47.608013,"longitude":-122.33517,"reserved":0,"last_update":"0001-01-01T00:00:00Z","name_a2s":"Uncletopia | Seattle | 2 | All Maps","protocol":17,"map":"cp_mountainlab","folder":"tf","game":"Team Fortress","app_id":440,"player_count":2,"max_players":24,"Bots":0,"server_type":"Dedicated","server_os":"Linux","password":true,"vac":true,"version":"7961495","steam_id":85568392924469998,"keywords":["cp","nocrits","nodmgspread","uncletopia"],"game_id":440,"stv_port":27026,"stv_name":"Uncletopia | Seattle | 2 | All Maps | STV","players":[{"user_id":565,"name":"Micc","steam_id":76561199447744486,"connected_time":1869000000000,"state":"active","ping":68},{"user_id":567,"name":"Katie XXII","steam_id":76561198135534297,"connected_time":1741000000000,"state":"active","ping":41}]},{"server_id":406,"name":"Uncletopia | Seattle | 3 | Stopwatch","name_short":"sea-3","host":"sea-1.us.uncletopia.com","port":27035,"enabled":true,"region":"us-west","cc":"us","latitude":47.608013,"longitude":-122.33517,"reserved":0,"last_update":"0001-01-01T00:00:00Z","name_a2s":"Uncletopia | Seattle | 3 | Stopwatch","protocol":17,"map":"workshop/koth_clearcut_b15.ugc2107050255","folder":"tf","game":"Team Fortress","app_id":440,"player_count":0,"max_players":24,"Bots":0,"server_type":"Dedicated","server_os":"Linux","password":true,"vac":true,"version":"7961495","steam_id":85568392924515217,"keywords":["cp","nocrits","nodmgspread","uncletopia"],"game_id":440,"stv_port":27036,"stv_name":"Uncletopia | Seattle | 3 | Stopwatch | STV","players":null},{"server_id":17,"name":"Uncletopia | San Francisco | 1 | All Maps","name_short":"sfo-1","host":"sfo-1.us.uncletopia.com","port":27015,"enabled":true,"region":"us-west","cc":"us","latitude":37.77397,"longitude":-122.4313,"reserved":0,"last_update":"0001-01-01T00:00:00Z","name_a2s":"Uncletopia | San Francisco | 1 | All Maps","protocol":17,"map":"koth_cascade","folder":"tf","game":"Team Fortress","app_id":440,"player_count":24,"max_players":24,"Bots":0,"server_type":"Dedicated","server_os":"Linux","password":true,"vac":true,"version":"7961495","steam_id":85568392924469999,"keywords":["cp","nocrits","nodmgspread","uncletopia"],"game_id":440,"stv_port":27016,"stv_name":"Uncletopia | San Francisco | 1 | All Maps | STV","players":[{"user_id":572,"name":"Trouser Snivy","steam_id":76561198073788829,"connected_time":6360000000000,"state":"active","ping":80},{"user_id":653,"name":"A UsedNom","steam_id":76561198402832756,"connected_time":1094000000000,"state":"active","ping":41},{"user_id":624,"name":"ronald_stackerusa55","steam_id":76561198150406851,"connected_time":2894000000000,"state":"active","ping":48},{"user_id":628,"name":"1000 Ping","steam_id":76561198098330939,"connected_time":2644000000000,"state":"active","ping":71},{"user_id":655,"name":"guts' theme (Cut \u0026 Looped)","steam_id":76561198012829728,"connected_time":821000000000,"state":"active","ping":90},{"user_id":581,"name":"atomic","steam_id":76561198044264201,"connected_time":5756000000000,"state":"active","ping":75},{"user_id":664,"name":"Hei","steam_id":76561197987102243,"connected_time":241000000000,"state":"active","ping":45},{"user_id":589,"name":"boboguguz","steam_id":76561198334924459,"connected_time":5340000000000,"state":"active","ping":57},{"user_id":630,"name":"SlakerRySa(F2P)","steam_id":76561198954198301,"connected_time":2584000000000,"state":"active","ping":150},{"user_id":665,"name":"Sleuth","steam_id":76561198418288939,"connected_time":194000000000,"state":"active","ping":39},{"user_id":659,"name":"DGX","steam_id":76561199073109216,"connected_time":570000000000,"state":"active","ping":104},{"user_id":627,"name":"Sunny","steam_id":76561198261667312,"connected_time":2781000000000,"state":"active","ping":62},{"user_id":663,"name":"Adawnby","steam_id":76561198103057295,"connected_time":420000000000,"state":"active","ping":90},{"user_id":666,"name":"crouton.net","steam_id":76561198068374646,"connected_time":173000000000,"state":"active","ping":65},{"user_id":651,"name":"Aero","steam_id":76561198856462128,"connected_time":1315000000000,"state":"active","ping":60},{"user_id":611,"name":"Lord Pretty Flocko Jordye","steam_id":76561198962880749,"connected_time":3920000000000,"state":"active","ping":60},{"user_id":640,"name":"supe®man","steam_id":76561198115924427,"connected_time":1844000000000,"state":"active","ping":71},{"user_id":661,"name":"eggy","steam_id":76561199057675540,"connected_time":530000000000,"state":"active","ping":59},{"user_id":641,"name":"Fishy","steam_id":76561198436082504,"connected_time":1814000000000,"state":"active","ping":63},{"user_id":636,"name":"Nyx","steam_id":76561198100929724,"connected_time":2034000000000,"state":"active","ping":79},{"user_id":662,"name":"toki","steam_id":76561199196943730,"connected_time":528000000000,"state":"active","ping":62},{"user_id":652,"name":"kebo","steam_id":76561198237159430,"connected_time":1286000000000,"state":"active","ping":62},{"user_id":649,"name":"Satori Komeiji","steam_id":76561198158211423,"connected_time":1751000000000,"state":"active","ping":46},{"user_id":606,"name":"High quality products87345","steam_id":76561198206506481,"connected_time":4365000000000,"state":"active","ping":45}]},{"server_id":18,"name":"Uncletopia | San Francisco | 2 | All Maps","name_short":"sfo-2","host":"sfo-1.us.uncletopia.com","port":27025,"enabled":true,"region":"us-west","cc":"us","latitude":37.77397,"longitude":-122.4313,"reserved":0,"last_update":"0001-01-01T00:00:00Z","name_a2s":"Uncletopia | San Francisco | 2 | All Maps","protocol":17,"map":"ctf_2fort","folder":"tf","game":"Team Fortress","app_id":440,"player_count":0,"max_players":24,"Bots":0,"server_type":"Dedicated","server_os":"Linux","password":true,"vac":true,"version":"7961495","steam_id":85568392924470000,"keywords":["ctf","nocrits","nodmgspread","uncletopia"],"game_id":440,"stv_port":27026,"stv_name":"Uncletopia | San Francisco | 2 | All Maps | STV","players":null},{"server_id":19,"name":"Uncletopia | San Francisco | 3 | Stopwatch","name_short":"sfo-3","host":"sfo-1.us.uncletopia.com","port":27035,"enabled":true,"region":"us-west","cc":"us","latitude":37.77397,"longitude":-122.4313,"reserved":0,"last_update":"0001-01-01T00:00:00Z","name_a2s":"Uncletopia | San Francisco | 3 | Stopwatch","protocol":17,"map":"workshop/koth_jamram_rc1a.ugc2964065613","folder":"tf","game":"Team Fortress","app_id":440,"player_count":0,"max_players":24,"Bots":0,"server_type":"Dedicated","server_os":"Linux","password":true,"vac":true,"version":"7961495","steam_id":85568392924742824,"keywords":["cp","nocrits","nodmgspread","uncletopia"],"game_id":440,"stv_port":27036,"stv_name":"Uncletopia | San Francisco | 3 | Stopwatch | STV","players":null},{"server_id":20,"name":"Uncletopia | San Francisco | 4 | Community","name_short":"sfo-4","host":"sfo-1.us.uncletopia.com","port":27045,"enabled":true,"region":"us-west","cc":"us","latitude":37.77397,"longitude":-122.4313,"reserved":0,"last_update":"0001-01-01T00:00:00Z","name_a2s":"Uncletopia | San Francisco | 4 | Community","protocol":17,"map":"workshop/koth_synthetic_rc6a.ugc1549817316","folder":"tf","game":"Team Fortress","app_id":440,"player_count":0,"max_players":24,"Bots":0,"server_type":"Dedicated","server_os":"Linux","password":true,"vac":true,"version":"7961495","steam_id":85568392924742826,"keywords":["cp","nocrits","nodmgspread","uncletopia"],"game_id":440,"stv_port":27046,"stv_name":"Uncletopia | San Francisco | 4 | Community | STV","players":null},{"server_id":141,"name":"Uncletopia | Sydney | 1 | All Maps","name_short":"syd-1","host":"syd-1.au.uncletopia.com","port":27015,"enabled":true,"region":"au","cc":"au","latitude":-33.865143,"longitude":151.2099,"reserved":0,"last_update":"0001-01-01T00:00:00Z","name_a2s":"Uncletopia | Sydney | 1 | All Maps","protocol":17,"map":"pl_frontier_final","folder":"tf","game":"Team Fortress","app_id":440,"player_count":24,"max_players":24,"Bots":0,"server_type":"Dedicated","server_os":"Linux","password":true,"vac":true,"version":"7961495","steam_id":85568392924470001,"keywords":["nocrits","nodmgspread","payload","uncletopia"],"game_id":440,"stv_port":27016,"stv_name":"Uncletopia | Sydney | 1 | All Maps | STV","players":[{"user_id":226,"name":"nice lad","steam_id":76561198055333637,"connected_time":4683000000000,"state":"active","ping":29},{"user_id":239,"name":"Hayden","steam_id":76561197983838052,"connected_time":4136000000000,"state":"active","ping":42},{"user_id":262,"name":"Gunter","steam_id":76561198070406038,"connected_time":1596000000000,"state":"active","ping":48},{"user_id":246,"name":"blarglefargle zippoingus","steam_id":76561198063481761,"connected_time":3116000000000,"state":"active","ping":46},{"user_id":275,"name":"coconutsteven16","steam_id":76561198113244106,"connected_time":481000000000,"state":"active","ping":45},{"user_id":276,"name":"Diming","steam_id":76561198325584599,"connected_time":430000000000,"state":"active","ping":56},{"user_id":240,"name":"FIX","steam_id":76561197995157189,"connected_time":3730000000000,"state":"active","ping":41},{"user_id":261,"name":"reginald spoingus jr.","steam_id":76561198079351541,"connected_time":2100000000000,"state":"active","ping":42},{"user_id":244,"name":"Dr. Hoppity","steam_id":76561197999715646,"connected_time":3360000000000,"state":"active","ping":51},{"user_id":265,"name":"ttv_meh_yt","steam_id":76561199246898340,"connected_time":1564000000000,"state":"active","ping":46},{"user_id":245,"name":"Mooty","steam_id":76561198301293435,"connected_time":3345000000000,"state":"active","ping":54},{"user_id":255,"name":"LeoJoeD","steam_id":76561198161848749,"connected_time":2635000000000,"state":"active","ping":44},{"user_id":267,"name":"Attling","steam_id":76561198087595494,"connected_time":1534000000000,"state":"active","ping":42},{"user_id":227,"name":"COLLINSct","steam_id":76561198045395403,"connected_time":4583000000000,"state":"active","ping":56},{"user_id":279,"name":"Courier","steam_id":76561198080981482,"connected_time":41000000000,"state":"active","ping":36},{"user_id":260,"name":"GuyAwesome","steam_id":76561198042805792,"connected_time":2433000000000,"state":"active","ping":87},{"user_id":221,"name":"obama?","steam_id":76561198367756332,"connected_time":4923000000000,"state":"active","ping":37},{"user_id":282,"name":"Motormouth","steam_id":76561197980851839,"connected_time":23000000000,"state":"spawning","ping":74},{"user_id":229,"name":"CypressFluff (she/her)","steam_id":76561198174667818,"connected_time":4448000000000,"state":"active","ping":46},{"user_id":266,"name":"Poison_Kouki","steam_id":76561198150364859,"connected_time":1564000000000,"state":"active","ping":52},{"user_id":268,"name":"JP","steam_id":76561198026221737,"connected_time":1534000000000,"state":"active","ping":60},{"user_id":254,"name":"Djelibaebi","steam_id":76561198069673494,"connected_time":2660000000000,"state":"active","ping":66},{"user_id":273,"name":"cakey","steam_id":76561198173746761,"connected_time":510000000000,"state":"active","ping":46},{"user_id":274,"name":"Tantei Rotana","steam_id":76561198041204323,"connected_time":509000000000,"state":"active","ping":57}]},{"server_id":123,"name":"Uncletopia | Sydney | 2 | All Maps","name_short":"syd-2","host":"syd-1.au.uncletopia.com","port":27025,"enabled":true,"region":"au","cc":"au","latitude":-33.865143,"longitude":151.2099,"reserved":0,"last_update":"0001-01-01T00:00:00Z","name_a2s":"Uncletopia | Sydney | 2 | All Maps","protocol":17,"map":"koth_lakeside_final","folder":"tf","game":"Team Fortress","app_id":440,"player_count":0,"max_players":24,"Bots":0,"server_type":"Dedicated","server_os":"Linux","password":true,"vac":true,"version":"7961495","steam_id":85568392924470002,"keywords":["cp","nocrits","nodmgspread","uncletopia"],"game_id":440,"stv_port":27026,"stv_name":"Uncletopia | Sydney | 2 | All Maps | STV","players":null},{"server_id":395,"name":"Uncletopia | Sydney | 3 | All Maps","name_short":"syd-3","host":"syd-1.au.uncletopia.com","port":27035,"enabled":true,"region":"au","cc":"au","latitude":-33.865143,"longitude":151.2099,"reserved":0,"last_update":"0001-01-01T00:00:00Z","name_a2s":"Uncletopia | Sydney | 3 | All Maps","protocol":17,"map":"cp_dustbowl","folder":"tf","game":"Team Fortress","app_id":440,"player_count":0,"max_players":24,"Bots":0,"server_type":"Dedicated","server_os":"Linux","password":true,"vac":true,"version":"7961495","steam_id":85568392925194467,"keywords":["cp","nocrits","nodmgspread","uncletopia"],"game_id":440,"stv_port":27036,"stv_name":"Uncletopia | Sydney | 3 | All Maps | STV","players":null},{"server_id":396,"name":"Uncletopia | Sydney | 4 | All Maps","name_short":"syd-4","host":"syd-1.au.uncletopia.com","port":27045,"enabled":true,"region":"au","cc":"au","latitude":-33.865143,"longitude":151.2099,"reserved":0,"last_update":"0001-01-01T00:00:00Z","name_a2s":"Uncletopia | Sydney | 4 | All Maps","protocol":17,"map":"cp_mountainlab","folder":"tf","game":"Team Fortress","app_id":440,"player_count":0,"max_players":24,"Bots":0,"server_type":"Dedicated","server_os":"Linux","password":true,"vac":true,"version":"7961495","steam_id":85568392925397958,"keywords":["cp","nocrits","nodmgspread","uncletopia"],"game_id":440,"stv_port":27046,"stv_name":"Uncletopia | Sydney | 4 | All Maps | STV","players":null},{"server_id":58,"name":"Uncletopia | Sydney | 5 | Stopwatch","name_short":"syd-5","host":"syd-1.au.uncletopia.com","port":27055,"enabled":true,"region":"au","cc":"au","latitude":-33.865143,"longitude":151.2099,"reserved":0,"last_update":"0001-01-01T00:00:00Z","name_a2s":"Uncletopia | Sydney | 5 | Stopwatch","protocol":17,"map":"pl_upward","folder":"tf","game":"Team Fortress","app_id":440,"player_count":8,"max_players":24,"Bots":0,"server_type":"Dedicated","server_os":"Linux","password":true,"vac":true,"version":"7961495","steam_id":85568392925397959,"keywords":["nocrits","nodmgspread","payload","uncletopia"],"game_id":440,"stv_port":27056,"stv_name":"Uncletopia | Sydney | 5 | Stopwatch | STV","players":[{"user_id":32,"name":"nince","steam_id":76561198970102571,"connected_time":1346000000000,"state":"active","ping":67},{"user_id":40,"name":"C13.exe","steam_id":76561198287025057,"connected_time":864000000000,"state":"active","ping":60},{"user_id":47,"name":"pathway","steam_id":76561198346674092,"connected_time":176000000000,"state":"active","ping":60},{"user_id":29,"name":"Nyda","steam_id":76561198152311904,"connected_time":1747000000000,"state":"active","ping":63},{"user_id":41,"name":"MonkeyTrollpoo","steam_id":76561199060670166,"connected_time":737000000000,"state":"active","ping":67},{"user_id":30,"name":"Titan","steam_id":76561198343953317,"connected_time":1733000000000,"state":"active","ping":60},{"user_id":45,"name":"燃える","steam_id":76561198241303512,"connected_time":266000000000,"state":"active","ping":58},{"user_id":42,"name":"tadpolegame","steam_id":76561199060645803,"connected_time":670000000000,"state":"active","ping":59}]},{"server_id":59,"name":"Uncletopia | Sydney | 6 | Community","name_short":"syd-6","host":"syd-1.au.uncletopia.com","port":27065,"enabled":true,"region":"au","cc":"au","latitude":-33.865143,"longitude":151.2099,"reserved":0,"last_update":"0001-01-01T00:00:00Z","name_a2s":"Uncletopia | Sydney | 6 | Community","protocol":17,"map":"workshop/koth_trenchfoot_ab1.ugc731436616","folder":"tf","game":"Team Fortress","app_id":440,"player_count":0,"max_players":24,"Bots":0,"server_type":"Dedicated","server_os":"Linux","password":true,"vac":true,"version":"7961495","steam_id":85568392925397960,"keywords":["cp","nocrits","nodmgspread","uncletopia"],"game_id":440,"stv_port":27066,"stv_name":"Uncletopia | Sydney | 6 | Community | STV","players":null},{"server_id":49,"name":"Uncletopia | Warsaw | 1 | One Thousand Uncles","name_short":"waw-1","host":"waw-1.pl.uncletopia.com","port":27015,"enabled":true,"region":"eu","cc":"pl","latitude":52.2297,"longitude":21.017532,"reserved":0,"last_update":"0001-01-01T00:00:00Z","name_a2s":"Uncletopia | Warsaw | 1 | One Thousand Uncles","protocol":17,"map":"pl_hoodoo_final","folder":"tf","game":"Team Fortress","app_id":440,"player_count":0,"max_players":32,"Bots":0,"server_type":"Dedicated","server_os":"Linux","password":true,"vac":true,"version":"7961495","steam_id":85568392925397850,"keywords":["alltalk","danepve","increased_maxplayers","norespawntime","payload","uncletopia"],"game_id":440,"stv_port":0,"stv_name":"","players":null},{"server_id":50,"name":"Uncletopia | Warsaw | 2 | One Thousand Uncles","name_short":"waw-2","host":"waw-1.pl.uncletopia.com","port":27025,"enabled":true,"region":"eu","cc":"pl","latitude":52.2297,"longitude":21.017532,"reserved":0,"last_update":"0001-01-01T00:00:00Z","name_a2s":"Uncletopia | Warsaw | 2 | One Thousand Uncles","protocol":17,"map":"cp_egypt_final","folder":"tf","game":"Team Fortress","app_id":440,"player_count":28,"max_players":32,"Bots":16,"server_type":"Dedicated","server_os":"Linux","password":true,"vac":true,"version":"7961495","steam_id":85568392925397851,"keywords":["alltalk","bots","cp","danepve","increased_maxplayers","norespawntime","uncletopia"],"game_id":440,"stv_port":0,"stv_name":"","players":[{"user_id":72,"name":"Fatmagic Mukbang ASMR","steam_id":76561198063492110,"connected_time":2678000000000,"state":"active","ping":87},{"user_id":19,"name":"SalDro","steam_id":76561199218262945,"connected_time":11496000000000,"state":"active","ping":97},{"user_id":71,"name":"lionpierce","steam_id":76561198111160453,"connected_time":3130000000000,"state":"active","ping":117},{"user_id":26,"name":"Arkenstein","steam_id":76561199091543520,"connected_time":6233000000000,"state":"active","ping":97},{"user_id":73,"name":"Dumb Moth","steam_id":76561199011919973,"connected_time":2336000000000,"state":"active","ping":58},{"user_id":88,"name":"사랑해","steam_id":76561199084680369,"connected_time":480000000000,"state":"active","ping":35},{"user_id":86,"name":"Nari","steam_id":76561199220038535,"connected_time":668000000000,"state":"active","ping":171},{"user_id":77,"name":"Punishment","steam_id":76561199488819530,"connected_time":1660000000000,"state":"active","ping":148},{"user_id":84,"name":"MefiK","steam_id":76561198327671563,"connected_time":1008000000000,"state":"active","ping":92},{"user_id":79,"name":"Spxndrej","steam_id":76561199426583978,"connected_time":1546000000000,"state":"active","ping":49},{"user_id":91,"name":"Lyon","steam_id":76561197998096172,"connected_time":138000000000,"state":"active","ping":63},{"user_id":90,"name":"Kotlet schabowy","steam_id":76561198048983509,"connected_time":181000000000,"state":"active","ping":43}]},{"server_id":51,"name":"Uncletopia | Warsaw | 3 | All Maps","name_short":"waw-3","host":"waw-1.pl.uncletopia.com","port":27035,"enabled":true,"region":"eu","cc":"pl","latitude":52.2297,"longitude":21.017532,"reserved":0,"last_update":"0001-01-01T00:00:00Z","name_a2s":"Uncletopia | Warsaw | 3 | All Maps","protocol":17,"map":"pl_snowycoast","folder":"tf","game":"Team Fortress","app_id":440,"player_count":0,"max_players":24,"Bots":0,"server_type":"Dedicated","server_os":"Linux","password":true,"vac":true,"version":"7961495","steam_id":85568392925397852,"keywords":["nocrits","nodmgspread","payload","uncletopia"],"game_id":440,"stv_port":27036,"stv_name":"Uncletopia | Warsaw | 3 | All Maps | STV","players":null},{"server_id":52,"name":"Uncletopia | Warsaw | 4 | All Maps","name_short":"waw-4","host":"waw-1.pl.uncletopia.com","port":27045,"enabled":true,"region":"eu","cc":"pl","latitude":52.2297,"longitude":21.017532,"reserved":0,"last_update":"0001-01-01T00:00:00Z","name_a2s":"Uncletopia | Warsaw | 4 | All Maps","protocol":17,"map":"cp_fastlane","folder":"tf","game":"Team Fortress","app_id":440,"player_count":0,"max_players":24,"Bots":0,"server_type":"Dedicated","server_os":"Linux","password":true,"vac":true,"version":"7961495","steam_id":85568392925397853,"keywords":["cp","nocrits","nodmgspread","uncletopia"],"game_id":440,"stv_port":27046,"stv_name":"Uncletopia | Warsaw | 4 | All Maps | STV","players":null},{"server_id":53,"name":"Uncletopia | Warsaw | 5 | Stopwatch","name_short":"waw-5","host":"waw-1.pl.uncletopia.com","port":27055,"enabled":true,"region":"eu","cc":"pl","latitude":52.2297,"longitude":21.017532,"reserved":0,"last_update":"0001-01-01T00:00:00Z","name_a2s":"Uncletopia | Warsaw | 5 | Stopwatch","protocol":17,"map":"cp_gullywash_final1","folder":"tf","game":"Team Fortress","app_id":440,"player_count":0,"max_players":24,"Bots":0,"server_type":"Dedicated","server_os":"Linux","password":true,"vac":true,"version":"7961495","steam_id":85568392925397854,"keywords":["cp","nocrits","nodmgspread","uncletopia"],"game_id":440,"stv_port":27056,"stv_name":"Uncletopia | Warsaw | 5 | Stopwatch | STV","players":null},{"server_id":54,"name":"Uncletopia | Warsaw | 6 | Community","name_short":"waw-6","host":"waw-1.pl.uncletopia.com","port":27065,"enabled":true,"region":"eu","cc":"pl","latitude":52.2297,"longitude":21.017532,"reserved":0,"last_update":"0001-01-01T00:00:00Z","name_a2s":"Uncletopia | Warsaw | 6 | Community","protocol":17,"map":"workshop/cp_fulgur_rc2a.ugc2068252300","folder":"tf","game":"Team Fortress","app_id":440,"player_count":0,"max_players":24,"Bots":0,"server_type":"Dedicated","server_os":"Linux","password":true,"vac":true,"version":"7961495","steam_id":85568392925397856,"keywords":["cp","nocrits","nodmgspread","uncletopia"],"game_id":440,"stv_port":27066,"stv_name":"Uncletopia | Warsaw | 6 | Community | STV","players":null}]}