{"status":true,"message":"","result":[{"server_id":9,"name":"Uncletopia | Atlanta | 1 | All Maps","name_short":"atl-1","host":"atl-1.us.uncletopia.com","port":27015,"enabled":true,"region":"us-east","cc":"us","latitude":33.753746,"longitude":-84.38633,"reserved":0,"last_update":"0001-01-01T00:00:00Z","name_a2s":"Uncletopia | Atlanta | 1 | All Maps","protocol":17,"map":"koth_cascade","folder":"tf","game":"Team Fortress","app_id":440,"player_count":0,"max_players":24,"Bots":0,"server_type":"Dedicated","server_os":"Linux","password":true,"vac":true,"version":"7757534","steam_id":85568392924469982,"keywords":["cp","nocrits","nodmgspread","uncletopia"],"game_id":440,"stv_port":27016,"stv_name":"Uncletopia | Atlanta | 1 | All Maps | STV","players":null},{"server_id":104,"name":"Uncletopia | Atlanta | 2 | All Maps","name_short":"atl-2","host":"atl-1.us.uncletopia.com","port":27025,"enabled":true,"region":"us-east","cc":"us","latitude":33.753746,"longitude":-84.38633,"reserved":0,"last_update":"0001-01-01T00:00:00Z","name_a2s":"Uncletopia | Atlanta | 2 | All Maps","protocol":17,"map":"cp_dustbowl","folder":"tf","game":"Team Fortress","app_id":440,"player_count":0,"max_players":24,"Bots":0,"server_type":"Dedicated","server_os":"Linux","password":true,"vac":true,"version":"7757534","steam_id":85568392924469983,"keywords":["cp","nocrits","nodmgspread","uncletopia"],"game_id":440,"stv_port":27026,"stv_name":"Uncletopia | Atlanta | 2 | All Maps | STV","players":null},{"server_id":400,"name":"Uncletopia | Atlanta | 3 | Community","name_short":"atl-3","host":"atl-1.us.uncletopia.com","port":27035,"enabled":true,"region":"us-east","cc":"us","latitude":33.753746,"longitude":-84.38633,"reserved":0,"last_update":"0001-01-01T00:00:00Z","name_a2s":"Uncletopia | Atlanta | 3 | Community","protocol":17,"map":"cp_snakewater_final1","folder":"tf","game":"Team Fortress","app_id":440,"player_count":0,"max_players":24,"Bots":0,"server_type":"Dedicated","server_os":"Linux","password":true,"vac":true,"version":"7757534","steam_id":85568392924515187,"keywords":["cp","nocrits","nodmgspread","uncletopia"],"game_id":440,"stv_port":27036,"stv_name":"Uncletopia | Atlanta | 3 | Community | STV","players":null},{"server_id":401,"name":"Uncletopia | Atlanta | 4 | No Payload","name_short":"atl-4","host":"atl-1.us.uncletopia.com","port":27045,"enabled":true,"region":"us-east","cc":"us","latitude":33.753746,"longitude":-84.38633,"reserved":0,"last_update":"0001-01-01T00:00:00Z","name_a2s":"","protocol":0,"map":"","folder":"","game":"","app_id":0,"player_count":0,"max_players":0,"Bots":0,"server_type":"","server_os":"","password":false,"vac":false,"version":"","steam_id":0,"keywords":null,"game_id":0,"stv_port":0,"stv_name":"","players":null},{"server_id":2,"name":"Uncletopia | Chicago | 1 | All Maps","name_short":"chi-1","host":"chi-1.us.uncletopia.com","port":27015,"enabled":true,"region":"us-central","cc":"us","latitude":41.881832,"longitude":-87.62318,"reserved":0,"last_update":"0001-01-01T00:00:00Z","name_a2s":"Uncletopia | Chicago | 1 | All Maps","protocol":17,"map":"koth_cascade","folder":"tf","game":"Team Fortress","app_id":440,"player_count":3,"max_players":24,"Bots":0,"server_type":"Dedicated","server_os":"Linux","password":true,"vac":true,"version":"7757534","steam_id":85568392924469984,"keywords":["cp","nocrits","nodmgspread","uncletopia"],"game_id":440,"stv_port":27016,"stv_name":"Uncletopia | Chicago | 1 | All Maps | STV","players":[{"user_id":815,"name":"Anita Hanjaab","steam_id":76561199307270490,"connected_time":245000000000,"state":"active","ping":66},{"user_id":817,"name":"magickxanadu","steam_id":76561199117360103,"connected_time":204000000000,"state":"active","ping":89},{"user_id":818,"name":"wroh2801","steam_id":76561199103292218,"connected_time":39000000000,"state":"active","ping":50}]},{"server_id":106,"name":"Uncletopia | Chicago | 2 | All Maps","name_short":"chi-2","host":"chi-1.us.uncletopia.com","port":27025,"enabled":true,"region":"us-central","cc":"us","latitude":41.881832,"longitude":-87.62318,"reserved":0,"last_update":"0001-01-01T00:00:00Z","name_a2s":"Uncletopia | Chicago | 2 | All Maps","protocol":17,"map":"pl_snowycoast","folder":"tf","game":"Team Fortress","app_id":440,"player_count":24,"max_players":24,"Bots":0,"server_type":"Dedicated","server_os":"Linux","password":true,"vac":true,"version":"7757534","steam_id":85568392924469985,"keywords":["nocrits","nodmgspread","payload","uncletopia"],"game_id":440,"stv_port":27026,"stv_name":"Uncletopia | Chicago | 2 | All Maps | STV","players":[{"user_id":588,"name":"Monster","steam_id":76561198189429665,"connected_time":7100000000000,"state":"active","ping":73},{"user_id":595,"name":"BuncusBeffer","steam_id":76561198285936616,"connected_time":6478000000000,"state":"active","ping":103},{"user_id":645,"name":"Zelith","steam_id":76561198234980480,"connected_time":2244000000000,"state":"active","ping":47},{"user_id":646,"name":"dmdr1969","steam_id":76561198080469611,"connected_time":2242000000000,"state":"active","ping":73},{"user_id":642,"name":"Aegis","steam_id":76561198272052750,"connected_time":2308000000000,"state":"active","ping":75},{"user_id":647,"name":"Salda√±a","steam_id":76561198214473001,"connected_time":2221000000000,"state":"active","ping":76},{"user_id":660,"name":"Romo","steam_id":76561198243101572,"connected_time":439000000000,"state":"active","ping":82},{"user_id":657,"name":"Dragonmilf","steam_id":76561198272313624,"connected_time":1282000000000,"state":"active","ping":128},{"user_id":655,"name":"W00FR","steam_id":76561198010635986,"connected_time":1314000000000,"state":"active","ping":96},{"user_id":639,"name":"Crunchy","steam_id":76561198240523882,"connected_time":2925000000000,"state":"active","ping":97},{"user_id":651,"name":"trinqette (she/her)","steam_id":76561198119543621,"connected_time":2116000000000,"state":"active","ping":61},{"user_id":661,"name":"ttv/whiteboyst0ner1997","steam_id":76561198064558316,"connected_time":217000000000,"state":"active","ping":89},{"user_id":637,"name":"LiliRouxxx [live]","steam_id":76561198000522179,"connected_time":2977000000000,"state":"active","ping":66},{"user_id":590,"name":"MankTKO","steam_id":76561198189421005,"connected_time":7094000000000,"state":"active","ping":45},{"user_id":656,"name":"skogg pontiff","steam_id":76561198304265800,"connected_time":1308000000000,"state":"active","ping":83},{"user_id":658,"name":"go play rimworld","steam_id":76561199397932924,"connected_time":1211000000000,"state":"active","ping":151},{"user_id":632,"name":"{·¥Ñ·¥á Ä·¥ò} mtc","steam_id":76561199433123171,"connected_time":3302000000000,"state":"active","ping":89},{"user_id":652,"name":"big shmoka","steam_id":76561198050768962,"connected_time":1928000000000,"state":"active","ping":90},{"user_id":600,"name":"Stan","steam_id":76561199057962816,"connected_time":6327000000000,"state":"active","ping":55},{"user_id":659,"name":"JMan","steam_id":76561198367705381,"connected_time":1202000000000,"state":"active","ping":161},{"user_id":654,"name":"DinoFan11902","steam_id":76561198260348654,"connected_time":1544000000000,"state":"active","ping":73},{"user_id":653,"name":"Provocator","steam_id":76561197961830410,"connected_time":1889000000000,"state":"active","ping":78},{"user_id":633,"name":"Satan-2","steam_id":76561199231742764,"connected_time":3297000000000,"state":"active","ping":74}]},{"server_id":402,"name":"Uncletopia | Chicago | 3 | All Maps","name_short":"chi-3","host":"chi-1.us.uncletopia.com","port":27035,"enabled":true,"region":"us-central","cc":"us","latitude":41.881832,"longitude":-87.62318,"reserved":0,"last_update":"0001-01-01T00:00:00Z","name_a2s":"Uncletopia | Chicago | 3 | All Maps","protocol":17,"map":"koth_cascade","folder":"tf","game":"Team Fortress","app_id":440,"player_count":0,"max_players":24,"Bots":0,"server_type":"Dedicated","server_os":"Linux","password":true,"vac":true,"version":"7757534","steam_id":85568392924515191,"keywords":["cp","nocrits","nodmgspread","uncletopia"],"game_id":440,"stv_port":27036,"stv_name":"Uncletopia | Chicago | 3 | All Maps | STV","players":null},{"server_id":403,"name":"Uncletopia | Chicago | 4 | All Maps","name_short":"chi-4","host":"chi-1.us.uncletopia.com","port":27045,"enabled":true,"region":"us-central","cc":"us","latitude":41.881832,"longitude":-87.62318,"reserved":0,"last_update":"0001-01-01T00:00:00Z","name_a2s":"Uncletopia | Chicago | 4 | All Maps","protocol":17,"map":"pl_swiftwater_final1","folder":"tf","game":"Team Fortress","app_id":440,"player_count":0,"max_players":24,"Bots":0,"server_type":"Dedicated","server_os":"Linux","password":true,"vac":true,"version":"7757534","steam_id":85568392924515193,"keywords":["nocrits","nodmgspread","payload","uncletopia"],"game_id":440,"stv_port":27046,"stv_name":"Uncletopia | Chicago | 4 | All Maps | STV","players":null},{"server_id":36,"name":"Uncletopia | Chicago | 5 | All Maps","name_short":"chi-5","host":"chi-2.us.uncletopia.com","port":27015,"enabled":true,"region":"us-central","cc":"us","latitude":41.881832,"longitude":-87.62318,"reserved":0,"last_update":"0001-01-01T00:00:00Z","name_a2s":"Uncletopia | Chicago | 5 | All Maps","protocol":17,"map":"cp_mountainlab","folder":"tf","game":"Team Fortress","app_id":440,"player_count":0,"max_players":24,"Bots":0,"server_type":"Dedicated","server_os":"Linux","password":true,"vac":true,"version":"7757534","steam_id":85568392924866362,"keywords":["cp","nocrits","nodmgspread","uncletopia"],"game_id":440,"stv_port":27016,"stv_name":"Uncletopia | Chicago | 5 | All Maps | STV","players":null},{"server_id":37,"name":"Uncletopia | Chicago | 6 | All Maps","name_short":"chi-6","host":"chi-2.us.uncletopia.com","port":27025,"enabled":true,"region":"us-central","cc":"us","latitude":41.881832,"longitude":-87.62318,"reserved":0,"last_update":"0001-01-01T00:00:00Z","name_a2s":"Uncletopia | Chicago | 6 | All Maps","protocol":17,"map":"cp_dustbowl","folder":"tf","game":"Team Fortress","app_id":440,"player_count":0,"max_players":24,"Bots":0,"server_type":"Dedicated","server_os":"Linux","password":true,"vac":true,"version":"7757534","steam_id":85568392924866363,"keywords":["cp","nocrits","nodmgspread","uncletopia"],"game_id":440,"stv_port":27026,"stv_name":"Uncletopia | Chicago | 6 | All Maps | STV","players":null},{"server_id":38,"name":"Uncletopia | Chicago | 7 | Stopwatch Beta","name_short":"chi-7","host":"chi-2.us.uncletopia.com","port":27035,"enabled":true,"region":"us-central","cc":"us","latitude":41.881832,"longitude":-87.62318,"reserved":0,"last_update":"0001-01-01T00:00:00Z","name_a2s":"Uncletopia | Chicago | 7 | Stopwatch Beta","protocol":17,"map":"pl_barnblitz","folder":"tf","game":"Team Fortress","app_id":440,"player_count":0,"max_players":24,"Bots":0,"server_type":"Dedicated","server_os":"Linux","password":true,"vac":true,"version":"7757534","steam_id":85568392924866364,"keywords":["nocrits","nodmgspread","payload","uncletopia"],"game_id":440,"stv_port":27036,"stv_name":"Uncletopia | Chicago | 7 | Stopwatch Beta | STV","players":null},{"server_id":39,"name":"Uncletopia | Chicago | 8 | Community","name_short":"chi-8","host":"chi-2.us.uncletopia.com","port":27045,"enabled":true,"region":"us-central","cc":"us","latitude":41.881832,"longitude":-87.62318,"reserved":0,"last_update":"0001-01-01T00:00:00Z","name_a2s":"Uncletopia | Chicago | 8 | Community","protocol":17,"map":"workshop/koth_ramjam_rc1.ugc459778887","folder":"tf","game":"Team Fortress","app_id":440,"player_count":0,"max_players":24,"Bots":0,"server_type":"Dedicated","server_os":"Linux","password":true,"vac":true,"version":"7757534","steam_id":85568392924866365,"keywords":["cp","nocrits","nodmgspread","uncletopia"],"game_id":440,"stv_port":27046,"stv_name":"Uncletopia | Chicago | 8 | Community | STV","players":null},{"server_id":8,"name":"Uncletopia | Dallas | 1 | All Maps","name_short":"dal-1","host":"dal-1.us.uncletopia.com","port":27015,"enabled":true,"region":"us-central","cc":"us","latitude":32.779167,"longitude":-96.80889,"reserved":0,"last_update":"0001-01-01T00:00:00Z","name_a2s":"Uncletopia | Dallas | 1 | All Maps","protocol":17,"map":"cp_mountainlab","folder":"tf","game":"Team Fortress","app_id":440,"player_count":0,"max_players":24,"Bots":0,"server_type":"Dedicated","server_os":"Linux","password":true,"vac":true,"version":"7757534","steam_id":85568392924469986,"keywords":["cp","nocrits","nodmgspread","uncletopia"],"game_id":440,"stv_port":27016,"stv_name":"Uncletopia | Dallas | 1 | All Maps | STV","players":null},{"server_id":108,"name":"Uncletopia | Dallas | 2 | All Maps","name_short":"dal-2","host":"dal-1.us.uncletopia.com","port":27025,"enabled":true,"region":"us-central","cc":"us","latitude":32.779167,"longitude":-96.80889,"reserved":0,"last_update":"0001-01-01T00:00:00Z","name_a2s":"Uncletopia | Dallas | 2 | All Maps","protocol":17,"map":"cp_altitude","folder":"tf","game":"Team Fortress","app_id":440,"player_count":14,"max_players":24,"Bots":0,"server_type":"Dedicated","server_os":"Linux","password":true,"vac":true,"version":"7757534","steam_id":85568392924469988,"keywords":["cp","nocrits","nodmgspread","uncletopia"],"game_id":440,"stv_port":27026,"stv_name":"Uncletopia | Dallas | 2 | All Maps | STV","players":[{"user_id":762,"name":"antitrust","steam_id":76561198099225458,"connected_time":303000000000,"state":"active","ping":89},{"user_id":763,"name":"THE NUMB SKULL","steam_id":76561198355818542,"connected_time":178000000000,"state":"active","ping":52},{"user_id":755,"name":"Error9112","steam_id":76561199131581887,"connected_time":1099000000000,"state":"active","ping":107},{"user_id":759,"name":"Flaxks","steam_id":76561198410260447,"connected_time":717000000000,"state":"active","ping":87},{"user_id":764,"name":"Wren","steam_id":76561198071109787,"connected_time":52000000000,"state":"active","ping":104},{"user_id":745,"name":"ilikecorn78","steam_id":76561198838784551,"connected_time":1575000000000,"state":"active","ping":65},{"user_id":717,"name":"LumaDooma","steam_id":76561198076875817,"connected_time":4473000000000,"state":"active","ping":42},{"user_id":760,"name":"Ghost","steam_id":76561198426370628,"connected_time":713000000000,"state":"active","ping":64},{"user_id":746,"name":"ursa","steam_id":76561198025394298,"connected_time":1556000000000,"state":"active","ping":104},{"user_id":740,"name":"Moop","steam_id":76561198096984681,"connected_time":1909000000000,"state":"active","ping":64},{"user_id":761,"name":"JohnnyDev","steam_id":76561198210288963,"connected_time":501000000000,"state":"active","ping":89},{"user_id":706,"name":"DoDonPachi","steam_id":76561199085984801,"connected_time":5455000000000,"state":"active","ping":171},{"user_id":756,"name":"Wy","steam_id":76561198289564009,"connected_time":1098000000000,"state":"active","ping":90},{"user_id":738,"name":"ATL1 cheers2x","steam_id":76561198366299848,"connected_time":2267000000000,"state":"active","ping":64}]},{"server_id":5,"name":"Uncletopia | Frankfurt | 1 | All Maps","name_short":"frk-1","host":"frk-1.de.uncletopia.com","port":27015,"enabled":true,"region":"eu","cc":"de","latitude":50.110924,"longitude":8.682127,"reserved":0,"last_update":"0001-01-01T00:00:00Z","name_a2s":"Uncletopia | Frankfurt | 1 | All Maps","protocol":17,"map":"pl_pier","folder":"tf","game":"Team Fortress","app_id":440,"player_count":0,"max_players":24,"Bots":0,"server_type":"Dedicated","server_os":"Linux","password":true,"vac":true,"version":"7757534","steam_id":85568392924469989,"keywords":["nocrits","nodmgspread","payload","uncletopia"],"game_id":440,"stv_port":27016,"stv_name":"Uncletopia | Frankfurt | 1 | All Maps | STV","players":null},{"server_id":110,"name":"Uncletopia | Frankfurt | 2 | All Maps","name_short":"frk-2","host":"frk-1.de.uncletopia.com","port":27025,"enabled":true,"region":"eu","cc":"de","latitude":50.110924,"longitude":8.682127,"reserved":0,"last_update":"0001-01-01T00:00:00Z","name_a2s":"Uncletopia | Frankfurt | 2 | All Maps","protocol":17,"map":"cp_dustbowl","folder":"tf","game":"Team Fortress","app_id":440,"player_count":22,"max_players":24,"Bots":0,"server_type":"Dedicated","server_os":"Linux","password":true,"vac":true,"version":"7757534","steam_id":85568392924469990,"keywords":["cp","nocrits","nodmgspread","uncletopia"],"game_id":440,"stv_port":27026,"stv_name":"Uncletopia | Frankfurt | 2 | All Maps | STV","players":[{"user_id":46,"name":"Fulzus","steam_id":76561198347023668,"connected_time":1995000000000,"state":"active","ping":74},{"user_id":55,"name":"willo","steam_id":76561198034442999,"connected_time":1238000000000,"state":"active","ping":75},{"user_id":51,"name":"anders McFlanders","steam_id":76561198022811995,"connected_time":1451000000000,"state":"active","ping":52},{"user_id":52,"name":"Valfezant","steam_id":76561199063983797,"connected_time":1409000000000,"state":"spawning","ping":217},{"user_id":9,"name":"[Walmart] HatsuneMiku","steam_id":76561198843075093,"connected_time":4177000000000,"state":"active","ping":77},{"user_id":85,"name":"BeefBeatus","steam_id":76561198388493371,"connected_time":87000000000,"state":"active","ping":66},{"user_id":73,"name":"superad1","steam_id":76561198067001129,"connected_time":466000000000,"state":"active","ping":161},{"user_id":88,"name":"Rizziologist","steam_id":76561198089003514,"connected_time":33000000000,"state":"active","ping":45},{"user_id":86,"name":"radek","steam_id":76561197998883721,"connected_time":55000000000,"state":"active","ping":67},{"user_id":83,"name":"KeTlEr","steam_id":76561198100957443,"connected_time":181000000000,"state":"active","ping":69},{"user_id":57,"name":"‚äπkuiníâ≠","steam_id":76561198154005376,"connected_time":1186000000000,"state":"active","ping":78},{"user_id":84,"name":"Bottyboi","steam_id":76561198167723343,"connected_time":104000000000,"state":"active","ping":66},{"user_id":70,"name":"Better Call Medic","steam_id":76561198939711234,"connected_time":696000000000,"state":"active","ping":113},{"user_id":87,"name":"Rebi","steam_id":76561199030110402,"connected_time":40000000000,"state":"spawning","ping":47},{"user_id":45,"name":"Wahoo.mp3","steam_id":76561198045722771,"connected_time":2080000000000,"state":"active","ping":76},{"user_id":38,"name":"i look at gay people","steam_id":76561198078032019,"connected_time":2496000000000,"state":"active","ping":74},{"user_id":47,"name":"Hedge Knight","steam_id":76561198989449047,"connected_time":1991000000000,"state":"active","ping":120},{"user_id":62,"name":"jeb_","steam_id":76561198119406758,"connected_time":1011000000000,"state":"active","ping":87},{"user_id":27,"name":"Captain Scrumpe","steam_id":76561198032206577,"connected_time":3224000000000,"state":"active","ping":86},{"user_id":54,"name":"fmdi","steam_id":76561199433879329,"connected_time":1276000000000,"state":"active","ping":60},{"user_id":50,"name":"BELADIT","steam_id":76561198011911501,"connected_time":1495000000000,"state":"active","ping":69},{"user_id":44,"name":"Dergi","steam_id":76561198040843250,"connected_time":2194000000000,"state":"active","ping":58}]},{"server_id":308,"name":"Uncletopia | Frankfurt | 3 | All Maps","name_short":"frk-3","host":"frk-1.de.uncletopia.com","port":27035,"enabled":true,"region":"eu","cc":"de","latitude":50.110924,"longitude":8.682127,"reserved":0,"last_update":"0001-01-01T00:00:00Z","name_a2s":"Uncletopia | Frankfurt | 3 | All Maps","protocol":17,"map":"cp_altitude","folder":"tf","game":"Team Fortress","app_id":440,"player_count":0,"max_players":24,"Bots":0,"server_type":"Dedicated","server_os":"Linux","password":true,"vac":true,"version":"7757534","steam_id":85568392924504274,"keywords":["cp","nocrits","nodmgspread","uncletopia"],"game_id":440,"stv_port":27036,"stv_name":"Uncletopia | Frankfurt | 3 | All Maps | STV","players":null},{"server_id":309,"name":"Uncletopia | Frankfurt | 4 | All Maps","name_short":"frk-4","host":"frk-1.de.uncletopia.com","port":27045,"enabled":true,"region":"eu","cc":"de","latitude":50.110924,"longitude":8.682127,"reserved":0,"last_update":"0001-01-01T00:00:00Z","name_a2s":"Uncletopia | Frankfurt | 4 | All Maps","protocol":17,"map":"koth_viaduct","folder":"tf","game":"Team Fortress","app_id":440,"player_count":0,"max_players":24,"Bots":0,"server_type":"Dedicated","server_os":"Linux","password":true,"vac":true,"version":"7757534","steam_id":85568392924504275,"keywords":["cp","nocrits","nodmgspread","uncletopia"],"game_id":440,"stv_port":27046,"stv_name":"Uncletopia | Frankfurt | 4 | All Maps | STV","players":null},{"server_id":310,"name":"Uncletopia | Frankfurt | 5 | All Maps","name_short":"frk-5","host":"frk-1.de.uncletopia.com","port":27055,"enabled":true,"region":"eu","cc":"de","latitude":50.110924,"longitude":8.682127,"reserved":0,"last_update":"0001-01-01T00:00:00Z","name_a2s":"Uncletopia | Frankfurt | 5 | All Maps","protocol":17,"map":"koth_lakeside_final","folder":"tf","game":"Team Fortress","app_id":440,"player_count":0,"max_players":24,"Bots":0,"server_type":"Dedicated","server_os":"Linux","password":true,"vac":true,"version":"7757534","steam_id":85568392924504277,"keywords":["cp","nocrits","nodmgspread","uncletopia"],"game_id":440,"stv_port":27056,"stv_name":"Uncletopia | Frankfurt | 5 | All Maps | STV","players":null},{"server_id":311,"name":"Uncletopia | Frankfurt | 6 | All Maps","name_short":"frk-6","host":"frk-1.de.uncletopia.com","port":27065,"enabled":true,"region":"eu","cc":"de","latitude":50.110924,"longitude":8.682127,"reserved":0,"last_update":"0001-01-01T00:00:00Z","name_a2s":"Uncletopia | Frankfurt | 6 | All Maps","protocol":17,"map":"cp_dustbowl","folder":"tf","game":"Team Fortress","app_id":440,"player_count":0,"max_players":24,"Bots":0,"server_type":"Dedicated","server_os":"Linux","password":true,"vac":true,"version":"7757534","steam_id":85568392924504278,"keywords":["cp","nocrits","nodmgspread","uncletopia"],"game_id":440,"stv_port":27066,"stv_name":"Uncletopia | Frankfurt | 6 | All Maps | STV","players":null},{"server_id":23,"name":"Uncletopia | Frankfurt | 7 | Stopwatch Beta","name_short":"frk-7","host":"frk-1.de.uncletopia.com","port":27075,"enabled":true,"region":"eu","cc":"de","latitude":50.110924,"longitude":8.682127,"reserved":0,"last_update":"0001-01-01T00:00:00Z","name_a2s":"Uncletopia | Frankfurt | 7 | Stopwatch Beta","protocol":17,"map":"cp_sunshine","folder":"tf","game":"Team Fortress","app_id":440,"player_count":0,"max_players":24,"Bots":0,"server_type":"Dedicated","server_os":"Linux","password":true,"vac":true,"version":"7757534","steam_id":85568392924742827,"keywords":["cp","nocrits","nodmgspread","uncletopia"],"game_id":440,"stv_port":27076,"stv_name":"Uncletopia | Frankfurt | 7 | Stopwatch Beta | STV","players":null},{"server_id":24,"name":"Uncletopia | Frankfurt | 8 | Community","name_short":"frk-8","host":"frk-1.de.uncletopia.com","port":27085,"enabled":true,"region":"eu","cc":"de","latitude":50.110924,"longitude":8.682127,"reserved":0,"last_update":"0001-01-01T00:00:00Z","name_a2s":"Uncletopia | Frankfurt | 8 | Community","protocol":17,"map":"koth_lakeside_final","folder":"tf","game":"Team Fortress","app_id":440,"player_count":0,"max_players":24,"Bots":0,"server_type":"Dedicated","server_os":"Linux","password":true,"vac":true,"version":"7757534","steam_id":85568392924742828,"keywords":["cp","nocrits","nodmgspread","uncletopia"],"game_id":440,"stv_port":27086,"stv_name":"Uncletopia | Frankfurt | 8 | Community | STV","players":null},{"server_id":202,"name":"Uncletopia | Hong Kong | 1 | All Maps","name_short":"hgk-1","host":"hgk-1.hk.uncletopia.com","port":27015,"enabled":true,"region":"asia","cc":"hk","latitude":22.302711,"longitude":114.177216,"reserved":0,"last_update":"0001-01-01T00:00:00Z","name_a2s":"Uncletopia | Hong Kong | 1 | All Maps","protocol":17,"map":"pl_borneo","folder":"tf","game":"Team Fortress","app_id":440,"player_count":18,"max_players":24,"Bots":0,"server_type":"Dedicated","server_os":"Linux","password":true,"vac":true,"version":"7757534","steam_id":85568392924494504,"keywords":["nocrits","nodmgspread","payload","uncletopia"],"game_id":440,"stv_port":27016,"stv_name":"Uncletopia | Hong Kong | 1 | All Maps | STV","players":[{"user_id":190,"name":"paper boat","steam_id":76561198046558051,"connected_time":1476000000000,"state":"active","ping":88},{"user_id":236,"name":"choogs","steam_id":76561198854400238,"connected_time":100000000000,"state":"active","ping":84},{"user_id":132,"name":"Saggle","steam_id":76561198056075147,"connected_time":4749000000000,"state":"active","ping":142},{"user_id":176,"name":"Phou","steam_id":76561198322136756,"connected_time":1955000000000,"state":"active","ping":120},{"user_id":240,"name":"gutter runner","steam_id":76561198110545854,"connected_time":9000000000,"state":"spawning","ping":156},{"user_id":40,"name":"Vortex Medico","steam_id":76561198833527091,"connected_time":14673000000000,"state":"active","ping":87},{"user_id":160,"name":"Sneaky Ass Sniper","steam_id":76561198083923462,"connected_time":2634000000000,"state":"active","ping":75},{"user_id":183,"name":"The Worst Mobile Gamer","steam_id":76561199198665314,"connected_time":1709000000000,"state":"active","ping":179},{"user_id":161,"name":"Nice","steam_id":76561199180653046,"connected_time":2620000000000,"state":"active","ping":128},{"user_id":174,"name":"screaming sniper","steam_id":76561199085568674,"connected_time":2063000000000,"state":"active","ping":81},{"user_id":238,"name":"Rachugh","steam_id":76561199235852578,"connected_time":60000000000,"state":"active","ping":160},{"user_id":239,"name":"Operate EX","steam_id":76561199351297136,"connected_time":35000000000,"state":"active","ping":88},{"user_id":146,"name":"spinach (old mouse)","steam_id":76561198042539541,"connected_time":3843000000000,"state":"active","ping":77},{"user_id":202,"name":":)","steam_id":76561198437941450,"connected_time":1050000000000,"state":"active","ping":115},{"user_id":186,"name":"yw","steam_id":76561199382726488,"connected_time":1621000000000,"state":"active","ping":45},{"user_id":153,"name":"bruh","steam_id":76561199068229379,"connected_time":3518000000000,"state":"active","ping":60},{"user_id":78,"name":"JDSFE","steam_id":76561198975490851,"connected_time":12063000000000,"state":"active","ping":108},{"user_id":206,"name":"shoe of obama","steam_id":76561198837668887,"connected_time":986000000000,"state":"active","ping":89}]},{"server_id":1,"name":"Uncletopia | Los Angeles | 1 | All Maps","name_short":"lax-1","host":"lax-1.us.uncletopia.com","port":27015,"enabled":true,"region":"us-west","cc":"us","latitude":33.94279,"longitude":-118.41004,"reserved":0,"last_update":"0001-01-01T00:00:00Z","name_a2s":"Uncletopia | Los Angeles | 1 | All Maps","protocol":17,"map":"pl_swiftwater_final1","folder":"tf","game":"Team Fortress","app_id":440,"player_count":0,"max_players":24,"Bots":0,"server_type":"Dedicated","server_os":"Linux","password":true,"vac":true,"version":"7757534","steam_id":85568392924469991,"keywords":["nocrits","nodmgspread","payload","uncletopia"],"game_id":440,"stv_port":27016,"stv_name":"Uncletopia | Los Angeles | 1 | All Maps | STV","players":null},{"server_id":112,"name":"Uncletopia | Los Angeles | 2 | All Maps","name_short":"lax-2","host":"lax-1.us.uncletopia.com","port":27025,"enabled":true,"region":"us-west","cc":"us","latitude":33.94279,"longitude":-118.41004,"reserved":0,"last_update":"0001-01-01T00:00:00Z","name_a2s":"Uncletopia | Los Angeles | 2 | All Maps","protocol":17,"map":"koth_viaduct","folder":"tf","game":"Team Fortress","app_id":440,"player_count":0,"max_players":24,"Bots":0,"server_type":"Dedicated","server_os":"Linux","password":true,"vac":true,"version":"7757534","steam_id":85568392924469992,"keywords":["cp","nocrits","nodmgspread","uncletopia"],"game_id":440,"stv_port":27026,"stv_name":"Uncletopia | Los Angeles | 2 | All Maps | STV","players":null},{"server_id":324,"name":"Uncletopia | Los Angeles | 3 | All Maps","name_short":"lax-3","host":"lax-1.us.uncletopia.com","port":27035,"enabled":true,"region":"us-west","cc":"us","latitude":33.94279,"longitude":-118.41004,"reserved":0,"last_update":"0001-01-01T00:00:00Z","name_a2s":"Uncletopia | Los Angeles | 3 | All Maps","protocol":17,"map":"pl_frontier_final","folder":"tf","game":"Team Fortress","app_id":440,"player_count":0,"max_players":24,"Bots":0,"server_type":"Dedicated","server_os":"Linux","password":true,"vac":true,"version":"7757534","steam_id":85568392924510198,"keywords":["nocrits","nodmgspread","payload","uncletopia"],"game_id":440,"stv_port":27036,"stv_name":"Uncletopia | Los Angeles | 3 | All Maps | STV","players":null},{"server_id":25,"name":"Uncletopia | Los Angeles | 4 | Stopwatch Beta","name_short":"lax-4","host":"lax-1.us.uncletopia.com","port":27045,"enabled":true,"region":"us-west","cc":"us","latitude":33.94279,"longitude":-118.41004,"reserved":0,"last_update":"0001-01-01T00:00:00Z","name_a2s":"Uncletopia | Los Angeles | 4 | Stopwatch Beta","protocol":17,"map":"pl_swiftwater_final1","folder":"tf","game":"Team Fortress","app_id":440,"player_count":0,"max_players":24,"Bots":0,"server_type":"Dedicated","server_os":"Linux","password":true,"vac":true,"version":"7757534","steam_id":85568392924510199,"keywords":["nocrits","nodmgspread","payload","uncletopia"],"game_id":440,"stv_port":27046,"stv_name":"Uncletopia | Los Angeles | 4 | Stopwatch Beta | STV","players":null},{"server_id":11,"name":"Uncletopia | London | 1 | All Maps","name_short":"lon-1","host":"lon-1.uk.uncletopia.com","port":27015,"enabled":true,"region":"eu","cc":"gb","latitude":51.509865,"longitude":-0.118092,"reserved":0,"last_update":"0001-01-01T00:00:00Z","name_a2s":"Uncletopia | London | 1 | All Maps","protocol":17,"map":"pl_snowycoast","folder":"tf","game":"Team Fortress","app_id":440,"player_count":24,"max_players":24,"Bots":0,"server_type":"Dedicated","server_os":"Linux","password":true,"vac":true,"version":"7757534","steam_id":85568392924367362,"keywords":["nocrits","nodmgspread","payload","uncletopia"],"game_id":440,"stv_port":27016,"stv_name":"Uncletopia | London | 1 | All Maps | STV","players":[{"user_id":249,"name":"Zizman","steam_id":76561198446562910,"connected_time":463000000000,"state":"active","ping":140},{"user_id":236,"name":"and i'm javert!","steam_id":76561198117033273,"connected_time":1599000000000,"state":"active","ping":50},{"user_id":105,"name":"ugly","steam_id":76561199050412617,"connected_time":14084000000000,"state":"active","ping":108},{"user_id":240,"name":"Fozux","steam_id":76561198338204384,"connected_time":1106000000000,"state":"active","ping":109},{"user_id":241,"name":"Spinyapickle","steam_id":76561198086653667,"connected_time":1080000000000,"state":"active","ping":58},{"user_id":211,"name":"Svilar","steam_id":76561198828348612,"connected_time":3160000000000,"state":"active","ping":60},{"user_id":239,"name":"Turbo","steam_id":76561197973697756,"connected_time":1118000000000,"state":"active","ping":45},{"user_id":206,"name":"Piteras","steam_id":76561198858532207,"connected_time":3739000000000,"state":"active","ping":83},{"user_id":201,"name":"dimitrij_6ix_god","steam_id":76561199023275543,"connected_time":4127000000000,"state":"active","ping":86},{"user_id":245,"name":"Jim RocketFinger","steam_id":76561198011690583,"connected_time":703000000000,"state":"active","ping":86},{"user_id":173,"name":"maiden","steam_id":76561197994492154,"connected_time":7737000000000,"state":"active","ping":74},{"user_id":228,"name":"NitPig","steam_id":76561198212991935,"connected_time":1954000000000,"state":"active","ping":121},{"user_id":250,"name":"OutOfDucks","steam_id":76561198166376227,"connected_time":426000000000,"state":"active","ping":55},{"user_id":246,"name":"Ran33","steam_id":76561197991474499,"connected_time":630000000000,"state":"active","ping":87},{"user_id":220,"name":"marlboro red","steam_id":76561198373653790,"connected_time":2847000000000,"state":"active","ping":62},{"user_id":238,"name":"Loop_Cat","steam_id":76561199045902145,"connected_time":1403000000000,"state":"active","ping":130},{"user_id":46,"name":"Rin-Nakaret","steam_id":76561197971051188,"connected_time":18241000000000,"state":"active","ping":56},{"user_id":253,"name":"Joy","steam_id":76561198155314925,"connected_time":64000000000,"state":"active","ping":50},{"user_id":254,"name":"Energie360","steam_id":76561198301114106,"connected_time":13000000000,"state":"spawning","ping":145},{"user_id":243,"name":"Gordon","steam_id":76561198303652059,"connected_time":972000000000,"state":"active","ping":64},{"user_id":247,"name":"Karl","steam_id":76561198873581812,"connected_time":528000000000,"state":"active","ping":43},{"user_id":231,"name":"Vitule","steam_id":76561198344265906,"connected_time":1877000000000,"state":"active","ping":82},{"user_id":244,"name":"Hanni","steam_id":76561198090854482,"connected_time":728000000000,"state":"active","ping":97},{"user_id":252,"name":"I Bleed Butter","steam_id":76561198130814770,"connected_time":207000000000,"state":"active","ping":59}]},{"server_id":114,"name":"Uncletopia | London | 2 | All Maps","name_short":"lon-2","host":"lon-1.uk.uncletopia.com","port":27025,"enabled":true,"region":"eu","cc":"gb","latitude":51.509865,"longitude":-0.118092,"reserved":0,"last_update":"0001-01-01T00:00:00Z","name_a2s":"Uncletopia | London | 2 | All Maps","protocol":17,"map":"pl_barnblitz","folder":"tf","game":"Team Fortress","app_id":440,"player_count":24,"max_players":24,"Bots":0,"server_type":"Dedicated","server_os":"Linux","password":true,"vac":true,"version":"7757534","steam_id":85568392924470941,"keywords":["nocrits","nodmgspread","payload","uncletopia"],"game_id":440,"stv_port":27026,"stv_name":"Uncletopia | London | 2 | All Maps | STV","players":[{"user_id":191,"name":"Watermelon","steam_id":76561198078349914,"connected_time":860000000000,"state":"active","ping":48},{"user_id":201,"name":"Umbro","steam_id":76561198087930438,"connected_time":359000000000,"state":"active","ping":77},{"user_id":184,"name":"Sacco","steam_id":76561199048451187,"connected_time":1702000000000,"state":"active","ping":70},{"user_id":193,"name":"Dolcelatte","steam_id":76561198038501770,"connected_time":719000000000,"state":"active","ping":61},{"user_id":202,"name":"Rex Z'Beq","steam_id":76561199300590000,"connected_time":354000000000,"state":"active","ping":83},{"user_id":206,"name":"Dwevy","steam_id":76561198090379437,"connected_time":212000000000,"state":"active","ping":49},{"user_id":195,"name":"Truegear","steam_id":76561198059511386,"connected_time":678000000000,"state":"active","ping":68},{"user_id":203,"name":"Punchy","steam_id":76561197961020896,"connected_time":348000000000,"state":"active","ping":57},{"user_id":169,"name":"lulu","steam_id":76561199147764133,"connected_time":2624000000000,"state":"active","ping":73},{"user_id":188,"name":"Evelgrand","steam_id":76561199480523816,"connected_time":1568000000000,"state":"active","ping":104},{"user_id":196,"name":"Smooky","steam_id":76561198388368790,"connected_time":664000000000,"state":"active","ping":56},{"user_id":176,"name":"Lord z P√°rnie","steam_id":76561198070815677,"connected_time":2361000000000,"state":"active","ping":65},{"user_id":181,"name":"on1on (fried)","steam_id":76561197995304137,"connected_time":1780000000000,"state":"active","ping":69},{"user_id":182,"name":"G6 sherlock","steam_id":76561198802967796,"connected_time":1725000000000,"state":"active","ping":114},{"user_id":208,"name":"SaltyCupcakes","steam_id":76561198256386417,"connected_time":72000000000,"state":"active","ping":46},{"user_id":190,"name":"sAmasam","steam_id":76561198114953928,"connected_time":1037000000000,"state":"active","ping":61},{"user_id":185,"name":"t0ksi","steam_id":76561198107240798,"connected_time":1698000000000,"state":"active","ping":81},{"user_id":198,"name":"Hattmannen","steam_id":76561198340884902,"connected_time":616000000000,"state":"active","ping":83},{"user_id":205,"name":"ikeaworst","steam_id":76561198936990378,"connected_time":325000000000,"state":"active","ping":70},{"user_id":199,"name":"BatemanPatrick","steam_id":76561198393691611,"connected_time":607000000000,"state":"active","ping":62},{"user_id":209,"name":"MAKENTAKEN","steam_id":76561199127359587,"connected_time":34000000000,"state":"active","ping":139},{"user_id":175,"name":"RiX","steam_id":76561197969053733,"connected_time":2438000000000,"state":"active","ping":61},{"user_id":150,"name":"Floris Kakadoris","steam_id":76561198258458741,"connected_time":3945000000000,"state":"active","ping":61},{"user_id":207,"name":"Rat head","steam_id":76561198184360615,"connected_time":138000000000,"state":"active","ping":103}]},{"server_id":320,"name":"Uncletopia | London | 3 | All Maps","name_short":"lon-3","host":"lon-1.uk.uncletopia.com","port":27035,"enabled":true,"region":"eu","cc":"gb","latitude":51.509865,"longitude":-0.118092,"reserved":0,"last_update":"0001-01-01T00:00:00Z","name_a2s":"Uncletopia | London | 3 | All Maps","protocol":17,"map":"pl_badwater","folder":"tf","game":"Team Fortress","app_id":440,"player_count":0,"max_players":24,"Bots":0,"server_type":"Dedicated","server_os":"Linux","password":true,"vac":true,"version":"7757534","steam_id":85568392924510192,"keywords":["nocrits","nodmgspread","payload","uncletopia"],"game_id":440,"stv_port":27036,"stv_name":"Uncletopia | London | 3 | All Maps | STV","players":null},{"server_id":321,"name":"Uncletopia | London | 4 | All Maps","name_short":"lon-4","host":"lon-1.uk.uncletopia.com","port":27045,"enabled":true,"region":"eu","cc":"gb","latitude":51.509865,"longitude":-0.118092,"reserved":0,"last_update":"0001-01-01T00:00:00Z","name_a2s":"Uncletopia | London | 4 | All Maps","protocol":17,"map":"pl_borneo","folder":"tf","game":"Team Fortress","app_id":440,"player_count":0,"max_players":24,"Bots":0,"server_type":"Dedicated","server_os":"Linux","password":true,"vac":true,"version":"7757534","steam_id":85568392924510193,"keywords":["nocrits","nodmgspread","payload","uncletopia"],"game_id":440,"stv_port":27046,"stv_name":"Uncletopia | London | 4 | All Maps | STV","players":null},{"server_id":21,"name":"Uncletopia | London | 5 | All Maps","name_short":"lon-5","host":"lon-1.uk.uncletopia.com","port":27055,"enabled":true,"region":"eu","cc":"gb","latitude":51.509865,"longitude":-0.118092,"reserved":0,"last_update":"0001-01-01T00:00:00Z","name_a2s":"Uncletopia | London | 5 | All Maps","protocol":17,"map":"cp_altitude","folder":"tf","game":"Team Fortress","app_id":440,"player_count":0,"max_players":24,"Bots":0,"server_type":"Dedicated","server_os":"Linux","password":true,"vac":true,"version":"7757534","steam_id":85568392924742829,"keywords":["cp","nocrits","nodmgspread","uncletopia"],"game_id":440,"stv_port":27056,"stv_name":"Uncletopia | London | 5 | All Maps | STV","players":null},{"server_id":22,"name":"Uncletopia | London | 6 | All Maps","name_short":"lon-6","host":"lon-1.uk.uncletopia.com","port":27065,"enabled":true,"region":"eu","cc":"gb","latitude":51.509865,"longitude":-0.118092,"reserved":0,"last_update":"0001-01-01T00:00:00Z","name_a2s":"Uncletopia | London | 6 | All Maps","protocol":17,"map":"pl_frontier_final","folder":"tf","game":"Team Fortress","app_id":440,"player_count":0,"max_players":24,"Bots":0,"server_type":"Dedicated","server_os":"Linux","password":true,"vac":true,"version":"7757534","steam_id":85568392924742830,"keywords":["nocrits","nodmgspread","payload","uncletopia"],"game_id":440,"stv_port":27066,"stv_name":"Uncletopia | London | 6 | All Maps | STV","players":null},{"server_id":40,"name":"Uncletopia | London | 7 | No Payload","name_short":"lon-7","host":"lon-1.uk.uncletopia.com","port":27075,"enabled":true,"region":"eu","cc":"gb","latitude":51.509865,"longitude":-0.118092,"reserved":0,"last_update":"0001-01-01T00:00:00Z","name_a2s":"Uncletopia | London | 7 | No Payload","protocol":17,"map":"pl_badwater","folder":"tf","game":"Team Fortress","app_id":440,"player_count":0,"max_players":24,"Bots":0,"server_type":"Dedicated","server_os":"Linux","password":true,"vac":true,"version":"7757534","steam_id":85568392924964314,"keywords":["nocrits","nodmgspread","payload","uncletopia"],"game_id":440,"stv_port":27076,"stv_name":"Uncletopia | London | 7 | No Payload | STV","players":null},{"server_id":41,"name":"Uncletopia | London | 8 | Community","name_short":"lon-8","host":"lon-1.uk.uncletopia.com","port":27085,"enabled":true,"region":"eu","cc":"gb","latitude":51.509865,"longitude":-0.118092,"reserved":0,"last_update":"0001-01-01T00:00:00Z","name_a2s":"Uncletopia | London | 8 | Community","protocol":17,"map":"pl_barnblitz","folder":"tf","game":"Team Fortress","app_id":440,"player_count":0,"max_players":24,"Bots":0,"server_type":"Dedicated","server_os":"Linux","password":true,"vac":true,"version":"7757534","steam_id":85568392924964315,"keywords":["nocrits","nodmgspread","payload","uncletopia"],"game_id":440,"stv_port":27086,"stv_name":"Uncletopia | London | 8 | Community | STV","players":null},{"server_id":300,"name":"Uncletopia | Montr√©al | 1 | All Maps","name_short":"mtl-1","host":"mtl-1.ca.uncletopia.com","port":27015,"enabled":true,"region":"us-east","cc":"ca","latitude":45.50889,"longitude":-73.56167,"reserved":0,"last_update":"0001-01-01T00:00:00Z","name_a2s":"Uncletopia | Montr√©al | 1 | All Maps","protocol":17,"map":"pl_upward","folder":"tf","game":"Team Fortress","app_id":440,"player_count":0,"max_players":24,"Bots":0,"server_type":"Dedicated","server_os":"Linux","password":true,"vac":true,"version":"7757534","steam_id":85568392924500087,"keywords":["nocrits","nodmgspread","payload","uncletopia"],"game_id":440,"stv_port":27016,"stv_name":"Uncletopia | Montr√©al | 1 | All Maps | STV","players":null},{"server_id":301,"name":"Uncletopia | Montr√©al | 2 | All Maps","name_short":"mtl-2","host":"mtl-1.ca.uncletopia.com","port":27025,"enabled":true,"region":"us-east","cc":"ca","latitude":45.50889,"longitude":-73.56167,"reserved":0,"last_update":"0001-01-01T00:00:00Z","name_a2s":"Uncletopia | Montr√©al | 2 | All Maps","protocol":17,"map":"pl_snowycoast","folder":"tf","game":"Team Fortress","app_id":440,"player_count":0,"max_players":24,"Bots":0,"server_type":"Dedicated","server_os":"Linux","password":true,"vac":true,"version":"7757534","steam_id":85568392924500088,"keywords":["nocrits","nodmgspread","payload","uncletopia"],"game_id":440,"stv_port":27026,"stv_name":"Uncletopia | Montr√©al | 2 | All Maps | STV","players":null},{"server_id":302,"name":"Uncletopia | Montr√©al | 3 | All Maps","name_short":"mtl-3","host":"mtl-1.ca.uncletopia.com","port":27035,"enabled":true,"region":"us-east","cc":"ca","latitude":45.50889,"longitude":-73.56167,"reserved":0,"last_update":"0001-01-01T00:00:00Z","name_a2s":"Uncletopia | Montr√©al | 3 | All Maps","protocol":17,"map":"pl_swiftwater_final1","folder":"tf","game":"Team Fortress","app_id":440,"player_count":0,"max_players":24,"Bots":0,"server_type":"Dedicated","server_os":"Linux","password":true,"vac":true,"version":"7757534","steam_id":85568392924500089,"keywords":["nocrits","nodmgspread","payload","uncletopia"],"game_id":440,"stv_port":27036,"stv_name":"Uncletopia | Montr√©al | 3 | All Maps | STV","players":null},{"server_id":303,"name":"Uncletopia | Montr√©al | 4 | No Payload","name_short":"mtl-4","host":"mtl-1.ca.uncletopia.com","port":27045,"enabled":true,"region":"us-east","cc":"ca","latitude":45.50889,"longitude":-73.56167,"reserved":0,"last_update":"0001-01-01T00:00:00Z","name_a2s":"Uncletopia | Montr√©al | 4 | No Payload","protocol":17,"map":"pl_pier","folder":"tf","game":"Team Fortress","app_id":440,"player_count":0,"max_players":24,"Bots":0,"server_type":"Dedicated","server_os":"Linux","password":true,"vac":true,"version":"7757534","steam_id":85568392924500090,"keywords":["nocrits","nodmgspread","payload","uncletopia"],"game_id":440,"stv_port":27046,"stv_name":"Uncletopia | Montr√©al | 4 | No Payload | STV","players":null},{"server_id":13,"name":"Uncletopia | New York City | 1 | All Maps","name_short":"nyc-1","host":"nyc-1.us.uncletopia.com","port":27015,"enabled":true,"region":"us-east","cc":"us","latitude":40.73061,"longitude":-73.93524,"reserved":0,"last_update":"0001-01-01T00:00:00Z","name_a2s":"Uncletopia | New York City | 1 | All Maps","protocol":17,"map":"koth_viaduct","folder":"tf","game":"Team Fortress","app_id":440,"player_count":0,"max_players":24,"Bots":0,"server_type":"Dedicated","server_os":"Linux","password":true,"vac":true,"version":"7757534","steam_id":85568392924469993,"keywords":["cp","nocrits","nodmgspread","uncletopia"],"game_id":440,"stv_port":27016,"stv_name":"Uncletopia | New York City | 1 | All Maps | STV","players":null},{"server_id":14,"name":"Uncletopia | New York City | 2 | All Maps","name_short":"nyc-2","host":"nyc-1.us.uncletopia.com","port":27025,"enabled":true,"region":"us-east","cc":"us","latitude":40.73061,"longitude":-73.93524,"reserved":0,"last_update":"0001-01-01T00:00:00Z","name_a2s":"Uncletopia | New York City | 2 | All Maps","protocol":17,"map":"cp_dustbowl","folder":"tf","game":"Team Fortress","app_id":440,"player_count":0,"max_players":24,"Bots":0,"server_type":"Dedicated","server_os":"Linux","password":true,"vac":true,"version":"7757534","steam_id":85568392924469994,"keywords":["cp","nocrits","nodmgspread","uncletopia"],"game_id":440,"stv_port":27026,"stv_name":"Uncletopia | New York City | 2 | All Maps | STV","players":null},{"server_id":15,"name":"Uncletopia | New York City | 3 | Stopwatch Beta","name_short":"nyc-3","host":"nyc-1.us.uncletopia.com","port":27035,"enabled":true,"region":"us-east","cc":"us","latitude":40.73061,"longitude":-73.93524,"reserved":0,"last_update":"0001-01-01T00:00:00Z","name_a2s":"Uncletopia | New York City | 3 | Stopwatch Beta","protocol":17,"map":"pl_upward","folder":"tf","game":"Team Fortress","app_id":440,"player_count":0,"max_players":24,"Bots":0,"server_type":"Dedicated","server_os":"Linux","password":true,"vac":true,"version":"7757534","steam_id":85568392924742820,"keywords":["nocrits","nodmgspread","payload","uncletopia"],"game_id":440,"stv_port":27036,"stv_name":"Uncletopia | New York City | 3 | Stopwatch Beta | STV","players":null},{"server_id":16,"name":"Uncletopia | New York City | 4 | Community","name_short":"nyc-4","host":"nyc-1.us.uncletopia.com","port":27045,"enabled":true,"region":"us-east","cc":"us","latitude":40.73061,"longitude":-73.93524,"reserved":0,"last_update":"0001-01-01T00:00:00Z","name_a2s":"Uncletopia | New York City | 4 | Community","protocol":17,"map":"pl_swiftwater_final1","folder":"tf","game":"Team Fortress","app_id":440,"player_count":0,"max_players":24,"Bots":0,"server_type":"Dedicated","server_os":"Linux","password":true,"vac":true,"version":"7757534","steam_id":85568392924742821,"keywords":["nocrits","nodmgspread","payload","uncletopia"],"game_id":440,"stv_port":27046,"stv_name":"Uncletopia | New York City | 4 | Community | STV","players":null},{"server_id":142,"name":"Uncletopia | S√£o Paulo | 1 | All Maps","name_short":"sao-1","host":"sao-1.br.uncletopia.com","port":27015,"enabled":true,"region":"sa","cc":"br","latitude":-23.533773,"longitude":-46.62529,"reserved":0,"last_update":"0001-01-01T00:00:00Z","name_a2s":"Uncletopia | S√£o Paulo | 1 | All Maps","protocol":17,"map":"koth_lakeside_final","folder":"tf","game":"Team Fortress","app_id":440,"player_count":0,"max_players":24,"Bots":0,"server_type":"Dedicated","server_os":"Linux","password":true,"vac":true,"version":"7757534","steam_id":85568392924469996,"keywords":["cp","nocrits","nodmgspread","uncletopia"],"game_id":440,"stv_port":27016,"stv_name":"Uncletopia | S√£o Paulo | 1 | All Maps | STV","players":null},{"server_id":143,"name":"Uncletopia | S√£o Paulo | 2 | All Maps","name_short":"sao-2","host":"sao-2.br.uncletopia.com","port":27015,"enabled":true,"region":"sa","cc":"br","latitude":-23.533773,"longitude":-46.62529,"reserved":0,"last_update":"0001-01-01T00:00:00Z","name_a2s":"Uncletopia | S√£o Paulo | 2 | All Maps","protocol":17,"map":"pl_borneo","folder":"tf","game":"Team Fortress","app_id":440,"player_count":0,"max_players":24,"Bots":0,"server_type":"Dedicated","server_os":"Linux","password":true,"vac":true,"version":"7757534","steam_id":85568392924485349,"keywords":["nocrits","nodmgspread","payload","uncletopia"],"game_id":440,"stv_port":27016,"stv_name":"Uncletopia | S√£o Paulo | 2 | All Maps | STV","players":null},{"server_id":7,"name":"Uncletopia | Seattle | 1 | All Maps","name_short":"sea-1","host":"sea-1.us.uncletopia.com","port":27015,"enabled":true,"region":"us-west","cc":"us","latitude":47.608013,"longitude":-122.33517,"reserved":0,"last_update":"0001-01-01T00:00:00Z","name_a2s":"Uncletopia | Seattle | 1 | All Maps","protocol":17,"map":"pl_badwater","folder":"tf","game":"Team Fortress","app_id":440,"player_count":19,"max_players":24,"Bots":0,"server_type":"Dedicated","server_os":"Linux","password":true,"vac":true,"version":"7757534","steam_id":85568392924469997,"keywords":["nocrits","nodmgspread","payload","uncletopia"],"game_id":440,"stv_port":27016,"stv_name":"Uncletopia | Seattle | 1 | All Maps | STV","players":[{"user_id":718,"name":"pt","steam_id":76561198143023330,"connected_time":1474000000000,"state":"active","ping":74},{"user_id":725,"name":"Jimmy jam123","steam_id":76561199216003981,"connected_time":274000000000,"state":"active","ping":137},{"user_id":719,"name":"twin","steam_id":76561198055626638,"connected_time":1451000000000,"state":"active","ping":143},{"user_id":701,"name":"HellaCopter","steam_id":76561198062313698,"connected_time":3266000000000,"state":"active","ping":51},{"user_id":690,"name":"[Zero] Lag","steam_id":76561198983494186,"connected_time":5461000000000,"state":"active","ping":115},{"user_id":666,"name":"DMAFGreatoverlordSchikonmaster","steam_id":76561198123510618,"connected_time":8532000000000,"state":"active","ping":58},{"user_id":723,"name":"Nalyk","steam_id":76561198043886843,"connected_time":300000000000,"state":"active","ping":55},{"user_id":727,"name":"jcontes11","steam_id":76561199098001805,"connected_time":21000000000,"state":"active","ping":149},{"user_id":728,"name":"LoistBoy","steam_id":76561198892200553,"connected_time":15000000000,"state":"active","ping":130},{"user_id":703,"name":"Soozy420","steam_id":76561198809074422,"connected_time":3241000000000,"state":"active","ping":72},{"user_id":709,"name":"Sir Galahad","steam_id":76561198195999859,"connected_time":2513000000000,"state":"active","ping":55},{"user_id":716,"name":"Bubblegum Tip","steam_id":76561198048131308,"connected_time":1920000000000,"state":"active","ping":64},{"user_id":722,"name":"Jface1221","steam_id":76561198188082091,"connected_time":952000000000,"state":"active","ping":69},{"user_id":702,"name":"Rain","steam_id":76561198065612273,"connected_time":3264000000000,"state":"active","ping":45},{"user_id":720,"name":"Biggest Mac","steam_id":76561198301850961,"connected_time":1417000000000,"state":"active","ping":117},{"user_id":724,"name":"Drapph","steam_id":76561199384213314,"connected_time":288000000000,"state":"active","ping":101},{"user_id":700,"name":"El Duderino","steam_id":76561199427900685,"connected_time":3269000000000,"state":"active","ping":90},{"user_id":677,"name":"RED","steam_id":76561198030282308,"connected_time":7279000000000,"state":"active","ping":62},{"user_id":697,"name":"seats","steam_id":76561197998756039,"connected_time":4048000000000,"state":"active","ping":72}]},{"server_id":119,"name":"Uncletopia | Seattle | 2 | All Maps","name_short":"sea-2","host":"sea-1.us.uncletopia.com","port":27025,"enabled":true,"region":"us-west","cc":"us","latitude":47.608013,"longitude":-122.33517,"reserved":0,"last_update":"0001-01-01T00:00:00Z","name_a2s":"Uncletopia | Seattle | 2 | All Maps","protocol":17,"map":"koth_cascade","folder":"tf","game":"Team Fortress","app_id":440,"player_count":0,"max_players":24,"Bots":0,"server_type":"Dedicated","server_os":"Linux","password":true,"vac":true,"version":"7757534","steam_id":85568392924469998,"keywords":["cp","nocrits","nodmgspread","uncletopia"],"game_id":440,"stv_port":27026,"stv_name":"Uncletopia | Seattle | 2 | All Maps | STV","players":null},{"server_id":406,"name":"Uncletopia | Seattle | 3 | Stopwatch Beta","name_short":"sea-3","host":"sea-1.us.uncletopia.com","port":27035,"enabled":true,"region":"us-west","cc":"us","latitude":47.608013,"longitude":-122.33517,"reserved":0,"last_update":"0001-01-01T00:00:00Z","name_a2s":"Uncletopia | Seattle | 3 | Stopwatch Beta","protocol":17,"map":"workshop/pl_vigil_rc9.ugc1266210012","folder":"tf","game":"Team Fortress","app_id":440,"player_count":0,"max_players":24,"Bots":0,"server_type":"Dedicated","server_os":"Linux","password":true,"vac":true,"version":"7757534","steam_id":85568392924515217,"keywords":["nocrits","nodmgspread","payload","uncletopia"],"game_id":440,"stv_port":27036,"stv_name":"Uncletopia | Seattle | 3 | Stopwatch Beta | STV","players":null},{"server_id":17,"name":"Uncletopia | San Francisco | 1 | All Maps","name_short":"sfo-1","host":"sfo-1.us.uncletopia.com","port":27015,"enabled":true,"region":"us-west","cc":"us","latitude":37.77397,"longitude":-122.4313,"reserved":0,"last_update":"0001-01-01T00:00:00Z","name_a2s":"Uncletopia | San Francisco | 1 | All Maps","protocol":17,"map":"ctf_2fort","folder":"tf","game":"Team Fortress","app_id":440,"player_count":14,"max_players":24,"Bots":0,"server_type":"Dedicated","server_os":"Linux","password":true,"vac":true,"version":"7757534","steam_id":85568392924469999,"keywords":["ctf","nocrits","nodmgspread","uncletopia"],"game_id":440,"stv_port":27016,"stv_name":"Uncletopia | San Francisco | 1 | All Maps | STV","players":[{"user_id":1036,"name":"Turnabout","steam_id":76561198027378787,"connected_time":258000000000,"state":"active","ping":59},{"user_id":1037,"name":"Mak","steam_id":76561198089197922,"connected_time":239000000000,"state":"active","ping":74},{"user_id":1029,"name":"AstroVulpes","steam_id":76561198384277161,"connected_time":2172000000000,"state":"active","ping":217},{"user_id":1038,"name":"Bl4ackDmon","steam_id":76561198288482730,"connected_time":238000000000,"state":"active","ping":51},{"user_id":1020,"name":"Cyber the Raccoon Fox","steam_id":76561198046571972,"connected_time":4130000000000,"state":"active","ping":119},{"user_id":1021,"name":"Toasty","steam_id":76561198274170167,"connected_time":3889000000000,"state":"active","ping":105},{"user_id":1030,"name":"nic","steam_id":76561198030654668,"connected_time":2158000000000,"state":"active","ping":73},{"user_id":1039,"name":"EpsilonEagle","steam_id":76561197999126769,"connected_time":108000000000,"state":"active","ping":150},{"user_id":1028,"name":"Capra-Cabra","steam_id":76561198298837805,"connected_time":2275000000000,"state":"active","ping":81},{"user_id":1031,"name":"Jacob T. Fox","steam_id":76561198047279351,"connected_time":2150000000000,"state":"active","ping":58},{"user_id":1032,"name":"Zizen","steam_id":76561199011832069,"connected_time":1915000000000,"state":"active","ping":51},{"user_id":1033,"name":"- K.K.-","steam_id":76561198825567047,"connected_time":1854000000000,"state":"active","ping":121},{"user_id":1040,"name":"Federal_Dmann","steam_id":76561198988471314,"connected_time":105000000000,"state":"active","ping":193},{"user_id":1000,"name":"Wacks","steam_id":76561198079476100,"connected_time":11268000000000,"state":"active","ping":50}]},{"server_id":18,"name":"Uncletopia | San Francisco | 2 | All Maps","name_short":"sfo-2","host":"sfo-1.us.uncletopia.com","port":27025,"enabled":true,"region":"us-west","cc":"us","latitude":37.77397,"longitude":-122.4313,"reserved":0,"last_update":"0001-01-01T00:00:00Z","name_a2s":"Uncletopia | San Francisco | 2 | All Maps","protocol":17,"map":"cp_dustbowl","folder":"tf","game":"Team Fortress","app_id":440,"player_count":0,"max_players":24,"Bots":0,"server_type":"Dedicated","server_os":"Linux","password":true,"vac":true,"version":"7757534","steam_id":85568392924470000,"keywords":["cp","nocrits","nodmgspread","uncletopia"],"game_id":440,"stv_port":27026,"stv_name":"Uncletopia | San Francisco | 2 | All Maps | STV","players":null},{"server_id":19,"name":"Uncletopia | San Francisco | 3 | Stopwatch Beta","name_short":"sfo-3","host":"sfo-1.us.uncletopia.com","port":27035,"enabled":true,"region":"us-west","cc":"us","latitude":37.77397,"longitude":-122.4313,"reserved":0,"last_update":"0001-01-01T00:00:00Z","name_a2s":"Uncletopia | San Francisco | 3 | Stopwatch Beta","protocol":17,"map":"workshop/koth_clearcut_b15.ugc2107050255","folder":"tf","game":"Team Fortress","app_id":440,"player_count":0,"max_players":24,"Bots":0,"server_type":"Dedicated","server_os":"Linux","password":true,"vac":true,"version":"7757534","steam_id":85568392924742824,"keywords":["cp","nocrits","nodmgspread","uncletopia"],"game_id":440,"stv_port":27036,"stv_name":"Uncletopia | San Francisco | 3 | Stopwatch Beta | STV","players":null},{"server_id":20,"name":"Uncletopia | San Francisco | 4 | Community","name_short":"sfo-4","host":"sfo-1.us.uncletopia.com","port":27045,"enabled":true,"region":"us-west","cc":"us","latitude":37.77397,"longitude":-122.4313,"reserved":0,"last_update":"0001-01-01T00:00:00Z","name_a2s":"Uncletopia | San Francisco | 4 | Community","protocol":17,"map":"workshop/pl_cactuscanyon_redux_final2.ugc2579644293","folder":"tf","game":"Team Fortress","app_id":440,"player_count":0,"max_players":24,"Bots":0,"server_type":"Dedicated","server_os":"Linux","password":true,"vac":true,"version":"7757534","steam_id":85568392924742826,"keywords":["nocrits","nodmgspread","payload","uncletopia"],"game_id":440,"stv_port":27046,"stv_name":"Uncletopia | San Francisco | 4 | Community | STV","players":null},{"server_id":141,"name":"Uncletopia | Sydney | 1 | All Maps","name_short":"syd-1","host":"syd-1.au.uncletopia.com","port":27015,"enabled":true,"region":"au","cc":"au","latitude":-33.865143,"longitude":151.2099,"reserved":0,"last_update":"0001-01-01T00:00:00Z","name_a2s":"Uncletopia | Sydney | 1 | All Maps","protocol":17,"map":"pl_snowycoast","folder":"tf","game":"Team Fortress","app_id":440,"player_count":23,"max_players":24,"Bots":0,"server_type":"Dedicated","server_os":"Linux","password":true,"vac":true,"version":"7757534","steam_id":85568392924470001,"keywords":["nocrits","nodmgspread","payload","uncletopia"],"game_id":440,"stv_port":27016,"stv_name":"Uncletopia | Sydney | 1 | All Maps | STV","players":[{"user_id":186,"name":"Krispy Kreme","steam_id":76561197997362731,"connected_time":879000000000,"state":"active","ping":46},{"user_id":193,"name":"Granolarama","steam_id":76561198059129270,"connected_time":492000000000,"state":"active","ping":61},{"user_id":199,"name":"ÿØŸÖÿ® ÿ≤ŸÜÿ¨Ÿä","steam_id":76561198201760578,"connected_time":126000000000,"state":"active","ping":49},{"user_id":195,"name":"FrOStY","steam_id":76561198088155805,"connected_time":410000000000,"state":"active","ping":81},{"user_id":200,"name":"toblue","steam_id":76561198189137465,"connected_time":113000000000,"state":"active","ping":109},{"user_id":163,"name":"Leany","steam_id":76561198029322296,"connected_time":2672000000000,"state":"active","ping":91},{"user_id":191,"name":"Matt","steam_id":76561198006791420,"connected_time":718000000000,"state":"active","ping":99},{"user_id":194,"name":"Revetron","steam_id":76561198108592373,"connected_time":487000000000,"state":"active","ping":41},{"user_id":162,"name":"curtis","steam_id":76561197993731862,"connected_time":2732000000000,"state":"active","ping":90},{"user_id":202,"name":"FatScout","steam_id":76561198013870201,"connected_time":1000000000,"state":"spawning","ping":30},{"user_id":173,"name":"blicky","steam_id":76561198029829077,"connected_time":2381000000000,"state":"active","ping":98},{"user_id":192,"name":"Splasher1","steam_id":76561198239753638,"connected_time":525000000000,"state":"active","ping":61},{"user_id":181,"name":"Capt. Dea'Claw","steam_id":76561198025419320,"connected_time":1641000000000,"state":"active","ping":49},{"user_id":144,"name":"Johnny","steam_id":76561198046140614,"connected_time":4462000000000,"state":"active","ping":100},{"user_id":185,"name":"FreeBeers","steam_id":76561198095448607,"connected_time":1287000000000,"state":"active","ping":67},{"user_id":190,"name":"Hirige","steam_id":76561198028716906,"connected_time":766000000000,"state":"active","ping":62},{"user_id":166,"name":"[FTW] RonnieD'","steam_id":76561197993957267,"connected_time":2640000000000,"state":"active","ping":46},{"user_id":197,"name":"Arro","steam_id":76561198084990929,"connected_time":316000000000,"state":"active","ping":507},{"user_id":179,"name":"Cris.p bacon","steam_id":76561199230423491,"connected_time":1904000000000,"state":"active","ping":105},{"user_id":167,"name":"Johnny Fairplay","steam_id":76561198121757287,"connected_time":2635000000000,"state":"active","ping":46},{"user_id":170,"name":"saudi ambassador messi","steam_id":76561198031293430,"connected_time":2566000000000,"state":"active","ping":84},{"user_id":183,"name":"helryeginn","steam_id":76561198202750573,"connected_time":1379000000000,"state":"active","ping":48},{"user_id":125,"name":"covenofbats","steam_id":76561198152117315,"connected_time":5334000000000,"state":"active","ping":46}]},{"server_id":123,"name":"Uncletopia | Sydney | 2 | All Maps","name_short":"syd-2","host":"syd-1.au.uncletopia.com","port":27025,"enabled":true,"region":"au","cc":"au","latitude":-33.865143,"longitude":151.2099,"reserved":0,"last_update":"0001-01-01T00:00:00Z","name_a2s":"Uncletopia | Sydney | 2 | All Maps","protocol":17,"map":"cp_dustbowl","folder":"tf","game":"Team Fortress","app_id":440,"player_count":13,"max_players":24,"Bots":0,"server_type":"Dedicated","server_os":"Linux","password":true,"vac":true,"version":"7757534","steam_id":85568392924470002,"keywords":["cp","nocrits","nodmgspread","uncletopia"],"game_id":440,"stv_port":27026,"stv_name":"Uncletopia | Sydney | 2 | All Maps | STV","players":[{"user_id":418,"name":"Blackchantingrows","steam_id":76561198972312498,"connected_time":294000000000,"state":"active","ping":293},{"user_id":419,"name":"D J","steam_id":76561198337506106,"connected_time":243000000000,"state":"active","ping":43},{"user_id":384,"name":"LilCringe","steam_id":76561198171135461,"connected_time":2910000000000,"state":"active","ping":54},{"user_id":416,"name":"Branko","steam_id":76561199262196710,"connected_time":812000000000,"state":"active","ping":37},{"user_id":370,"name":"tim88435","steam_id":76561198089653987,"connected_time":4503000000000,"state":"active","ping":56},{"user_id":383,"name":"cas ganister","steam_id":76561198879023728,"connected_time":3005000000000,"state":"active","ping":49},{"user_id":411,"name":"‡∏∏","steam_id":76561198082073940,"connected_time":1091000000000,"state":"active","ping":37},{"user_id":393,"name":"Midgetslayer69","steam_id":76561199017378513,"connected_time":2301000000000,"state":"active","ping":94},{"user_id":412,"name":"The Goon","steam_id":76561198434696450,"connected_time":1056000000000,"state":"active","ping":163},{"user_id":390,"name":"chedd","steam_id":76561198241344362,"connected_time":2435000000000,"state":"active","ping":99},{"user_id":398,"name":"mboy","steam_id":76561198136218040,"connected_time":2199000000000,"state":"active","ping":45},{"user_id":357,"name":"Samedi","steam_id":76561198252369460,"connected_time":5807000000000,"state":"active","ping":63},{"user_id":397,"name":"Jr. Cpt. Cringe","steam_id":76561198361925565,"connected_time":2240000000000,"state":"active","ping":85}]},{"server_id":395,"name":"Uncletopia | Sydney | 3 | All Maps","name_short":"syd-3","host":"syd-1.au.uncletopia.com","port":27035,"enabled":true,"region":"au","cc":"au","latitude":-33.865143,"longitude":151.2099,"reserved":0,"last_update":"0001-01-01T00:00:00Z","name_a2s":"Uncletopia | Sydney | 3 | All Maps","protocol":17,"map":"koth_highpass","folder":"tf","game":"Team Fortress","app_id":440,"player_count":0,"max_players":24,"Bots":0,"server_type":"Dedicated","server_os":"Linux","password":true,"vac":true,"version":"7757534","steam_id":85568392925194467,"keywords":["cp","nocrits","nodmgspread","uncletopia"],"game_id":440,"stv_port":27036,"stv_name":"Uncletopia | Sydney | 3 | All Maps | STV","players":null},{"server_id":396,"name":"Uncletopia | Sydney | 4 | All Maps","name_short":"syd-4","host":"syd-1.au.uncletopia.com","port":27045,"enabled":true,"region":"au","cc":"au","latitude":-33.865143,"longitude":151.2099,"reserved":0,"last_update":"0001-01-01T00:00:00Z","name_a2s":"Uncletopia | Sydney | 4 | All Maps","protocol":17,"map":"pl_badwater","folder":"tf","game":"Team Fortress","app_id":440,"player_count":0,"max_players":24,"Bots":0,"server_type":"Dedicated","server_os":"Linux","password":true,"vac":true,"version":"7757534","steam_id":85568392925397958,"keywords":["nocrits","nodmgspread","payload","uncletopia"],"game_id":440,"stv_port":27046,"stv_name":"Uncletopia | Sydney | 4 | All Maps | STV","players":null},{"server_id":58,"name":"Uncletopia | Sydney | 5 | Stopwatch Beta","name_short":"syd-5","host":"syd-1.au.uncletopia.com","port":27055,"enabled":true,"region":"au","cc":"au","latitude":-33.865143,"longitude":151.2099,"reserved":0,"last_update":"0001-01-01T00:00:00Z","name_a2s":"Uncletopia | Sydney | 5 | Stopwatch Beta","protocol":17,"map":"workshop/koth_clearcut_b15.ugc2107050255","folder":"tf","game":"Team Fortress","app_id":440,"player_count":0,"max_players":24,"Bots":0,"server_type":"Dedicated","server_os":"Linux","password":true,"vac":true,"version":"7757534","steam_id":85568392925397959,"keywords":["cp","nocrits","nodmgspread","uncletopia"],"game_id":440,"stv_port":27056,"stv_name":"Uncletopia | Sydney | 5 | Stopwatch Beta | STV","players":null},{"server_id":59,"name":"Uncletopia | Sydney | 6 | Community","name_short":"syd-6","host":"syd-1.au.uncletopia.com","port":27065,"enabled":true,"region":"au","cc":"au","latitude":-33.865143,"longitude":151.2099,"reserved":0,"last_update":"0001-01-01T00:00:00Z","name_a2s":"Uncletopia | Sydney | 6 | Community","protocol":17,"map":"cp_snakewater_final1","folder":"tf","game":"Team Fortress","app_id":440,"player_count":0,"max_players":24,"Bots":0,"server_type":"Dedicated","server_os":"Linux","password":true,"vac":true,"version":"7757534","steam_id":85568392925397960,"keywords":["cp","nocrits","nodmgspread","uncletopia"],"game_id":440,"stv_port":27066,"stv_name":"Uncletopia | Sydney | 6 | Community | STV","players":null},{"server_id":49,"name":"Uncletopia | Warsaw | 1 | All Maps","name_short":"waw-1","host":"waw-1.pl.uncletopia.com","port":27015,"enabled":true,"region":"eu","cc":"pl","latitude":52.2297,"longitude":21.017532,"reserved":0,"last_update":"0001-01-01T00:00:00Z","name_a2s":"","protocol":0,"map":"","folder":"","game":"","app_id":0,"player_count":0,"max_players":0,"Bots":0,"server_type":"","server_os":"","password":false,"vac":false,"version":"","steam_id":0,"keywords":null,"game_id":0,"stv_port":0,"stv_name":"","players":null},{"server_id":50,"name":"Uncletopia | Warsaw | 2 | All Maps","name_short":"waw-2","host":"waw-1.pl.uncletopia.com","port":27025,"enabled":true,"region":"eu","cc":"pl","latitude":52.2297,"longitude":21.017532,"reserved":0,"last_update":"0001-01-01T00:00:00Z","name_a2s":"Uncletopia | Warsaw | 2 | All Maps","protocol":17,"map":"koth_highpass","folder":"tf","game":"Team Fortress","app_id":440,"player_count":4,"max_players":24,"Bots":0,"server_type":"Dedicated","server_os":"Linux","password":true,"vac":true,"version":"7757534","steam_id":85568392925397851,"keywords":["cp","nocrits","nodmgspread","uncletopia"],"game_id":440,"stv_port":27026,"stv_name":"Uncletopia | Warsaw | 2 | All Maps | STV","players":[{"user_id":4,"name":"Fish Bait","steam_id":76561198196406966,"connected_time":3811000000000,"state":"active","ping":56},{"user_id":5,"name":"Blam","steam_id":76561199142730050,"connected_time":3393000000000,"state":"active","ping":132},{"user_id":8,"name":"Cyan Ruby","steam_id":76561199237253577,"connected_time":2212000000000,"state":"active","ping":185},{"user_id":9,"name":"Flying skyhigh","steam_id":76561198372971096,"connected_time":2133000000000,"state":"active","ping":91}]},{"server_id":51,"name":"Uncletopia | Warsaw | 3 | All Maps","name_short":"waw-3","host":"waw-1.pl.uncletopia.com","port":27035,"enabled":true,"region":"eu","cc":"pl","latitude":52.2297,"longitude":21.017532,"reserved":0,"last_update":"0001-01-01T00:00:00Z","name_a2s":"Uncletopia | Warsaw | 3 | All Maps","protocol":17,"map":"pl_badwater","folder":"tf","game":"Team Fortress","app_id":440,"player_count":0,"max_players":24,"Bots":0,"server_type":"Dedicated","server_os":"Linux","password":true,"vac":true,"version":"7757534","steam_id":85568392925397852,"keywords":["nocrits","nodmgspread","payload","uncletopia"],"game_id":440,"stv_port":27036,"stv_name":"Uncletopia | Warsaw | 3 | All Maps | STV","players":null},{"server_id":52,"name":"Uncletopia | Warsaw | 4 | All Maps","name_short":"waw-4","host":"waw-1.pl.uncletopia.com","port":27045,"enabled":true,"region":"eu","cc":"pl","latitude":52.2297,"longitude":21.017532,"reserved":0,"last_update":"0001-01-01T00:00:00Z","name_a2s":"Uncletopia | Warsaw | 4 | All Maps","protocol":17,"map":"koth_lakeside_final","folder":"tf","game":"Team Fortress","app_id":440,"player_count":0,"max_players":24,"Bots":0,"server_type":"Dedicated","server_os":"Linux","password":true,"vac":true,"version":"7757534","steam_id":85568392925397853,"keywords":["cp","nocrits","nodmgspread","uncletopia"],"game_id":440,"stv_port":27046,"stv_name":"Uncletopia | Warsaw | 4 | All Maps | STV","players":null},{"server_id":53,"name":"Uncletopia | Warsaw | 5 | Stopwatch Beta","name_short":"waw-5","host":"waw-1.pl.uncletopia.com","port":27055,"enabled":true,"region":"eu","cc":"pl","latitude":52.2297,"longitude":21.017532,"reserved":0,"last_update":"0001-01-01T00:00:00Z","name_a2s":"Uncletopia | Warsaw | 5 | Stopwatch Beta","protocol":17,"map":"pl_borneo","folder":"tf","game":"Team Fortress","app_id":440,"player_count":0,"max_players":24,"Bots":0,"server_type":"Dedicated","server_os":"Linux","password":true,"vac":true,"version":"7757534","steam_id":85568392925397854,"keywords":["nocrits","nodmgspread","payload","uncletopia"],"game_id":440,"stv_port":27056,"stv_name":"Uncletopia | Warsaw | 5 | Stopwatch Beta | STV","players":null},{"server_id":54,"name":"Uncletopia | Warsaw | 6 | Community","name_short":"waw-6","host":"waw-1.pl.uncletopia.com","port":27065,"enabled":true,"region":"eu","cc":"pl","latitude":52.2297,"longitude":21.017532,"reserved":0,"last_update":"0001-01-01T00:00:00Z","name_a2s":"Uncletopia | Warsaw | 6 | Community","protocol":17,"map":"koth_lakeside_final","folder":"tf","game":"Team Fortress","app_id":440,"player_count":0,"max_players":24,"Bots":0,"server_type":"Dedicated","server_os":"Linux","password":true,"vac":true,"version":"7757534","steam_id":85568392925397856,"keywords":["cp","nocrits","nodmgspread","uncletopia"],"game_id":440,"stv_port":27066,"stv_name":"Uncletopia | Warsaw | 6 | Community | STV","players":null}]}