{"status":true,"message":"","result":[{"server_id":9,"name":"Uncletopia | Atlanta | 1 | All Maps","name_short":"atl-1","host":"atl-1.us.uncletopia.com","port":27015,"enabled":true,"region":"us-east","cc":"us","latitude":33.753746,"longitude":-84.38633,"reserved":0,"last_update":"0001-01-01T00:00:00Z","name_a2s":"Uncletopia | Atlanta | 1 | All Maps","protocol":17,"map":"koth_cascade","folder":"tf","game":"Team Fortress","app_id":440,"player_count":0,"max_players":24,"Bots":0,"server_type":"Dedicated","server_os":"Linux","password":true,"vac":true,"version":"7757534","steam_id":85568392924469982,"keywords":["cp","nocrits","nodmgspread","uncletopia"],"game_id":440,"stv_port":27016,"stv_name":"Uncletopia | Atlanta | 1 | All Maps | STV","players":null},{"server_id":104,"name":"Uncletopia | Atlanta | 2 | All Maps","name_short":"atl-2","host":"atl-1.us.uncletopia.com","port":27025,"enabled":true,"region":"us-east","cc":"us","latitude":33.753746,"longitude":-84.38633,"reserved":0,"last_update":"0001-01-01T00:00:00Z","name_a2s":"Uncletopia | Atlanta | 2 | All Maps","protocol":17,"map":"cp_dustbowl","folder":"tf","game":"Team Fortress","app_id":440,"player_count":0,"max_players":24,"Bots":0,"server_type":"Dedicated","server_os":"Linux","password":true,"vac":true,"version":"7757534","steam_id":85568392924469983,"keywords":["cp","nocrits","nodmgspread","uncletopia"],"game_id":440,"stv_port":27026,"stv_name":"Uncletopia | Atlanta | 2 | All Maps | STV","players":null},{"server_id":400,"name":"Uncletopia | Atlanta | 3 | Community","name_short":"atl-3","host":"atl-1.us.uncletopia.com","port":27035,"enabled":true,"region":"us-east","cc":"us","latitude":33.753746,"longitude":-84.38633,"reserved":0,"last_update":"0001-01-01T00:00:00Z","name_a2s":"Uncletopia | Atlanta | 3 | Community","protocol":17,"map":"cp_snakewater_final1","folder":"tf","game":"Team Fortress","app_id":440,"player_count":0,"max_players":24,"Bots":0,"server_type":"Dedicated","server_os":"Linux","password":true,"vac":true,"version":"7757534","steam_id":85568392924515187,"keywords":["cp","nocrits","nodmgspread","uncletopia"],"game_id":440,"stv_port":27036,"stv_name":"Uncletopia | Atlanta | 3 | Community | STV","players":null},{"server_id":401,"name":"Uncletopia | Atlanta | 4 | No Payload","name_short":"atl-4","host":"atl-1.us.uncletopia.com","port":27045,"enabled":true,"region":"us-east","cc":"us","latitude":33.753746,"longitude":-84.38633,"reserved":0,"last_update":"0001-01-01T00:00:00Z","name_a2s":"","protocol":0,"map":"","folder":"","game":"","app_id":0,"player_count":0,"max_players":0,"Bots":0,"server_type":"","server_os":"","password":false,"vac":false,"version":"","steam_id":0,"keywords":null,"game_id":0,"stv_port":0,"stv_name":"","players":null},{"server_id":2,"name":"Uncletopia | Chicago | 1 | All Maps","name_short":"chi-1","host":"chi-1.us.uncletopia.com","port":27015,"enabled":true,"region":"us-central","cc":"us","latitude":41.881832,"longitude":-87.62318,"reserved":0,"last_update":"0001-01-01T00:00:00Z","name_a2s":"Uncletopia | Chicago | 1 | All Maps","protocol":17,"map":"plr_bananabay","folder":"tf","game":"Team Fortress","app_id":440,"player_count":0,"max_players":24,"Bots":0,"server_type":"Dedicated","server_os":"Linux","password":true,"vac":true,"version":"7757534","steam_id":85568392924469984,"keywords":["nocrits","nodmgspread","payload","uncletopia"],"game_id":440,"stv_port":27016,"stv_name":"Uncletopia | Chicago | 1 | All Maps | STV","players":null},{"server_id":106,"name":"Uncletopia | Chicago | 2 | All Maps","name_short":"chi-2","host":"chi-1.us.uncletopia.com","port":27025,"enabled":true,"region":"us-central","cc":"us","latitude":41.881832,"longitude":-87.62318,"reserved":0,"last_update":"0001-01-01T00:00:00Z","name_a2s":"Uncletopia | Chicago | 2 | All Maps","protocol":17,"map":"pl_borneo","folder":"tf","game":"Team Fortress","app_id":440,"player_count":18,"max_players":24,"Bots":0,"server_type":"Dedicated","server_os":"Linux","password":true,"vac":true,"version":"7757534","steam_id":85568392924469985,"keywords":["nocrits","nodmgspread","payload","uncletopia"],"game_id":440,"stv_port":27026,"stv_name":"Uncletopia | Chicago | 2 | All Maps | STV","players":[{"user_id":1066,"name":"charm quark","steam_id":76561198098770777,"connected_time":685000000000,"state":"active","ping":90},{"user_id":1072,"name":"nic","steam_id":76561198030654668,"connected_time":27000000000,"state":"active","ping":148},{"user_id":1067,"name":"INFINITE","steam_id":76561197971285557,"connected_time":476000000000,"state":"active","ping":62},{"user_id":1071,"name":"your car's extended warranty","steam_id":76561198013308693,"connected_time":180000000000,"state":"active","ping":63},{"user_id":1065,"name":"justchillin","steam_id":76561197972605325,"connected_time":785000000000,"state":"active","ping":180},{"user_id":1060,"name":"YoursTruly","steam_id":76561199102839784,"connected_time":1171000000000,"state":"active","ping":105},{"user_id":1069,"name":"Coffee with a Stranger","steam_id":76561198307422313,"connected_time":339000000000,"state":"active","ping":62},{"user_id":997,"name":"TomsM","steam_id":76561198295153503,"connected_time":5947000000000,"state":"active","ping":182},{"user_id":1070,"name":"Piss Sniper","steam_id":76561198317602350,"connected_time":265000000000,"state":"active","ping":85},{"user_id":998,"name":"RapidXenophage","steam_id":76561198175149973,"connected_time":5895000000000,"state":"active","ping":104},{"user_id":1045,"name":"Stardust Birds","steam_id":76561198056816698,"connected_time":2655000000000,"state":"active","ping":60},{"user_id":1073,"name":"Griffin","steam_id":76561198159339442,"connected_time":12000000000,"state":"spawning","ping":58},{"user_id":1025,"name":"Stan","steam_id":76561199057962816,"connected_time":4622000000000,"state":"active","ping":55},{"user_id":1051,"name":"‚û∑ eina ","steam_id":76561197975540289,"connected_time":2075000000000,"state":"active","ping":51},{"user_id":1035,"name":"badboy6996","steam_id":76561197969386201,"connected_time":3756000000000,"state":"active","ping":45},{"user_id":1047,"name":"alfredodan #RunThatBack","steam_id":76561198025011044,"connected_time":2274000000000,"state":"active","ping":75},{"user_id":1046,"name":"kermitcreeper(ZAZA)","steam_id":76561199222829972,"connected_time":2301000000000,"state":"active","ping":54},{"user_id":1036,"name":"GOT DA STRAP ON ME #NOLESBO","steam_id":76561198144766439,"connected_time":3749000000000,"state":"active","ping":46}]},{"server_id":402,"name":"Uncletopia | Chicago | 3 | All Maps","name_short":"chi-3","host":"chi-1.us.uncletopia.com","port":27035,"enabled":true,"region":"us-central","cc":"us","latitude":41.881832,"longitude":-87.62318,"reserved":0,"last_update":"0001-01-01T00:00:00Z","name_a2s":"Uncletopia | Chicago | 3 | All Maps","protocol":17,"map":"koth_lakeside_final","folder":"tf","game":"Team Fortress","app_id":440,"player_count":0,"max_players":24,"Bots":0,"server_type":"Dedicated","server_os":"Linux","password":true,"vac":true,"version":"7757534","steam_id":85568392924515191,"keywords":["cp","nocrits","nodmgspread","uncletopia"],"game_id":440,"stv_port":27036,"stv_name":"Uncletopia | Chicago | 3 | All Maps | STV","players":null},{"server_id":403,"name":"Uncletopia | Chicago | 4 | All Maps","name_short":"chi-4","host":"chi-1.us.uncletopia.com","port":27045,"enabled":true,"region":"us-central","cc":"us","latitude":41.881832,"longitude":-87.62318,"reserved":0,"last_update":"0001-01-01T00:00:00Z","name_a2s":"Uncletopia | Chicago | 4 | All Maps","protocol":17,"map":"pl_frontier_final","folder":"tf","game":"Team Fortress","app_id":440,"player_count":0,"max_players":24,"Bots":0,"server_type":"Dedicated","server_os":"Linux","password":true,"vac":true,"version":"7757534","steam_id":85568392924515193,"keywords":["nocrits","nodmgspread","payload","uncletopia"],"game_id":440,"stv_port":27046,"stv_name":"Uncletopia | Chicago | 4 | All Maps | STV","players":null},{"server_id":36,"name":"Uncletopia | Chicago | 5 | All Maps","name_short":"chi-5","host":"chi-2.us.uncletopia.com","port":27015,"enabled":true,"region":"us-central","cc":"us","latitude":41.881832,"longitude":-87.62318,"reserved":0,"last_update":"0001-01-01T00:00:00Z","name_a2s":"Uncletopia | Chicago | 5 | All Maps","protocol":17,"map":"koth_lakeside_final","folder":"tf","game":"Team Fortress","app_id":440,"player_count":0,"max_players":24,"Bots":0,"server_type":"Dedicated","server_os":"Linux","password":true,"vac":true,"version":"7757534","steam_id":85568392924866362,"keywords":["cp","nocrits","nodmgspread","uncletopia"],"game_id":440,"stv_port":27016,"stv_name":"Uncletopia | Chicago | 5 | All Maps | STV","players":null},{"server_id":37,"name":"Uncletopia | Chicago | 6 | All Maps","name_short":"chi-6","host":"chi-2.us.uncletopia.com","port":27025,"enabled":true,"region":"us-central","cc":"us","latitude":41.881832,"longitude":-87.62318,"reserved":0,"last_update":"0001-01-01T00:00:00Z","name_a2s":"Uncletopia | Chicago | 6 | All Maps","protocol":17,"map":"koth_highpass","folder":"tf","game":"Team Fortress","app_id":440,"player_count":0,"max_players":24,"Bots":0,"server_type":"Dedicated","server_os":"Linux","password":true,"vac":true,"version":"7757534","steam_id":85568392924866363,"keywords":["cp","nocrits","nodmgspread","uncletopia"],"game_id":440,"stv_port":27026,"stv_name":"Uncletopia | Chicago | 6 | All Maps | STV","players":null},{"server_id":38,"name":"Uncletopia | Chicago | 7 | Stopwatch Beta","name_short":"chi-7","host":"chi-2.us.uncletopia.com","port":27035,"enabled":true,"region":"us-central","cc":"us","latitude":41.881832,"longitude":-87.62318,"reserved":0,"last_update":"0001-01-01T00:00:00Z","name_a2s":"Uncletopia | Chicago | 7 | Stopwatch Beta","protocol":17,"map":"workshop/koth_ashville_final.ugc2130459942","folder":"tf","game":"Team Fortress","app_id":440,"player_count":0,"max_players":24,"Bots":0,"server_type":"Dedicated","server_os":"Linux","password":true,"vac":true,"version":"7757534","steam_id":85568392924866364,"keywords":["cp","nocrits","nodmgspread","uncletopia"],"game_id":440,"stv_port":27036,"stv_name":"Uncletopia | Chicago | 7 | Stopwatch Beta | STV","players":null},{"server_id":39,"name":"Uncletopia | Chicago | 8 | Community","name_short":"chi-8","host":"chi-2.us.uncletopia.com","port":27045,"enabled":true,"region":"us-central","cc":"us","latitude":41.881832,"longitude":-87.62318,"reserved":0,"last_update":"0001-01-01T00:00:00Z","name_a2s":"Uncletopia | Chicago | 8 | Community","protocol":17,"map":"workshop/koth_ramjam_rc1.ugc459778887","folder":"tf","game":"Team Fortress","app_id":440,"player_count":0,"max_players":24,"Bots":0,"server_type":"Dedicated","server_os":"Linux","password":true,"vac":true,"version":"7757534","steam_id":85568392924866365,"keywords":["cp","nocrits","nodmgspread","uncletopia"],"game_id":440,"stv_port":27046,"stv_name":"Uncletopia | Chicago | 8 | Community | STV","players":null},{"server_id":8,"name":"Uncletopia | Dallas | 1 | All Maps","name_short":"dal-1","host":"dal-1.us.uncletopia.com","port":27015,"enabled":true,"region":"us-central","cc":"us","latitude":32.779167,"longitude":-96.80889,"reserved":0,"last_update":"0001-01-01T00:00:00Z","name_a2s":"Uncletopia | Dallas | 1 | All Maps","protocol":17,"map":"cp_sunshine","folder":"tf","game":"Team Fortress","app_id":440,"player_count":23,"max_players":24,"Bots":0,"server_type":"Dedicated","server_os":"Linux","password":true,"vac":true,"version":"7757534","steam_id":85568392924469986,"keywords":["cp","nocrits","nodmgspread","uncletopia"],"game_id":440,"stv_port":27016,"stv_name":"Uncletopia | Dallas | 1 | All Maps | STV","players":[{"user_id":967,"name":"larguu","steam_id":76561197994336210,"connected_time":3182000000000,"state":"active","ping":79},{"user_id":998,"name":"katsyra","steam_id":76561198076046640,"connected_time":156000000000,"state":"active","ping":61},{"user_id":919,"name":"Yongle","steam_id":76561198068591156,"connected_time":7972000000000,"state":"active","ping":75},{"user_id":988,"name":"bhutanese shadow garden","steam_id":76561198004882625,"connected_time":1081000000000,"state":"active","ping":74},{"user_id":999,"name":"DoctorDrew","steam_id":76561197962400538,"connected_time":107000000000,"state":"active","ping":108},{"user_id":994,"name":"Sunny-Side","steam_id":76561198973345880,"connected_time":448000000000,"state":"active","ping":128},{"user_id":905,"name":"Soozy420","steam_id":76561198809074422,"connected_time":8824000000000,"state":"active","ping":75},{"user_id":929,"name":"Gravy","steam_id":76561198087726095,"connected_time":7077000000000,"state":"active","ping":78},{"user_id":961,"name":"Faraday","steam_id":76561198089928357,"connected_time":3653000000000,"state":"active","ping":57},{"user_id":990,"name":"Dizzma","steam_id":76561198044725600,"connected_time":832000000000,"state":"active","ping":89},{"user_id":984,"name":"Paul","steam_id":76561198156358796,"connected_time":1779000000000,"state":"active","ping":73},{"user_id":1000,"name":"Orthworm Jim","steam_id":76561198034475253,"connected_time":14000000000,"state":"spawning","ping":58},{"user_id":969,"name":"mu","steam_id":76561197997530228,"connected_time":3137000000000,"state":"active","ping":105},{"user_id":997,"name":"aqua","steam_id":76561199407709552,"connected_time":263000000000,"state":"active","ping":72},{"user_id":991,"name":"bluehealer","steam_id":76561198052367058,"connected_time":794000000000,"state":"active","ping":90},{"user_id":971,"name":"Rebi","steam_id":76561199030110402,"connected_time":3111000000000,"state":"active","ping":165},{"user_id":953,"name":"timestew 1","steam_id":76561198367583372,"connected_time":5208000000000,"state":"active","ping":84},{"user_id":992,"name":"_Pai","steam_id":76561198108196753,"connected_time":670000000000,"state":"active","ping":78},{"user_id":848,"name":"brockonline","steam_id":76561199015537819,"connected_time":12648000000000,"state":"active","ping":77},{"user_id":993,"name":"Salda√±a","steam_id":76561198214473001,"connected_time":627000000000,"state":"active","ping":62},{"user_id":980,"name":"Clumsy","steam_id":76561198056345245,"connected_time":2743000000000,"state":"active","ping":70},{"user_id":996,"name":"‚òºBarracuda‚òº","steam_id":76561198013022083,"connected_time":324000000000,"state":"active","ping":57},{"user_id":948,"name":"Cindereye","steam_id":76561198097959534,"connected_time":6208000000000,"state":"active","ping":72}]},{"server_id":108,"name":"Uncletopia | Dallas | 2 | All Maps","name_short":"dal-2","host":"dal-1.us.uncletopia.com","port":27025,"enabled":true,"region":"us-central","cc":"us","latitude":32.779167,"longitude":-96.80889,"reserved":0,"last_update":"0001-01-01T00:00:00Z","name_a2s":"Uncletopia | Dallas | 2 | All Maps","protocol":17,"map":"koth_highpass","folder":"tf","game":"Team Fortress","app_id":440,"player_count":0,"max_players":24,"Bots":0,"server_type":"Dedicated","server_os":"Linux","password":true,"vac":true,"version":"7757534","steam_id":85568392924469988,"keywords":["cp","nocrits","nodmgspread","uncletopia"],"game_id":440,"stv_port":27026,"stv_name":"Uncletopia | Dallas | 2 | All Maps | STV","players":null},{"server_id":5,"name":"Uncletopia | Frankfurt | 1 | All Maps","name_short":"frk-1","host":"frk-1.de.uncletopia.com","port":27015,"enabled":true,"region":"eu","cc":"de","latitude":50.110924,"longitude":8.682127,"reserved":0,"last_update":"0001-01-01T00:00:00Z","name_a2s":"Uncletopia | Frankfurt | 1 | All Maps","protocol":17,"map":"pl_rumford_event","folder":"tf","game":"Team Fortress","app_id":440,"player_count":24,"max_players":24,"Bots":0,"server_type":"Dedicated","server_os":"Linux","password":true,"vac":true,"version":"7757534","steam_id":85568392924469989,"keywords":["nocrits","nodmgspread","payload","uncletopia"],"game_id":440,"stv_port":27016,"stv_name":"Uncletopia | Frankfurt | 1 | All Maps | STV","players":[{"user_id":141,"name":"emie","steam_id":76561198122380622,"connected_time":0,"state":"spawning","ping":0},{"user_id":114,"name":"V·¥Ä ü·¥ÄÍú∞·¥Ä Ä","steam_id":76561198069723799,"connected_time":1561000000000,"state":"active","ping":51},{"user_id":137,"name":"Definitely not Ray","steam_id":76561197991390018,"connected_time":134000000000,"state":"active","ping":52},{"user_id":102,"name":"–¥–∂–µ–≥–µ–º–∏ —Ö—ç–ø–∫–∏–Ω–≥—Å","steam_id":76561198131531394,"connected_time":2368000000000,"state":"active","ping":88},{"user_id":119,"name":"hud_saytext_time 0","steam_id":76561198010327228,"connected_time":971000000000,"state":"active","ping":54},{"user_id":86,"name":"Tort","steam_id":76561198329646769,"connected_time":3144000000000,"state":"active","ping":71},{"user_id":97,"name":"Destinys","steam_id":76561198056132894,"connected_time":2422000000000,"state":"active","ping":57},{"user_id":127,"name":"Kapitan Polska","steam_id":76561197968069413,"connected_time":826000000000,"state":"active","ping":75},{"user_id":110,"name":"Vectillion","steam_id":76561198074292454,"connected_time":1960000000000,"state":"active","ping":73},{"user_id":139,"name":"jerf(SEX SEX SEX SEX SEX)","steam_id":76561199213901239,"connected_time":70000000000,"state":"active","ping":61},{"user_id":121,"name":"Ballfondl#5","steam_id":76561199165355017,"connected_time":932000000000,"state":"active","ping":105},{"user_id":105,"name":"Confused Pupper","steam_id":76561198893101955,"connected_time":2322000000000,"state":"active","ping":82},{"user_id":120,"name":"OhMyGrosch","steam_id":76561198361193051,"connected_time":970000000000,"state":"active","ping":70},{"user_id":140,"name":"Tacchinus","steam_id":76561199213946776,"connected_time":64000000000,"state":"active","ping":82},{"user_id":122,"name":"Woofilehorse","steam_id":76561198120230340,"connected_time":932000000000,"state":"active","ping":53},{"user_id":130,"name":"Arcex","steam_id":76561198869864117,"connected_time":688000000000,"state":"active","ping":76},{"user_id":108,"name":"Mayor Wank from Wanker Town","steam_id":76561197998253588,"connected_time":2140000000000,"state":"active","ping":45},{"user_id":113,"name":"citronous","steam_id":76561198093290934,"connected_time":1591000000000,"state":"active","ping":58},{"user_id":125,"name":"GigaBaiter","steam_id":76561198796325635,"connected_time":876000000000,"state":"active","ping":83},{"user_id":126,"name":"GoudAI","steam_id":76561198103391197,"connected_time":854000000000,"state":"active","ping":92},{"user_id":128,"name":"Acanda","steam_id":76561198123246537,"connected_time":799000000000,"state":"active","ping":56},{"user_id":131,"name":"DarkFloy","steam_id":76561198070650206,"connected_time":680000000000,"state":"active","ping":83},{"user_id":132,"name":"‚ô•ImWithMilk","steam_id":76561198269577569,"connected_time":655000000000,"state":"active","ping":64},{"user_id":135,"name":"ü•∂RV14üî•","steam_id":76561199168204989,"connected_time":374000000000,"state":"active","ping":81}]},{"server_id":110,"name":"Uncletopia | Frankfurt | 2 | All Maps","name_short":"frk-2","host":"frk-1.de.uncletopia.com","port":27025,"enabled":true,"region":"eu","cc":"de","latitude":50.110924,"longitude":8.682127,"reserved":0,"last_update":"0001-01-01T00:00:00Z","name_a2s":"Uncletopia | Frankfurt | 2 | All Maps","protocol":17,"map":"pl_pier","folder":"tf","game":"Team Fortress","app_id":440,"player_count":24,"max_players":24,"Bots":0,"server_type":"Dedicated","server_os":"Linux","password":true,"vac":true,"version":"7757534","steam_id":85568392924469990,"keywords":["nocrits","nodmgspread","payload","uncletopia"],"game_id":440,"stv_port":27026,"stv_name":"Uncletopia | Frankfurt | 2 | All Maps | STV","players":[{"user_id":85,"name":"Dr. Lambda","steam_id":76561198952939545,"connected_time":95000000000,"state":"active","ping":150},{"user_id":6,"name":"dash.","steam_id":76561198084796149,"connected_time":4387000000000,"state":"active","ping":50},{"user_id":63,"name":"Deacon Dracul","steam_id":76561198046880663,"connected_time":1549000000000,"state":"active","ping":90},{"user_id":71,"name":"Solarflame","steam_id":76561198158780844,"connected_time":843000000000,"state":"active","ping":93},{"user_id":72,"name":"Raikku","steam_id":76561198085487107,"connected_time":810000000000,"state":"active","ping":105},{"user_id":81,"name":"ToniGAM3S","steam_id":76561198128605351,"connected_time":307000000000,"state":"active","ping":63},{"user_id":70,"name":"icebro","steam_id":76561199123450840,"connected_time":870000000000,"state":"active","ping":67},{"user_id":80,"name":"rah","steam_id":76561198056381418,"connected_time":449000000000,"state":"active","ping":47},{"user_id":87,"name":"Artoria","steam_id":76561198856288913,"connected_time":45000000000,"state":"spawning","ping":138},{"user_id":82,"name":"SpeddyMeddy","steam_id":76561197999693825,"connected_time":275000000000,"state":"active","ping":70},{"user_id":15,"name":"Mr. Compress","steam_id":76561198082943599,"connected_time":4163000000000,"state":"active","ping":62},{"user_id":86,"name":"Danio211","steam_id":76561199228698878,"connected_time":80000000000,"state":"active","ping":65},{"user_id":47,"name":"pfear","steam_id":76561197999207328,"connected_time":2278000000000,"state":"active","ping":72},{"user_id":67,"name":"Pink Cheese","steam_id":76561198972186436,"connected_time":1274000000000,"state":"active","ping":67},{"user_id":69,"name":"buckwheat","steam_id":76561197988085026,"connected_time":986000000000,"state":"active","ping":60},{"user_id":83,"name":"CptHavvock","steam_id":76561199189740651,"connected_time":256000000000,"state":"active","ping":87},{"user_id":65,"name":"That Phlog mfer","steam_id":76561198050416948,"connected_time":1470000000000,"state":"active","ping":53},{"user_id":76,"name":"rawrr","steam_id":76561198129806658,"connected_time":716000000000,"state":"active","ping":53},{"user_id":77,"name":"juan.gonzalez.10","steam_id":76561199118725055,"connected_time":709000000000,"state":"active","ping":100},{"user_id":25,"name":"spajro","steam_id":76561198257383813,"connected_time":4030000000000,"state":"active","ping":45},{"user_id":26,"name":"s√§kkij√§rven polkka","steam_id":76561198148115584,"connected_time":4021000000000,"state":"active","ping":71},{"user_id":78,"name":"Wat Means?","steam_id":76561197966629582,"connected_time":702000000000,"state":"active","ping":53},{"user_id":88,"name":"Tank","steam_id":76561199059174576,"connected_time":36000000000,"state":"active","ping":165},{"user_id":40,"name":"Tec","steam_id":76561199096762480,"connected_time":2759000000000,"state":"active","ping":73}]},{"server_id":308,"name":"Uncletopia | Frankfurt | 3 | All Maps","name_short":"frk-3","host":"frk-1.de.uncletopia.com","port":27035,"enabled":true,"region":"eu","cc":"de","latitude":50.110924,"longitude":8.682127,"reserved":0,"last_update":"0001-01-01T00:00:00Z","name_a2s":"Uncletopia | Frankfurt | 3 | All Maps","protocol":17,"map":"koth_cascade","folder":"tf","game":"Team Fortress","app_id":440,"player_count":0,"max_players":24,"Bots":0,"server_type":"Dedicated","server_os":"Linux","password":true,"vac":true,"version":"7757534","steam_id":85568392924504274,"keywords":["cp","nocrits","nodmgspread","uncletopia"],"game_id":440,"stv_port":27036,"stv_name":"Uncletopia | Frankfurt | 3 | All Maps | STV","players":null},{"server_id":309,"name":"Uncletopia | Frankfurt | 4 | All Maps","name_short":"frk-4","host":"frk-1.de.uncletopia.com","port":27045,"enabled":true,"region":"eu","cc":"de","latitude":50.110924,"longitude":8.682127,"reserved":0,"last_update":"0001-01-01T00:00:00Z","name_a2s":"Uncletopia | Frankfurt | 4 | All Maps","protocol":17,"map":"koth_viaduct","folder":"tf","game":"Team Fortress","app_id":440,"player_count":0,"max_players":24,"Bots":0,"server_type":"Dedicated","server_os":"Linux","password":true,"vac":true,"version":"7757534","steam_id":85568392924504275,"keywords":["cp","nocrits","nodmgspread","uncletopia"],"game_id":440,"stv_port":27046,"stv_name":"Uncletopia | Frankfurt | 4 | All Maps | STV","players":null},{"server_id":310,"name":"Uncletopia | Frankfurt | 5 | All Maps","name_short":"frk-5","host":"frk-1.de.uncletopia.com","port":27055,"enabled":true,"region":"eu","cc":"de","latitude":50.110924,"longitude":8.682127,"reserved":0,"last_update":"0001-01-01T00:00:00Z","name_a2s":"Uncletopia | Frankfurt | 5 | All Maps","protocol":17,"map":"koth_king","folder":"tf","game":"Team Fortress","app_id":440,"player_count":20,"max_players":24,"Bots":0,"server_type":"Dedicated","server_os":"Linux","password":true,"vac":true,"version":"7757534","steam_id":85568392924504277,"keywords":["cp","nocrits","nodmgspread","uncletopia"],"game_id":440,"stv_port":27056,"stv_name":"Uncletopia | Frankfurt | 5 | All Maps | STV","players":[{"user_id":176,"name":"NAxERON","steam_id":76561198271037396,"connected_time":1701000000000,"state":"active","ping":104},{"user_id":196,"name":"Skewb","steam_id":76561198796959038,"connected_time":470000000000,"state":"active","ping":67},{"user_id":85,"name":"Dakeyras","steam_id":76561198057069564,"connected_time":6582000000000,"state":"active","ping":111},{"user_id":200,"name":"Certified Hood pybro (ua)","steam_id":76561198970562699,"connected_time":350000000000,"state":"active","ping":58},{"user_id":190,"name":"Lyra","steam_id":76561198043601838,"connected_time":976000000000,"state":"active","ping":60},{"user_id":207,"name":"„Äåh4rd4ll„Äç","steam_id":76561198116337043,"connected_time":219000000000,"state":"active","ping":91},{"user_id":51,"name":"Fpaoullis","steam_id":76561198897866131,"connected_time":8971000000000,"state":"active","ping":95},{"user_id":212,"name":"Ven_0","steam_id":76561199142511202,"connected_time":78000000000,"state":"active","ping":70},{"user_id":213,"name":"painting4","steam_id":76561198067554256,"connected_time":47000000000,"state":"active","ping":38},{"user_id":198,"name":"Miedzan","steam_id":76561198405250516,"connected_time":449000000000,"state":"active","ping":70},{"user_id":203,"name":"UnknownHero","steam_id":76561198864766392,"connected_time":302000000000,"state":"active","ping":85},{"user_id":206,"name":"MrAnchovy228","steam_id":76561199155621917,"connected_time":265000000000,"state":"active","ping":141},{"user_id":185,"name":"Cobb Salads","steam_id":76561197971140507,"connected_time":1043000000000,"state":"active","ping":74},{"user_id":88,"name":"B.batt","steam_id":76561198998684199,"connected_time":6468000000000,"state":"active","ping":115},{"user_id":193,"name":"Wyxling","steam_id":76561198879766175,"connected_time":703000000000,"state":"active","ping":61},{"user_id":210,"name":"gamer gaming 2000","steam_id":76561199480621483,"connected_time":182000000000,"state":"active","ping":79},{"user_id":186,"name":"cryne","steam_id":76561198042120598,"connected_time":1033000000000,"state":"active","ping":66},{"user_id":118,"name":"poo brother","steam_id":76561199368726811,"connected_time":5281000000000,"state":"active","ping":81},{"user_id":187,"name":"pablo.gonzales2008","steam_id":76561198827973818,"connected_time":1028000000000,"state":"active","ping":58},{"user_id":188,"name":"oriano","steam_id":76561198099916327,"connected_time":1009000000000,"state":"active","ping":60}]},{"server_id":311,"name":"Uncletopia | Frankfurt | 6 | All Maps","name_short":"frk-6","host":"frk-1.de.uncletopia.com","port":27065,"enabled":true,"region":"eu","cc":"de","latitude":50.110924,"longitude":8.682127,"reserved":0,"last_update":"0001-01-01T00:00:00Z","name_a2s":"Uncletopia | Frankfurt | 6 | All Maps","protocol":17,"map":"pl_upward","folder":"tf","game":"Team Fortress","app_id":440,"player_count":25,"max_players":24,"Bots":0,"server_type":"Dedicated","server_os":"Linux","password":true,"vac":true,"version":"7757534","steam_id":85568392924504278,"keywords":["nocrits","nodmgspread","payload","uncletopia"],"game_id":440,"stv_port":27066,"stv_name":"Uncletopia | Frankfurt | 6 | All Maps | STV","players":[{"user_id":44,"name":"Keku","steam_id":76561199243275120,"connected_time":1446000000000,"state":"active","ping":64},{"user_id":33,"name":"Pawe≈Ç","steam_id":76561198354235190,"connected_time":1940000000000,"state":"active","ping":89},{"user_id":7,"name":"Meth","steam_id":76561199300394949,"connected_time":3127000000000,"state":"active","ping":51},{"user_id":12,"name":"DiracDeltaFunction","steam_id":76561199201624841,"connected_time":2838000000000,"state":"active","ping":101},{"user_id":9,"name":"neo","steam_id":76561198204298203,"connected_time":2961000000000,"state":"active","ping":68},{"user_id":67,"name":"RIFT","steam_id":76561198991622379,"connected_time":387000000000,"state":"active","ping":59},{"user_id":45,"name":"swueuws","steam_id":76561198020716743,"connected_time":1420000000000,"state":"active","ping":54},{"user_id":23,"name":"ympoop","steam_id":76561198202441870,"connected_time":2390000000000,"state":"active","ping":62},{"user_id":46,"name":"Egor Pomidor","steam_id":76561199175688390,"connected_time":1419000000000,"state":"active","ping":77},{"user_id":62,"name":"Mr.B","steam_id":76561199204478925,"connected_time":729000000000,"state":"active","ping":118},{"user_id":66,"name":"Donki Wonki","steam_id":76561198327761273,"connected_time":463000000000,"state":"active","ping":74},{"user_id":35,"name":"The Pitpit (real)","steam_id":76561198005342133,"connected_time":1821000000000,"state":"active","ping":76},{"user_id":29,"name":"Lobster Overlord","steam_id":76561198144692530,"connected_time":2012000000000,"state":"active","ping":49},{"user_id":64,"name":"Testicular torsion","steam_id":76561198119547399,"connected_time":645000000000,"state":"active","ping":63},{"user_id":68,"name":"Bobux","steam_id":76561198408245503,"connected_time":1000000000,"state":"spawning","ping":26},{"user_id":55,"name":"rock","steam_id":76561198093488870,"connected_time":1261000000000,"state":"active","ping":72},{"user_id":40,"name":"Ralfsman11","steam_id":76561198133827569,"connected_time":1565000000000,"state":"active","ping":73},{"user_id":41,"name":"Pancakes","steam_id":76561198196259989,"connected_time":1563000000000,"state":"active","ping":61},{"user_id":47,"name":"lejionarulpesimist","steam_id":76561199230139282,"connected_time":1413000000000,"state":"active","ping":92},{"user_id":48,"name":"Oxer","steam_id":76561198055942412,"connected_time":1397000000000,"state":"active","ping":78},{"user_id":49,"name":"XANI","steam_id":76561198074250166,"connected_time":1391000000000,"state":"active","ping":73},{"user_id":56,"name":"Glenn Quagmire","steam_id":76561199348527880,"connected_time":1255000000000,"state":"active","ping":75},{"user_id":59,"name":"M0rph","steam_id":76561198127339176,"connected_time":1115000000000,"state":"active","ping":54},{"user_id":65,"name":"jD_x2r2","steam_id":76561198061001376,"connected_time":631000000000,"state":"active","ping":67},{"user_id":69,"name":"Sniper-Combine","steam_id":76561198003426532,"connected_time":0,"state":"spawning","ping":30}]},{"server_id":23,"name":"Uncletopia | Frankfurt | 7 | Stopwatch Beta","name_short":"frk-7","host":"frk-1.de.uncletopia.com","port":27075,"enabled":true,"region":"eu","cc":"de","latitude":50.110924,"longitude":8.682127,"reserved":0,"last_update":"0001-01-01T00:00:00Z","name_a2s":"Uncletopia | Frankfurt | 7 | Stopwatch Beta","protocol":17,"map":"cp_sunshine","folder":"tf","game":"Team Fortress","app_id":440,"player_count":0,"max_players":24,"Bots":0,"server_type":"Dedicated","server_os":"Linux","password":true,"vac":true,"version":"7757534","steam_id":85568392924742827,"keywords":["cp","nocrits","nodmgspread","uncletopia"],"game_id":440,"stv_port":27076,"stv_name":"Uncletopia | Frankfurt | 7 | Stopwatch Beta | STV","players":null},{"server_id":24,"name":"Uncletopia | Frankfurt | 8 | Community","name_short":"frk-8","host":"frk-1.de.uncletopia.com","port":27085,"enabled":true,"region":"eu","cc":"de","latitude":50.110924,"longitude":8.682127,"reserved":0,"last_update":"0001-01-01T00:00:00Z","name_a2s":"Uncletopia | Frankfurt | 8 | Community","protocol":17,"map":"koth_lakeside_final","folder":"tf","game":"Team Fortress","app_id":440,"player_count":2,"max_players":24,"Bots":0,"server_type":"Dedicated","server_os":"Linux","password":true,"vac":true,"version":"7757534","steam_id":85568392924742828,"keywords":["cp","nocrits","nodmgspread","uncletopia"],"game_id":440,"stv_port":27086,"stv_name":"Uncletopia | Frankfurt | 8 | Community | STV","players":[{"user_id":4,"name":"Truegr","steam_id":76561198811912339,"connected_time":2088000000000,"state":"active","ping":56},{"user_id":5,"name":"fried","steam_id":76561198307522022,"connected_time":1984000000000,"state":"active","ping":44}]},{"server_id":202,"name":"Uncletopia | Hong Kong | 1 | All Maps","name_short":"hgk-1","host":"hgk-1.hk.uncletopia.com","port":27015,"enabled":true,"region":"asia","cc":"hk","latitude":22.302711,"longitude":114.177216,"reserved":0,"last_update":"0001-01-01T00:00:00Z","name_a2s":"Uncletopia | Hong Kong | 1 | All Maps","protocol":17,"map":"pl_swiftwater_final1","folder":"tf","game":"Team Fortress","app_id":440,"player_count":24,"max_players":24,"Bots":0,"server_type":"Dedicated","server_os":"Linux","password":true,"vac":true,"version":"7757534","steam_id":85568392924494504,"keywords":["nocrits","nodmgspread","payload","uncletopia"],"game_id":440,"stv_port":27016,"stv_name":"Uncletopia | Hong Kong | 1 | All Maps | STV","players":[{"user_id":292,"name":"elite anarchest","steam_id":76561198411982822,"connected_time":390000000000,"state":"active","ping":70},{"user_id":214,"name":"tiden2000","steam_id":76561198092969425,"connected_time":8513000000000,"state":"active","ping":102},{"user_id":258,"name":"Xx_EpicTrickstabber_xX","steam_id":76561199024960087,"connected_time":4238000000000,"state":"active","ping":68},{"user_id":288,"name":"M. Ali","steam_id":76561198074413124,"connected_time":727000000000,"state":"active","ping":97},{"user_id":294,"name":"È£ûÊàëÂéªÊòü","steam_id":76561198082725119,"connected_time":203000000000,"state":"active","ping":66},{"user_id":293,"name":"brainless bozo","steam_id":76561198055553140,"connected_time":352000000000,"state":"active","ping":75},{"user_id":207,"name":"Cloud-Verse","steam_id":76561198194370973,"connected_time":9266000000000,"state":"active","ping":82},{"user_id":263,"name":"Â∏ï","steam_id":76561198439343999,"connected_time":3141000000000,"state":"active","ping":78},{"user_id":247,"name":"monke mode","steam_id":76561198992723983,"connected_time":5901000000000,"state":"active","ping":96},{"user_id":282,"name":"TonXD","steam_id":76561199024372559,"connected_time":1406000000000,"state":"active","ping":105},{"user_id":241,"name":"Ivy","steam_id":76561198400698408,"connected_time":6076000000000,"state":"active","ping":91},{"user_id":278,"name":"Dolla","steam_id":76561199401233865,"connected_time":1540000000000,"state":"active","ping":63},{"user_id":179,"name":"Vortex Artemisio","steam_id":76561198833527091,"connected_time":11627000000000,"state":"active","ping":93},{"user_id":280,"name":"bathtub","steam_id":76561198967804087,"connected_time":1532000000000,"state":"active","ping":115},{"user_id":285,"name":"Akash","steam_id":76561198066517317,"connected_time":905000000000,"state":"active","ping":126},{"user_id":275,"name":"Certified Gamer","steam_id":76561199064612335,"connected_time":1589000000000,"state":"active","ping":159},{"user_id":283,"name":"Azi","steam_id":76561198147872523,"connected_time":1339000000000,"state":"active","ping":76},{"user_id":291,"name":"cellum95","steam_id":76561198172146871,"connected_time":412000000000,"state":"active","ping":85},{"user_id":289,"name":"donsalad","steam_id":76561198353373971,"connected_time":545000000000,"state":"active","ping":62},{"user_id":276,"name":"Core19","steam_id":76561198318126190,"connected_time":1589000000000,"state":"active","ping":100},{"user_id":290,"name":"Pug_Lord","steam_id":76561199090153442,"connected_time":418000000000,"state":"active","ping":116},{"user_id":261,"name":"ArcticDolphin","steam_id":76561198203626319,"connected_time":3850000000000,"state":"active","ping":131},{"user_id":296,"name":"Grimo_1","steam_id":76561199100139135,"connected_time":180000000000,"state":"active","ping":129},{"user_id":266,"name":"AmaiToxic","steam_id":76561199122491157,"connected_time":2815000000000,"state":"active","ping":140}]},{"server_id":1,"name":"Uncletopia | Los Angeles | 1 | All Maps","name_short":"lax-1","host":"lax-1.us.uncletopia.com","port":27015,"enabled":true,"region":"us-west","cc":"us","latitude":33.94279,"longitude":-118.41004,"reserved":0,"last_update":"0001-01-01T00:00:00Z","name_a2s":"Uncletopia | Los Angeles | 1 | All Maps","protocol":17,"map":"cp_altitude","folder":"tf","game":"Team Fortress","app_id":440,"player_count":0,"max_players":24,"Bots":0,"server_type":"Dedicated","server_os":"Linux","password":true,"vac":true,"version":"7757534","steam_id":85568392924469991,"keywords":["cp","nocrits","nodmgspread","uncletopia"],"game_id":440,"stv_port":27016,"stv_name":"Uncletopia | Los Angeles | 1 | All Maps | STV","players":null},{"server_id":112,"name":"Uncletopia | Los Angeles | 2 | All Maps","name_short":"lax-2","host":"lax-1.us.uncletopia.com","port":27025,"enabled":true,"region":"us-west","cc":"us","latitude":33.94279,"longitude":-118.41004,"reserved":0,"last_update":"0001-01-01T00:00:00Z","name_a2s":"Uncletopia | Los Angeles | 2 | All Maps","protocol":17,"map":"koth_viaduct","folder":"tf","game":"Team Fortress","app_id":440,"player_count":6,"max_players":24,"Bots":0,"server_type":"Dedicated","server_os":"Linux","password":true,"vac":true,"version":"7757534","steam_id":85568392924469992,"keywords":["cp","nocrits","nodmgspread","uncletopia"],"game_id":440,"stv_port":27026,"stv_name":"Uncletopia | Los Angeles | 2 | All Maps | STV","players":[{"user_id":1006,"name":"paperclips","steam_id":76561198833984001,"connected_time":5248000000000,"state":"active","ping":45},{"user_id":919,"name":"Wacks","steam_id":76561198079476100,"connected_time":12441000000000,"state":"active","ping":56},{"user_id":930,"name":"ScoutBox","steam_id":76561198111539895,"connected_time":11473000000000,"state":"active","ping":41},{"user_id":1016,"name":"DraGoN","steam_id":76561198006224312,"connected_time":745000000000,"state":"active","ping":104},{"user_id":1017,"name":"SNaKe","steam_id":76561198249832738,"connected_time":670000000000,"state":"active","ping":100},{"user_id":1003,"name":"deokemi","steam_id":76561199480055194,"connected_time":5710000000000,"state":"active","ping":43}]},{"server_id":324,"name":"Uncletopia | Los Angeles | 3 | All Maps","name_short":"lax-3","host":"lax-1.us.uncletopia.com","port":27035,"enabled":true,"region":"us-west","cc":"us","latitude":33.94279,"longitude":-118.41004,"reserved":0,"last_update":"0001-01-01T00:00:00Z","name_a2s":"Uncletopia | Los Angeles | 3 | All Maps","protocol":17,"map":"pl_badwater","folder":"tf","game":"Team Fortress","app_id":440,"player_count":24,"max_players":24,"Bots":0,"server_type":"Dedicated","server_os":"Linux","password":true,"vac":true,"version":"7757534","steam_id":85568392924510198,"keywords":["nocrits","nodmgspread","payload","uncletopia"],"game_id":440,"stv_port":27036,"stv_name":"Uncletopia | Los Angeles | 3 | All Maps | STV","players":[{"user_id":722,"name":"THE UNDERTAKER","steam_id":76561198089852954,"connected_time":5373000000000,"state":"active","ping":109},{"user_id":746,"name":"serious","steam_id":76561198089649422,"connected_time":2416000000000,"state":"active","ping":43},{"user_id":771,"name":"Jolly","steam_id":76561198116357972,"connected_time":72000000000,"state":"active","ping":47},{"user_id":748,"name":"Gruntic","steam_id":76561198170396647,"connected_time":1748000000000,"state":"active","ping":58},{"user_id":763,"name":"dubba (‚Ä¢ÃÄ_‚Ä¢ÃÅ )","steam_id":76561199428471192,"connected_time":806000000000,"state":"active","ping":91},{"user_id":770,"name":"Chimay","steam_id":76561197999295203,"connected_time":263000000000,"state":"active","ping":190},{"user_id":607,"name":"agentredx05","steam_id":76561198324962084,"connected_time":14120000000000,"state":"active","ping":85},{"user_id":753,"name":"Junkmin","steam_id":76561198152251596,"connected_time":1361000000000,"state":"active","ping":43},{"user_id":705,"name":"SolarusD","steam_id":76561198029279861,"connected_time":6431000000000,"state":"active","ping":50},{"user_id":754,"name":"Some Dood on the Internet","steam_id":76561198054657687,"connected_time":1303000000000,"state":"active","ping":89},{"user_id":703,"name":"beep beep","steam_id":76561198149443710,"connected_time":6981000000000,"state":"active","ping":49},{"user_id":760,"name":"TheLonleyAlmond","steam_id":76561198370962134,"connected_time":901000000000,"state":"active","ping":100},{"user_id":766,"name":"Hifumi Togo","steam_id":76561198074930636,"connected_time":688000000000,"state":"active","ping":93},{"user_id":740,"name":"Lambchop","steam_id":76561198043900363,"connected_time":3244000000000,"state":"active","ping":60},{"user_id":765,"name":"Jordan","steam_id":76561198076882299,"connected_time":778000000000,"state":"active","ping":100},{"user_id":729,"name":"selvhat","steam_id":76561198114225509,"connected_time":4660000000000,"state":"active","ping":49},{"user_id":756,"name":"tinajd187","steam_id":76561198253574136,"connected_time":1145000000000,"state":"active","ping":83},{"user_id":721,"name":"Tech Deck","steam_id":76561199070437675,"connected_time":5552000000000,"state":"active","ping":54},{"user_id":761,"name":"Solifuga","steam_id":76561198119569902,"connected_time":825000000000,"state":"active","ping":75},{"user_id":767,"name":"2j psych ward boifwife","steam_id":76561198206752128,"connected_time":659000000000,"state":"active","ping":182},{"user_id":759,"name":"intel30004","steam_id":76561199040243308,"connected_time":1049000000000,"state":"active","ping":125},{"user_id":764,"name":"Spaceman Craig","steam_id":76561198044267157,"connected_time":793000000000,"state":"active","ping":56},{"user_id":768,"name":"AlienatedPanda","steam_id":76561198101655549,"connected_time":619000000000,"state":"active","ping":64},{"user_id":700,"name":"dunka","steam_id":76561198066114874,"connected_time":7132000000000,"state":"active","ping":90}]},{"server_id":25,"name":"Uncletopia | Los Angeles | 4 | Stopwatch Beta","name_short":"lax-4","host":"lax-1.us.uncletopia.com","port":27045,"enabled":true,"region":"us-west","cc":"us","latitude":33.94279,"longitude":-118.41004,"reserved":0,"last_update":"0001-01-01T00:00:00Z","name_a2s":"Uncletopia | Los Angeles | 4 | Stopwatch Beta","protocol":17,"map":"pl_swiftwater_final1","folder":"tf","game":"Team Fortress","app_id":440,"player_count":0,"max_players":24,"Bots":0,"server_type":"Dedicated","server_os":"Linux","password":true,"vac":true,"version":"7757534","steam_id":85568392924510199,"keywords":["nocrits","nodmgspread","payload","uncletopia"],"game_id":440,"stv_port":27046,"stv_name":"Uncletopia | Los Angeles | 4 | Stopwatch Beta | STV","players":null},{"server_id":11,"name":"Uncletopia | London | 1 | All Maps","name_short":"lon-1","host":"lon-1.uk.uncletopia.com","port":27015,"enabled":true,"region":"eu","cc":"gb","latitude":51.509865,"longitude":-0.118092,"reserved":0,"last_update":"0001-01-01T00:00:00Z","name_a2s":"Uncletopia | London | 1 | All Maps","protocol":17,"map":"cp_sunshine","folder":"tf","game":"Team Fortress","app_id":440,"player_count":24,"max_players":24,"Bots":0,"server_type":"Dedicated","server_os":"Linux","password":true,"vac":true,"version":"7757534","steam_id":85568392924367362,"keywords":["cp","nocrits","nodmgspread","uncletopia"],"game_id":440,"stv_port":27016,"stv_name":"Uncletopia | London | 1 | All Maps | STV","players":[{"user_id":152,"name":"Rin-Nakaret","steam_id":76561197971051188,"connected_time":5795000000000,"state":"active","ping":62},{"user_id":161,"name":"Senior","steam_id":76561198065014164,"connected_time":4178000000000,"state":"active","ping":46},{"user_id":188,"name":"Dr. Funkenstein","steam_id":76561197977816210,"connected_time":2360000000000,"state":"active","ping":47},{"user_id":214,"name":"SunZi","steam_id":76561198139243535,"connected_time":120000000000,"state":"active","ping":80},{"user_id":175,"name":"Big Papa Yaaa","steam_id":76561198032777543,"connected_time":3842000000000,"state":"active","ping":57},{"user_id":163,"name":"Oxy:*","steam_id":76561198275120049,"connected_time":4013000000000,"state":"active","ping":73},{"user_id":215,"name":"laser","steam_id":76561198036030697,"connected_time":103000000000,"state":"active","ping":67},{"user_id":199,"name":"Firit","steam_id":76561198988590216,"connected_time":1178000000000,"state":"active","ping":91},{"user_id":202,"name":"Germanium_Ge","steam_id":76561198130561775,"connected_time":1040000000000,"state":"active","ping":59},{"user_id":209,"name":"punchmypotatoes","steam_id":76561198091255731,"connected_time":544000000000,"state":"active","ping":55},{"user_id":210,"name":"Toodlesnoot","steam_id":76561198036543689,"connected_time":524000000000,"state":"active","ping":58},{"user_id":203,"name":"silicon based life form","steam_id":76561199127121346,"connected_time":898000000000,"state":"active","ping":56},{"user_id":162,"name":"imthegerman","steam_id":76561198053401077,"connected_time":4117000000000,"state":"active","ping":114},{"user_id":198,"name":"Lessoz","steam_id":76561199211572036,"connected_time":1277000000000,"state":"active","ping":84},{"user_id":177,"name":"LazyBane","steam_id":76561198032359132,"connected_time":3694000000000,"state":"active","ping":44},{"user_id":212,"name":"scott steiners strongest warrio","steam_id":76561198148888622,"connected_time":425000000000,"state":"active","ping":56},{"user_id":213,"name":"doopsuiker","steam_id":76561198025916703,"connected_time":355000000000,"state":"active","ping":66},{"user_id":189,"name":"Umbro","steam_id":76561198087930438,"connected_time":1897000000000,"state":"active","ping":76},{"user_id":185,"name":"on1on (fried)","steam_id":76561197995304137,"connected_time":2989000000000,"state":"active","ping":72},{"user_id":165,"name":"Creep","steam_id":76561198067157049,"connected_time":4010000000000,"state":"active","ping":48},{"user_id":216,"name":"Mr. Hunts","steam_id":76561197981910397,"connected_time":63000000000,"state":"active","ping":60},{"user_id":193,"name":"Lifes Lemons","steam_id":76561199033413195,"connected_time":1667000000000,"state":"active","ping":57},{"user_id":201,"name":"dRumata","steam_id":76561198022150210,"connected_time":1124000000000,"state":"active","ping":123}]},{"server_id":114,"name":"Uncletopia | London | 2 | All Maps","name_short":"lon-2","host":"lon-1.uk.uncletopia.com","port":27025,"enabled":true,"region":"eu","cc":"gb","latitude":51.509865,"longitude":-0.118092,"reserved":0,"last_update":"0001-01-01T00:00:00Z","name_a2s":"Uncletopia | London | 2 | All Maps","protocol":17,"map":"koth_viaduct","folder":"tf","game":"Team Fortress","app_id":440,"player_count":0,"max_players":24,"Bots":0,"server_type":"Dedicated","server_os":"Linux","password":true,"vac":true,"version":"7757534","steam_id":85568392924470941,"keywords":["cp","nocrits","nodmgspread","uncletopia"],"game_id":440,"stv_port":27026,"stv_name":"Uncletopia | London | 2 | All Maps | STV","players":null},{"server_id":320,"name":"Uncletopia | London | 3 | All Maps","name_short":"lon-3","host":"lon-1.uk.uncletopia.com","port":27035,"enabled":true,"region":"eu","cc":"gb","latitude":51.509865,"longitude":-0.118092,"reserved":0,"last_update":"0001-01-01T00:00:00Z","name_a2s":"Uncletopia | London | 3 | All Maps","protocol":17,"map":"cp_dustbowl","folder":"tf","game":"Team Fortress","app_id":440,"player_count":0,"max_players":24,"Bots":0,"server_type":"Dedicated","server_os":"Linux","password":true,"vac":true,"version":"7757534","steam_id":85568392924510192,"keywords":["cp","nocrits","nodmgspread","uncletopia"],"game_id":440,"stv_port":27036,"stv_name":"Uncletopia | London | 3 | All Maps | STV","players":null},{"server_id":321,"name":"Uncletopia | London | 4 | All Maps","name_short":"lon-4","host":"lon-1.uk.uncletopia.com","port":27045,"enabled":true,"region":"eu","cc":"gb","latitude":51.509865,"longitude":-0.118092,"reserved":0,"last_update":"0001-01-01T00:00:00Z","name_a2s":"Uncletopia | London | 4 | All Maps","protocol":17,"map":"pl_upward","folder":"tf","game":"Team Fortress","app_id":440,"player_count":0,"max_players":24,"Bots":0,"server_type":"Dedicated","server_os":"Linux","password":true,"vac":true,"version":"7757534","steam_id":85568392924510193,"keywords":["nocrits","nodmgspread","payload","uncletopia"],"game_id":440,"stv_port":27046,"stv_name":"Uncletopia | London | 4 | All Maps | STV","players":null},{"server_id":21,"name":"Uncletopia | London | 5 | All Maps","name_short":"lon-5","host":"lon-1.uk.uncletopia.com","port":27055,"enabled":true,"region":"eu","cc":"gb","latitude":51.509865,"longitude":-0.118092,"reserved":0,"last_update":"0001-01-01T00:00:00Z","name_a2s":"Uncletopia | London | 5 | All Maps","protocol":17,"map":"koth_cascade","folder":"tf","game":"Team Fortress","app_id":440,"player_count":0,"max_players":24,"Bots":0,"server_type":"Dedicated","server_os":"Linux","password":true,"vac":true,"version":"7757534","steam_id":85568392924742829,"keywords":["cp","nocrits","nodmgspread","uncletopia"],"game_id":440,"stv_port":27056,"stv_name":"Uncletopia | London | 5 | All Maps | STV","players":null},{"server_id":22,"name":"Uncletopia | London | 6 | All Maps","name_short":"lon-6","host":"lon-1.uk.uncletopia.com","port":27065,"enabled":true,"region":"eu","cc":"gb","latitude":51.509865,"longitude":-0.118092,"reserved":0,"last_update":"0001-01-01T00:00:00Z","name_a2s":"Uncletopia | London | 6 | All Maps","protocol":17,"map":"cp_mountainlab","folder":"tf","game":"Team Fortress","app_id":440,"player_count":0,"max_players":24,"Bots":0,"server_type":"Dedicated","server_os":"Linux","password":true,"vac":true,"version":"7757534","steam_id":85568392924742830,"keywords":["cp","nocrits","nodmgspread","uncletopia"],"game_id":440,"stv_port":27066,"stv_name":"Uncletopia | London | 6 | All Maps | STV","players":null},{"server_id":40,"name":"Uncletopia | London | 7 | No Payload","name_short":"lon-7","host":"lon-1.uk.uncletopia.com","port":27075,"enabled":true,"region":"eu","cc":"gb","latitude":51.509865,"longitude":-0.118092,"reserved":0,"last_update":"0001-01-01T00:00:00Z","name_a2s":"Uncletopia | London | 7 | No Payload","protocol":17,"map":"koth_nucleus","folder":"tf","game":"Team Fortress","app_id":440,"player_count":0,"max_players":24,"Bots":0,"server_type":"Dedicated","server_os":"Linux","password":true,"vac":true,"version":"7757534","steam_id":85568392924964314,"keywords":["cp","nocrits","nodmgspread","uncletopia"],"game_id":440,"stv_port":27076,"stv_name":"Uncletopia | London | 7 | No Payload | STV","players":null},{"server_id":41,"name":"Uncletopia | London | 8 | Community","name_short":"lon-8","host":"lon-1.uk.uncletopia.com","port":27085,"enabled":true,"region":"eu","cc":"gb","latitude":51.509865,"longitude":-0.118092,"reserved":0,"last_update":"0001-01-01T00:00:00Z","name_a2s":"Uncletopia | London | 8 | Community","protocol":17,"map":"workshop/koth_bagel_rc6.ugc2514036946","folder":"tf","game":"Team Fortress","app_id":440,"player_count":0,"max_players":24,"Bots":0,"server_type":"Dedicated","server_os":"Linux","password":true,"vac":true,"version":"7757534","steam_id":85568392924964315,"keywords":["cp","nocrits","nodmgspread","uncletopia"],"game_id":440,"stv_port":27086,"stv_name":"Uncletopia | London | 8 | Community | STV","players":null},{"server_id":300,"name":"Uncletopia | Montr√©al | 1 | All Maps","name_short":"mtl-1","host":"mtl-1.ca.uncletopia.com","port":27015,"enabled":true,"region":"us-east","cc":"ca","latitude":45.50889,"longitude":-73.56167,"reserved":0,"last_update":"0001-01-01T00:00:00Z","name_a2s":"Uncletopia | Montr√©al | 1 | All Maps","protocol":17,"map":"pl_upward","folder":"tf","game":"Team Fortress","app_id":440,"player_count":0,"max_players":24,"Bots":0,"server_type":"Dedicated","server_os":"Linux","password":true,"vac":true,"version":"7757534","steam_id":85568392924500087,"keywords":["nocrits","nodmgspread","payload","uncletopia"],"game_id":440,"stv_port":27016,"stv_name":"Uncletopia | Montr√©al | 1 | All Maps | STV","players":null},{"server_id":301,"name":"Uncletopia | Montr√©al | 2 | All Maps","name_short":"mtl-2","host":"mtl-1.ca.uncletopia.com","port":27025,"enabled":true,"region":"us-east","cc":"ca","latitude":45.50889,"longitude":-73.56167,"reserved":0,"last_update":"0001-01-01T00:00:00Z","name_a2s":"Uncletopia | Montr√©al | 2 | All Maps","protocol":17,"map":"pl_snowycoast","folder":"tf","game":"Team Fortress","app_id":440,"player_count":0,"max_players":24,"Bots":0,"server_type":"Dedicated","server_os":"Linux","password":true,"vac":true,"version":"7757534","steam_id":85568392924500088,"keywords":["nocrits","nodmgspread","payload","uncletopia"],"game_id":440,"stv_port":27026,"stv_name":"Uncletopia | Montr√©al | 2 | All Maps | STV","players":null},{"server_id":302,"name":"Uncletopia | Montr√©al | 3 | All Maps","name_short":"mtl-3","host":"mtl-1.ca.uncletopia.com","port":27035,"enabled":true,"region":"us-east","cc":"ca","latitude":45.50889,"longitude":-73.56167,"reserved":0,"last_update":"0001-01-01T00:00:00Z","name_a2s":"Uncletopia | Montr√©al | 3 | All Maps","protocol":17,"map":"pl_swiftwater_final1","folder":"tf","game":"Team Fortress","app_id":440,"player_count":0,"max_players":24,"Bots":0,"server_type":"Dedicated","server_os":"Linux","password":true,"vac":true,"version":"7757534","steam_id":85568392924500089,"keywords":["nocrits","nodmgspread","payload","uncletopia"],"game_id":440,"stv_port":27036,"stv_name":"Uncletopia | Montr√©al | 3 | All Maps | STV","players":null},{"server_id":303,"name":"Uncletopia | Montr√©al | 4 | No Payload","name_short":"mtl-4","host":"mtl-1.ca.uncletopia.com","port":27045,"enabled":true,"region":"us-east","cc":"ca","latitude":45.50889,"longitude":-73.56167,"reserved":0,"last_update":"0001-01-01T00:00:00Z","name_a2s":"Uncletopia | Montr√©al | 4 | No Payload","protocol":17,"map":"pl_pier","folder":"tf","game":"Team Fortress","app_id":440,"player_count":0,"max_players":24,"Bots":0,"server_type":"Dedicated","server_os":"Linux","password":true,"vac":true,"version":"7757534","steam_id":85568392924500090,"keywords":["nocrits","nodmgspread","payload","uncletopia"],"game_id":440,"stv_port":27046,"stv_name":"Uncletopia | Montr√©al | 4 | No Payload | STV","players":null},{"server_id":13,"name":"Uncletopia | New York City | 1 | All Maps","name_short":"nyc-1","host":"nyc-1.us.uncletopia.com","port":27015,"enabled":true,"region":"us-east","cc":"us","latitude":40.73061,"longitude":-73.93524,"reserved":0,"last_update":"0001-01-01T00:00:00Z","name_a2s":"Uncletopia | New York City | 1 | All Maps","protocol":17,"map":"koth_viaduct","folder":"tf","game":"Team Fortress","app_id":440,"player_count":0,"max_players":24,"Bots":0,"server_type":"Dedicated","server_os":"Linux","password":true,"vac":true,"version":"7757534","steam_id":85568392924469993,"keywords":["cp","nocrits","nodmgspread","uncletopia"],"game_id":440,"stv_port":27016,"stv_name":"Uncletopia | New York City | 1 | All Maps | STV","players":null},{"server_id":14,"name":"Uncletopia | New York City | 2 | All Maps","name_short":"nyc-2","host":"nyc-1.us.uncletopia.com","port":27025,"enabled":true,"region":"us-east","cc":"us","latitude":40.73061,"longitude":-73.93524,"reserved":0,"last_update":"0001-01-01T00:00:00Z","name_a2s":"Uncletopia | New York City | 2 | All Maps","protocol":17,"map":"pl_badwater","folder":"tf","game":"Team Fortress","app_id":440,"player_count":0,"max_players":24,"Bots":0,"server_type":"Dedicated","server_os":"Linux","password":true,"vac":true,"version":"7757534","steam_id":85568392924469994,"keywords":["nocrits","nodmgspread","payload","uncletopia"],"game_id":440,"stv_port":27026,"stv_name":"Uncletopia | New York City | 2 | All Maps | STV","players":null},{"server_id":15,"name":"Uncletopia | New York City | 3 | Stopwatch Beta","name_short":"nyc-3","host":"nyc-1.us.uncletopia.com","port":27035,"enabled":true,"region":"us-east","cc":"us","latitude":40.73061,"longitude":-73.93524,"reserved":0,"last_update":"0001-01-01T00:00:00Z","name_a2s":"Uncletopia | New York City | 3 | Stopwatch Beta","protocol":17,"map":"pl_upward","folder":"tf","game":"Team Fortress","app_id":440,"player_count":0,"max_players":24,"Bots":0,"server_type":"Dedicated","server_os":"Linux","password":true,"vac":true,"version":"7757534","steam_id":85568392924742820,"keywords":["nocrits","nodmgspread","payload","uncletopia"],"game_id":440,"stv_port":27036,"stv_name":"Uncletopia | New York City | 3 | Stopwatch Beta | STV","players":null},{"server_id":16,"name":"Uncletopia | New York City | 4 | Community","name_short":"nyc-4","host":"nyc-1.us.uncletopia.com","port":27045,"enabled":true,"region":"us-east","cc":"us","latitude":40.73061,"longitude":-73.93524,"reserved":0,"last_update":"0001-01-01T00:00:00Z","name_a2s":"Uncletopia | New York City | 4 | Community","protocol":17,"map":"pl_swiftwater_final1","folder":"tf","game":"Team Fortress","app_id":440,"player_count":0,"max_players":24,"Bots":0,"server_type":"Dedicated","server_os":"Linux","password":true,"vac":true,"version":"7757534","steam_id":85568392924742821,"keywords":["nocrits","nodmgspread","payload","uncletopia"],"game_id":440,"stv_port":27046,"stv_name":"Uncletopia | New York City | 4 | Community | STV","players":null},{"server_id":142,"name":"Uncletopia | S√£o Paulo | 1 | All Maps","name_short":"sao-1","host":"sao-1.br.uncletopia.com","port":27015,"enabled":true,"region":"sa","cc":"br","latitude":-23.533773,"longitude":-46.62529,"reserved":0,"last_update":"0001-01-01T00:00:00Z","name_a2s":"Uncletopia | S√£o Paulo | 1 | All Maps","protocol":17,"map":"koth_lakeside_final","folder":"tf","game":"Team Fortress","app_id":440,"player_count":0,"max_players":24,"Bots":0,"server_type":"Dedicated","server_os":"Linux","password":true,"vac":true,"version":"7757534","steam_id":85568392924469996,"keywords":["cp","nocrits","nodmgspread","uncletopia"],"game_id":440,"stv_port":27016,"stv_name":"Uncletopia | S√£o Paulo | 1 | All Maps | STV","players":null},{"server_id":143,"name":"Uncletopia | S√£o Paulo | 2 | All Maps","name_short":"sao-2","host":"sao-2.br.uncletopia.com","port":27015,"enabled":true,"region":"sa","cc":"br","latitude":-23.533773,"longitude":-46.62529,"reserved":0,"last_update":"0001-01-01T00:00:00Z","name_a2s":"Uncletopia | S√£o Paulo | 2 | All Maps","protocol":17,"map":"pl_borneo","folder":"tf","game":"Team Fortress","app_id":440,"player_count":0,"max_players":24,"Bots":0,"server_type":"Dedicated","server_os":"Linux","password":true,"vac":true,"version":"7757534","steam_id":85568392924485349,"keywords":["nocrits","nodmgspread","payload","uncletopia"],"game_id":440,"stv_port":27016,"stv_name":"Uncletopia | S√£o Paulo | 2 | All Maps | STV","players":null},{"server_id":7,"name":"Uncletopia | Seattle | 1 | All Maps","name_short":"sea-1","host":"sea-1.us.uncletopia.com","port":27015,"enabled":true,"region":"us-west","cc":"us","latitude":47.608013,"longitude":-122.33517,"reserved":0,"last_update":"0001-01-01T00:00:00Z","name_a2s":"Uncletopia | Seattle | 1 | All Maps","protocol":17,"map":"pl_borneo","folder":"tf","game":"Team Fortress","app_id":440,"player_count":5,"max_players":24,"Bots":0,"server_type":"Dedicated","server_os":"Linux","password":true,"vac":true,"version":"7757534","steam_id":85568392924469997,"keywords":["nocrits","nodmgspread","payload","uncletopia"],"game_id":440,"stv_port":27016,"stv_name":"Uncletopia | Seattle | 1 | All Maps | STV","players":[{"user_id":963,"name":"ChuChu","steam_id":76561199443647976,"connected_time":651000000000,"state":"active","ping":90},{"user_id":964,"name":"Ediot","steam_id":76561199349494096,"connected_time":567000000000,"state":"active","ping":131},{"user_id":965,"name":"eggy","steam_id":76561198114600721,"connected_time":481000000000,"state":"active","ping":119},{"user_id":966,"name":"Roseblade115","steam_id":76561198120797483,"connected_time":401000000000,"state":"active","ping":45},{"user_id":967,"name":"reiidaya","steam_id":76561198325306660,"connected_time":337000000000,"state":"active","ping":46}]},{"server_id":119,"name":"Uncletopia | Seattle | 2 | All Maps","name_short":"sea-2","host":"sea-1.us.uncletopia.com","port":27025,"enabled":true,"region":"us-west","cc":"us","latitude":47.608013,"longitude":-122.33517,"reserved":0,"last_update":"0001-01-01T00:00:00Z","name_a2s":"Uncletopia | Seattle | 2 | All Maps","protocol":17,"map":"pl_upward","folder":"tf","game":"Team Fortress","app_id":440,"player_count":23,"max_players":24,"Bots":0,"server_type":"Dedicated","server_os":"Linux","password":true,"vac":true,"version":"7757534","steam_id":85568392924469998,"keywords":["nocrits","nodmgspread","payload","uncletopia"],"game_id":440,"stv_port":27026,"stv_name":"Uncletopia | Seattle | 2 | All Maps | STV","players":[{"user_id":802,"name":"Rubberhose","steam_id":76561198385679190,"connected_time":1538000000000,"state":"active","ping":93},{"user_id":669,"name":"funkdonut","steam_id":76561199062326425,"connected_time":10073000000000,"state":"active","ping":57},{"user_id":811,"name":"Jehosabub","steam_id":76561198161246558,"connected_time":248000000000,"state":"active","ping":61},{"user_id":803,"name":"Yammie","steam_id":76561197987304489,"connected_time":1516000000000,"state":"active","ping":44},{"user_id":754,"name":"Zerg_Man","steam_id":76561199060404359,"connected_time":4249000000000,"state":"active","ping":70},{"user_id":773,"name":"certified cinderace slayer","steam_id":76561198421913648,"connected_time":2750000000000,"state":"active","ping":52},{"user_id":737,"name":"ShouldBeDrawing","steam_id":76561198027830584,"connected_time":4780000000000,"state":"active","ping":130},{"user_id":809,"name":"Tele Guardian","steam_id":76561198071790583,"connected_time":552000000000,"state":"active","ping":103},{"user_id":807,"name":"El Duderino","steam_id":76561199427900685,"connected_time":1053000000000,"state":"active","ping":93},{"user_id":810,"name":"Brother Cadfael","steam_id":76561198083996768,"connected_time":409000000000,"state":"active","ping":53},{"user_id":764,"name":"Kilora","steam_id":76561198103356827,"connected_time":3707000000000,"state":"active","ping":61},{"user_id":812,"name":"Rumple","steam_id":76561199142171811,"connected_time":144000000000,"state":"active","ping":60},{"user_id":798,"name":"Epic Gamer","steam_id":76561198082457496,"connected_time":1771000000000,"state":"active","ping":55},{"user_id":777,"name":"SHADOW WIZARD MONEY GANG","steam_id":76561198798667624,"connected_time":2475000000000,"state":"active","ping":43},{"user_id":778,"name":"dume","steam_id":76561199317173561,"connected_time":2473000000000,"state":"active","ping":54},{"user_id":788,"name":"Cam(era)","steam_id":76561198285054047,"connected_time":2230000000000,"state":"active","ping":70},{"user_id":780,"name":"Dustin Bones","steam_id":76561198019314474,"connected_time":2416000000000,"state":"active","ping":75},{"user_id":784,"name":"lol","steam_id":76561198026491738,"connected_time":2373000000000,"state":"active","ping":86},{"user_id":806,"name":"A mediocre rock","steam_id":76561199247095754,"connected_time":1148000000000,"state":"active","ping":77},{"user_id":791,"name":"Neo Kojiro","steam_id":76561198000967076,"connected_time":2108000000000,"state":"active","ping":128},{"user_id":793,"name":"a goose","steam_id":76561197995403717,"connected_time":2002000000000,"state":"active","ping":60},{"user_id":795,"name":"ChieF BEEF QueeF","steam_id":76561198078294539,"connected_time":1980000000000,"state":"active","ping":87},{"user_id":800,"name":"Spooky","steam_id":76561198030817605,"connected_time":1754000000000,"state":"active","ping":38}]},{"server_id":406,"name":"Uncletopia | Seattle | 3 | Stopwatch Beta","name_short":"sea-3","host":"sea-1.us.uncletopia.com","port":27035,"enabled":true,"region":"us-west","cc":"us","latitude":47.608013,"longitude":-122.33517,"reserved":0,"last_update":"0001-01-01T00:00:00Z","name_a2s":"Uncletopia | Seattle | 3 | Stopwatch Beta","protocol":17,"map":"koth_highpass","folder":"tf","game":"Team Fortress","app_id":440,"player_count":0,"max_players":24,"Bots":0,"server_type":"Dedicated","server_os":"Linux","password":true,"vac":true,"version":"7757534","steam_id":85568392924515217,"keywords":["cp","nocrits","nodmgspread","uncletopia"],"game_id":440,"stv_port":27036,"stv_name":"Uncletopia | Seattle | 3 | Stopwatch Beta | STV","players":null},{"server_id":17,"name":"Uncletopia | San Francisco | 1 | All Maps","name_short":"sfo-1","host":"sfo-1.us.uncletopia.com","port":27015,"enabled":true,"region":"us-west","cc":"us","latitude":37.77397,"longitude":-122.4313,"reserved":0,"last_update":"0001-01-01T00:00:00Z","name_a2s":"Uncletopia | San Francisco | 1 | All Maps","protocol":17,"map":"pl_badwater","folder":"tf","game":"Team Fortress","app_id":440,"player_count":15,"max_players":24,"Bots":0,"server_type":"Dedicated","server_os":"Linux","password":true,"vac":true,"version":"7757534","steam_id":85568392924469999,"keywords":["nocrits","nodmgspread","payload","uncletopia"],"game_id":440,"stv_port":27016,"stv_name":"Uncletopia | San Francisco | 1 | All Maps | STV","players":[{"user_id":667,"name":"rice white","steam_id":76561198320732910,"connected_time":2243000000000,"state":"active","ping":120},{"user_id":677,"name":"meathead","steam_id":76561197970977889,"connected_time":562000000000,"state":"active","ping":52},{"user_id":676,"name":"Morningstar","steam_id":76561197998568745,"connected_time":567000000000,"state":"active","ping":96},{"user_id":634,"name":"Ramirez","steam_id":76561199216838273,"connected_time":4661000000000,"state":"active","ping":72},{"user_id":658,"name":"‚ùÑ Alice ‚ô•","steam_id":76561198869945051,"connected_time":2916000000000,"state":"active","ping":105},{"user_id":589,"name":"the quan","steam_id":76561198105374054,"connected_time":9321000000000,"state":"active","ping":67},{"user_id":670,"name":"toes","steam_id":76561198221151676,"connected_time":1774000000000,"state":"active","ping":87},{"user_id":623,"name":"Pudsla","steam_id":76561198258974036,"connected_time":5540000000000,"state":"active","ping":60},{"user_id":669,"name":"bandit !!","steam_id":76561198126546221,"connected_time":1828000000000,"state":"active","ping":50},{"user_id":651,"name":"8 raw papers","steam_id":76561198424248616,"connected_time":3441000000000,"state":"active","ping":105},{"user_id":671,"name":"CreativeUsername","steam_id":76561198186045503,"connected_time":1733000000000,"state":"active","ping":103},{"user_id":628,"name":"eat chocolate look at animal","steam_id":76561198001410668,"connected_time":5327000000000,"state":"active","ping":58},{"user_id":652,"name":"ray (the based god)","steam_id":76561198311984941,"connected_time":3362000000000,"state":"active","ping":102},{"user_id":674,"name":"Callahan","steam_id":76561197976928457,"connected_time":1370000000000,"state":"active","ping":75},{"user_id":666,"name":"The Horselords and Animal Gods","steam_id":76561197975094050,"connected_time":2519000000000,"state":"active","ping":58}]},{"server_id":18,"name":"Uncletopia | San Francisco | 2 | All Maps","name_short":"sfo-2","host":"sfo-1.us.uncletopia.com","port":27025,"enabled":true,"region":"us-west","cc":"us","latitude":37.77397,"longitude":-122.4313,"reserved":0,"last_update":"0001-01-01T00:00:00Z","name_a2s":"Uncletopia | San Francisco | 2 | All Maps","protocol":17,"map":"koth_cascade","folder":"tf","game":"Team Fortress","app_id":440,"player_count":0,"max_players":24,"Bots":0,"server_type":"Dedicated","server_os":"Linux","password":true,"vac":true,"version":"7757534","steam_id":85568392924470000,"keywords":["cp","nocrits","nodmgspread","uncletopia"],"game_id":440,"stv_port":27026,"stv_name":"Uncletopia | San Francisco | 2 | All Maps | STV","players":null},{"server_id":19,"name":"Uncletopia | San Francisco | 3 | Stopwatch Beta","name_short":"sfo-3","host":"sfo-1.us.uncletopia.com","port":27035,"enabled":true,"region":"us-west","cc":"us","latitude":37.77397,"longitude":-122.4313,"reserved":0,"last_update":"0001-01-01T00:00:00Z","name_a2s":"Uncletopia | San Francisco | 3 | Stopwatch Beta","protocol":17,"map":"pl_borneo","folder":"tf","game":"Team Fortress","app_id":440,"player_count":0,"max_players":24,"Bots":0,"server_type":"Dedicated","server_os":"Linux","password":true,"vac":true,"version":"7757534","steam_id":85568392924742824,"keywords":["nocrits","nodmgspread","payload","uncletopia"],"game_id":440,"stv_port":27036,"stv_name":"Uncletopia | San Francisco | 3 | Stopwatch Beta | STV","players":null},{"server_id":20,"name":"Uncletopia | San Francisco | 4 | Community","name_short":"sfo-4","host":"sfo-1.us.uncletopia.com","port":27045,"enabled":true,"region":"us-west","cc":"us","latitude":37.77397,"longitude":-122.4313,"reserved":0,"last_update":"0001-01-01T00:00:00Z","name_a2s":"Uncletopia | San Francisco | 4 | Community","protocol":17,"map":"workshop/koth_product_final.ugc454272353","folder":"tf","game":"Team Fortress","app_id":440,"player_count":0,"max_players":24,"Bots":0,"server_type":"Dedicated","server_os":"Linux","password":true,"vac":true,"version":"7757534","steam_id":85568392924742826,"keywords":["cp","nocrits","nodmgspread","uncletopia"],"game_id":440,"stv_port":27046,"stv_name":"Uncletopia | San Francisco | 4 | Community | STV","players":null},{"server_id":141,"name":"Uncletopia | Sydney | 1 | All Maps","name_short":"syd-1","host":"syd-1.au.uncletopia.com","port":27015,"enabled":true,"region":"au","cc":"au","latitude":-33.865143,"longitude":151.2099,"reserved":0,"last_update":"0001-01-01T00:00:00Z","name_a2s":"Uncletopia | Sydney | 1 | All Maps","protocol":17,"map":"pl_borneo","folder":"tf","game":"Team Fortress","app_id":440,"player_count":24,"max_players":24,"Bots":0,"server_type":"Dedicated","server_os":"Linux","password":true,"vac":true,"version":"7757534","steam_id":85568392924470001,"keywords":["nocrits","nodmgspread","payload","uncletopia"],"game_id":440,"stv_port":27016,"stv_name":"Uncletopia | Sydney | 1 | All Maps | STV","players":[{"user_id":318,"name":"Louis","steam_id":76561198013395847,"connected_time":395000000000,"state":"active","ping":54},{"user_id":304,"name":"Cofwee","steam_id":76561198072414195,"connected_time":1304000000000,"state":"active","ping":84},{"user_id":307,"name":"‡∏∏bifcheg","steam_id":76561198319806610,"connected_time":974000000000,"state":"active","ping":67},{"user_id":312,"name":"krandlez` (Any/All)","steam_id":76561198044839726,"connected_time":684000000000,"state":"active","ping":44},{"user_id":287,"name":"Morterkai","steam_id":76561198048247068,"connected_time":2283000000000,"state":"active","ping":57},{"user_id":295,"name":"aideiali","steam_id":76561199090662025,"connected_time":1814000000000,"state":"active","ping":182},{"user_id":293,"name":"weezer","steam_id":76561199439508788,"connected_time":2021000000000,"state":"active","ping":73},{"user_id":306,"name":"Tiggerex","steam_id":76561198049006869,"connected_time":1084000000000,"state":"active","ping":102},{"user_id":311,"name":"Jauntyweb","steam_id":76561198814458512,"connected_time":719000000000,"state":"active","ping":84},{"user_id":302,"name":"toaster","steam_id":76561198858085224,"connected_time":1464000000000,"state":"active","ping":49},{"user_id":282,"name":"thrax","steam_id":76561197992385270,"connected_time":2832000000000,"state":"active","ping":50},{"user_id":294,"name":"frog","steam_id":76561198300661780,"connected_time":1919000000000,"state":"active","ping":33},{"user_id":264,"name":"floop flub","steam_id":76561198418968979,"connected_time":3841000000000,"state":"active","ping":101},{"user_id":313,"name":"SaltierThanYou","steam_id":76561198444395188,"connected_time":677000000000,"state":"active","ping":83},{"user_id":319,"name":"homes inc","steam_id":76561198170188198,"connected_time":321000000000,"state":"active","ping":55},{"user_id":320,"name":"oldbie","steam_id":76561198053297711,"connected_time":272000000000,"state":"active","ping":86},{"user_id":308,"name":"Giant Rat","steam_id":76561198110170714,"connected_time":832000000000,"state":"active","ping":59},{"user_id":321,"name":"Snowy","steam_id":76561198255720598,"connected_time":245000000000,"state":"active","ping":49},{"user_id":303,"name":"nite","steam_id":76561198797671189,"connected_time":1399000000000,"state":"active","ping":49},{"user_id":309,"name":"terrablade_master","steam_id":76561198997249192,"connected_time":829000000000,"state":"active","ping":72},{"user_id":322,"name":"gasbot","steam_id":76561199157686277,"connected_time":189000000000,"state":"active","ping":132},{"user_id":300,"name":"Top Ramen","steam_id":76561198028969833,"connected_time":1521000000000,"state":"active","ping":49},{"user_id":289,"name":"NateSquared","steam_id":76561198324329687,"connected_time":2269000000000,"state":"active","ping":49},{"user_id":290,"name":"Charm","steam_id":76561198028891054,"connected_time":2251000000000,"state":"active","ping":60}]},{"server_id":123,"name":"Uncletopia | Sydney | 2 | All Maps","name_short":"syd-2","host":"syd-1.au.uncletopia.com","port":27025,"enabled":true,"region":"au","cc":"au","latitude":-33.865143,"longitude":151.2099,"reserved":0,"last_update":"0001-01-01T00:00:00Z","name_a2s":"Uncletopia | Sydney | 2 | All Maps","protocol":17,"map":"cp_mercenarypark","folder":"tf","game":"Team Fortress","app_id":440,"player_count":22,"max_players":24,"Bots":0,"server_type":"Dedicated","server_os":"Linux","password":true,"vac":true,"version":"7757534","steam_id":85568392924470002,"keywords":["cp","nocrits","nodmgspread","uncletopia"],"game_id":440,"stv_port":27026,"stv_name":"Uncletopia | Sydney | 2 | All Maps | STV","players":[{"user_id":437,"name":"Lochlan","steam_id":76561198869858615,"connected_time":439000000000,"state":"active","ping":53},{"user_id":225,"name":"Jodelk√∂nig Franzl Lang","steam_id":76561198007667830,"connected_time":14724000000000,"state":"active","ping":53},{"user_id":438,"name":"trains are cool","steam_id":76561198133490050,"connected_time":72000000000,"state":"active","ping":78},{"user_id":395,"name":"Tiger_Tan","steam_id":76561198221733844,"connected_time":2989000000000,"state":"active","ping":71},{"user_id":423,"name":"alex","steam_id":76561198053382248,"connected_time":1814000000000,"state":"active","ping":40},{"user_id":431,"name":"Peashooter","steam_id":76561198157250318,"connected_time":832000000000,"state":"active","ping":53},{"user_id":396,"name":"whiteshaq","steam_id":76561198131988811,"connected_time":2883000000000,"state":"active","ping":48},{"user_id":404,"name":"therealllamait","steam_id":76561198841226950,"connected_time":2328000000000,"state":"active","ping":63},{"user_id":439,"name":"Phobia¬≤","steam_id":76561198038833524,"connected_time":44000000000,"state":"active","ping":56},{"user_id":409,"name":"Henry.","steam_id":76561198218565309,"connected_time":2264000000000,"state":"active","ping":67},{"user_id":407,"name":"hive","steam_id":76561199099744527,"connected_time":2273000000000,"state":"active","ping":45},{"user_id":429,"name":"Motormouth","steam_id":76561197980851839,"connected_time":1153000000000,"state":"active","ping":91},{"user_id":405,"name":"Eugene (built different)","steam_id":76561198079108027,"connected_time":2276000000000,"state":"active","ping":45},{"user_id":406,"name":"Sancho","steam_id":76561197995288524,"connected_time":2275000000000,"state":"active","ping":69},{"user_id":380,"name":"Voncrumb","steam_id":76561198054076313,"connected_time":4554000000000,"state":"active","ping":51},{"user_id":410,"name":"Ethos","steam_id":76561197970514852,"connected_time":2253000000000,"state":"active","ping":62},{"user_id":393,"name":"Invidia","steam_id":76561198096251579,"connected_time":3453000000000,"state":"active","ping":45},{"user_id":428,"name":"LightningBlock","steam_id":76561198289997742,"connected_time":1167000000000,"state":"active","ping":41},{"user_id":426,"name":"Charikarp","steam_id":76561198132766743,"connected_time":1509000000000,"state":"active","ping":88},{"user_id":414,"name":"Luden","steam_id":76561198069165922,"connected_time":2237000000000,"state":"active","ping":65},{"user_id":430,"name":"mushroom","steam_id":76561197992336470,"connected_time":1107000000000,"state":"active","ping":94},{"user_id":422,"name":"EpicGuy4227","steam_id":76561198094132328,"connected_time":1947000000000,"state":"active","ping":43}]},{"server_id":395,"name":"Uncletopia | Sydney | 3 | All Maps","name_short":"syd-3","host":"syd-1.au.uncletopia.com","port":27035,"enabled":true,"region":"au","cc":"au","latitude":-33.865143,"longitude":151.2099,"reserved":0,"last_update":"0001-01-01T00:00:00Z","name_a2s":"Uncletopia | Sydney | 3 | All Maps","protocol":17,"map":"cp_gorge","folder":"tf","game":"Team Fortress","app_id":440,"player_count":0,"max_players":24,"Bots":0,"server_type":"Dedicated","server_os":"Linux","password":true,"vac":true,"version":"7757534","steam_id":85568392925194467,"keywords":["cp","nocrits","nodmgspread","uncletopia"],"game_id":440,"stv_port":27036,"stv_name":"Uncletopia | Sydney | 3 | All Maps | STV","players":null},{"server_id":396,"name":"Uncletopia | Sydney | 4 | All Maps","name_short":"syd-4","host":"syd-1.au.uncletopia.com","port":27045,"enabled":true,"region":"au","cc":"au","latitude":-33.865143,"longitude":151.2099,"reserved":0,"last_update":"0001-01-01T00:00:00Z","name_a2s":"Uncletopia | Sydney | 4 | All Maps","protocol":17,"map":"pl_upward","folder":"tf","game":"Team Fortress","app_id":440,"player_count":3,"max_players":24,"Bots":0,"server_type":"Dedicated","server_os":"Linux","password":true,"vac":true,"version":"7757534","steam_id":85568392925397958,"keywords":["nocrits","nodmgspread","payload","uncletopia"],"game_id":440,"stv_port":27046,"stv_name":"Uncletopia | Sydney | 4 | All Maps | STV","players":[{"user_id":26,"name":"Snipper","steam_id":76561199227682729,"connected_time":1662000000000,"state":"active","ping":80},{"user_id":27,"name":"metulcuts","steam_id":76561199479554423,"connected_time":1362000000000,"state":"active","ping":94},{"user_id":32,"name":"The Gob Named Gobby","steam_id":76561199225488249,"connected_time":369000000000,"state":"active","ping":67}]},{"server_id":58,"name":"Uncletopia | Sydney | 5 | Stopwatch Beta","name_short":"syd-5","host":"syd-1.au.uncletopia.com","port":27055,"enabled":true,"region":"au","cc":"au","latitude":-33.865143,"longitude":151.2099,"reserved":0,"last_update":"0001-01-01T00:00:00Z","name_a2s":"Uncletopia | Sydney | 5 | Stopwatch Beta","protocol":17,"map":"workshop/cp_reckoner_rc6.ugc674719999","folder":"tf","game":"Team Fortress","app_id":440,"player_count":0,"max_players":24,"Bots":0,"server_type":"Dedicated","server_os":"Linux","password":true,"vac":true,"version":"7757534","steam_id":85568392925397959,"keywords":["cp","nocrits","nodmgspread","uncletopia"],"game_id":440,"stv_port":27056,"stv_name":"Uncletopia | Sydney | 5 | Stopwatch Beta | STV","players":null},{"server_id":59,"name":"Uncletopia | Sydney | 6 | Community","name_short":"syd-6","host":"syd-1.au.uncletopia.com","port":27065,"enabled":true,"region":"au","cc":"au","latitude":-33.865143,"longitude":151.2099,"reserved":0,"last_update":"0001-01-01T00:00:00Z","name_a2s":"Uncletopia | Sydney | 6 | Community","protocol":17,"map":"workshop/koth_ramjam_rc1.ugc459778887","folder":"tf","game":"Team Fortress","app_id":440,"player_count":0,"max_players":24,"Bots":0,"server_type":"Dedicated","server_os":"Linux","password":true,"vac":true,"version":"7757534","steam_id":85568392925397960,"keywords":["cp","nocrits","nodmgspread","uncletopia"],"game_id":440,"stv_port":27066,"stv_name":"Uncletopia | Sydney | 6 | Community | STV","players":null},{"server_id":49,"name":"Uncletopia | Warsaw | 1 | All Maps","name_short":"waw-1","host":"waw-1.pl.uncletopia.com","port":27015,"enabled":true,"region":"eu","cc":"pl","latitude":52.2297,"longitude":21.017532,"reserved":0,"last_update":"0001-01-01T00:00:00Z","name_a2s":"","protocol":0,"map":"","folder":"","game":"","app_id":0,"player_count":0,"max_players":0,"Bots":0,"server_type":"","server_os":"","password":false,"vac":false,"version":"","steam_id":0,"keywords":null,"game_id":0,"stv_port":0,"stv_name":"","players":null},{"server_id":50,"name":"Uncletopia | Warsaw | 2 | All Maps","name_short":"waw-2","host":"waw-1.pl.uncletopia.com","port":27025,"enabled":true,"region":"eu","cc":"pl","latitude":52.2297,"longitude":21.017532,"reserved":0,"last_update":"0001-01-01T00:00:00Z","name_a2s":"Uncletopia | Warsaw | 2 | All Maps","protocol":17,"map":"koth_viaduct","folder":"tf","game":"Team Fortress","app_id":440,"player_count":0,"max_players":24,"Bots":0,"server_type":"Dedicated","server_os":"Linux","password":true,"vac":true,"version":"7757534","steam_id":85568392925397851,"keywords":["cp","nocrits","nodmgspread","uncletopia"],"game_id":440,"stv_port":27026,"stv_name":"Uncletopia | Warsaw | 2 | All Maps | STV","players":null},{"server_id":51,"name":"Uncletopia | Warsaw | 3 | All Maps","name_short":"waw-3","host":"waw-1.pl.uncletopia.com","port":27035,"enabled":true,"region":"eu","cc":"pl","latitude":52.2297,"longitude":21.017532,"reserved":0,"last_update":"0001-01-01T00:00:00Z","name_a2s":"Uncletopia | Warsaw | 3 | All Maps","protocol":17,"map":"koth_viaduct","folder":"tf","game":"Team Fortress","app_id":440,"player_count":0,"max_players":24,"Bots":0,"server_type":"Dedicated","server_os":"Linux","password":true,"vac":true,"version":"7757534","steam_id":85568392925397852,"keywords":["cp","nocrits","nodmgspread","uncletopia"],"game_id":440,"stv_port":27036,"stv_name":"Uncletopia | Warsaw | 3 | All Maps | STV","players":null},{"server_id":52,"name":"Uncletopia | Warsaw | 4 | All Maps","name_short":"waw-4","host":"waw-1.pl.uncletopia.com","port":27045,"enabled":true,"region":"eu","cc":"pl","latitude":52.2297,"longitude":21.017532,"reserved":0,"last_update":"0001-01-01T00:00:00Z","name_a2s":"Uncletopia | Warsaw | 4 | All Maps","protocol":17,"map":"koth_lakeside_final","folder":"tf","game":"Team Fortress","app_id":440,"player_count":0,"max_players":24,"Bots":0,"server_type":"Dedicated","server_os":"Linux","password":true,"vac":true,"version":"7757534","steam_id":85568392925397853,"keywords":["cp","nocrits","nodmgspread","uncletopia"],"game_id":440,"stv_port":27046,"stv_name":"Uncletopia | Warsaw | 4 | All Maps | STV","players":null},{"server_id":53,"name":"Uncletopia | Warsaw | 5 | Stopwatch Beta","name_short":"waw-5","host":"waw-1.pl.uncletopia.com","port":27055,"enabled":true,"region":"eu","cc":"pl","latitude":52.2297,"longitude":21.017532,"reserved":0,"last_update":"0001-01-01T00:00:00Z","name_a2s":"Uncletopia | Warsaw | 5 | Stopwatch Beta","protocol":17,"map":"pl_borneo","folder":"tf","game":"Team Fortress","app_id":440,"player_count":0,"max_players":24,"Bots":0,"server_type":"Dedicated","server_os":"Linux","password":true,"vac":true,"version":"7757534","steam_id":85568392925397854,"keywords":["nocrits","nodmgspread","payload","uncletopia"],"game_id":440,"stv_port":27056,"stv_name":"Uncletopia | Warsaw | 5 | Stopwatch Beta | STV","players":null},{"server_id":54,"name":"Uncletopia | Warsaw | 6 | Community","name_short":"waw-6","host":"waw-1.pl.uncletopia.com","port":27065,"enabled":true,"region":"eu","cc":"pl","latitude":52.2297,"longitude":21.017532,"reserved":0,"last_update":"0001-01-01T00:00:00Z","name_a2s":"Uncletopia | Warsaw | 6 | Community","protocol":17,"map":"koth_lakeside_final","folder":"tf","game":"Team Fortress","app_id":440,"player_count":0,"max_players":24,"Bots":0,"server_type":"Dedicated","server_os":"Linux","password":true,"vac":true,"version":"7757534","steam_id":85568392925397856,"keywords":["cp","nocrits","nodmgspread","uncletopia"],"game_id":440,"stv_port":27066,"stv_name":"Uncletopia | Warsaw | 6 | Community | STV","players":null}]}