{"status":true,"message":"","result":[{"server_id":9,"name":"Uncletopia | Atlanta | 1 | All Maps","name_short":"atl-1","host":"atl-1.us.uncletopia.com","port":27015,"enabled":true,"region":"us-east","cc":"us","latitude":33.753746,"longitude":-84.38633,"reserved":0,"last_update":"0001-01-01T00:00:00Z","name_a2s":"Uncletopia | Atlanta | 1 | All Maps","protocol":17,"map":"pl_pier","folder":"tf","game":"Team Fortress","app_id":440,"player_count":24,"max_players":24,"Bots":0,"server_type":"Dedicated","server_os":"Linux","password":true,"vac":true,"version":"7961495","steam_id":85568392924469982,"keywords":["nocrits","nodmgspread","payload","uncletopia"],"game_id":440,"stv_port":27016,"stv_name":"Uncletopia | Atlanta | 1 | All Maps | STV","players":null},{"server_id":104,"name":"Uncletopia | Atlanta | 2 | All Maps","name_short":"atl-2","host":"atl-1.us.uncletopia.com","port":27025,"enabled":true,"region":"us-east","cc":"us","latitude":33.753746,"longitude":-84.38633,"reserved":0,"last_update":"0001-01-01T00:00:00Z","name_a2s":"Uncletopia | Atlanta | 2 | All Maps","protocol":17,"map":"cp_mossrock","folder":"tf","game":"Team Fortress","app_id":440,"player_count":24,"max_players":24,"Bots":0,"server_type":"Dedicated","server_os":"Linux","password":true,"vac":true,"version":"7961495","steam_id":85568392924469983,"keywords":["cp","nocrits","nodmgspread","uncletopia"],"game_id":440,"stv_port":27026,"stv_name":"Uncletopia | Atlanta | 2 | All Maps | STV","players":null},{"server_id":400,"name":"Uncletopia | Atlanta | 3 | Stopwatch","name_short":"atl-3","host":"atl-1.us.uncletopia.com","port":27035,"enabled":true,"region":"us-east","cc":"us","latitude":33.753746,"longitude":-84.38633,"reserved":0,"last_update":"0001-01-01T00:00:00Z","name_a2s":"Uncletopia | Atlanta | 3 | Stopwatch","protocol":17,"map":"cp_snakewater_final1","folder":"tf","game":"Team Fortress","app_id":440,"player_count":17,"max_players":24,"Bots":0,"server_type":"Dedicated","server_os":"Linux","password":true,"vac":true,"version":"7961495","steam_id":85568392924515187,"keywords":["cp","nocrits","nodmgspread","uncletopia"],"game_id":440,"stv_port":27036,"stv_name":"Uncletopia | Atlanta | 3 | Stopwatch | STV","players":null},{"server_id":401,"name":"Uncletopia | Atlanta | 4 | Community","name_short":"atl-4","host":"atl-1.us.uncletopia.com","port":27045,"enabled":true,"region":"us-east","cc":"us","latitude":33.753746,"longitude":-84.38633,"reserved":0,"last_update":"0001-01-01T00:00:00Z","name_a2s":"Uncletopia | Atlanta | 4 | Community","protocol":17,"map":"pl_cashworks_final1","folder":"tf","game":"Team Fortress","app_id":440,"player_count":0,"max_players":24,"Bots":0,"server_type":"Dedicated","server_os":"Linux","password":true,"vac":true,"version":"7961495","steam_id":85568392924515188,"keywords":["nocrits","nodmgspread","payload","uncletopia"],"game_id":440,"stv_port":27046,"stv_name":"Uncletopia | Atlanta | 4 | Community | STV","players":null},{"server_id":2,"name":"Uncletopia | Chicago | 1 | All Maps","name_short":"chi-1","host":"chi-1.us.uncletopia.com","port":27015,"enabled":true,"region":"us-central","cc":"us","latitude":41.881832,"longitude":-87.62318,"reserved":0,"last_update":"0001-01-01T00:00:00Z","name_a2s":"Uncletopia | Chicago | 1 | All Maps","protocol":17,"map":"pl_swiftwater_final1","folder":"tf","game":"Team Fortress","app_id":440,"player_count":24,"max_players":24,"Bots":0,"server_type":"Dedicated","server_os":"Linux","password":true,"vac":true,"version":"7961495","steam_id":85568392924469984,"keywords":["nocrits","nodmgspread","payload","uncletopia"],"game_id":440,"stv_port":27016,"stv_name":"Uncletopia | Chicago | 1 | All Maps | STV","players":[{"user_id":315,"name":"Sir Lagsalot","steam_id":76561198133576262,"connected_time":994000000000,"state":"active","ping":125},{"user_id":303,"name":"Ahmed","steam_id":76561198123927752,"connected_time":1614000000000,"state":"active","ping":52},{"user_id":286,"name":"Hoovy","steam_id":76561198409907417,"connected_time":2166000000000,"state":"active","ping":104},{"user_id":321,"name":"Ta5K","steam_id":76561198939558155,"connected_time":136000000000,"state":"active","ping":44},{"user_id":268,"name":"Ras","steam_id":76561198123546775,"connected_time":3635000000000,"state":"active","ping":59},{"user_id":316,"name":"wepry","steam_id":76561198114091417,"connected_time":992000000000,"state":"active","ping":51},{"user_id":320,"name":"CinnamonBoy","steam_id":76561198882330338,"connected_time":794000000000,"state":"active","ping":60},{"user_id":299,"name":"super clickteam fusion","steam_id":76561198275101482,"connected_time":1799000000000,"state":"active","ping":150},{"user_id":284,"name":"Nicopico","steam_id":76561198080371321,"connected_time":2215000000000,"state":"active","ping":60},{"user_id":301,"name":"Vorpas Jabwak","steam_id":76561198112186064,"connected_time":1680000000000,"state":"active","ping":83},{"user_id":308,"name":"Mr_Frosty","steam_id":76561199380389079,"connected_time":1187000000000,"state":"active","ping":85},{"user_id":292,"name":"paypur -rng","steam_id":76561198214370515,"connected_time":1900000000000,"state":"active","ping":79},{"user_id":285,"name":"nilftb","steam_id":76561198161952186,"connected_time":2207000000000,"state":"active","ping":62},{"user_id":294,"name":"RedManAwesome","steam_id":76561198347691408,"connected_time":1888000000000,"state":"active","ping":69},{"user_id":319,"name":"Dongus","steam_id":76561197979056451,"connected_time":838000000000,"state":"active","ping":104},{"user_id":309,"name":"stormfoam","steam_id":76561198936871387,"connected_time":1030000000000,"state":"active","ping":71},{"user_id":304,"name":"Naked","steam_id":76561198062763756,"connected_time":1584000000000,"state":"active","ping":52},{"user_id":305,"name":"King Cotton","steam_id":76561198292444376,"connected_time":1577000000000,"state":"active","ping":92},{"user_id":322,"name":"Orange Triangle","steam_id":76561198320498182,"connected_time":122000000000,"state":"active","ping":55},{"user_id":272,"name":"AshMouse","steam_id":76561198151145819,"connected_time":3403000000000,"state":"active","ping":71},{"user_id":317,"name":"LoboSolo","steam_id":76561198006883170,"connected_time":991000000000,"state":"active","ping":103},{"user_id":318,"name":"leif \u003c/3","steam_id":76561198206662424,"connected_time":951000000000,"state":"active","ping":45},{"user_id":258,"name":"nrj1998pelma.six","steam_id":76561198425503395,"connected_time":4273000000000,"state":"active","ping":69},{"user_id":275,"name":"THELootGoblin","steam_id":76561198251891962,"connected_time":3341000000000,"state":"active","ping":68}]},{"server_id":106,"name":"Uncletopia | Chicago | 2 | All Maps","name_short":"chi-2","host":"chi-1.us.uncletopia.com","port":27025,"enabled":true,"region":"us-central","cc":"us","latitude":41.881832,"longitude":-87.62318,"reserved":0,"last_update":"0001-01-01T00:00:00Z","name_a2s":"Uncletopia | Chicago | 2 | All Maps","protocol":17,"map":"pl_thundermountain","folder":"tf","game":"Team Fortress","app_id":440,"player_count":24,"max_players":24,"Bots":0,"server_type":"Dedicated","server_os":"Linux","password":true,"vac":true,"version":"7961495","steam_id":85568392924469985,"keywords":["nocrits","nodmgspread","payload","uncletopia"],"game_id":440,"stv_port":27026,"stv_name":"Uncletopia | Chicago | 2 | All Maps | STV","players":[{"user_id":76,"name":"The Supreme Gentleman","steam_id":76561198037123203,"connected_time":8080000000000,"state":"active","ping":72},{"user_id":172,"name":"Chica","steam_id":76561198381832158,"connected_time":259000000000,"state":"active","ping":66},{"user_id":171,"name":"Flowers","steam_id":76561198031669899,"connected_time":385000000000,"state":"active","ping":85},{"user_id":164,"name":"Diesel","steam_id":76561198448815852,"connected_time":1382000000000,"state":"active","ping":88},{"user_id":155,"name":"Grop Noise","steam_id":76561198145445403,"connected_time":2066000000000,"state":"active","ping":57},{"user_id":173,"name":"Jbomb","steam_id":76561199197866625,"connected_time":248000000000,"state":"active","ping":88},{"user_id":176,"name":"mn","steam_id":76561198042357436,"connected_time":106000000000,"state":"active","ping":76},{"user_id":161,"name":"Candy Sparkles","steam_id":76561198126871264,"connected_time":1565000000000,"state":"active","ping":86},{"user_id":148,"name":"iamtheSpicer","steam_id":76561198263557044,"connected_time":2751000000000,"state":"active","ping":68},{"user_id":174,"name":"joebot","steam_id":76561197975606100,"connected_time":235000000000,"state":"active","ping":65},{"user_id":138,"name":"Sniper is to good","steam_id":76561199388826335,"connected_time":3527000000000,"state":"active","ping":82},{"user_id":128,"name":"Telushealth","steam_id":76561199422760247,"connected_time":4666000000000,"state":"active","ping":92},{"user_id":125,"name":"BlueberryScones","steam_id":76561199423641132,"connected_time":4749000000000,"state":"active","ping":108},{"user_id":175,"name":"linkinparkfan99","steam_id":76561198334977151,"connected_time":213000000000,"state":"active","ping":99},{"user_id":150,"name":"BobRossDaMobBoss","steam_id":76561198799262066,"connected_time":2720000000000,"state":"active","ping":82},{"user_id":158,"name":"Cedric","steam_id":76561198072090580,"connected_time":1656000000000,"state":"active","ping":89},{"user_id":151,"name":"hubert","steam_id":76561198288604502,"connected_time":2708000000000,"state":"active","ping":83},{"user_id":103,"name":"AJTarcza","steam_id":76561198070800190,"connected_time":5655000000000,"state":"active","ping":91},{"user_id":146,"name":"Will5550","steam_id":76561198273838135,"connected_time":2951000000000,"state":"active","ping":104},{"user_id":157,"name":"alveolar trill","steam_id":76561198319593084,"connected_time":1771000000000,"state":"active","ping":98},{"user_id":166,"name":"whose pan did you handle?","steam_id":76561197979204444,"connected_time":1300000000000,"state":"active","ping":85},{"user_id":153,"name":"Gas Can","steam_id":76561198162853003,"connected_time":2576000000000,"state":"active","ping":66},{"user_id":170,"name":"rabbitboy","steam_id":76561199021219781,"connected_time":450000000000,"state":"active","ping":61},{"user_id":140,"name":"potatoes or potatoes","steam_id":76561198268384671,"connected_time":3516000000000,"state":"active","ping":82}]},{"server_id":402,"name":"Uncletopia | Chicago | 3 | All Maps","name_short":"chi-3","host":"chi-1.us.uncletopia.com","port":27035,"enabled":true,"region":"us-central","cc":"us","latitude":41.881832,"longitude":-87.62318,"reserved":0,"last_update":"0001-01-01T00:00:00Z","name_a2s":"Uncletopia | Chicago | 3 | All Maps","protocol":17,"map":"pl_swiftwater_final1","folder":"tf","game":"Team Fortress","app_id":440,"player_count":24,"max_players":24,"Bots":0,"server_type":"Dedicated","server_os":"Linux","password":true,"vac":true,"version":"7961495","steam_id":85568392924515191,"keywords":["nocrits","nodmgspread","payload","uncletopia"],"game_id":440,"stv_port":27036,"stv_name":"Uncletopia | Chicago | 3 | All Maps | STV","players":[{"user_id":156,"name":"Torensz64(But weezer)","steam_id":76561198239036482,"connected_time":429000000000,"state":"active","ping":43},{"user_id":149,"name":"Fraglin","steam_id":76561198124964000,"connected_time":1310000000000,"state":"active","ping":71},{"user_id":154,"name":"subdromeda","steam_id":76561198884351860,"connected_time":432000000000,"state":"active","ping":61},{"user_id":158,"name":"sugoiboi48","steam_id":76561198060056280,"connected_time":363000000000,"state":"active","ping":56},{"user_id":134,"name":"Legit_Jaxer","steam_id":76561198172234053,"connected_time":2480000000000,"state":"active","ping":134},{"user_id":121,"name":"i have amazing aim","steam_id":76561199222920753,"connected_time":3807000000000,"state":"active","ping":56},{"user_id":89,"name":"teaspinator","steam_id":76561199069748074,"connected_time":5995000000000,"state":"active","ping":51},{"user_id":161,"name":"(no monitor) ayylien","steam_id":76561198042127970,"connected_time":136000000000,"state":"active","ping":75},{"user_id":159,"name":"NooseNeck","steam_id":76561198202416199,"connected_time":351000000000,"state":"active","ping":74},{"user_id":147,"name":"Bio_Optical","steam_id":76561199128084374,"connected_time":1329000000000,"state":"active","ping":60},{"user_id":145,"name":"Madeline the Mad","steam_id":76561198153456869,"connected_time":1352000000000,"state":"active","ping":68},{"user_id":160,"name":"tim","steam_id":76561198075510786,"connected_time":350000000000,"state":"active","ping":77},{"user_id":141,"name":"DonoC","steam_id":76561198274473338,"connected_time":2191000000000,"state":"active","ping":75},{"user_id":155,"name":"supcupman","steam_id":76561198051513866,"connected_time":431000000000,"state":"active","ping":105},{"user_id":139,"name":"JetZ","steam_id":76561199122488957,"connected_time":2252000000000,"state":"active","ping":66},{"user_id":130,"name":"Polar","steam_id":76561198271964253,"connected_time":2733000000000,"state":"active","ping":76},{"user_id":113,"name":"Dr.StrangeGlove","steam_id":76561198286114229,"connected_time":4061000000000,"state":"active","ping":60},{"user_id":124,"name":"the archmage","steam_id":76561198380018244,"connected_time":3515000000000,"state":"active","ping":75},{"user_id":150,"name":"lavbubl","steam_id":76561199468150742,"connected_time":1299000000000,"state":"active","ping":95},{"user_id":126,"name":"AliCat","steam_id":76561198308360862,"connected_time":3488000000000,"state":"active","ping":91},{"user_id":129,"name":"YourGenericAsian","steam_id":76561199105467765,"connected_time":3211000000000,"state":"active","ping":89},{"user_id":116,"name":"يوسف","steam_id":76561199061380038,"connected_time":4039000000000,"state":"active","ping":69},{"user_id":153,"name":"rickyrickyricky","steam_id":76561198041765918,"connected_time":774000000000,"state":"active","ping":84},{"user_id":151,"name":"minerkid2004","steam_id":76561198044262827,"connected_time":1282000000000,"state":"active","ping":100}]},{"server_id":403,"name":"Uncletopia | Chicago | 4 | All Maps","name_short":"chi-4","host":"chi-1.us.uncletopia.com","port":27045,"enabled":true,"region":"us-central","cc":"us","latitude":41.881832,"longitude":-87.62318,"reserved":0,"last_update":"0001-01-01T00:00:00Z","name_a2s":"Uncletopia | Chicago | 4 | All Maps","protocol":17,"map":"pl_badwater","folder":"tf","game":"Team Fortress","app_id":440,"player_count":23,"max_players":24,"Bots":0,"server_type":"Dedicated","server_os":"Linux","password":true,"vac":true,"version":"7961495","steam_id":85568392924515193,"keywords":["nocrits","nodmgspread","payload","uncletopia"],"game_id":440,"stv_port":27046,"stv_name":"Uncletopia | Chicago | 4 | All Maps | STV","players":[{"user_id":226,"name":"xLeoparrd","steam_id":76561198940657194,"connected_time":2313000000000,"state":"active","ping":87},{"user_id":253,"name":"mild mannered mystery man","steam_id":76561198072095399,"connected_time":1008000000000,"state":"active","ping":46},{"user_id":257,"name":"TheTurtle220","steam_id":76561199403827814,"connected_time":614000000000,"state":"active","ping":66},{"user_id":258,"name":"She Pegs Me","steam_id":76561198099770390,"connected_time":266000000000,"state":"active","ping":54},{"user_id":260,"name":"gideon nav my beloved","steam_id":76561198259092181,"connected_time":246000000000,"state":"active","ping":58},{"user_id":264,"name":"gaycumsucker420","steam_id":76561198880553223,"connected_time":2000000000,"state":"spawning","ping":46},{"user_id":240,"name":"katryna","steam_id":76561198023440304,"connected_time":1393000000000,"state":"active","ping":60},{"user_id":256,"name":"Ax0L_","steam_id":76561199008960175,"connected_time":706000000000,"state":"active","ping":49},{"user_id":252,"name":"ElChuchoXf","steam_id":76561199235124146,"connected_time":1020000000000,"state":"active","ping":149},{"user_id":199,"name":"joe_lemmons","steam_id":76561198441246401,"connected_time":5890000000000,"state":"active","ping":61},{"user_id":243,"name":"IMM0RTAL","steam_id":76561198013747901,"connected_time":1332000000000,"state":"active","ping":75},{"user_id":262,"name":"VARY angry farmer","steam_id":76561199002245557,"connected_time":230000000000,"state":"active","ping":67},{"user_id":251,"name":"Owen","steam_id":76561198126511851,"connected_time":1049000000000,"state":"active","ping":70},{"user_id":263,"name":"Sofa King","steam_id":76561198401562448,"connected_time":221000000000,"state":"active","ping":74},{"user_id":255,"name":"baguette","steam_id":76561198066048980,"connected_time":995000000000,"state":"active","ping":44},{"user_id":228,"name":"Naffty","steam_id":76561198119734981,"connected_time":2306000000000,"state":"active","ping":99},{"user_id":246,"name":"Brage","steam_id":76561198111623044,"connected_time":1249000000000,"state":"active","ping":158},{"user_id":107,"name":"schnedwob","steam_id":76561197999146588,"connected_time":12933000000000,"state":"active","ping":85},{"user_id":208,"name":"Zalthair","steam_id":76561198052698533,"connected_time":4825000000000,"state":"active","ping":153},{"user_id":221,"name":"a victim of soicumstance","steam_id":76561198375575841,"connected_time":3450000000000,"state":"active","ping":56},{"user_id":247,"name":"Rohi Mig","steam_id":76561198113623627,"connected_time":1236000000000,"state":"active","ping":70},{"user_id":230,"name":"ArtemisTheGreat","steam_id":76561198065959582,"connected_time":2299000000000,"state":"active","ping":77},{"user_id":250,"name":"yeet ape","steam_id":76561198151368930,"connected_time":1145000000000,"state":"active","ping":56}]},{"server_id":36,"name":"Uncletopia | Chicago | 5 | All Maps","name_short":"chi-5","host":"chi-2.us.uncletopia.com","port":27015,"enabled":true,"region":"us-central","cc":"us","latitude":41.881832,"longitude":-87.62318,"reserved":0,"last_update":"0001-01-01T00:00:00Z","name_a2s":"Uncletopia | Chicago | 5 | All Maps","protocol":17,"map":"pl_borneo","folder":"tf","game":"Team Fortress","app_id":440,"player_count":23,"max_players":24,"Bots":0,"server_type":"Dedicated","server_os":"Linux","password":true,"vac":true,"version":"7961495","steam_id":85568392924866362,"keywords":["nocrits","nodmgspread","payload","uncletopia"],"game_id":440,"stv_port":27016,"stv_name":"Uncletopia | Chicago | 5 | All Maps | STV","players":[{"user_id":120,"name":"blood-thirsty pitbull","steam_id":76561198106690989,"connected_time":197000000000,"state":"active","ping":75},{"user_id":116,"name":"Rainy Devil","steam_id":76561198252490200,"connected_time":957000000000,"state":"active","ping":104},{"user_id":121,"name":"lexi","steam_id":76561198176299759,"connected_time":166000000000,"state":"active","ping":113},{"user_id":100,"name":"Stupid Rat (Extra Stupid)","steam_id":76561199091290729,"connected_time":2265000000000,"state":"active","ping":75},{"user_id":117,"name":"slender scoot","steam_id":76561198130480615,"connected_time":882000000000,"state":"active","ping":60},{"user_id":114,"name":"alvöru","steam_id":76561198273488925,"connected_time":1228000000000,"state":"active","ping":91},{"user_id":129,"name":"Sciencecheese","steam_id":76561198176750011,"connected_time":54000000000,"state":"active","ping":74},{"user_id":108,"name":"kaneki_vr_","steam_id":76561199043027738,"connected_time":1993000000000,"state":"active","ping":79},{"user_id":122,"name":"CaptainPikachu","steam_id":76561198075667401,"connected_time":147000000000,"state":"active","ping":73},{"user_id":106,"name":"cheetaz","steam_id":76561198224614084,"connected_time":2212000000000,"state":"active","ping":60},{"user_id":75,"name":"Cranial Brain Trauma","steam_id":76561198055876398,"connected_time":5286000000000,"state":"active","ping":60},{"user_id":115,"name":"Synell","steam_id":76561198053232523,"connected_time":1158000000000,"state":"active","ping":75},{"user_id":111,"name":"Ursus Ludius","steam_id":76561198025470722,"connected_time":1843000000000,"state":"active","ping":73},{"user_id":110,"name":"Anthid","steam_id":76561198074493797,"connected_time":1899000000000,"state":"active","ping":61},{"user_id":123,"name":"Grand Piano Tuna","steam_id":76561198135137213,"connected_time":140000000000,"state":"active","ping":52},{"user_id":124,"name":"weeb_whacker","steam_id":76561198187098041,"connected_time":131000000000,"state":"active","ping":56},{"user_id":125,"name":"catfish from toontown","steam_id":76561198060070002,"connected_time":119000000000,"state":"active","ping":74},{"user_id":126,"name":"asakujakuuu","steam_id":76561198875745616,"connected_time":101000000000,"state":"active","ping":112},{"user_id":127,"name":"papa ram","steam_id":76561198114058074,"connected_time":98000000000,"state":"active","ping":67},{"user_id":118,"name":"Kitchen Sink Gaming","steam_id":76561198930293420,"connected_time":326000000000,"state":"active","ping":61},{"user_id":119,"name":"my name jeff","steam_id":76561198179816898,"connected_time":259000000000,"state":"active","ping":71},{"user_id":78,"name":"Goober","steam_id":76561198988863807,"connected_time":5283000000000,"state":"active","ping":79},{"user_id":128,"name":"diggity dog hot dog","steam_id":76561198148059714,"connected_time":97000000000,"state":"active","ping":61}]},{"server_id":37,"name":"Uncletopia | Chicago | 6 | All Maps","name_short":"chi-6","host":"chi-2.us.uncletopia.com","port":27025,"enabled":true,"region":"us-central","cc":"us","latitude":41.881832,"longitude":-87.62318,"reserved":0,"last_update":"0001-01-01T00:00:00Z","name_a2s":"Uncletopia | Chicago | 6 | All Maps","protocol":17,"map":"pl_swiftwater_final1","folder":"tf","game":"Team Fortress","app_id":440,"player_count":23,"max_players":24,"Bots":0,"server_type":"Dedicated","server_os":"Linux","password":true,"vac":true,"version":"7961495","steam_id":85568392924866363,"keywords":["nocrits","nodmgspread","payload","uncletopia"],"game_id":440,"stv_port":27026,"stv_name":"Uncletopia | Chicago | 6 | All Maps | STV","players":[{"user_id":50,"name":"Glue Gulper","steam_id":76561198158014525,"connected_time":3333000000000,"state":"active","ping":62},{"user_id":74,"name":"Dyson","steam_id":76561199081837220,"connected_time":1400000000000,"state":"active","ping":86},{"user_id":72,"name":"CQBS25","steam_id":76561199068623664,"connected_time":1906000000000,"state":"active","ping":106},{"user_id":73,"name":"doro","steam_id":76561198099041747,"connected_time":1471000000000,"state":"active","ping":100},{"user_id":87,"name":"thefrenchfry","steam_id":76561198088945198,"connected_time":754000000000,"state":"active","ping":65},{"user_id":53,"name":"Dragus","steam_id":76561198032967285,"connected_time":3245000000000,"state":"active","ping":50},{"user_id":89,"name":"Tokey","steam_id":76561198825943127,"connected_time":298000000000,"state":"active","ping":87},{"user_id":67,"name":"Mug Moment Gaming","steam_id":76561198233098136,"connected_time":2548000000000,"state":"active","ping":57},{"user_id":94,"name":"Kart","steam_id":76561198045307014,"connected_time":77000000000,"state":"active","ping":90},{"user_id":56,"name":"Jombi","steam_id":76561198427813097,"connected_time":3045000000000,"state":"active","ping":76},{"user_id":59,"name":"Tuvok Shakur","steam_id":76561198018875334,"connected_time":2959000000000,"state":"active","ping":87},{"user_id":69,"name":"bladees realest, saddest verse","steam_id":76561198098099826,"connected_time":2409000000000,"state":"active","ping":106},{"user_id":90,"name":"weed lesbian","steam_id":76561198042263805,"connected_time":282000000000,"state":"active","ping":91},{"user_id":92,"name":"Certi","steam_id":76561198087548591,"connected_time":245000000000,"state":"active","ping":62},{"user_id":80,"name":"J The Jounin","steam_id":76561198034583622,"connected_time":1135000000000,"state":"active","ping":72},{"user_id":76,"name":"Beast_727","steam_id":76561198390289197,"connected_time":1340000000000,"state":"active","ping":54},{"user_id":91,"name":"Flap","steam_id":76561198078889633,"connected_time":281000000000,"state":"active","ping":56},{"user_id":85,"name":"CoconutRice","steam_id":76561198114909164,"connected_time":869000000000,"state":"active","ping":50},{"user_id":65,"name":"1985 Toyota Sprinter Trueno","steam_id":76561198436383373,"connected_time":2572000000000,"state":"active","ping":131},{"user_id":42,"name":"LegendaireNic","steam_id":76561198211753861,"connected_time":3631000000000,"state":"active","ping":62},{"user_id":93,"name":"leumas","steam_id":76561198240408540,"connected_time":245000000000,"state":"active","ping":59},{"user_id":95,"name":"Azall","steam_id":76561198080294343,"connected_time":41000000000,"state":"active","ping":141},{"user_id":86,"name":"for the king","steam_id":76561197973488858,"connected_time":858000000000,"state":"active","ping":61}]},{"server_id":38,"name":"Uncletopia | Chicago | 7 | Stopwatch","name_short":"chi-7","host":"chi-2.us.uncletopia.com","port":27035,"enabled":true,"region":"us-central","cc":"us","latitude":41.881832,"longitude":-87.62318,"reserved":0,"last_update":"0001-01-01T00:00:00Z","name_a2s":"Uncletopia | Chicago | 7 | Stopwatch","protocol":17,"map":"workshop/koth_product_final.ugc454272353","folder":"tf","game":"Team Fortress","app_id":440,"player_count":0,"max_players":24,"Bots":0,"server_type":"Dedicated","server_os":"Linux","password":true,"vac":true,"version":"7961495","steam_id":85568392924866364,"keywords":["cp","nocrits","nodmgspread","uncletopia"],"game_id":440,"stv_port":27036,"stv_name":"Uncletopia | Chicago | 7 | Stopwatch | STV","players":null},{"server_id":39,"name":"Uncletopia | Chicago | 8 | Community","name_short":"chi-8","host":"chi-2.us.uncletopia.com","port":27045,"enabled":true,"region":"us-central","cc":"us","latitude":41.881832,"longitude":-87.62318,"reserved":0,"last_update":"0001-01-01T00:00:00Z","name_a2s":"Uncletopia | Chicago | 8 | Community","protocol":17,"map":"workshop/koth_ramjam_rc1.ugc459778887","folder":"tf","game":"Team Fortress","app_id":440,"player_count":0,"max_players":24,"Bots":0,"server_type":"Dedicated","server_os":"Linux","password":true,"vac":true,"version":"7961495","steam_id":85568392924866365,"keywords":["cp","nocrits","nodmgspread","uncletopia"],"game_id":440,"stv_port":27046,"stv_name":"Uncletopia | Chicago | 8 | Community | STV","players":null},{"server_id":8,"name":"Uncletopia | Dallas | 1 | All Maps","name_short":"dal-1","host":"dal-1.us.uncletopia.com","port":27015,"enabled":true,"region":"us-central","cc":"us","latitude":32.779167,"longitude":-96.80889,"reserved":0,"last_update":"0001-01-01T00:00:00Z","name_a2s":"Uncletopia | Dallas | 1 | All Maps","protocol":17,"map":"pl_swiftwater_final1","folder":"tf","game":"Team Fortress","app_id":440,"player_count":23,"max_players":24,"Bots":0,"server_type":"Dedicated","server_os":"Linux","password":true,"vac":true,"version":"7961495","steam_id":85568392924469986,"keywords":["nocrits","nodmgspread","payload","uncletopia"],"game_id":440,"stv_port":27016,"stv_name":"Uncletopia | Dallas | 1 | All Maps | STV","players":[{"user_id":236,"name":"10,000 Bees","steam_id":76561198873199426,"connected_time":836000000000,"state":"active","ping":65},{"user_id":223,"name":"nubcaik","steam_id":76561197986442939,"connected_time":1945000000000,"state":"active","ping":47},{"user_id":237,"name":"Missing Minus","steam_id":76561198120822928,"connected_time":800000000000,"state":"active","ping":73},{"user_id":228,"name":"McNamJam","steam_id":76561198028128686,"connected_time":1115000000000,"state":"active","ping":83},{"user_id":239,"name":"THRONGLER","steam_id":76561198198563466,"connected_time":402000000000,"state":"active","ping":43},{"user_id":227,"name":"captain red","steam_id":76561198191587983,"connected_time":1139000000000,"state":"active","ping":66},{"user_id":224,"name":"1998 Mazda b2500","steam_id":76561198883172857,"connected_time":1898000000000,"state":"active","ping":93},{"user_id":235,"name":"robsan","steam_id":76561198137375391,"connected_time":932000000000,"state":"active","ping":183},{"user_id":238,"name":"Person","steam_id":76561198073885832,"connected_time":791000000000,"state":"active","ping":89},{"user_id":242,"name":"Joshy","steam_id":76561198061405421,"connected_time":25000000000,"state":"active","ping":102},{"user_id":214,"name":"Dog","steam_id":76561198450992953,"connected_time":3301000000000,"state":"active","ping":89},{"user_id":243,"name":"Easey","steam_id":76561198230316868,"connected_time":23000000000,"state":"active","ping":58},{"user_id":234,"name":"BunkFunker","steam_id":76561198391432433,"connected_time":957000000000,"state":"active","ping":85},{"user_id":241,"name":"Trolley","steam_id":76561198106695948,"connected_time":147000000000,"state":"active","ping":163},{"user_id":177,"name":"your little goofy homie","steam_id":76561198967158026,"connected_time":5673000000000,"state":"active","ping":76},{"user_id":205,"name":"Gigacheat","steam_id":76561198862843572,"connected_time":3962000000000,"state":"active","ping":68},{"user_id":159,"name":"songcreator","steam_id":76561198076822464,"connected_time":7172000000000,"state":"active","ping":78},{"user_id":194,"name":"WyrdClover","steam_id":76561198363687592,"connected_time":4776000000000,"state":"active","ping":44},{"user_id":240,"name":"Svepport","steam_id":76561198071373137,"connected_time":282000000000,"state":"active","ping":62},{"user_id":233,"name":"BlazingBuizel7","steam_id":76561199026199596,"connected_time":1065000000000,"state":"active","ping":89},{"user_id":220,"name":"Kng","steam_id":76561198993248203,"connected_time":2169000000000,"state":"active","ping":87},{"user_id":225,"name":"River Rat","steam_id":76561198116383976,"connected_time":1665000000000,"state":"active","ping":115},{"user_id":208,"name":"Mainyx","steam_id":76561198811844438,"connected_time":3703000000000,"state":"active","ping":87}]},{"server_id":108,"name":"Uncletopia | Dallas | 2 | All Maps","name_short":"dal-2","host":"dal-1.us.uncletopia.com","port":27025,"enabled":true,"region":"us-central","cc":"us","latitude":32.779167,"longitude":-96.80889,"reserved":0,"last_update":"0001-01-01T00:00:00Z","name_a2s":"Uncletopia | Dallas | 2 | All Maps","protocol":17,"map":"pl_barnblitz","folder":"tf","game":"Team Fortress","app_id":440,"player_count":24,"max_players":24,"Bots":0,"server_type":"Dedicated","server_os":"Linux","password":true,"vac":true,"version":"7961495","steam_id":85568392924469988,"keywords":["nocrits","nodmgspread","payload","uncletopia"],"game_id":440,"stv_port":27026,"stv_name":"Uncletopia | Dallas | 2 | All Maps | STV","players":[{"user_id":174,"name":"OmniMoto","steam_id":76561198091298557,"connected_time":547000000000,"state":"active","ping":75},{"user_id":112,"name":"cozy","steam_id":76561199044037628,"connected_time":5752000000000,"state":"active","ping":86},{"user_id":142,"name":"Bobby Ray","steam_id":76561198044131188,"connected_time":3186000000000,"state":"active","ping":75},{"user_id":167,"name":"what da dog doin","steam_id":76561198090573639,"connected_time":671000000000,"state":"active","ping":69},{"user_id":175,"name":"LittleBoyBlood","steam_id":76561198009842177,"connected_time":465000000000,"state":"active","ping":101},{"user_id":170,"name":"simonkey","steam_id":76561199087174108,"connected_time":637000000000,"state":"active","ping":76},{"user_id":111,"name":"hyazZaZa","steam_id":76561199100342013,"connected_time":5813000000000,"state":"active","ping":77},{"user_id":147,"name":"Skyrim killable children mod","steam_id":76561198862836173,"connected_time":2691000000000,"state":"active","ping":115},{"user_id":159,"name":"[chef] iron","steam_id":76561197970888616,"connected_time":1815000000000,"state":"active","ping":60},{"user_id":160,"name":"Raz","steam_id":76561198002426150,"connected_time":1807000000000,"state":"active","ping":45},{"user_id":171,"name":"Skeleop","steam_id":76561198981106464,"connected_time":625000000000,"state":"active","ping":78},{"user_id":163,"name":"Javaris Jamar Javarison-Lamar","steam_id":76561197974907012,"connected_time":1292000000000,"state":"active","ping":71},{"user_id":157,"name":"Gary Busey","steam_id":76561197970096950,"connected_time":2139000000000,"state":"active","ping":36},{"user_id":172,"name":"PancakeSauce","steam_id":76561198404722668,"connected_time":619000000000,"state":"active","ping":111},{"user_id":38,"name":"Justy","steam_id":76561198044014069,"connected_time":11490000000000,"state":"active","ping":64},{"user_id":149,"name":"Major Woody","steam_id":76561198835541533,"connected_time":2608000000000,"state":"active","ping":59},{"user_id":173,"name":"Squiliam","steam_id":76561198025278006,"connected_time":607000000000,"state":"active","ping":44},{"user_id":39,"name":"firestabber","steam_id":76561198057055577,"connected_time":11455000000000,"state":"active","ping":99},{"user_id":158,"name":"Sergeant Snowflake","steam_id":76561198041474489,"connected_time":1874000000000,"state":"active","ping":87},{"user_id":151,"name":"Shalom","steam_id":76561198410005222,"connected_time":2569000000000,"state":"active","ping":52},{"user_id":144,"name":"UwU","steam_id":76561198971629959,"connected_time":3139000000000,"state":"active","ping":135},{"user_id":176,"name":"soft and wet","steam_id":76561198081974528,"connected_time":135000000000,"state":"active","ping":72},{"user_id":164,"name":"Maukalup (Knight of the Wind)","steam_id":76561198428142061,"connected_time":1287000000000,"state":"active","ping":60},{"user_id":137,"name":"I hate the anti-Christ","steam_id":76561198286792807,"connected_time":3354000000000,"state":"active","ping":73}]},{"server_id":404,"name":"Uncletopia | Dallas | 3 | All Maps","name_short":"dal-3","host":"dal-1.us.uncletopia.com","port":27035,"enabled":true,"region":"us-central","cc":"us","latitude":32.779167,"longitude":-96.80889,"reserved":0,"last_update":"0001-01-01T00:00:00Z","name_a2s":"Uncletopia | Dallas | 3 | All Maps","protocol":17,"map":"pl_swiftwater_final1","folder":"tf","game":"Team Fortress","app_id":440,"player_count":23,"max_players":24,"Bots":0,"server_type":"Dedicated","server_os":"Linux","password":true,"vac":true,"version":"7961495","steam_id":85568392924515219,"keywords":["nocrits","nodmgspread","payload","uncletopia"],"game_id":440,"stv_port":27036,"stv_name":"Uncletopia | Dallas | 3 | All Maps | STV","players":[{"user_id":8,"name":"worlds worst spy","steam_id":76561198821314557,"connected_time":3180000000000,"state":"active","ping":87},{"user_id":9,"name":"he/they Pyro Truther","steam_id":76561198893358191,"connected_time":3176000000000,"state":"active","ping":98},{"user_id":48,"name":"muck","steam_id":76561198120437909,"connected_time":621000000000,"state":"active","ping":43},{"user_id":44,"name":"Rustyorion","steam_id":76561198439186347,"connected_time":857000000000,"state":"active","ping":103},{"user_id":39,"name":"rico \"tristen\" suave","steam_id":76561198093252989,"connected_time":1721000000000,"state":"active","ping":60},{"user_id":17,"name":"mkl","steam_id":76561197986401685,"connected_time":2484000000000,"state":"active","ping":59},{"user_id":47,"name":"Love","steam_id":76561198118431677,"connected_time":640000000000,"state":"active","ping":110},{"user_id":35,"name":"Hart","steam_id":76561199118241286,"connected_time":1898000000000,"state":"active","ping":74},{"user_id":49,"name":"Sup m8","steam_id":76561198081659121,"connected_time":510000000000,"state":"active","ping":46},{"user_id":41,"name":"Chunk Stuffer","steam_id":76561198856508573,"connected_time":1136000000000,"state":"active","ping":48},{"user_id":22,"name":"Killerfish360","steam_id":76561198115029584,"connected_time":2375000000000,"state":"active","ping":69},{"user_id":25,"name":"LoopyWizard","steam_id":76561199226945726,"connected_time":2129000000000,"state":"active","ping":110},{"user_id":40,"name":"pl_goldrush","steam_id":76561199006886644,"connected_time":1696000000000,"state":"active","ping":98},{"user_id":26,"name":"Tara (タラ)","steam_id":76561199013096371,"connected_time":2122000000000,"state":"active","ping":97},{"user_id":27,"name":"reko","steam_id":76561198278020887,"connected_time":2080000000000,"state":"active","ping":62},{"user_id":28,"name":"bitches call me the cone","steam_id":76561198099463706,"connected_time":2068000000000,"state":"active","ping":91},{"user_id":29,"name":"Spring Beans","steam_id":76561197978546259,"connected_time":1987000000000,"state":"active","ping":39},{"user_id":30,"name":"bigchungusgaming(real)","steam_id":76561198273392037,"connected_time":1977000000000,"state":"active","ping":91},{"user_id":50,"name":"(202) 456 - 1414","steam_id":76561198101465748,"connected_time":369000000000,"state":"active","ping":61},{"user_id":32,"name":"poopshitter9000","steam_id":76561198074624639,"connected_time":1965000000000,"state":"active","ping":74},{"user_id":33,"name":"o.oli","steam_id":76561198045607732,"connected_time":1942000000000,"state":"active","ping":78},{"user_id":42,"name":"mechanicvirus","steam_id":76561198038161480,"connected_time":1110000000000,"state":"active","ping":94},{"user_id":45,"name":"Scum Knight | T.I.D.K.","steam_id":76561198282444763,"connected_time":841000000000,"state":"active","ping":89}]},{"server_id":405,"name":"Uncletopia | Dallas | 4 | Community","name_short":"dal-4","host":"dal-1.us.uncletopia.com","port":27045,"enabled":true,"region":"us-central","cc":"us","latitude":32.779167,"longitude":-96.80889,"reserved":0,"last_update":"0001-01-01T00:00:00Z","name_a2s":"Uncletopia | Dallas | 4 | Community","protocol":17,"map":"pl_pier","folder":"tf","game":"Team Fortress","app_id":440,"player_count":0,"max_players":24,"Bots":0,"server_type":"Dedicated","server_os":"Linux","password":true,"vac":true,"version":"7961495","steam_id":85568392924515220,"keywords":["nocrits","nodmgspread","payload","uncletopia"],"game_id":440,"stv_port":27046,"stv_name":"Uncletopia | Dallas | 4 | Community | STV","players":null},{"server_id":5,"name":"Uncletopia | Frankfurt | 1 | All Maps","name_short":"frk-1","host":"frk-1.de.uncletopia.com","port":27015,"enabled":true,"region":"eu","cc":"de","latitude":50.110924,"longitude":8.682127,"reserved":0,"last_update":"0001-01-01T00:00:00Z","name_a2s":"Uncletopia | Frankfurt | 1 | All Maps","protocol":17,"map":"pl_borneo","folder":"tf","game":"Team Fortress","app_id":440,"player_count":20,"max_players":24,"Bots":0,"server_type":"Dedicated","server_os":"Linux","password":true,"vac":true,"version":"7961495","steam_id":85568392924469989,"keywords":["nocrits","nodmgspread","payload","uncletopia"],"game_id":440,"stv_port":27016,"stv_name":"Uncletopia | Frankfurt | 1 | All Maps | STV","players":[{"user_id":714,"name":"Robie","steam_id":76561198914744938,"connected_time":5787000000000,"state":"active","ping":88},{"user_id":767,"name":"Jácint","steam_id":76561198118501005,"connected_time":1094000000000,"state":"active","ping":67},{"user_id":768,"name":"Eradikate","steam_id":76561198851942675,"connected_time":1082000000000,"state":"active","ping":49},{"user_id":786,"name":"MatheoSTG","steam_id":76561198041755276,"connected_time":463000000000,"state":"active","ping":69},{"user_id":691,"name":"n-ski","steam_id":76561198020550849,"connected_time":7379000000000,"state":"active","ping":70},{"user_id":791,"name":"Chucky.","steam_id":76561197969361063,"connected_time":76000000000,"state":"active","ping":90},{"user_id":630,"name":"AdeAAa","steam_id":76561198974207724,"connected_time":13004000000000,"state":"active","ping":98},{"user_id":703,"name":"Reljadin","steam_id":76561198054997553,"connected_time":6491000000000,"state":"active","ping":85},{"user_id":792,"name":"DogPlace","steam_id":76561198065614683,"connected_time":57000000000,"state":"active","ping":72},{"user_id":765,"name":"BING CHILLING","steam_id":76561198065438030,"connected_time":1506000000000,"state":"active","ping":121},{"user_id":757,"name":"Safe Joint","steam_id":76561198017799687,"connected_time":2154000000000,"state":"active","ping":116},{"user_id":793,"name":"A literal heavy","steam_id":76561199219233587,"connected_time":46000000000,"state":"active","ping":77},{"user_id":771,"name":"spy in the base","steam_id":76561198284570752,"connected_time":1046000000000,"state":"active","ping":64},{"user_id":764,"name":"SemlanBakelsen","steam_id":76561198165893080,"connected_time":1589000000000,"state":"active","ping":90},{"user_id":738,"name":"joachym","steam_id":76561198428579761,"connected_time":3356000000000,"state":"active","ping":58},{"user_id":785,"name":"ChicoColo [ A1r ]","steam_id":76561198045977760,"connected_time":493000000000,"state":"active","ping":44},{"user_id":779,"name":"ratot","steam_id":76561198063132645,"connected_time":893000000000,"state":"active","ping":59},{"user_id":761,"name":"MR BUBBLES","steam_id":76561198019005259,"connected_time":1819000000000,"state":"active","ping":99},{"user_id":790,"name":"TheBeardedM1G","steam_id":76561198040208946,"connected_time":87000000000,"state":"active","ping":59},{"user_id":787,"name":"SGT Woozel","steam_id":76561198013628232,"connected_time":175000000000,"state":"active","ping":60}]},{"server_id":110,"name":"Uncletopia | Frankfurt | 2 | All Maps","name_short":"frk-2","host":"frk-1.de.uncletopia.com","port":27025,"enabled":true,"region":"eu","cc":"de","latitude":50.110924,"longitude":8.682127,"reserved":0,"last_update":"0001-01-01T00:00:00Z","name_a2s":"Uncletopia | Frankfurt | 2 | All Maps","protocol":17,"map":"pl_thundermountain","folder":"tf","game":"Team Fortress","app_id":440,"player_count":24,"max_players":24,"Bots":0,"server_type":"Dedicated","server_os":"Linux","password":true,"vac":true,"version":"7961495","steam_id":85568392924469990,"keywords":["nocrits","nodmgspread","payload","uncletopia"],"game_id":440,"stv_port":27026,"stv_name":"Uncletopia | Frankfurt | 2 | All Maps | STV","players":[{"user_id":215,"name":"Shovelhalfrusty","steam_id":76561198346447513,"connected_time":1278000000000,"state":"active","ping":73},{"user_id":223,"name":"MeleeMeta","steam_id":76561198237963558,"connected_time":446000000000,"state":"active","ping":59},{"user_id":224,"name":"Scrubbler","steam_id":76561198055611048,"connected_time":399000000000,"state":"active","ping":98},{"user_id":164,"name":"Michał","steam_id":76561198320346362,"connected_time":5484000000000,"state":"active","ping":59},{"user_id":190,"name":"Zm4j","steam_id":76561198259465946,"connected_time":3402000000000,"state":"active","ping":76},{"user_id":210,"name":"finbar","steam_id":76561198056812396,"connected_time":1542000000000,"state":"active","ping":75},{"user_id":177,"name":"Rimx","steam_id":76561198053034840,"connected_time":4505000000000,"state":"active","ping":93},{"user_id":213,"name":"Vitamin Weee","steam_id":76561199183937747,"connected_time":1413000000000,"state":"active","ping":79},{"user_id":165,"name":"smetc","steam_id":76561198240696986,"connected_time":5471000000000,"state":"active","ping":160},{"user_id":110,"name":"SocialistBacon","steam_id":76561198055872267,"connected_time":9039000000000,"state":"active","ping":104},{"user_id":173,"name":"Toasty5050","steam_id":76561198073540881,"connected_time":4984000000000,"state":"active","ping":44},{"user_id":211,"name":"lyudmilakh","steam_id":76561198362779878,"connected_time":1456000000000,"state":"active","ping":87},{"user_id":154,"name":"Finnish Farmer","steam_id":76561198205366043,"connected_time":6371000000000,"state":"active","ping":83},{"user_id":196,"name":"tzino","steam_id":76561199076883472,"connected_time":2612000000000,"state":"active","ping":74},{"user_id":207,"name":"Devil May Cry","steam_id":76561198255414077,"connected_time":1858000000000,"state":"active","ping":60},{"user_id":219,"name":"murf","steam_id":76561199184831395,"connected_time":786000000000,"state":"active","ping":50},{"user_id":205,"name":"Kitfist","steam_id":76561198048559338,"connected_time":2027000000000,"state":"active","ping":59},{"user_id":221,"name":"Germanium_Ge","steam_id":76561198130561775,"connected_time":588000000000,"state":"active","ping":55},{"user_id":143,"name":"็","steam_id":76561198071226013,"connected_time":7253000000000,"state":"active","ping":77},{"user_id":97,"name":"Space","steam_id":76561198021572167,"connected_time":9643000000000,"state":"active","ping":58},{"user_id":218,"name":"Qwerty","steam_id":76561198023525894,"connected_time":839000000000,"state":"active","ping":94},{"user_id":198,"name":"Bottle O' Scrumpy","steam_id":76561199244250562,"connected_time":2565000000000,"state":"active","ping":110},{"user_id":217,"name":"Birdseye","steam_id":76561198025852216,"connected_time":855000000000,"state":"active","ping":60},{"user_id":225,"name":"ANGHENFILOD","steam_id":76561199492622823,"connected_time":96000000000,"state":"active","ping":51}]},{"server_id":308,"name":"Uncletopia | Frankfurt | 3 | All Maps","name_short":"frk-3","host":"frk-1.de.uncletopia.com","port":27035,"enabled":true,"region":"eu","cc":"de","latitude":50.110924,"longitude":8.682127,"reserved":0,"last_update":"0001-01-01T00:00:00Z","name_a2s":"Uncletopia | Frankfurt | 3 | All Maps","protocol":17,"map":"cp_metalworks","folder":"tf","game":"Team Fortress","app_id":440,"player_count":24,"max_players":24,"Bots":0,"server_type":"Dedicated","server_os":"Linux","password":true,"vac":true,"version":"7961495","steam_id":85568392924504274,"keywords":["cp","nocrits","nodmgspread","uncletopia"],"game_id":440,"stv_port":27036,"stv_name":"Uncletopia | Frankfurt | 3 | All Maps | STV","players":[{"user_id":478,"name":"๑ï","steam_id":76561198147277460,"connected_time":2113000000000,"state":"active","ping":60},{"user_id":453,"name":"Red Dynamite","steam_id":76561199073167935,"connected_time":4727000000000,"state":"active","ping":166},{"user_id":473,"name":"Egor Pomidor","steam_id":76561199175688390,"connected_time":2468000000000,"state":"active","ping":75},{"user_id":477,"name":"noot","steam_id":76561198148074472,"connected_time":2119000000000,"state":"active","ping":44},{"user_id":504,"name":"Shine","steam_id":76561198136297981,"connected_time":225000000000,"state":"active","ping":64},{"user_id":469,"name":"the one who grips","steam_id":76561198381106289,"connected_time":2975000000000,"state":"active","ping":75},{"user_id":508,"name":"Archive","steam_id":76561198071255385,"connected_time":84000000000,"state":"active","ping":84},{"user_id":494,"name":"DanonArmagedon","steam_id":76561199448191521,"connected_time":841000000000,"state":"active","ping":105},{"user_id":479,"name":"kas","steam_id":76561198419369941,"connected_time":2096000000000,"state":"active","ping":130},{"user_id":505,"name":"michalismallis6","steam_id":76561199191153072,"connected_time":214000000000,"state":"active","ping":95},{"user_id":462,"name":"cheddar","steam_id":76561199072919985,"connected_time":3568000000000,"state":"active","ping":83},{"user_id":463,"name":"Master Of Noob","steam_id":76561198217926783,"connected_time":3568000000000,"state":"active","ping":69},{"user_id":502,"name":"BOLAXA","steam_id":76561198228406008,"connected_time":356000000000,"state":"active","ping":77},{"user_id":457,"name":"DryWater","steam_id":76561198260857681,"connected_time":4019000000000,"state":"active","ping":59},{"user_id":490,"name":"Xtis","steam_id":76561198043837480,"connected_time":1293000000000,"state":"active","ping":72},{"user_id":507,"name":"rudolph","steam_id":76561198057399765,"connected_time":169000000000,"state":"active","ping":41},{"user_id":487,"name":"Fat Pigeon","steam_id":76561198817940142,"connected_time":1666000000000,"state":"active","ping":51},{"user_id":498,"name":"Kepucz","steam_id":76561197977634244,"connected_time":577000000000,"state":"active","ping":62},{"user_id":493,"name":"Der ewige Boomer","steam_id":76561198254812703,"connected_time":931000000000,"state":"active","ping":68},{"user_id":499,"name":"shutthefuckupinator","steam_id":76561198821392242,"connected_time":517000000000,"state":"active","ping":95},{"user_id":475,"name":"Nittugai","steam_id":76561198067366462,"connected_time":2449000000000,"state":"active","ping":60},{"user_id":486,"name":"JC","steam_id":76561198029213352,"connected_time":1744000000000,"state":"active","ping":48},{"user_id":500,"name":"Hercules","steam_id":76561198041164170,"connected_time":483000000000,"state":"active","ping":60},{"user_id":489,"name":"jakonator1","steam_id":76561198127792559,"connected_time":1432000000000,"state":"active","ping":88}]},{"server_id":309,"name":"Uncletopia | Frankfurt | 4 | All Maps","name_short":"frk-4","host":"frk-1.de.uncletopia.com","port":27045,"enabled":true,"region":"eu","cc":"de","latitude":50.110924,"longitude":8.682127,"reserved":0,"last_update":"0001-01-01T00:00:00Z","name_a2s":"Uncletopia | Frankfurt | 4 | All Maps","protocol":17,"map":"pl_frontier_final","folder":"tf","game":"Team Fortress","app_id":440,"player_count":24,"max_players":24,"Bots":0,"server_type":"Dedicated","server_os":"Linux","password":true,"vac":true,"version":"7961495","steam_id":85568392924504275,"keywords":["nocrits","nodmgspread","payload","uncletopia"],"game_id":440,"stv_port":27046,"stv_name":"Uncletopia | Frankfurt | 4 | All Maps | STV","players":[{"user_id":653,"name":"Bobo","steam_id":76561198052308399,"connected_time":48000000000,"state":"active","ping":63},{"user_id":610,"name":"Gyt","steam_id":76561198014431968,"connected_time":3493000000000,"state":"active","ping":77},{"user_id":645,"name":"slippin jimmy","steam_id":76561198090788590,"connected_time":745000000000,"state":"active","ping":46},{"user_id":581,"name":"The Ass Slapper","steam_id":76561198904469197,"connected_time":6004000000000,"state":"active","ping":71},{"user_id":617,"name":"DreamVerse","steam_id":76561198182153475,"connected_time":2369000000000,"state":"active","ping":60},{"user_id":618,"name":"Franco21","steam_id":76561198829840235,"connected_time":2360000000000,"state":"active","ping":71},{"user_id":636,"name":"Vinexx","steam_id":76561198044024405,"connected_time":1717000000000,"state":"active","ping":61},{"user_id":648,"name":"juni","steam_id":76561198036504214,"connected_time":294000000000,"state":"active","ping":46},{"user_id":646,"name":"Zero Sleep Gaming","steam_id":76561198982674420,"connected_time":325000000000,"state":"active","ping":53},{"user_id":637,"name":"Driver's drunkest God","steam_id":76561198969373800,"connected_time":1652000000000,"state":"active","ping":69},{"user_id":642,"name":"Nemá Ráda Ivana","steam_id":76561198200187859,"connected_time":960000000000,"state":"active","ping":59},{"user_id":644,"name":"David \"Crash\" Murphy","steam_id":76561198292845505,"connected_time":925000000000,"state":"active","ping":95},{"user_id":630,"name":"HelwiiHill","steam_id":76561198066730552,"connected_time":2218000000000,"state":"active","ping":83},{"user_id":631,"name":"Fallen Dog","steam_id":76561198851387188,"connected_time":2119000000000,"state":"active","ping":60},{"user_id":649,"name":"Rigby","steam_id":76561198021552128,"connected_time":279000000000,"state":"active","ping":100},{"user_id":632,"name":"xiiski","steam_id":76561198152387747,"connected_time":2061000000000,"state":"active","ping":86},{"user_id":626,"name":"Adolf Potter","steam_id":76561198120554557,"connected_time":2273000000000,"state":"active","ping":50},{"user_id":647,"name":"Syd","steam_id":76561198020515027,"connected_time":308000000000,"state":"active","ping":99},{"user_id":650,"name":"Radigan-Flanders::","steam_id":76561198100439744,"connected_time":272000000000,"state":"active","ping":54},{"user_id":598,"name":"EdgyKItro","steam_id":76561199018665986,"connected_time":4543000000000,"state":"active","ping":101},{"user_id":651,"name":"mp1mp2mp3","steam_id":76561198088967665,"connected_time":230000000000,"state":"active","ping":87},{"user_id":652,"name":"o","steam_id":76561198066799770,"connected_time":76000000000,"state":"active","ping":61},{"user_id":634,"name":"Father Nicholas","steam_id":76561198200174163,"connected_time":1982000000000,"state":"active","ping":83},{"user_id":537,"name":"KFD","steam_id":76561198157183003,"connected_time":10084000000000,"state":"active","ping":79}]},{"server_id":310,"name":"Uncletopia | Frankfurt | 5 | All Maps","name_short":"frk-5","host":"frk-1.de.uncletopia.com","port":27055,"enabled":true,"region":"eu","cc":"de","latitude":50.110924,"longitude":8.682127,"reserved":0,"last_update":"0001-01-01T00:00:00Z","name_a2s":"Uncletopia | Frankfurt | 5 | All Maps","protocol":17,"map":"pl_upward","folder":"tf","game":"Team Fortress","app_id":440,"player_count":22,"max_players":24,"Bots":0,"server_type":"Dedicated","server_os":"Linux","password":true,"vac":true,"version":"7961495","steam_id":85568392924504277,"keywords":["nocrits","nodmgspread","payload","uncletopia"],"game_id":440,"stv_port":27056,"stv_name":"Uncletopia | Frankfurt | 5 | All Maps | STV","players":[{"user_id":565,"name":"Darth Falcon","steam_id":76561199033727636,"connected_time":979000000000,"state":"active","ping":190},{"user_id":583,"name":"孤独な戦士","steam_id":76561198330719278,"connected_time":42000000000,"state":"active","ping":169},{"user_id":570,"name":"FPFP","steam_id":76561198026073059,"connected_time":324000000000,"state":"active","ping":79},{"user_id":552,"name":"Soulman25 (FIN)","steam_id":76561198103611974,"connected_time":1735000000000,"state":"active","ping":86},{"user_id":548,"name":"Xiqui","steam_id":76561198818386611,"connected_time":1960000000000,"state":"active","ping":80},{"user_id":561,"name":"The Bucket","steam_id":76561199131973613,"connected_time":1419000000000,"state":"active","ping":117},{"user_id":571,"name":"Ptahotep","steam_id":76561198008708645,"connected_time":313000000000,"state":"active","ping":65},{"user_id":530,"name":"Bruhn","steam_id":76561198106133548,"connected_time":3135000000000,"state":"active","ping":68},{"user_id":554,"name":"Tanza -","steam_id":76561197961335217,"connected_time":1718000000000,"state":"active","ping":72},{"user_id":562,"name":"jawA","steam_id":76561198070341774,"connected_time":1260000000000,"state":"active","ping":103},{"user_id":558,"name":"DJ L3G3ND","steam_id":76561198186112647,"connected_time":1643000000000,"state":"active","ping":71},{"user_id":574,"name":"Klaus","steam_id":76561198150394201,"connected_time":304000000000,"state":"active","ping":86},{"user_id":573,"name":"elmstJP ₪ F4.exe","steam_id":76561197997909480,"connected_time":309000000000,"state":"active","ping":74},{"user_id":535,"name":"gaming gamer","steam_id":76561198212488780,"connected_time":3049000000000,"state":"active","ping":60},{"user_id":580,"name":"CheapMeds","steam_id":76561197990309210,"connected_time":125000000000,"state":"active","ping":85},{"user_id":576,"name":"El Wiwi","steam_id":76561198134378108,"connected_time":295000000000,"state":"active","ping":85},{"user_id":492,"name":"tzlil","steam_id":76561198399916290,"connected_time":6006000000000,"state":"active","ping":103},{"user_id":531,"name":"bob","steam_id":76561198353212719,"connected_time":3134000000000,"state":"active","ping":59},{"user_id":532,"name":"QuZe","steam_id":76561198842739551,"connected_time":3129000000000,"state":"active","ping":89},{"user_id":577,"name":"F4.exe","steam_id":76561198278822807,"connected_time":294000000000,"state":"active","ping":61},{"user_id":582,"name":"h","steam_id":76561198149967445,"connected_time":68000000000,"state":"active","ping":46},{"user_id":533,"name":"dorel.costica.facebook.41","steam_id":76561199497304797,"connected_time":3127000000000,"state":"active","ping":134}]},{"server_id":311,"name":"Uncletopia | Frankfurt | 6 | All Maps","name_short":"frk-6","host":"frk-1.de.uncletopia.com","port":27065,"enabled":true,"region":"eu","cc":"de","latitude":50.110924,"longitude":8.682127,"reserved":0,"last_update":"0001-01-01T00:00:00Z","name_a2s":"Uncletopia | Frankfurt | 6 | All Maps","protocol":17,"map":"pl_pier","folder":"tf","game":"Team Fortress","app_id":440,"player_count":24,"max_players":24,"Bots":0,"server_type":"Dedicated","server_os":"Linux","password":true,"vac":true,"version":"7961495","steam_id":85568392924504278,"keywords":["nocrits","nodmgspread","payload","uncletopia"],"game_id":440,"stv_port":27066,"stv_name":"Uncletopia | Frankfurt | 6 | All Maps | STV","players":[{"user_id":471,"name":"oRang3_","steam_id":76561198841009476,"connected_time":843000000000,"state":"active","ping":63},{"user_id":399,"name":"BoPoe (omniphobic)","steam_id":76561198093333882,"connected_time":4516000000000,"state":"active","ping":110},{"user_id":454,"name":"Mammut","steam_id":76561198056773933,"connected_time":2067000000000,"state":"active","ping":46},{"user_id":466,"name":"Pepegi","steam_id":76561198001230113,"connected_time":1573000000000,"state":"active","ping":73},{"user_id":480,"name":"emir","steam_id":76561198113089831,"connected_time":662000000000,"state":"active","ping":90},{"user_id":476,"name":"Keke","steam_id":76561198042032908,"connected_time":714000000000,"state":"active","ping":95},{"user_id":486,"name":"Dr Bondus Bolongus Dongus","steam_id":76561198378657692,"connected_time":133000000000,"state":"active","ping":59},{"user_id":433,"name":"Naeso","steam_id":76561198068602498,"connected_time":3332000000000,"state":"active","ping":46},{"user_id":457,"name":"weird dude","steam_id":76561199094730956,"connected_time":1928000000000,"state":"active","ping":91},{"user_id":463,"name":"Rick Astley Is A F2P?","steam_id":76561199258805660,"connected_time":1735000000000,"state":"active","ping":132},{"user_id":451,"name":"Sensei","steam_id":76561198383582429,"connected_time":2270000000000,"state":"active","ping":88},{"user_id":474,"name":"tobs","steam_id":76561197987616937,"connected_time":782000000000,"state":"active","ping":64},{"user_id":438,"name":"Eujekas","steam_id":76561198010527145,"connected_time":3067000000000,"state":"active","ping":90},{"user_id":469,"name":"Oceanic | tuesday maybe","steam_id":76561197979741827,"connected_time":1353000000000,"state":"active","ping":66},{"user_id":381,"name":"paypig","steam_id":76561198035137115,"connected_time":6029000000000,"state":"active","ping":60},{"user_id":484,"name":"Temperance","steam_id":76561198446955878,"connected_time":287000000000,"state":"active","ping":78},{"user_id":470,"name":"QR-M5TR","steam_id":76561198197626135,"connected_time":1302000000000,"state":"active","ping":60},{"user_id":477,"name":"IShagMyCat","steam_id":76561199384639549,"connected_time":711000000000,"state":"active","ping":83},{"user_id":485,"name":"pepper","steam_id":76561198059782462,"connected_time":225000000000,"state":"active","ping":54},{"user_id":478,"name":"CKenny.js","steam_id":76561198063245962,"connected_time":688000000000,"state":"active","ping":99},{"user_id":424,"name":"pizzaboob (im funny)","steam_id":76561198097507847,"connected_time":3848000000000,"state":"active","ping":75},{"user_id":468,"name":"Sir_Vanilla44","steam_id":76561199109500248,"connected_time":1470000000000,"state":"active","ping":145},{"user_id":479,"name":"Hey, I´m Andy!","steam_id":76561198060337777,"connected_time":666000000000,"state":"active","ping":72},{"user_id":467,"name":"w presser","steam_id":76561197994600818,"connected_time":1560000000000,"state":"active","ping":47}]},{"server_id":23,"name":"Uncletopia | Frankfurt | 7 | Stopwatch","name_short":"frk-7","host":"frk-1.de.uncletopia.com","port":27075,"enabled":true,"region":"eu","cc":"de","latitude":50.110924,"longitude":8.682127,"reserved":0,"last_update":"0001-01-01T00:00:00Z","name_a2s":"Uncletopia | Frankfurt | 7 | Stopwatch","protocol":17,"map":"workshop/koth_ashville_final.ugc2130459942","folder":"tf","game":"Team Fortress","app_id":440,"player_count":0,"max_players":24,"Bots":0,"server_type":"Dedicated","server_os":"Linux","password":true,"vac":true,"version":"7961495","steam_id":85568392924742827,"keywords":["cp","nocrits","nodmgspread","uncletopia"],"game_id":440,"stv_port":27076,"stv_name":"Uncletopia | Frankfurt | 7 | Stopwatch | STV","players":null},{"server_id":24,"name":"Uncletopia | Frankfurt | 8 | Community","name_short":"frk-8","host":"frk-1.de.uncletopia.com","port":27085,"enabled":true,"region":"eu","cc":"de","latitude":50.110924,"longitude":8.682127,"reserved":0,"last_update":"0001-01-01T00:00:00Z","name_a2s":"Uncletopia | Frankfurt | 8 | Community","protocol":17,"map":"workshop/pl_corrode_rc2.ugc546577989","folder":"tf","game":"Team Fortress","app_id":440,"player_count":0,"max_players":24,"Bots":0,"server_type":"Dedicated","server_os":"Linux","password":true,"vac":true,"version":"7961495","steam_id":85568392924742828,"keywords":["nocrits","nodmgspread","payload","uncletopia"],"game_id":440,"stv_port":27086,"stv_name":"Uncletopia | Frankfurt | 8 | Community | STV","players":null},{"server_id":202,"name":"Uncletopia | Hong Kong | 1 | All Maps","name_short":"hgk-1","host":"hgk-1.hk.uncletopia.com","port":27015,"enabled":true,"region":"asia","cc":"hk","latitude":22.302711,"longitude":114.177216,"reserved":0,"last_update":"0001-01-01T00:00:00Z","name_a2s":"Uncletopia | Hong Kong | 1 | All Maps","protocol":17,"map":"pl_snowycoast","folder":"tf","game":"Team Fortress","app_id":440,"player_count":0,"max_players":24,"Bots":0,"server_type":"Dedicated","server_os":"Linux","password":true,"vac":true,"version":"7961495","steam_id":85568392924494504,"keywords":["nocrits","nodmgspread","payload","uncletopia"],"game_id":440,"stv_port":27016,"stv_name":"Uncletopia | Hong Kong | 1 | All Maps | STV","players":null},{"server_id":1,"name":"Uncletopia | Los Angeles | 1 | All Maps","name_short":"lax-1","host":"lax-1.us.uncletopia.com","port":27015,"enabled":true,"region":"us-west","cc":"us","latitude":33.94279,"longitude":-118.41004,"reserved":0,"last_update":"0001-01-01T00:00:00Z","name_a2s":"Uncletopia | Los Angeles | 1 | All Maps","protocol":17,"map":"pl_pier","folder":"tf","game":"Team Fortress","app_id":440,"player_count":24,"max_players":24,"Bots":0,"server_type":"Dedicated","server_os":"Linux","password":true,"vac":true,"version":"7961495","steam_id":85568392924469991,"keywords":["nocrits","nodmgspread","payload","uncletopia"],"game_id":440,"stv_port":27016,"stv_name":"Uncletopia | Los Angeles | 1 | All Maps | STV","players":[{"user_id":353,"name":"a chicken","steam_id":76561198313121580,"connected_time":459000000000,"state":"active","ping":45},{"user_id":360,"name":"Magical.Puffin","steam_id":76561198129039275,"connected_time":236000000000,"state":"active","ping":68},{"user_id":352,"name":"Demoman's Fried chicken","steam_id":76561199056701141,"connected_time":775000000000,"state":"active","ping":86},{"user_id":309,"name":"mr555","steam_id":76561199128375354,"connected_time":4116000000000,"state":"active","ping":150},{"user_id":344,"name":"Loogus","steam_id":76561198811561721,"connected_time":1774000000000,"state":"active","ping":45},{"user_id":285,"name":"Fah B. Loo","steam_id":76561199072749328,"connected_time":5478000000000,"state":"active","ping":97},{"user_id":315,"name":"roach","steam_id":76561198354811369,"connected_time":3861000000000,"state":"active","ping":45},{"user_id":356,"name":"Engineer","steam_id":76561199138738952,"connected_time":372000000000,"state":"active","ping":100},{"user_id":334,"name":"Canned Bread","steam_id":76561198354916213,"connected_time":2670000000000,"state":"active","ping":74},{"user_id":266,"name":"[ØWQJØ]chubacaalatake","steam_id":76561198136201697,"connected_time":6218000000000,"state":"active","ping":91},{"user_id":350,"name":"kaputis","steam_id":76561198127468114,"connected_time":1447000000000,"state":"active","ping":91},{"user_id":355,"name":"fun","steam_id":76561199469712812,"connected_time":450000000000,"state":"active","ping":72},{"user_id":338,"name":"Feldspaten","steam_id":76561199122059102,"connected_time":1954000000000,"state":"active","ping":106},{"user_id":323,"name":"coomerbot","steam_id":76561198082532552,"connected_time":3589000000000,"state":"active","ping":82},{"user_id":351,"name":"TheDoctorIsIn","steam_id":76561198322058639,"connected_time":1332000000000,"state":"active","ping":96},{"user_id":325,"name":"mastercylinder","steam_id":76561197993700163,"connected_time":3535000000000,"state":"active","ping":56},{"user_id":357,"name":"oil","steam_id":76561198099980149,"connected_time":371000000000,"state":"active","ping":53},{"user_id":362,"name":"puffer","steam_id":76561199049164456,"connected_time":85000000000,"state":"active","ping":68},{"user_id":340,"name":"Igrium","steam_id":76561198119549811,"connected_time":1937000000000,"state":"active","ping":62},{"user_id":328,"name":"pup","steam_id":76561198145921847,"connected_time":3422000000000,"state":"active","ping":74},{"user_id":341,"name":"Sharkbyte","steam_id":76561198279701377,"connected_time":1914000000000,"state":"active","ping":59},{"user_id":330,"name":"Jango","steam_id":76561198084589742,"connected_time":3346000000000,"state":"active","ping":105},{"user_id":345,"name":"ForAPessimistImPrettyOptimistic","steam_id":76561198170128009,"connected_time":1767000000000,"state":"active","ping":63},{"user_id":342,"name":"MayoMateo","steam_id":76561198360809933,"connected_time":1907000000000,"state":"active","ping":48}]},{"server_id":112,"name":"Uncletopia | Los Angeles | 2 | All Maps","name_short":"lax-2","host":"lax-1.us.uncletopia.com","port":27025,"enabled":true,"region":"us-west","cc":"us","latitude":33.94279,"longitude":-118.41004,"reserved":0,"last_update":"0001-01-01T00:00:00Z","name_a2s":"Uncletopia | Los Angeles | 2 | All Maps","protocol":17,"map":"koth_viaduct","folder":"tf","game":"Team Fortress","app_id":440,"player_count":0,"max_players":24,"Bots":0,"server_type":"Dedicated","server_os":"Linux","password":true,"vac":true,"version":"7961495","steam_id":85568392924469992,"keywords":["cp","nocrits","nodmgspread","uncletopia"],"game_id":440,"stv_port":27026,"stv_name":"Uncletopia | Los Angeles | 2 | All Maps | STV","players":null},{"server_id":324,"name":"Uncletopia | Los Angeles | 3 | All Maps","name_short":"lax-3","host":"lax-1.us.uncletopia.com","port":27035,"enabled":true,"region":"us-west","cc":"us","latitude":33.94279,"longitude":-118.41004,"reserved":0,"last_update":"0001-01-01T00:00:00Z","name_a2s":"Uncletopia | Los Angeles | 3 | All Maps","protocol":17,"map":"pl_frontier_final","folder":"tf","game":"Team Fortress","app_id":440,"player_count":0,"max_players":24,"Bots":0,"server_type":"Dedicated","server_os":"Linux","password":true,"vac":true,"version":"7961495","steam_id":85568392924510198,"keywords":["nocrits","nodmgspread","payload","uncletopia"],"game_id":440,"stv_port":27036,"stv_name":"Uncletopia | Los Angeles | 3 | All Maps | STV","players":null},{"server_id":25,"name":"Uncletopia | Los Angeles | 4 | Stopwatch","name_short":"lax-4","host":"lax-1.us.uncletopia.com","port":27045,"enabled":true,"region":"us-west","cc":"us","latitude":33.94279,"longitude":-118.41004,"reserved":0,"last_update":"0001-01-01T00:00:00Z","name_a2s":"Uncletopia | Los Angeles | 4 | Stopwatch","protocol":17,"map":"pl_barnblitz","folder":"tf","game":"Team Fortress","app_id":440,"player_count":0,"max_players":24,"Bots":0,"server_type":"Dedicated","server_os":"Linux","password":true,"vac":true,"version":"7961495","steam_id":85568392924510199,"keywords":["nocrits","nodmgspread","payload","uncletopia"],"game_id":440,"stv_port":27046,"stv_name":"Uncletopia | Los Angeles | 4 | Stopwatch | STV","players":null},{"server_id":11,"name":"Uncletopia | London | 1 | All Maps","name_short":"lon-1","host":"lon-1.uk.uncletopia.com","port":27015,"enabled":true,"region":"eu","cc":"gb","latitude":51.509865,"longitude":-0.118092,"reserved":0,"last_update":"0001-01-01T00:00:00Z","name_a2s":"Uncletopia | London | 1 | All Maps","protocol":17,"map":"pl_pier","folder":"tf","game":"Team Fortress","app_id":440,"player_count":24,"max_players":24,"Bots":0,"server_type":"Dedicated","server_os":"Linux","password":true,"vac":true,"version":"7961495","steam_id":85568392924367362,"keywords":["nocrits","nodmgspread","payload","uncletopia"],"game_id":440,"stv_port":27016,"stv_name":"Uncletopia | London | 1 | All Maps | STV","players":[{"user_id":498,"name":"Lyra","steam_id":76561198043601838,"connected_time":2928000000000,"state":"active","ping":67},{"user_id":474,"name":"MEDiUM","steam_id":76561198112328561,"connected_time":4433000000000,"state":"active","ping":87},{"user_id":526,"name":"unconditional love","steam_id":76561199026097466,"connected_time":896000000000,"state":"active","ping":65},{"user_id":509,"name":"Kahvi","steam_id":76561198723244199,"connected_time":2703000000000,"state":"active","ping":77},{"user_id":513,"name":"ein","steam_id":76561198152162834,"connected_time":2379000000000,"state":"active","ping":101},{"user_id":510,"name":"Stern","steam_id":76561198065421312,"connected_time":2672000000000,"state":"active","ping":38},{"user_id":522,"name":"Cpt.CarrotCake","steam_id":76561198059907292,"connected_time":1370000000000,"state":"active","ping":49},{"user_id":386,"name":"Mini","steam_id":76561197968634073,"connected_time":11380000000000,"state":"active","ping":92},{"user_id":518,"name":"Nessieling","steam_id":76561198083556891,"connected_time":1741000000000,"state":"active","ping":78},{"user_id":516,"name":"Massive Bereavement","steam_id":76561198055405317,"connected_time":2076000000000,"state":"active","ping":51},{"user_id":511,"name":"I'm only human after all","steam_id":76561198048453764,"connected_time":2613000000000,"state":"active","ping":47},{"user_id":460,"name":"png.png","steam_id":76561198444446521,"connected_time":5606000000000,"state":"active","ping":106},{"user_id":504,"name":"dec","steam_id":76561198009660168,"connected_time":2868000000000,"state":"active","ping":56},{"user_id":523,"name":"Oki (Bon)","steam_id":76561199047748534,"connected_time":1147000000000,"state":"active","ping":57},{"user_id":430,"name":"Ullr","steam_id":76561198140547483,"connected_time":7813000000000,"state":"active","ping":45},{"user_id":525,"name":"sokige","steam_id":76561198167112371,"connected_time":991000000000,"state":"active","ping":101},{"user_id":512,"name":"hipster_doofus","steam_id":76561197970902697,"connected_time":2610000000000,"state":"active","ping":57},{"user_id":532,"name":"Evix","steam_id":76561198418450671,"connected_time":550000000000,"state":"active","ping":69},{"user_id":524,"name":"AWildTamim","steam_id":76561198048060652,"connected_time":1108000000000,"state":"active","ping":41},{"user_id":531,"name":"--\u003eZaruwaa\u003c--","steam_id":76561198336924132,"connected_time":654000000000,"state":"active","ping":94},{"user_id":507,"name":"Trapezoid","steam_id":76561198059369295,"connected_time":2778000000000,"state":"active","ping":75},{"user_id":529,"name":"shooer!","steam_id":76561198110531281,"connected_time":714000000000,"state":"active","ping":73},{"user_id":521,"name":"Fuzz","steam_id":76561198013049077,"connected_time":1513000000000,"state":"active","ping":79},{"user_id":497,"name":"killer of noob, winner of game","steam_id":76561198190583242,"connected_time":2938000000000,"state":"active","ping":89}]},{"server_id":114,"name":"Uncletopia | London | 2 | All Maps","name_short":"lon-2","host":"lon-1.uk.uncletopia.com","port":27025,"enabled":true,"region":"eu","cc":"gb","latitude":51.509865,"longitude":-0.118092,"reserved":0,"last_update":"0001-01-01T00:00:00Z","name_a2s":"Uncletopia | London | 2 | All Maps","protocol":17,"map":"pl_pier","folder":"tf","game":"Team Fortress","app_id":440,"player_count":24,"max_players":24,"Bots":0,"server_type":"Dedicated","server_os":"Linux","password":true,"vac":true,"version":"7961495","steam_id":85568392924470941,"keywords":["nocrits","nodmgspread","payload","uncletopia"],"game_id":440,"stv_port":27026,"stv_name":"Uncletopia | London | 2 | All Maps | STV","players":[{"user_id":530,"name":"Minister of Cat Affairs","steam_id":76561197970114051,"connected_time":1134000000000,"state":"active","ping":44},{"user_id":545,"name":"japjao","steam_id":76561199230386527,"connected_time":362000000000,"state":"active","ping":51},{"user_id":540,"name":"mark_mm","steam_id":76561198929362731,"connected_time":614000000000,"state":"active","ping":92},{"user_id":455,"name":"soap lore 19","steam_id":76561198058879767,"connected_time":6563000000000,"state":"active","ping":43},{"user_id":509,"name":"The Engineer","steam_id":76561199437330739,"connected_time":2590000000000,"state":"active","ping":60},{"user_id":500,"name":"Ascended Noob","steam_id":76561198079411460,"connected_time":3375000000000,"state":"active","ping":52},{"user_id":538,"name":"2014","steam_id":76561199066684927,"connected_time":664000000000,"state":"active","ping":135},{"user_id":542,"name":"Tuck","steam_id":76561198010199374,"connected_time":604000000000,"state":"active","ping":68},{"user_id":523,"name":"Silverbolt","steam_id":76561198153165763,"connected_time":1630000000000,"state":"active","ping":65},{"user_id":528,"name":"job that slowly kills you","steam_id":76561198072320671,"connected_time":1319000000000,"state":"active","ping":35},{"user_id":543,"name":"Darkmaen","steam_id":76561198060543390,"connected_time":603000000000,"state":"active","ping":54},{"user_id":324,"name":"dash.","steam_id":76561198084796149,"connected_time":16786000000000,"state":"active","ping":43},{"user_id":497,"name":"clean carp","steam_id":76561198127053294,"connected_time":3796000000000,"state":"active","ping":68},{"user_id":449,"name":"Jams","steam_id":76561198118316970,"connected_time":7844000000000,"state":"active","ping":79},{"user_id":539,"name":"hieronimus","steam_id":76561198085900150,"connected_time":664000000000,"state":"active","ping":71},{"user_id":544,"name":"Kaiserin","steam_id":76561198097396234,"connected_time":603000000000,"state":"active","ping":108},{"user_id":483,"name":"HetNet","steam_id":76561198207584963,"connected_time":4616000000000,"state":"active","ping":78},{"user_id":484,"name":"Tin","steam_id":76561198022201818,"connected_time":4614000000000,"state":"active","ping":46},{"user_id":513,"name":"lukearoonie","steam_id":76561198354480569,"connected_time":2467000000000,"state":"active","ping":72},{"user_id":522,"name":"Charon","steam_id":76561198061714753,"connected_time":1676000000000,"state":"active","ping":90},{"user_id":534,"name":"BogdanBury","steam_id":76561199151820854,"connected_time":1020000000000,"state":"active","ping":78},{"user_id":526,"name":"6'11\" Jaden Smith","steam_id":76561198059674196,"connected_time":1517000000000,"state":"active","ping":48},{"user_id":425,"name":"gamerkiddo","steam_id":76561198047380360,"connected_time":9071000000000,"state":"active","ping":60},{"user_id":527,"name":"Family Disser","steam_id":76561198278967055,"connected_time":1517000000000,"state":"active","ping":68}]},{"server_id":320,"name":"Uncletopia | London | 3 | All Maps","name_short":"lon-3","host":"lon-1.uk.uncletopia.com","port":27035,"enabled":true,"region":"eu","cc":"gb","latitude":51.509865,"longitude":-0.118092,"reserved":0,"last_update":"0001-01-01T00:00:00Z","name_a2s":"Uncletopia | London | 3 | All Maps","protocol":17,"map":"koth_harvest_final","folder":"tf","game":"Team Fortress","app_id":440,"player_count":24,"max_players":24,"Bots":0,"server_type":"Dedicated","server_os":"Linux","password":true,"vac":true,"version":"7961495","steam_id":85568392924510192,"keywords":["cp","nocrits","nodmgspread","uncletopia"],"game_id":440,"stv_port":27036,"stv_name":"Uncletopia | London | 3 | All Maps | STV","players":[{"user_id":412,"name":"Lorincel","steam_id":76561198314022154,"connected_time":3425000000000,"state":"active","ping":94},{"user_id":386,"name":"laza","steam_id":76561199074095198,"connected_time":5181000000000,"state":"active","ping":112},{"user_id":444,"name":"Alexandre","steam_id":76561198121784446,"connected_time":294000000000,"state":"active","ping":44},{"user_id":434,"name":"Forsén","steam_id":76561199131971501,"connected_time":1382000000000,"state":"active","ping":97},{"user_id":406,"name":"Bombilla","steam_id":76561198084281798,"connected_time":3714000000000,"state":"active","ping":84},{"user_id":439,"name":"TaKina","steam_id":76561198062977164,"connected_time":411000000000,"state":"active","ping":59},{"user_id":426,"name":"Tekky☻","steam_id":76561197990987315,"connected_time":2200000000000,"state":"active","ping":37},{"user_id":435,"name":"dr. coom","steam_id":76561198172193711,"connected_time":1053000000000,"state":"active","ping":44},{"user_id":384,"name":"Dan Dan the Furious","steam_id":76561198091032527,"connected_time":5262000000000,"state":"active","ping":53},{"user_id":427,"name":"Pyep","steam_id":76561199273799263,"connected_time":2155000000000,"state":"active","ping":59},{"user_id":422,"name":"Megafrox","steam_id":76561199091818724,"connected_time":2946000000000,"state":"active","ping":101},{"user_id":428,"name":"Lukas","steam_id":76561198009118452,"connected_time":2077000000000,"state":"active","ping":69},{"user_id":429,"name":"hyvakii705","steam_id":76561198086630552,"connected_time":1906000000000,"state":"active","ping":75},{"user_id":424,"name":"Faxter","steam_id":76561198011771605,"connected_time":2495000000000,"state":"active","ping":61},{"user_id":399,"name":"Macro","steam_id":76561199442846226,"connected_time":4348000000000,"state":"active","ping":164},{"user_id":437,"name":"Ixsus\u003c3","steam_id":76561198094756869,"connected_time":876000000000,"state":"active","ping":75},{"user_id":436,"name":"MNKY","steam_id":76561198057125058,"connected_time":929000000000,"state":"active","ping":79},{"user_id":433,"name":"♂ MGE ♂ PUPSIK ♂","steam_id":76561198308302932,"connected_time":1681000000000,"state":"active","ping":100},{"user_id":440,"name":"Remembrance","steam_id":76561199229247163,"connected_time":407000000000,"state":"active","ping":39},{"user_id":410,"name":"Creative","steam_id":76561198835034247,"connected_time":3642000000000,"state":"active","ping":91},{"user_id":423,"name":"Anri Okita's Massive Milkers","steam_id":76561199186352720,"connected_time":2774000000000,"state":"active","ping":65},{"user_id":441,"name":"Piellino","steam_id":76561198156873276,"connected_time":371000000000,"state":"active","ping":105},{"user_id":442,"name":"A Succulent Chinese Meal","steam_id":76561198069472440,"connected_time":369000000000,"state":"active","ping":61},{"user_id":443,"name":"Proto-arc","steam_id":76561198012776747,"connected_time":334000000000,"state":"active","ping":59}]},{"server_id":321,"name":"Uncletopia | London | 4 | All Maps","name_short":"lon-4","host":"lon-1.uk.uncletopia.com","port":27045,"enabled":true,"region":"eu","cc":"gb","latitude":51.509865,"longitude":-0.118092,"reserved":0,"last_update":"0001-01-01T00:00:00Z","name_a2s":"Uncletopia | London | 4 | All Maps","protocol":17,"map":"cp_sunshine","folder":"tf","game":"Team Fortress","app_id":440,"player_count":24,"max_players":24,"Bots":0,"server_type":"Dedicated","server_os":"Linux","password":true,"vac":true,"version":"7961495","steam_id":85568392924510193,"keywords":["cp","nocrits","nodmgspread","uncletopia"],"game_id":440,"stv_port":27046,"stv_name":"Uncletopia | London | 4 | All Maps | STV","players":[{"user_id":239,"name":"Apple","steam_id":76561199195949115,"connected_time":2374000000000,"state":"active","ping":63},{"user_id":274,"name":"Momovsky","steam_id":76561198005738407,"connected_time":613000000000,"state":"active","ping":82},{"user_id":266,"name":"Bylbameat","steam_id":76561199146468626,"connected_time":1004000000000,"state":"active","ping":104},{"user_id":225,"name":"fence_","steam_id":76561198150386379,"connected_time":3230000000000,"state":"active","ping":45},{"user_id":275,"name":"Cheese Goblin","steam_id":76561198102366281,"connected_time":581000000000,"state":"active","ping":40},{"user_id":282,"name":"Kacperos12","steam_id":76561198044168268,"connected_time":145000000000,"state":"active","ping":96},{"user_id":276,"name":"WiLD","steam_id":76561198345622161,"connected_time":562000000000,"state":"active","ping":78},{"user_id":277,"name":"Acceonit","steam_id":76561199089797619,"connected_time":511000000000,"state":"active","ping":123},{"user_id":271,"name":"Gomez","steam_id":76561198441728787,"connected_time":674000000000,"state":"active","ping":64},{"user_id":235,"name":"YoBoiJam140","steam_id":76561199014134685,"connected_time":2533000000000,"state":"active","ping":151},{"user_id":278,"name":"Geese Goose","steam_id":76561198070903248,"connected_time":343000000000,"state":"active","ping":59},{"user_id":241,"name":"Freedoomrocks","steam_id":76561198392511189,"connected_time":2230000000000,"state":"active","ping":82},{"user_id":250,"name":"Gekyu","steam_id":76561198848485666,"connected_time":1714000000000,"state":"active","ping":31},{"user_id":279,"name":"Mr_Pulse_","steam_id":76561198095001602,"connected_time":339000000000,"state":"active","ping":89},{"user_id":248,"name":"Jeffrey Harpen","steam_id":76561199073314677,"connected_time":1870000000000,"state":"active","ping":74},{"user_id":280,"name":"Caramel","steam_id":76561198021214844,"connected_time":267000000000,"state":"active","ping":45},{"user_id":252,"name":"Mr_Spappy","steam_id":76561199106707541,"connected_time":1676000000000,"state":"active","ping":60},{"user_id":253,"name":"Cunt Force Trauma","steam_id":76561198086121413,"connected_time":1637000000000,"state":"active","ping":119},{"user_id":261,"name":"Sandragon","steam_id":76561198273221488,"connected_time":1314000000000,"state":"active","ping":141},{"user_id":254,"name":"xe_op","steam_id":76561199465718377,"connected_time":1617000000000,"state":"active","ping":58},{"user_id":258,"name":"Brakamwoan","steam_id":76561198294247550,"connected_time":1492000000000,"state":"active","ping":70},{"user_id":281,"name":"Fran","steam_id":76561199070516960,"connected_time":216000000000,"state":"active","ping":74},{"user_id":257,"name":"big heavy is heavy heavy","steam_id":76561198300059652,"connected_time":1552000000000,"state":"active","ping":67},{"user_id":259,"name":"D1n0Master","steam_id":76561198242499784,"connected_time":1475000000000,"state":"active","ping":68}]},{"server_id":21,"name":"Uncletopia | London | 5 | All Maps","name_short":"lon-5","host":"lon-1.uk.uncletopia.com","port":27055,"enabled":true,"region":"eu","cc":"gb","latitude":51.509865,"longitude":-0.118092,"reserved":0,"last_update":"0001-01-01T00:00:00Z","name_a2s":"Uncletopia | London | 5 | All Maps","protocol":17,"map":"pl_pier","folder":"tf","game":"Team Fortress","app_id":440,"player_count":24,"max_players":24,"Bots":0,"server_type":"Dedicated","server_os":"Linux","password":true,"vac":true,"version":"7961495","steam_id":85568392924742829,"keywords":["nocrits","nodmgspread","payload","uncletopia"],"game_id":440,"stv_port":27056,"stv_name":"Uncletopia | London | 5 | All Maps | STV","players":[{"user_id":203,"name":"Marl Karx","steam_id":76561198396797516,"connected_time":34000000000,"state":"active","ping":66},{"user_id":195,"name":"piers morgan (black lesbian)","steam_id":76561199401283123,"connected_time":839000000000,"state":"active","ping":54},{"user_id":43,"name":"Weegad Wobus","steam_id":76561199429562693,"connected_time":10240000000000,"state":"active","ping":70},{"user_id":173,"name":"Riky95","steam_id":76561198095289436,"connected_time":1934000000000,"state":"active","ping":60},{"user_id":144,"name":"niandits","steam_id":76561198419798900,"connected_time":4267000000000,"state":"active","ping":125},{"user_id":196,"name":"madhead200","steam_id":76561198119498666,"connected_time":817000000000,"state":"active","ping":67},{"user_id":199,"name":"DECEARING EGG","steam_id":76561198062934599,"connected_time":725000000000,"state":"active","ping":55},{"user_id":201,"name":"[HΞ$H]","steam_id":76561198083652376,"connected_time":204000000000,"state":"active","ping":88},{"user_id":185,"name":"c1v","steam_id":76561199085624224,"connected_time":1012000000000,"state":"active","ping":69},{"user_id":186,"name":"ᘛ⁐̤ᕐᐷ jumpbug jerry","steam_id":76561198963378933,"connected_time":994000000000,"state":"active","ping":43},{"user_id":202,"name":"Nucholaz","steam_id":76561199223139051,"connected_time":174000000000,"state":"active","ping":161},{"user_id":188,"name":"Smiley","steam_id":76561198842378679,"connected_time":966000000000,"state":"active","ping":145},{"user_id":124,"name":"Skittles","steam_id":76561198024077569,"connected_time":5396000000000,"state":"active","ping":79},{"user_id":164,"name":"carrot enjoyer","steam_id":76561198069649097,"connected_time":2639000000000,"state":"active","ping":58},{"user_id":135,"name":"SadBambino","steam_id":76561198101989931,"connected_time":4857000000000,"state":"active","ping":55},{"user_id":180,"name":"YARrICk.«+»","steam_id":76561197990126485,"connected_time":1710000000000,"state":"active","ping":61},{"user_id":182,"name":"Pipp Petals2014","steam_id":76561198147668373,"connected_time":1330000000000,"state":"active","ping":69},{"user_id":189,"name":"Mitrixie","steam_id":76561198842023498,"connected_time":960000000000,"state":"active","ping":94},{"user_id":176,"name":"neJ","steam_id":76561198003397488,"connected_time":1903000000000,"state":"active","ping":75},{"user_id":190,"name":"Rodia","steam_id":76561197968293161,"connected_time":944000000000,"state":"active","ping":75},{"user_id":191,"name":"piper","steam_id":76561198112687349,"connected_time":940000000000,"state":"active","ping":49},{"user_id":137,"name":"Reimu","steam_id":76561198101532240,"connected_time":4780000000000,"state":"active","ping":62},{"user_id":197,"name":"urban_goose","steam_id":76561199026863045,"connected_time":773000000000,"state":"active","ping":68},{"user_id":198,"name":"Bruschetta","steam_id":76561198251927162,"connected_time":773000000000,"state":"active","ping":73}]},{"server_id":22,"name":"Uncletopia | London | 6 | All Maps","name_short":"lon-6","host":"lon-1.uk.uncletopia.com","port":27065,"enabled":true,"region":"eu","cc":"gb","latitude":51.509865,"longitude":-0.118092,"reserved":0,"last_update":"0001-01-01T00:00:00Z","name_a2s":"Uncletopia | London | 6 | All Maps","protocol":17,"map":"pl_badwater","folder":"tf","game":"Team Fortress","app_id":440,"player_count":24,"max_players":24,"Bots":0,"server_type":"Dedicated","server_os":"Linux","password":true,"vac":true,"version":"7961495","steam_id":85568392924742830,"keywords":["nocrits","nodmgspread","payload","uncletopia"],"game_id":440,"stv_port":27066,"stv_name":"Uncletopia | London | 6 | All Maps | STV","players":[{"user_id":298,"name":"oskaroku00","steam_id":76561199025360128,"connected_time":235000000000,"state":"active","ping":75},{"user_id":280,"name":"beurgeur","steam_id":76561198872426314,"connected_time":2434000000000,"state":"active","ping":44},{"user_id":252,"name":"cock dick gaming","steam_id":76561199042470246,"connected_time":5035000000000,"state":"active","ping":65},{"user_id":262,"name":"SodaHead13","steam_id":76561198202990635,"connected_time":3987000000000,"state":"active","ping":74},{"user_id":285,"name":"Hotdog Demo","steam_id":76561199000050049,"connected_time":1675000000000,"state":"active","ping":177},{"user_id":295,"name":"LEGEND FUMO.","steam_id":76561198061033903,"connected_time":436000000000,"state":"active","ping":55},{"user_id":155,"name":"Fuck it (unhandicaps)","steam_id":76561197983095579,"connected_time":10647000000000,"state":"active","ping":82},{"user_id":296,"name":"Son Goku","steam_id":76561199383437138,"connected_time":350000000000,"state":"active","ping":124},{"user_id":290,"name":"Fatmagic Mukbang ASMR","steam_id":76561198063492110,"connected_time":1544000000000,"state":"active","ping":83},{"user_id":292,"name":"Kernel Panic","steam_id":76561198215811047,"connected_time":854000000000,"state":"active","ping":36},{"user_id":291,"name":"Doogie","steam_id":76561198846924693,"connected_time":1385000000000,"state":"active","ping":58},{"user_id":267,"name":"quickfast","steam_id":76561199438900919,"connected_time":3060000000000,"state":"active","ping":44},{"user_id":269,"name":"Coq Consumer","steam_id":76561198450526083,"connected_time":3048000000000,"state":"active","ping":70},{"user_id":288,"name":"hazy","steam_id":76561198189686075,"connected_time":1596000000000,"state":"active","ping":45},{"user_id":268,"name":"Gluttony","steam_id":76561198243258784,"connected_time":3052000000000,"state":"active","ping":77},{"user_id":293,"name":"⸸aura⸸","steam_id":76561198066258544,"connected_time":699000000000,"state":"active","ping":62},{"user_id":276,"name":"Pyrolander","steam_id":76561198050785450,"connected_time":2781000000000,"state":"active","ping":47},{"user_id":235,"name":"Sza","steam_id":76561198022132105,"connected_time":6322000000000,"state":"active","ping":71},{"user_id":240,"name":"After8","steam_id":76561198090750865,"connected_time":6063000000000,"state":"active","ping":75},{"user_id":277,"name":"cansado","steam_id":76561198003898089,"connected_time":2756000000000,"state":"active","ping":81},{"user_id":278,"name":"TOP G","steam_id":76561198138928548,"connected_time":2737000000000,"state":"active","ping":66},{"user_id":215,"name":"Rockfrenzy","steam_id":76561198005428050,"connected_time":8086000000000,"state":"active","ping":70},{"user_id":297,"name":"mike erhmentraut","steam_id":76561199025378498,"connected_time":345000000000,"state":"active","ping":46},{"user_id":117,"name":"transgender e-girl","steam_id":76561198168589809,"connected_time":14139000000000,"state":"active","ping":60}]},{"server_id":40,"name":"Uncletopia | London | 7 | Stopwatch","name_short":"lon-7","host":"lon-1.uk.uncletopia.com","port":27075,"enabled":true,"region":"eu","cc":"gb","latitude":51.509865,"longitude":-0.118092,"reserved":0,"last_update":"0001-01-01T00:00:00Z","name_a2s":"Uncletopia | London | 7 | Stopwatch","protocol":17,"map":"cp_granary","folder":"tf","game":"Team Fortress","app_id":440,"player_count":24,"max_players":24,"Bots":0,"server_type":"Dedicated","server_os":"Linux","password":true,"vac":true,"version":"7961495","steam_id":85568392924964314,"keywords":["cp","nocrits","nodmgspread","uncletopia"],"game_id":440,"stv_port":27076,"stv_name":"Uncletopia | London | 7 | Stopwatch | STV","players":[{"user_id":121,"name":"RainbowPikachu","steam_id":76561199077898674,"connected_time":3703000000000,"state":"active","ping":57},{"user_id":150,"name":"Evan","steam_id":76561198148414245,"connected_time":578000000000,"state":"active","ping":99},{"user_id":158,"name":"germinator","steam_id":76561199387893648,"connected_time":129000000000,"state":"active","ping":100},{"user_id":124,"name":"weeeerut","steam_id":76561199090471211,"connected_time":3167000000000,"state":"active","ping":56},{"user_id":148,"name":"aSourLemonade","steam_id":76561198872382968,"connected_time":640000000000,"state":"active","ping":69},{"user_id":128,"name":"Vitkus","steam_id":76561199125201530,"connected_time":1426000000000,"state":"active","ping":73},{"user_id":129,"name":"norespectforthedevil","steam_id":76561197998922218,"connected_time":1397000000000,"state":"active","ping":118},{"user_id":130,"name":"LazyTitan","steam_id":76561198373852149,"connected_time":1342000000000,"state":"active","ping":127},{"user_id":159,"name":"Atlas#SaveTf2","steam_id":76561198876084253,"connected_time":98000000000,"state":"active","ping":76},{"user_id":149,"name":"conker_beans","steam_id":76561198980536660,"connected_time":640000000000,"state":"active","ping":73},{"user_id":153,"name":"Flying skyhigh","steam_id":76561198372971096,"connected_time":541000000000,"state":"active","ping":89},{"user_id":136,"name":"Unreliable, funny and dangerous","steam_id":76561198050709790,"connected_time":881000000000,"state":"active","ping":96},{"user_id":156,"name":"maniektrim","steam_id":76561198135673109,"connected_time":278000000000,"state":"active","ping":54},{"user_id":139,"name":"Vyllckart","steam_id":76561198119172997,"connected_time":743000000000,"state":"active","ping":80},{"user_id":140,"name":"Spectra","steam_id":76561198086718879,"connected_time":730000000000,"state":"active","ping":64},{"user_id":141,"name":"Katsu!","steam_id":76561198082570310,"connected_time":717000000000,"state":"active","ping":80},{"user_id":142,"name":"Solar","steam_id":76561199121361391,"connected_time":699000000000,"state":"active","ping":92},{"user_id":144,"name":"finlay2008","steam_id":76561199447321722,"connected_time":677000000000,"state":"active","ping":70},{"user_id":157,"name":"kyerobbo12","steam_id":76561199063139001,"connected_time":255000000000,"state":"active","ping":54},{"user_id":146,"name":"Shadow_226","steam_id":76561198101314596,"connected_time":662000000000,"state":"active","ping":85},{"user_id":151,"name":"Cillian","steam_id":76561199471571148,"connected_time":561000000000,"state":"active","ping":72},{"user_id":152,"name":"Not Clickbait (Real)","steam_id":76561198951275407,"connected_time":544000000000,"state":"active","ping":88},{"user_id":154,"name":"xx_soy_xx","steam_id":76561198333779084,"connected_time":487000000000,"state":"active","ping":67},{"user_id":155,"name":"Ozzie","steam_id":76561197992915315,"connected_time":471000000000,"state":"active","ping":64}]},{"server_id":41,"name":"Uncletopia | London | 8 | Community","name_short":"lon-8","host":"lon-1.uk.uncletopia.com","port":27085,"enabled":true,"region":"eu","cc":"gb","latitude":51.509865,"longitude":-0.118092,"reserved":0,"last_update":"0001-01-01T00:00:00Z","name_a2s":"Uncletopia | London | 8 | Community","protocol":17,"map":"workshop/koth_trenchfoot_b1a.ugc731436616","folder":"tf","game":"Team Fortress","app_id":440,"player_count":0,"max_players":24,"Bots":0,"server_type":"Dedicated","server_os":"Linux","password":true,"vac":true,"version":"7961495","steam_id":85568392924964315,"keywords":["cp","nocrits","nodmgspread","uncletopia"],"game_id":440,"stv_port":27086,"stv_name":"Uncletopia | London | 8 | Community | STV","players":null},{"server_id":300,"name":"Uncletopia | Montréal | 1 | One Thousand Uncles","name_short":"mtl-1","host":"mtl-1.ca.uncletopia.com","port":27015,"enabled":true,"region":"us-east","cc":"ca","latitude":45.50889,"longitude":-73.56167,"reserved":0,"last_update":"0001-01-01T00:00:00Z","name_a2s":"","protocol":0,"map":"","folder":"","game":"","app_id":0,"player_count":5,"max_players":0,"Bots":0,"server_type":"","server_os":"","password":false,"vac":false,"version":"","steam_id":0,"keywords":null,"game_id":0,"stv_port":0,"stv_name":"","players":[{"user_id":147,"name":"DrMisteryous2","steam_id":76561198336307012,"connected_time":3076000000000,"state":"active","ping":151},{"user_id":180,"name":"Gul'dan","steam_id":76561198240466940,"connected_time":1962000000000,"state":"active","ping":139},{"user_id":183,"name":"ʕ•ᴥ•ʔ the bear","steam_id":76561197989591976,"connected_time":480000000000,"state":"active","ping":56},{"user_id":182,"name":"Goose of Wisdom","steam_id":76561198233465044,"connected_time":1610000000000,"state":"active","ping":51},{"user_id":185,"name":"kdhbuilder","steam_id":76561199058095193,"connected_time":93000000000,"state":"active","ping":75}]},{"server_id":301,"name":"Uncletopia | Montréal | 2 | One Thousand Uncles","name_short":"mtl-2","host":"mtl-1.ca.uncletopia.com","port":27025,"enabled":true,"region":"us-east","cc":"ca","latitude":45.50889,"longitude":-73.56167,"reserved":0,"last_update":"0001-01-01T00:00:00Z","name_a2s":"","protocol":0,"map":"","folder":"","game":"","app_id":0,"player_count":9,"max_players":0,"Bots":0,"server_type":"","server_os":"","password":false,"vac":false,"version":"","steam_id":0,"keywords":null,"game_id":0,"stv_port":0,"stv_name":"","players":[{"user_id":35,"name":"The Fragrance of Dark Coffee","steam_id":76561198013111370,"connected_time":5477000000000,"state":"active","ping":61},{"user_id":36,"name":"Jimmy Pubetron","steam_id":76561198077634776,"connected_time":5472000000000,"state":"active","ping":186},{"user_id":83,"name":"MintyGhoul666","steam_id":76561198232417796,"connected_time":494000000000,"state":"active","ping":69},{"user_id":53,"name":"Adding Gfuel to the Fire","steam_id":76561198059202536,"connected_time":5255000000000,"state":"active","ping":76},{"user_id":74,"name":"Sergeant_Umbreon","steam_id":76561198084188758,"connected_time":3557000000000,"state":"active","ping":118},{"user_id":101,"name":"Diplomatic Dentist","steam_id":76561198203304151,"connected_time":319000000000,"state":"active","ping":102},{"user_id":80,"name":"Holy Carp","steam_id":76561198284743629,"connected_time":851000000000,"state":"active","ping":32},{"user_id":81,"name":"ядерныйпиздец228","steam_id":76561198979885740,"connected_time":704000000000,"state":"active","ping":150},{"user_id":79,"name":"S","steam_id":76561198998440538,"connected_time":2667000000000,"state":"active","ping":119}]},{"server_id":302,"name":"Uncletopia | Montréal | 3 | One Thousand Uncles","name_short":"mtl-3","host":"mtl-1.ca.uncletopia.com","port":27035,"enabled":true,"region":"us-east","cc":"ca","latitude":45.50889,"longitude":-73.56167,"reserved":0,"last_update":"0001-01-01T00:00:00Z","name_a2s":"","protocol":0,"map":"","folder":"","game":"","app_id":0,"player_count":0,"max_players":0,"Bots":0,"server_type":"","server_os":"","password":false,"vac":false,"version":"","steam_id":0,"keywords":null,"game_id":0,"stv_port":0,"stv_name":"","players":null},{"server_id":13,"name":"Uncletopia | New York City | 1 | All Maps","name_short":"nyc-1","host":"nyc-1.us.uncletopia.com","port":27015,"enabled":true,"region":"us-east","cc":"us","latitude":40.73061,"longitude":-73.93524,"reserved":0,"last_update":"0001-01-01T00:00:00Z","name_a2s":"Uncletopia | New York City | 1 | All Maps","protocol":17,"map":"pl_upward","folder":"tf","game":"Team Fortress","app_id":440,"player_count":24,"max_players":24,"Bots":0,"server_type":"Dedicated","server_os":"Linux","password":true,"vac":true,"version":"7961495","steam_id":85568392924469993,"keywords":["nocrits","nodmgspread","payload","uncletopia"],"game_id":440,"stv_port":27016,"stv_name":"Uncletopia | New York City | 1 | All Maps | STV","players":[{"user_id":227,"name":"TJMaVerick","steam_id":76561198049724348,"connected_time":1735000000000,"state":"active","ping":85},{"user_id":157,"name":"space man","steam_id":76561198066333670,"connected_time":6649000000000,"state":"active","ping":73},{"user_id":171,"name":"dcqwerty","steam_id":76561198964101426,"connected_time":4941000000000,"state":"active","ping":36},{"user_id":211,"name":"zabloinkus","steam_id":76561198069967245,"connected_time":2641000000000,"state":"active","ping":83},{"user_id":182,"name":"Wique","steam_id":76561198071217597,"connected_time":3697000000000,"state":"active","ping":75},{"user_id":225,"name":"Doctor Glocktorpus [NGC]","steam_id":76561198049194645,"connected_time":1761000000000,"state":"active","ping":52},{"user_id":235,"name":"PossumSpaghetti","steam_id":76561198407385321,"connected_time":552000000000,"state":"active","ping":127},{"user_id":204,"name":"wowisthatleo","steam_id":76561199020860911,"connected_time":2860000000000,"state":"active","ping":167},{"user_id":213,"name":"TheChickenChuck","steam_id":76561199192686708,"connected_time":2363000000000,"state":"active","ping":89},{"user_id":237,"name":"$0.18","steam_id":76561198360134800,"connected_time":335000000000,"state":"active","ping":67},{"user_id":219,"name":"barney","steam_id":76561198166433332,"connected_time":2090000000000,"state":"active","ping":106},{"user_id":175,"name":"Porcupine's Revenge!","steam_id":76561199121615234,"connected_time":4422000000000,"state":"active","ping":43},{"user_id":229,"name":"R O D G E D A N","steam_id":76561198226236524,"connected_time":1729000000000,"state":"active","ping":83},{"user_id":207,"name":"✪Type_Alpha","steam_id":76561198122780598,"connected_time":2821000000000,"state":"active","ping":57},{"user_id":230,"name":"ZigZac_","steam_id":76561199074441845,"connected_time":1419000000000,"state":"active","ping":58},{"user_id":214,"name":"Timon's high on crack cocaine!","steam_id":76561198180396430,"connected_time":2327000000000,"state":"active","ping":58},{"user_id":232,"name":"Bert.","steam_id":76561198140666346,"connected_time":1020000000000,"state":"active","ping":49},{"user_id":83,"name":"A Puppy","steam_id":76561198828184456,"connected_time":11321000000000,"state":"active","ping":49},{"user_id":233,"name":"Bee_Pirate","steam_id":76561199000599111,"connected_time":992000000000,"state":"active","ping":66},{"user_id":238,"name":"fish","steam_id":76561198865524336,"connected_time":172000000000,"state":"active","ping":73},{"user_id":149,"name":"Great","steam_id":76561198895516433,"connected_time":7876000000000,"state":"active","ping":62},{"user_id":199,"name":"Carbuncle","steam_id":76561198983852058,"connected_time":2954000000000,"state":"active","ping":105},{"user_id":239,"name":"x = ( -b ± √( b^2 - 4ac)/ (2","steam_id":76561198059220458,"connected_time":101000000000,"state":"active","ping":45},{"user_id":236,"name":"flamingcookies","steam_id":76561198280864779,"connected_time":551000000000,"state":"active","ping":73}]},{"server_id":14,"name":"Uncletopia | New York City | 2 | All Maps","name_short":"nyc-2","host":"nyc-1.us.uncletopia.com","port":27025,"enabled":true,"region":"us-east","cc":"us","latitude":40.73061,"longitude":-73.93524,"reserved":0,"last_update":"0001-01-01T00:00:00Z","name_a2s":"Uncletopia | New York City | 2 | All Maps","protocol":17,"map":"cp_dustbowl","folder":"tf","game":"Team Fortress","app_id":440,"player_count":23,"max_players":24,"Bots":0,"server_type":"Dedicated","server_os":"Linux","password":true,"vac":true,"version":"7961495","steam_id":85568392924469994,"keywords":["cp","nocrits","nodmgspread","uncletopia"],"game_id":440,"stv_port":27026,"stv_name":"Uncletopia | New York City | 2 | All Maps | STV","players":[{"user_id":360,"name":"banxet","steam_id":76561198067879051,"connected_time":176000000000,"state":"active","ping":159},{"user_id":250,"name":"Bussy Bandit","steam_id":76561198034028769,"connected_time":7171000000000,"state":"active","ping":77},{"user_id":355,"name":"The Fool","steam_id":76561199229771413,"connected_time":324000000000,"state":"active","ping":71},{"user_id":314,"name":"HeartsBoxcar","steam_id":76561197989851953,"connected_time":2737000000000,"state":"active","ping":82},{"user_id":326,"name":"zeekity","steam_id":76561198220985248,"connected_time":1297000000000,"state":"active","ping":95},{"user_id":352,"name":"the kind canadian","steam_id":76561199226468456,"connected_time":724000000000,"state":"active","ping":67},{"user_id":322,"name":"Edmont Dantes","steam_id":76561198090271815,"connected_time":1735000000000,"state":"active","ping":133},{"user_id":327,"name":"King Sans","steam_id":76561198294198517,"connected_time":1269000000000,"state":"active","ping":41},{"user_id":325,"name":"Sleepy","steam_id":76561198979389459,"connected_time":1562000000000,"state":"active","ping":69},{"user_id":363,"name":"majin_bu50","steam_id":76561198360866936,"connected_time":55000000000,"state":"spawning","ping":141},{"user_id":343,"name":"obama gerald sr.","steam_id":76561198073269122,"connected_time":905000000000,"state":"active","ping":45},{"user_id":331,"name":"mge player no. 232","steam_id":76561198350747953,"connected_time":1201000000000,"state":"active","ping":58},{"user_id":361,"name":"Loud673","steam_id":76561199208323392,"connected_time":170000000000,"state":"active","ping":85},{"user_id":364,"name":"Tags3","steam_id":76561198115926329,"connected_time":42000000000,"state":"active","ping":71},{"user_id":335,"name":"Discourse","steam_id":76561198984286678,"connected_time":1172000000000,"state":"active","ping":71},{"user_id":365,"name":"Top Frog","steam_id":76561198072793446,"connected_time":23000000000,"state":"active","ping":73},{"user_id":285,"name":"Fish","steam_id":76561199258053772,"connected_time":4410000000000,"state":"active","ping":70},{"user_id":345,"name":"I ate all the cheese","steam_id":76561198993205822,"connected_time":897000000000,"state":"active","ping":44},{"user_id":346,"name":"Top Quacker","steam_id":76561198261316128,"connected_time":866000000000,"state":"active","ping":45},{"user_id":356,"name":"Student","steam_id":76561198271697417,"connected_time":315000000000,"state":"active","ping":69},{"user_id":347,"name":"KHALEESI","steam_id":76561198033263810,"connected_time":864000000000,"state":"active","ping":59},{"user_id":359,"name":"pabbott123110","steam_id":76561199231739796,"connected_time":215000000000,"state":"active","ping":114},{"user_id":350,"name":"SmugEngineer","steam_id":76561198057323585,"connected_time":799000000000,"state":"active","ping":135}]},{"server_id":15,"name":"Uncletopia | New York City | 3 | Stopwatch","name_short":"nyc-3","host":"nyc-1.us.uncletopia.com","port":27035,"enabled":true,"region":"us-east","cc":"us","latitude":40.73061,"longitude":-73.93524,"reserved":0,"last_update":"0001-01-01T00:00:00Z","name_a2s":"Uncletopia | New York City | 3 | Stopwatch","protocol":17,"map":"cp_metalworks","folder":"tf","game":"Team Fortress","app_id":440,"player_count":0,"max_players":24,"Bots":0,"server_type":"Dedicated","server_os":"Linux","password":true,"vac":true,"version":"7961495","steam_id":85568392924742820,"keywords":["cp","nocrits","nodmgspread","uncletopia"],"game_id":440,"stv_port":27036,"stv_name":"Uncletopia | New York City | 3 | Stopwatch | STV","players":null},{"server_id":16,"name":"Uncletopia | New York City | 4 | Community","name_short":"nyc-4","host":"nyc-1.us.uncletopia.com","port":27045,"enabled":true,"region":"us-east","cc":"us","latitude":40.73061,"longitude":-73.93524,"reserved":0,"last_update":"0001-01-01T00:00:00Z","name_a2s":"Uncletopia | New York City | 4 | Community","protocol":17,"map":"workshop/pl_cashworks_final1.ugc2904065412","folder":"tf","game":"Team Fortress","app_id":440,"player_count":23,"max_players":24,"Bots":0,"server_type":"Dedicated","server_os":"Linux","password":true,"vac":true,"version":"7961495","steam_id":85568392924742821,"keywords":["nocrits","nodmgspread","payload","uncletopia"],"game_id":440,"stv_port":27046,"stv_name":"Uncletopia | New York City | 4 | Community | STV","players":[{"user_id":68,"name":"Zerwee","steam_id":76561198181368101,"connected_time":2481000000000,"state":"active","ping":139},{"user_id":108,"name":"Olympic Toe Curling","steam_id":76561198433807531,"connected_time":304000000000,"state":"active","ping":69},{"user_id":109,"name":"OrangeShoes","steam_id":76561197971249940,"connected_time":281000000000,"state":"active","ping":77},{"user_id":96,"name":"Jabroni RIP DOOM","steam_id":76561198066385842,"connected_time":1201000000000,"state":"active","ping":119},{"user_id":98,"name":"Cammers","steam_id":76561199121995011,"connected_time":966000000000,"state":"active","ping":65},{"user_id":42,"name":"mild amusement","steam_id":76561198274631806,"connected_time":4092000000000,"state":"active","ping":120},{"user_id":53,"name":".jpg","steam_id":76561198137237377,"connected_time":3051000000000,"state":"active","ping":67},{"user_id":110,"name":"Peepster","steam_id":76561198297854733,"connected_time":263000000000,"state":"active","ping":82},{"user_id":91,"name":"botle","steam_id":76561198141872410,"connected_time":1460000000000,"state":"active","ping":65},{"user_id":86,"name":"soty","steam_id":76561198829285363,"connected_time":1571000000000,"state":"active","ping":132},{"user_id":55,"name":"Berb","steam_id":76561198193911899,"connected_time":2856000000000,"state":"active","ping":86},{"user_id":89,"name":"TrenchcoatCraig","steam_id":76561198295599533,"connected_time":1531000000000,"state":"active","ping":73},{"user_id":99,"name":"Asfedia","steam_id":76561199386836351,"connected_time":915000000000,"state":"active","ping":133},{"user_id":90,"name":"x_x","steam_id":76561198180890982,"connected_time":1530000000000,"state":"active","ping":75},{"user_id":77,"name":"Mr. Call You Back","steam_id":76561198025172811,"connected_time":2188000000000,"state":"active","ping":42},{"user_id":100,"name":"capitalism","steam_id":76561199236781686,"connected_time":821000000000,"state":"active","ping":70},{"user_id":101,"name":"Sean","steam_id":76561199367470003,"connected_time":820000000000,"state":"active","ping":138},{"user_id":95,"name":"Ranger","steam_id":76561198171091281,"connected_time":1377000000000,"state":"active","ping":49},{"user_id":105,"name":"Light","steam_id":76561198010715702,"connected_time":512000000000,"state":"active","ping":127},{"user_id":66,"name":"Transformouse","steam_id":76561198004669368,"connected_time":2515000000000,"state":"active","ping":74},{"user_id":111,"name":"SaddlePatch","steam_id":76561199302872185,"connected_time":244000000000,"state":"active","ping":68},{"user_id":112,"name":"nap time ✿","steam_id":76561198133161028,"connected_time":233000000000,"state":"active","ping":52},{"user_id":102,"name":"Nephi","steam_id":76561198031525122,"connected_time":730000000000,"state":"active","ping":83}]},{"server_id":142,"name":"Uncletopia | São Paulo | 1 | All Maps","name_short":"sao-1","host":"sao-1.br.uncletopia.com","port":27015,"enabled":true,"region":"sa","cc":"br","latitude":-23.533773,"longitude":-46.62529,"reserved":0,"last_update":"0001-01-01T00:00:00Z","name_a2s":"Uncletopia | São Paulo | 1 | All Maps","protocol":17,"map":"koth_lakeside_final","folder":"tf","game":"Team Fortress","app_id":440,"player_count":0,"max_players":24,"Bots":0,"server_type":"Dedicated","server_os":"Linux","password":true,"vac":true,"version":"7961495","steam_id":85568392924469996,"keywords":["cp","nocrits","nodmgspread","uncletopia"],"game_id":440,"stv_port":27016,"stv_name":"Uncletopia | São Paulo | 1 | All Maps | STV","players":null},{"server_id":143,"name":"Uncletopia | São Paulo | 2 | Community","name_short":"sao-2","host":"sao-2.br.uncletopia.com","port":27015,"enabled":true,"region":"sa","cc":"br","latitude":-23.533773,"longitude":-46.62529,"reserved":0,"last_update":"0001-01-01T00:00:00Z","name_a2s":"Uncletopia | São Paulo | 2 | Community","protocol":17,"map":"workshop/cp_kalinka_rc6a.ugc1272700588","folder":"tf","game":"Team Fortress","app_id":440,"player_count":0,"max_players":24,"Bots":0,"server_type":"Dedicated","server_os":"Linux","password":true,"vac":true,"version":"7961495","steam_id":85568392924485349,"keywords":["cp","nocrits","nodmgspread","uncletopia"],"game_id":440,"stv_port":27016,"stv_name":"Uncletopia | São Paulo | 2 | Community | STV","players":null},{"server_id":7,"name":"Uncletopia | Seattle | 1 | All Maps","name_short":"sea-1","host":"sea-1.us.uncletopia.com","port":27015,"enabled":true,"region":"us-west","cc":"us","latitude":47.608013,"longitude":-122.33517,"reserved":0,"last_update":"0001-01-01T00:00:00Z","name_a2s":"Uncletopia | Seattle | 1 | All Maps","protocol":17,"map":"pl_upward","folder":"tf","game":"Team Fortress","app_id":440,"player_count":24,"max_players":24,"Bots":0,"server_type":"Dedicated","server_os":"Linux","password":true,"vac":true,"version":"7961495","steam_id":85568392924469997,"keywords":["nocrits","nodmgspread","payload","uncletopia"],"game_id":440,"stv_port":27016,"stv_name":"Uncletopia | Seattle | 1 | All Maps | STV","players":[{"user_id":272,"name":"Grand","steam_id":76561198290143399,"connected_time":3274000000000,"state":"active","ping":75},{"user_id":275,"name":"Furikuri","steam_id":76561197998277739,"connected_time":2496000000000,"state":"active","ping":31},{"user_id":254,"name":"Level 99 Mudcrab","steam_id":76561198077452771,"connected_time":4615000000000,"state":"active","ping":87},{"user_id":266,"name":"Neptune˖⁺｡˚⋆˙♥","steam_id":76561199054203198,"connected_time":3525000000000,"state":"active","ping":121},{"user_id":292,"name":"Spectre","steam_id":76561198037535169,"connected_time":1029000000000,"state":"active","ping":71},{"user_id":288,"name":"Pyrotek⁴","steam_id":76561198072747672,"connected_time":1587000000000,"state":"active","ping":75},{"user_id":265,"name":"Kc","steam_id":76561198210734407,"connected_time":3609000000000,"state":"active","ping":116},{"user_id":262,"name":"rappsnitchknishe","steam_id":76561198080935428,"connected_time":4334000000000,"state":"active","ping":83},{"user_id":289,"name":"KevinKendrick","steam_id":76561198364706359,"connected_time":1482000000000,"state":"active","ping":54},{"user_id":273,"name":"Truffles","steam_id":76561198095868800,"connected_time":2900000000000,"state":"active","ping":97},{"user_id":251,"name":"Fluffy","steam_id":76561198115952540,"connected_time":4902000000000,"state":"active","ping":44},{"user_id":212,"name":"UserLeft","steam_id":76561197998297379,"connected_time":7777000000000,"state":"active","ping":65},{"user_id":284,"name":"Satori Komeiji","steam_id":76561198158211423,"connected_time":1828000000000,"state":"active","ping":67},{"user_id":296,"name":"Sheev Palpatine","steam_id":76561198252332430,"connected_time":559000000000,"state":"active","ping":54},{"user_id":295,"name":"Potato Knishes","steam_id":76561198063539547,"connected_time":605000000000,"state":"active","ping":45},{"user_id":277,"name":"Chemzo","steam_id":76561199092858118,"connected_time":2469000000000,"state":"active","ping":119},{"user_id":294,"name":"SAP","steam_id":76561198005186905,"connected_time":722000000000,"state":"active","ping":51},{"user_id":297,"name":"Blueyou","steam_id":76561198086516692,"connected_time":554000000000,"state":"active","ping":53},{"user_id":290,"name":"COOL master_9","steam_id":76561198073041151,"connected_time":1217000000000,"state":"active","ping":86},{"user_id":286,"name":"tr","steam_id":76561198046944222,"connected_time":1617000000000,"state":"active","ping":46},{"user_id":287,"name":"rad killl raccoon","steam_id":76561198980975595,"connected_time":1613000000000,"state":"active","ping":52},{"user_id":293,"name":"frank","steam_id":76561198137777483,"connected_time":1016000000000,"state":"active","ping":111},{"user_id":179,"name":"Preston","steam_id":76561198255721392,"connected_time":11820000000000,"state":"active","ping":111},{"user_id":209,"name":"Tom Skirrett","steam_id":76561198014600788,"connected_time":7868000000000,"state":"active","ping":65}]},{"server_id":119,"name":"Uncletopia | Seattle | 2 | All Maps","name_short":"sea-2","host":"sea-1.us.uncletopia.com","port":27025,"enabled":true,"region":"us-west","cc":"us","latitude":47.608013,"longitude":-122.33517,"reserved":0,"last_update":"0001-01-01T00:00:00Z","name_a2s":"Uncletopia | Seattle | 2 | All Maps","protocol":17,"map":"pl_goldrush","folder":"tf","game":"Team Fortress","app_id":440,"player_count":24,"max_players":24,"Bots":0,"server_type":"Dedicated","server_os":"Linux","password":true,"vac":true,"version":"7961495","steam_id":85568392924469998,"keywords":["nocrits","nodmgspread","payload","uncletopia"],"game_id":440,"stv_port":27026,"stv_name":"Uncletopia | Seattle | 2 | All Maps | STV","players":[{"user_id":146,"name":"Keamy","steam_id":76561199471434875,"connected_time":69000000000,"state":"active","ping":36},{"user_id":101,"name":"trav","steam_id":76561198077030486,"connected_time":1915000000000,"state":"active","ping":69},{"user_id":106,"name":"Eevee (She/Her)","steam_id":76561198271393589,"connected_time":1616000000000,"state":"active","ping":67},{"user_id":102,"name":"ExplosiveGoose","steam_id":76561197971562966,"connected_time":1801000000000,"state":"active","ping":71},{"user_id":39,"name":"YoursTruely","steam_id":76561198072129131,"connected_time":6012000000000,"state":"active","ping":72},{"user_id":103,"name":"Mr_Caterpillar07","steam_id":76561198984898901,"connected_time":1790000000000,"state":"active","ping":67},{"user_id":107,"name":"Seriously Bruh","steam_id":76561198070408485,"connected_time":1531000000000,"state":"active","ping":50},{"user_id":134,"name":"CPTforever","steam_id":76561198237767198,"connected_time":744000000000,"state":"active","ping":60},{"user_id":108,"name":"Tornwire","steam_id":76561198219435956,"connected_time":1474000000000,"state":"active","ping":73},{"user_id":144,"name":"Kazoo","steam_id":76561199229748300,"connected_time":215000000000,"state":"active","ping":72},{"user_id":87,"name":"Ven Does Stuff","steam_id":76561198285478526,"connected_time":2708000000000,"state":"active","ping":66},{"user_id":114,"name":"Jarrod","steam_id":76561198992348469,"connected_time":1144000000000,"state":"active","ping":133},{"user_id":128,"name":"Matt","steam_id":76561199473006298,"connected_time":870000000000,"state":"active","ping":112},{"user_id":116,"name":"QUANDALE DINGLE GAMING #SAVE TF","steam_id":76561199285434768,"connected_time":1141000000000,"state":"active","ping":80},{"user_id":117,"name":"Lt. Dan","steam_id":76561199123578119,"connected_time":1135000000000,"state":"active","ping":119},{"user_id":118,"name":"for eel? on cod? no carp?","steam_id":76561198095121758,"connected_time":1074000000000,"state":"active","ping":76},{"user_id":145,"name":"brhm","steam_id":76561198199604767,"connected_time":131000000000,"state":"active","ping":48},{"user_id":120,"name":"how many sins","steam_id":76561198213385439,"connected_time":1058000000000,"state":"active","ping":72},{"user_id":121,"name":"LunchTray ©","steam_id":76561197993337109,"connected_time":1045000000000,"state":"active","ping":56},{"user_id":138,"name":"Forty","steam_id":76561198257410181,"connected_time":687000000000,"state":"active","ping":59},{"user_id":140,"name":"K.A.R.M.A.","steam_id":76561198240750142,"connected_time":577000000000,"state":"active","ping":75},{"user_id":127,"name":"Vex","steam_id":76561197998912393,"connected_time":888000000000,"state":"active","ping":105},{"user_id":139,"name":"Bronotos","steam_id":76561198035935672,"connected_time":643000000000,"state":"active","ping":76},{"user_id":141,"name":"beckeon","steam_id":76561198056474975,"connected_time":555000000000,"state":"active","ping":111}]},{"server_id":406,"name":"Uncletopia | Seattle | 3 | Stopwatch","name_short":"sea-3","host":"sea-1.us.uncletopia.com","port":27035,"enabled":true,"region":"us-west","cc":"us","latitude":47.608013,"longitude":-122.33517,"reserved":0,"last_update":"0001-01-01T00:00:00Z","name_a2s":"Uncletopia | Seattle | 3 | Stopwatch","protocol":17,"map":"workshop/koth_ramjam_rc1.ugc459778887","folder":"tf","game":"Team Fortress","app_id":440,"player_count":0,"max_players":24,"Bots":0,"server_type":"Dedicated","server_os":"Linux","password":true,"vac":true,"version":"7961495","steam_id":85568392924515217,"keywords":["cp","nocrits","nodmgspread","uncletopia"],"game_id":440,"stv_port":27036,"stv_name":"Uncletopia | Seattle | 3 | Stopwatch | STV","players":null},{"server_id":17,"name":"Uncletopia | San Francisco | 1 | All Maps","name_short":"sfo-1","host":"sfo-1.us.uncletopia.com","port":27015,"enabled":true,"region":"us-west","cc":"us","latitude":37.77397,"longitude":-122.4313,"reserved":0,"last_update":"0001-01-01T00:00:00Z","name_a2s":"Uncletopia | San Francisco | 1 | All Maps","protocol":17,"map":"cp_dustbowl","folder":"tf","game":"Team Fortress","app_id":440,"player_count":23,"max_players":24,"Bots":0,"server_type":"Dedicated","server_os":"Linux","password":true,"vac":true,"version":"7961495","steam_id":85568392924469999,"keywords":["cp","nocrits","nodmgspread","uncletopia"],"game_id":440,"stv_port":27016,"stv_name":"Uncletopia | San Francisco | 1 | All Maps | STV","players":[{"user_id":77,"name":"darkelaine227","steam_id":76561198097330521,"connected_time":1873000000000,"state":"active","ping":110},{"user_id":60,"name":"FumoFriend","steam_id":76561199013167718,"connected_time":3145000000000,"state":"active","ping":116},{"user_id":64,"name":"Blue Banana","steam_id":76561198100077411,"connected_time":2750000000000,"state":"active","ping":52},{"user_id":25,"name":"omnislime","steam_id":76561199382475668,"connected_time":5406000000000,"state":"active","ping":100},{"user_id":78,"name":"Wendigo","steam_id":76561197994528974,"connected_time":1863000000000,"state":"active","ping":94},{"user_id":52,"name":"Varkrul","steam_id":76561198079657157,"connected_time":3646000000000,"state":"active","ping":52},{"user_id":63,"name":"Birby","steam_id":76561198884009768,"connected_time":2765000000000,"state":"active","ping":57},{"user_id":95,"name":"Radio","steam_id":76561198194821053,"connected_time":119000000000,"state":"active","ping":71},{"user_id":87,"name":"Frank","steam_id":76561198428759980,"connected_time":942000000000,"state":"active","ping":58},{"user_id":93,"name":"bogdagod","steam_id":76561198286968297,"connected_time":155000000000,"state":"active","ping":61},{"user_id":79,"name":"Thequirka","steam_id":76561198968058652,"connected_time":1836000000000,"state":"active","ping":70},{"user_id":57,"name":"Meekz","steam_id":76561198012562373,"connected_time":3326000000000,"state":"active","ping":69},{"user_id":90,"name":"1-800-CLUNGE-DUMPSTER","steam_id":76561198059780866,"connected_time":404000000000,"state":"active","ping":113},{"user_id":40,"name":"Jaidezt","steam_id":76561197972613110,"connected_time":3976000000000,"state":"active","ping":73},{"user_id":75,"name":"Funkmaster yee","steam_id":76561198037738918,"connected_time":1913000000000,"state":"active","ping":61},{"user_id":91,"name":"紅鬍子","steam_id":76561198072410042,"connected_time":306000000000,"state":"active","ping":57},{"user_id":88,"name":"Leo x.x","steam_id":76561198309760791,"connected_time":541000000000,"state":"active","ping":116},{"user_id":44,"name":"shreklover69","steam_id":76561198054070811,"connected_time":3872000000000,"state":"active","ping":60},{"user_id":80,"name":"Specter the Unchained","steam_id":76561198348354629,"connected_time":1821000000000,"state":"active","ping":61},{"user_id":92,"name":"doll","steam_id":76561198131833567,"connected_time":195000000000,"state":"active","ping":101},{"user_id":83,"name":"Yurei","steam_id":76561198088750661,"connected_time":1719000000000,"state":"active","ping":57},{"user_id":49,"name":"᲼᲼᲼","steam_id":76561198845246815,"connected_time":3816000000000,"state":"active","ping":61},{"user_id":84,"name":"Master Of Whales","steam_id":76561198349104889,"connected_time":1717000000000,"state":"active","ping":64}]},{"server_id":18,"name":"Uncletopia | San Francisco | 2 | All Maps","name_short":"sfo-2","host":"sfo-1.us.uncletopia.com","port":27025,"enabled":true,"region":"us-west","cc":"us","latitude":37.77397,"longitude":-122.4313,"reserved":0,"last_update":"0001-01-01T00:00:00Z","name_a2s":"Uncletopia | San Francisco | 2 | All Maps","protocol":17,"map":"pl_frontier_final","folder":"tf","game":"Team Fortress","app_id":440,"player_count":0,"max_players":24,"Bots":0,"server_type":"Dedicated","server_os":"Linux","password":true,"vac":true,"version":"7961495","steam_id":85568392924470000,"keywords":["nocrits","nodmgspread","payload","uncletopia"],"game_id":440,"stv_port":27026,"stv_name":"Uncletopia | San Francisco | 2 | All Maps | STV","players":null},{"server_id":19,"name":"Uncletopia | San Francisco | 3 | Stopwatch","name_short":"sfo-3","host":"sfo-1.us.uncletopia.com","port":27035,"enabled":true,"region":"us-west","cc":"us","latitude":37.77397,"longitude":-122.4313,"reserved":0,"last_update":"0001-01-01T00:00:00Z","name_a2s":"Uncletopia | San Francisco | 3 | Stopwatch","protocol":17,"map":"pl_pier","folder":"tf","game":"Team Fortress","app_id":440,"player_count":0,"max_players":24,"Bots":0,"server_type":"Dedicated","server_os":"Linux","password":true,"vac":true,"version":"7961495","steam_id":85568392924742824,"keywords":["nocrits","nodmgspread","payload","uncletopia"],"game_id":440,"stv_port":27036,"stv_name":"Uncletopia | San Francisco | 3 | Stopwatch | STV","players":null},{"server_id":20,"name":"Uncletopia | San Francisco | 4 | Community","name_short":"sfo-4","host":"sfo-1.us.uncletopia.com","port":27045,"enabled":true,"region":"us-west","cc":"us","latitude":37.77397,"longitude":-122.4313,"reserved":0,"last_update":"0001-01-01T00:00:00Z","name_a2s":"Uncletopia | San Francisco | 4 | Community","protocol":17,"map":"pl_pier","folder":"tf","game":"Team Fortress","app_id":440,"player_count":0,"max_players":24,"Bots":0,"server_type":"Dedicated","server_os":"Linux","password":true,"vac":true,"version":"7961495","steam_id":85568392924742826,"keywords":["nocrits","nodmgspread","payload","uncletopia"],"game_id":440,"stv_port":27046,"stv_name":"Uncletopia | San Francisco | 4 | Community | STV","players":null},{"server_id":141,"name":"Uncletopia | Sydney | 1 | All Maps","name_short":"syd-1","host":"syd-1.au.uncletopia.com","port":27015,"enabled":true,"region":"au","cc":"au","latitude":-33.865143,"longitude":151.2099,"reserved":0,"last_update":"0001-01-01T00:00:00Z","name_a2s":"Uncletopia | Sydney | 1 | All Maps","protocol":17,"map":"koth_viaduct","folder":"tf","game":"Team Fortress","app_id":440,"player_count":0,"max_players":24,"Bots":0,"server_type":"Dedicated","server_os":"Linux","password":true,"vac":true,"version":"7961495","steam_id":85568392924470001,"keywords":["cp","nocrits","nodmgspread","uncletopia"],"game_id":440,"stv_port":27016,"stv_name":"Uncletopia | Sydney | 1 | All Maps | STV","players":null},{"server_id":123,"name":"Uncletopia | Sydney | 2 | All Maps","name_short":"syd-2","host":"syd-1.au.uncletopia.com","port":27025,"enabled":true,"region":"au","cc":"au","latitude":-33.865143,"longitude":151.2099,"reserved":0,"last_update":"0001-01-01T00:00:00Z","name_a2s":"Uncletopia | Sydney | 2 | All Maps","protocol":17,"map":"koth_lakeside_final","folder":"tf","game":"Team Fortress","app_id":440,"player_count":0,"max_players":24,"Bots":0,"server_type":"Dedicated","server_os":"Linux","password":true,"vac":true,"version":"7961495","steam_id":85568392924470002,"keywords":["cp","nocrits","nodmgspread","uncletopia"],"game_id":440,"stv_port":27026,"stv_name":"Uncletopia | Sydney | 2 | All Maps | STV","players":null},{"server_id":395,"name":"Uncletopia | Sydney | 3 | All Maps","name_short":"syd-3","host":"syd-1.au.uncletopia.com","port":27035,"enabled":true,"region":"au","cc":"au","latitude":-33.865143,"longitude":151.2099,"reserved":0,"last_update":"0001-01-01T00:00:00Z","name_a2s":"Uncletopia | Sydney | 3 | All Maps","protocol":17,"map":"pl_frontier_final","folder":"tf","game":"Team Fortress","app_id":440,"player_count":0,"max_players":24,"Bots":0,"server_type":"Dedicated","server_os":"Linux","password":true,"vac":true,"version":"7961495","steam_id":85568392925194467,"keywords":["nocrits","nodmgspread","payload","uncletopia"],"game_id":440,"stv_port":27036,"stv_name":"Uncletopia | Sydney | 3 | All Maps | STV","players":null},{"server_id":396,"name":"Uncletopia | Sydney | 4 | All Maps","name_short":"syd-4","host":"syd-1.au.uncletopia.com","port":27045,"enabled":true,"region":"au","cc":"au","latitude":-33.865143,"longitude":151.2099,"reserved":0,"last_update":"0001-01-01T00:00:00Z","name_a2s":"Uncletopia | Sydney | 4 | All Maps","protocol":17,"map":"cp_process_final","folder":"tf","game":"Team Fortress","app_id":440,"player_count":0,"max_players":24,"Bots":0,"server_type":"Dedicated","server_os":"Linux","password":true,"vac":true,"version":"7961495","steam_id":85568392925397958,"keywords":["cp","nocrits","nodmgspread","uncletopia"],"game_id":440,"stv_port":27046,"stv_name":"Uncletopia | Sydney | 4 | All Maps | STV","players":null},{"server_id":58,"name":"Uncletopia | Sydney | 5 | Stopwatch","name_short":"syd-5","host":"syd-1.au.uncletopia.com","port":27055,"enabled":true,"region":"au","cc":"au","latitude":-33.865143,"longitude":151.2099,"reserved":0,"last_update":"0001-01-01T00:00:00Z","name_a2s":"Uncletopia | Sydney | 5 | Stopwatch","protocol":17,"map":"pl_frontier_final","folder":"tf","game":"Team Fortress","app_id":440,"player_count":0,"max_players":24,"Bots":0,"server_type":"Dedicated","server_os":"Linux","password":true,"vac":true,"version":"7961495","steam_id":85568392925397959,"keywords":["nocrits","nodmgspread","payload","uncletopia"],"game_id":440,"stv_port":27056,"stv_name":"Uncletopia | Sydney | 5 | Stopwatch | STV","players":null},{"server_id":59,"name":"Uncletopia | Sydney | 6 | Community","name_short":"syd-6","host":"syd-1.au.uncletopia.com","port":27065,"enabled":true,"region":"au","cc":"au","latitude":-33.865143,"longitude":151.2099,"reserved":0,"last_update":"0001-01-01T00:00:00Z","name_a2s":"Uncletopia | Sydney | 6 | Community","protocol":17,"map":"cp_sunshine","folder":"tf","game":"Team Fortress","app_id":440,"player_count":0,"max_players":24,"Bots":0,"server_type":"Dedicated","server_os":"Linux","password":true,"vac":true,"version":"7961495","steam_id":85568392925397960,"keywords":["cp","nocrits","nodmgspread","uncletopia"],"game_id":440,"stv_port":27066,"stv_name":"Uncletopia | Sydney | 6 | Community | STV","players":null},{"server_id":49,"name":"Uncletopia | Warsaw | 1 | One Thousand Uncles","name_short":"waw-1","host":"waw-1.pl.uncletopia.com","port":27015,"enabled":true,"region":"eu","cc":"pl","latitude":52.2297,"longitude":21.017532,"reserved":0,"last_update":"0001-01-01T00:00:00Z","name_a2s":"Uncletopia | Warsaw | 1 | One Thousand Uncles","protocol":17,"map":"cp_mercenarypark","folder":"tf","game":"Team Fortress","app_id":440,"player_count":23,"max_players":32,"Bots":16,"server_type":"Dedicated","server_os":"Linux","password":true,"vac":true,"version":"7961495","steam_id":85568392925397850,"keywords":["alltalk","bots","cp","danepve","increased_maxplayers","nocrits","norespawntime","uncletopia"],"game_id":440,"stv_port":0,"stv_name":"","players":[{"user_id":551,"name":"( ͠° ͟ʖ ͡°)","steam_id":76561199362861027,"connected_time":2934000000000,"state":"active","ping":311},{"user_id":595,"name":"[SQ UA] MartianDill","steam_id":76561198405382822,"connected_time":233000000000,"state":"active","ping":55},{"user_id":594,"name":"Yellowtt","steam_id":76561198374834340,"connected_time":494000000000,"state":"active","ping":62},{"user_id":576,"name":"Scientific Triumph","steam_id":76561198815127418,"connected_time":792000000000,"state":"active","ping":91},{"user_id":555,"name":"Samuel L. Jackson","steam_id":76561198130427881,"connected_time":2442000000000,"state":"active","ping":188},{"user_id":575,"name":"ThinkOfAName","steam_id":76561199235591578,"connected_time":932000000000,"state":"active","ping":139},{"user_id":566,"name":"mr.sans","steam_id":76561199204934004,"connected_time":1621000000000,"state":"active","ping":63}]},{"server_id":50,"name":"Uncletopia | Warsaw | 2 | One Thousand Uncles","name_short":"waw-2","host":"waw-1.pl.uncletopia.com","port":27025,"enabled":true,"region":"eu","cc":"pl","latitude":52.2297,"longitude":21.017532,"reserved":0,"last_update":"0001-01-01T00:00:00Z","name_a2s":"Uncletopia | Warsaw | 2 | One Thousand Uncles","protocol":17,"map":"pl_goldrush","folder":"tf","game":"Team Fortress","app_id":440,"player_count":24,"max_players":32,"Bots":16,"server_type":"Dedicated","server_os":"Linux","password":true,"vac":true,"version":"7961495","steam_id":85568392925397851,"keywords":["alltalk","bots","danepve","increased_maxplayers","nocrits","norespawntime","payload","uncletopia"],"game_id":440,"stv_port":0,"stv_name":"","players":[{"user_id":63,"name":"o_o","steam_id":76561198113045011,"connected_time":1939000000000,"state":"active","ping":105},{"user_id":57,"name":"Jared_1120","steam_id":76561199497190226,"connected_time":3253000000000,"state":"active","ping":91},{"user_id":34,"name":"heheboi","steam_id":76561198866196217,"connected_time":7650000000000,"state":"active","ping":89},{"user_id":64,"name":"Claw","steam_id":76561198060985181,"connected_time":1654000000000,"state":"active","ping":90},{"user_id":75,"name":"Kiryu Kazuma","steam_id":76561198107057366,"connected_time":212000000000,"state":"active","ping":89},{"user_id":76,"name":"Ceo Of Cart Ride Games","steam_id":76561199020640376,"connected_time":201000000000,"state":"active","ping":175},{"user_id":77,"name":"Marianek","steam_id":76561198959634131,"connected_time":112000000000,"state":"active","ping":54},{"user_id":69,"name":"Sephiroth","steam_id":76561198390935635,"connected_time":1345000000000,"state":"active","ping":176}]},{"server_id":51,"name":"Uncletopia | Warsaw | 3 | All Maps","name_short":"waw-3","host":"waw-1.pl.uncletopia.com","port":27035,"enabled":true,"region":"eu","cc":"pl","latitude":52.2297,"longitude":21.017532,"reserved":0,"last_update":"0001-01-01T00:00:00Z","name_a2s":"Uncletopia | Warsaw | 3 | All Maps","protocol":17,"map":"koth_highpass","folder":"tf","game":"Team Fortress","app_id":440,"player_count":22,"max_players":24,"Bots":0,"server_type":"Dedicated","server_os":"Linux","password":true,"vac":true,"version":"7961495","steam_id":85568392925397852,"keywords":["cp","nocrits","nodmgspread","uncletopia"],"game_id":440,"stv_port":27036,"stv_name":"Uncletopia | Warsaw | 3 | All Maps | STV","players":[{"user_id":240,"name":"Masster","steam_id":76561198136111053,"connected_time":1476000000000,"state":"active","ping":49},{"user_id":255,"name":"dAtathefe","steam_id":76561199014883248,"connected_time":325000000000,"state":"active","ping":104},{"user_id":232,"name":"Skippi","steam_id":76561198059418167,"connected_time":1971000000000,"state":"active","ping":45},{"user_id":254,"name":"tj","steam_id":76561198043888874,"connected_time":403000000000,"state":"active","ping":91},{"user_id":234,"name":"Hydra","steam_id":76561198140307206,"connected_time":1933000000000,"state":"active","ping":45},{"user_id":218,"name":"f4f_cricket","steam_id":76561197985879993,"connected_time":2992000000000,"state":"active","ping":102},{"user_id":182,"name":"amongus2117","steam_id":76561199491841052,"connected_time":5114000000000,"state":"active","ping":60},{"user_id":256,"name":"Mr.MemeMaker","steam_id":76561198909088766,"connected_time":228000000000,"state":"active","ping":59},{"user_id":236,"name":"Panlino","steam_id":76561198385889875,"connected_time":1868000000000,"state":"active","ping":33},{"user_id":227,"name":"M2rtRa","steam_id":76561198111036466,"connected_time":2361000000000,"state":"active","ping":82},{"user_id":248,"name":"Janos","steam_id":76561198087794344,"connected_time":724000000000,"state":"active","ping":104},{"user_id":202,"name":"Arinn","steam_id":76561198883765736,"connected_time":3873000000000,"state":"active","ping":38},{"user_id":249,"name":"The Fat Rat Man","steam_id":76561198110207147,"connected_time":664000000000,"state":"active","ping":56},{"user_id":245,"name":"Twinkis","steam_id":76561199081527416,"connected_time":1110000000000,"state":"active","ping":79},{"user_id":257,"name":"Ye","steam_id":76561198354719262,"connected_time":96000000000,"state":"active","ping":74},{"user_id":246,"name":"Waffles","steam_id":76561199086942763,"connected_time":1077000000000,"state":"active","ping":98},{"user_id":228,"name":"Bounty","steam_id":76561198032698137,"connected_time":2196000000000,"state":"active","ping":44},{"user_id":258,"name":"Knapka","steam_id":76561198090422767,"connected_time":56000000000,"state":"active","ping":42},{"user_id":172,"name":"Mario","steam_id":76561198053838936,"connected_time":5393000000000,"state":"active","ping":96},{"user_id":237,"name":"Pandamonium","steam_id":76561198057725524,"connected_time":1812000000000,"state":"active","ping":75},{"user_id":226,"name":"Mr.Cupcake","steam_id":76561198152711174,"connected_time":2412000000000,"state":"active","ping":38},{"user_id":239,"name":"install gentoo","steam_id":76561198185257982,"connected_time":1763000000000,"state":"active","ping":83}]},{"server_id":52,"name":"Uncletopia | Warsaw | 4 | All Maps","name_short":"waw-4","host":"waw-1.pl.uncletopia.com","port":27045,"enabled":true,"region":"eu","cc":"pl","latitude":52.2297,"longitude":21.017532,"reserved":0,"last_update":"0001-01-01T00:00:00Z","name_a2s":"Uncletopia | Warsaw | 4 | All Maps","protocol":17,"map":"cp_dustbowl","folder":"tf","game":"Team Fortress","app_id":440,"player_count":22,"max_players":24,"Bots":0,"server_type":"Dedicated","server_os":"Linux","password":true,"vac":true,"version":"7961495","steam_id":85568392925397853,"keywords":["cp","nocrits","nodmgspread","uncletopia"],"game_id":440,"stv_port":27046,"stv_name":"Uncletopia | Warsaw | 4 | All Maps | STV","players":[{"user_id":66,"name":"Serg","steam_id":76561198218959001,"connected_time":1408000000000,"state":"active","ping":45},{"user_id":67,"name":"Armethe_","steam_id":76561198335574878,"connected_time":1393000000000,"state":"active","ping":67},{"user_id":68,"name":"betssiowieczka","steam_id":76561198324544712,"connected_time":1343000000000,"state":"active","ping":50},{"user_id":71,"name":"♦nudzeku♦","steam_id":76561199196336940,"connected_time":1000000000000,"state":"active","ping":84},{"user_id":70,"name":"zwyklyktos","steam_id":76561198843561951,"connected_time":1279000000000,"state":"active","ping":45},{"user_id":72,"name":"Kiwi","steam_id":76561198973862092,"connected_time":839000000000,"state":"active","ping":56},{"user_id":73,"name":"pajakala","steam_id":76561198271641525,"connected_time":833000000000,"state":"active","ping":62},{"user_id":74,"name":"Wesnicak CZ","steam_id":76561198124483688,"connected_time":828000000000,"state":"active","ping":53},{"user_id":75,"name":"Cikula","steam_id":76561198324384778,"connected_time":824000000000,"state":"active","ping":60},{"user_id":76,"name":"Девид Блейн","steam_id":76561198167049198,"connected_time":761000000000,"state":"active","ping":48},{"user_id":77,"name":"Mabert","steam_id":76561198436058407,"connected_time":621000000000,"state":"active","ping":47},{"user_id":78,"name":"Shinru","steam_id":76561198285951918,"connected_time":613000000000,"state":"active","ping":49},{"user_id":79,"name":"ashi","steam_id":76561198424646794,"connected_time":604000000000,"state":"active","ping":75},{"user_id":80,"name":"ιℓуαяѕℓαν","steam_id":76561198352696821,"connected_time":604000000000,"state":"active","ping":50},{"user_id":81,"name":"Nightborn56","steam_id":76561199486593909,"connected_time":262000000000,"state":"active","ping":166},{"user_id":85,"name":"Favbet ua","steam_id":76561198273199378,"connected_time":113000000000,"state":"active","ping":44},{"user_id":83,"name":"akela","steam_id":76561198122010232,"connected_time":187000000000,"state":"active","ping":48},{"user_id":86,"name":"Akisян","steam_id":76561198078706435,"connected_time":94000000000,"state":"active","ping":53},{"user_id":87,"name":"Spieller","steam_id":76561198057197847,"connected_time":91000000000,"state":"active","ping":59},{"user_id":88,"name":"tankash.","steam_id":76561198802018257,"connected_time":90000000000,"state":"active","ping":119},{"user_id":89,"name":"Futatsuiwa Mamizou","steam_id":76561198799303596,"connected_time":51000000000,"state":"active","ping":84},{"user_id":90,"name":"irritable vowel syndrome","steam_id":76561198117033273,"connected_time":23000000000,"state":"active","ping":78}]},{"server_id":53,"name":"Uncletopia | Warsaw | 5 | Stopwatch","name_short":"waw-5","host":"waw-1.pl.uncletopia.com","port":27055,"enabled":true,"region":"eu","cc":"pl","latitude":52.2297,"longitude":21.017532,"reserved":0,"last_update":"0001-01-01T00:00:00Z","name_a2s":"Uncletopia | Warsaw | 5 | Stopwatch","protocol":17,"map":"pl_swiftwater_final1","folder":"tf","game":"Team Fortress","app_id":440,"player_count":0,"max_players":24,"Bots":0,"server_type":"Dedicated","server_os":"Linux","password":true,"vac":true,"version":"7961495","steam_id":85568392925397854,"keywords":["nocrits","nodmgspread","payload","uncletopia"],"game_id":440,"stv_port":27056,"stv_name":"Uncletopia | Warsaw | 5 | Stopwatch | STV","players":null},{"server_id":54,"name":"Uncletopia | Warsaw | 6 | Community","name_short":"waw-6","host":"waw-1.pl.uncletopia.com","port":27065,"enabled":true,"region":"eu","cc":"pl","latitude":52.2297,"longitude":21.017532,"reserved":0,"last_update":"0001-01-01T00:00:00Z","name_a2s":"Uncletopia | Warsaw | 6 | Community","protocol":17,"map":"workshop/koth_kemptown_rc1.ugc767410655","folder":"tf","game":"Team Fortress","app_id":440,"player_count":0,"max_players":24,"Bots":0,"server_type":"Dedicated","server_os":"Linux","password":true,"vac":true,"version":"7961495","steam_id":85568392925397856,"keywords":["cp","nocrits","nodmgspread","uncletopia"],"game_id":440,"stv_port":27066,"stv_name":"Uncletopia | Warsaw | 6 | Community | STV","players":null}]}