{"status":true,"message":"","result":[{"server_id":9,"name":"Uncletopia | Atlanta | 1 | All Maps","name_short":"atl-1","host":"atl-1.us.uncletopia.com","port":27015,"enabled":true,"region":"us-east","cc":"us","latitude":33.753746,"longitude":-84.38633,"reserved":0,"last_update":"0001-01-01T00:00:00Z","name_a2s":"Uncletopia | Atlanta | 1 | All Maps","protocol":17,"map":"pl_swiftwater_final1","folder":"tf","game":"Team Fortress","app_id":440,"player_count":24,"max_players":24,"Bots":0,"server_type":"Dedicated","server_os":"Linux","password":true,"vac":true,"version":"7961495","steam_id":85568392924469982,"keywords":["nocrits","nodmgspread","payload","uncletopia"],"game_id":440,"stv_port":27016,"stv_name":"Uncletopia | Atlanta | 1 | All Maps | STV","players":null},{"server_id":104,"name":"Uncletopia | Atlanta | 2 | All Maps","name_short":"atl-2","host":"atl-1.us.uncletopia.com","port":27025,"enabled":true,"region":"us-east","cc":"us","latitude":33.753746,"longitude":-84.38633,"reserved":0,"last_update":"0001-01-01T00:00:00Z","name_a2s":"Uncletopia | Atlanta | 2 | All Maps","protocol":17,"map":"koth_sawmill","folder":"tf","game":"Team Fortress","app_id":440,"player_count":0,"max_players":24,"Bots":0,"server_type":"Dedicated","server_os":"Linux","password":true,"vac":true,"version":"7961495","steam_id":85568392924469983,"keywords":["cp","nocrits","nodmgspread","uncletopia"],"game_id":440,"stv_port":27026,"stv_name":"Uncletopia | Atlanta | 2 | All Maps | STV","players":null},{"server_id":400,"name":"Uncletopia | Atlanta | 3 | Stopwatch","name_short":"atl-3","host":"atl-1.us.uncletopia.com","port":27035,"enabled":true,"region":"us-east","cc":"us","latitude":33.753746,"longitude":-84.38633,"reserved":0,"last_update":"0001-01-01T00:00:00Z","name_a2s":"Uncletopia | Atlanta | 3 | Stopwatch","protocol":17,"map":"cp_metalworks","folder":"tf","game":"Team Fortress","app_id":440,"player_count":0,"max_players":24,"Bots":0,"server_type":"Dedicated","server_os":"Linux","password":true,"vac":true,"version":"7961495","steam_id":85568392924515187,"keywords":["cp","nocrits","nodmgspread","uncletopia"],"game_id":440,"stv_port":27036,"stv_name":"Uncletopia | Atlanta | 3 | Stopwatch | STV","players":null},{"server_id":401,"name":"Uncletopia | Atlanta | 4 | Community","name_short":"atl-4","host":"atl-1.us.uncletopia.com","port":27045,"enabled":true,"region":"us-east","cc":"us","latitude":33.753746,"longitude":-84.38633,"reserved":0,"last_update":"0001-01-01T00:00:00Z","name_a2s":"Uncletopia | Atlanta | 4 | Community","protocol":17,"map":"pl_boundary_final1","folder":"tf","game":"Team Fortress","app_id":440,"player_count":19,"max_players":24,"Bots":0,"server_type":"Dedicated","server_os":"Linux","password":true,"vac":true,"version":"7961495","steam_id":85568392924515188,"keywords":["nocrits","nodmgspread","payload","uncletopia"],"game_id":440,"stv_port":27046,"stv_name":"Uncletopia | Atlanta | 4 | Community | STV","players":null},{"server_id":2,"name":"Uncletopia | Chicago | 1 | All Maps","name_short":"chi-1","host":"chi-1.us.uncletopia.com","port":27015,"enabled":true,"region":"us-central","cc":"us","latitude":41.881832,"longitude":-87.62318,"reserved":0,"last_update":"0001-01-01T00:00:00Z","name_a2s":"Uncletopia | Chicago | 1 | All Maps","protocol":17,"map":"pl_barnblitz","folder":"tf","game":"Team Fortress","app_id":440,"player_count":25,"max_players":24,"Bots":0,"server_type":"Dedicated","server_os":"Linux","password":true,"vac":true,"version":"7961495","steam_id":85568392924469984,"keywords":["nocrits","nodmgspread","payload","uncletopia"],"game_id":440,"stv_port":27016,"stv_name":"Uncletopia | Chicago | 1 | All Maps | STV","players":[{"user_id":689,"name":"GPG hannah1","steam_id":76561198094801861,"connected_time":382000000000,"state":"active","ping":62},{"user_id":686,"name":"Worst Scenario","steam_id":76561199052130229,"connected_time":1052000000000,"state":"active","ping":55},{"user_id":697,"name":"ToroKe","steam_id":76561198078873266,"connected_time":186000000000,"state":"active","ping":93},{"user_id":681,"name":"hej","steam_id":76561198110530761,"connected_time":1449000000000,"state":"active","ping":136},{"user_id":639,"name":"only a spoonful","steam_id":76561198113180616,"connected_time":4697000000000,"state":"active","ping":68},{"user_id":590,"name":"Praise_to_the_Flashlight!","steam_id":76561199001728789,"connected_time":10178000000000,"state":"active","ping":66},{"user_id":691,"name":"KOI BOY","steam_id":76561198402739250,"connected_time":316000000000,"state":"active","ping":81},{"user_id":688,"name":"rando","steam_id":76561197982325629,"connected_time":757000000000,"state":"active","ping":74},{"user_id":684,"name":"Arthur SSJ2","steam_id":76561198043678479,"connected_time":1181000000000,"state":"active","ping":52},{"user_id":601,"name":"Bearegard","steam_id":76561198061926542,"connected_time":9386000000000,"state":"active","ping":68},{"user_id":664,"name":"Cdesmondd","steam_id":76561198072774462,"connected_time":3393000000000,"state":"active","ping":57},{"user_id":642,"name":"tiefling lesbian","steam_id":76561198162998471,"connected_time":4674000000000,"state":"active","ping":77},{"user_id":692,"name":"exten-z","steam_id":76561198004359190,"connected_time":311000000000,"state":"active","ping":60},{"user_id":552,"name":"Khaicchi ♥","steam_id":76561198104454754,"connected_time":12737000000000,"state":"active","ping":176},{"user_id":693,"name":"SteveC","steam_id":76561197994786195,"connected_time":306000000000,"state":"active","ping":63},{"user_id":660,"name":"atomic clarence","steam_id":76561198156538484,"connected_time":3508000000000,"state":"active","ping":82},{"user_id":656,"name":"MungJR","steam_id":76561198078316612,"connected_time":4135000000000,"state":"active","ping":167},{"user_id":661,"name":"ComputeCore167","steam_id":76561198301250353,"connected_time":3501000000000,"state":"active","ping":70},{"user_id":683,"name":"Zeebop","steam_id":76561198148332988,"connected_time":1207000000000,"state":"active","ping":55},{"user_id":685,"name":"Maurdakar","steam_id":76561197983420976,"connected_time":1144000000000,"state":"active","ping":63},{"user_id":680,"name":"loser","steam_id":76561198259380127,"connected_time":2046000000000,"state":"active","ping":60},{"user_id":696,"name":"alvöru","steam_id":76561198273488925,"connected_time":244000000000,"state":"active","ping":91},{"user_id":705,"name":"cormi","steam_id":76561198262061568,"connected_time":0,"state":"spawning","ping":46},{"user_id":672,"name":"Bookmenot","steam_id":76561198153442084,"connected_time":2698000000000,"state":"active","ping":53},{"user_id":673,"name":"shadow wizard money gang","steam_id":76561198871530383,"connected_time":2697000000000,"state":"active","ping":54}]},{"server_id":106,"name":"Uncletopia | Chicago | 2 | All Maps","name_short":"chi-2","host":"chi-1.us.uncletopia.com","port":27025,"enabled":true,"region":"us-central","cc":"us","latitude":41.881832,"longitude":-87.62318,"reserved":0,"last_update":"0001-01-01T00:00:00Z","name_a2s":"Uncletopia | Chicago | 2 | All Maps","protocol":17,"map":"pl_snowycoast","folder":"tf","game":"Team Fortress","app_id":440,"player_count":24,"max_players":24,"Bots":0,"server_type":"Dedicated","server_os":"Linux","password":true,"vac":true,"version":"7961495","steam_id":85568392924469985,"keywords":["nocrits","nodmgspread","payload","uncletopia"],"game_id":440,"stv_port":27026,"stv_name":"Uncletopia | Chicago | 2 | All Maps | STV","players":[{"user_id":629,"name":"stuffedidiot","steam_id":76561199181513019,"connected_time":1453000000000,"state":"active","ping":106},{"user_id":647,"name":"Full Throttle Alzheimer's","steam_id":76561198070591328,"connected_time":1057000000000,"state":"active","ping":55},{"user_id":657,"name":"JoJoJo","steam_id":76561198067153390,"connected_time":21000000000,"state":"active","ping":54},{"user_id":631,"name":"ward","steam_id":76561198134667434,"connected_time":1417000000000,"state":"active","ping":44},{"user_id":632,"name":"WalrusNyetheBonkGuy","steam_id":76561197995626774,"connected_time":1413000000000,"state":"active","ping":107},{"user_id":604,"name":"Jezzus","steam_id":76561199289676387,"connected_time":3553000000000,"state":"active","ping":82},{"user_id":586,"name":"Citizen⁵","steam_id":76561198053856640,"connected_time":6031000000000,"state":"active","ping":70},{"user_id":633,"name":"DinosaurBeard100","steam_id":76561198122256369,"connected_time":1410000000000,"state":"active","ping":73},{"user_id":651,"name":"Jones","steam_id":76561198046037216,"connected_time":522000000000,"state":"active","ping":83},{"user_id":625,"name":"self sufficient kitten","steam_id":76561197960592612,"connected_time":2182000000000,"state":"active","ping":124},{"user_id":652,"name":"NFT(non functioning testicle)","steam_id":76561198092435966,"connected_time":512000000000,"state":"active","ping":60},{"user_id":635,"name":"RED BALLOON PARANOIA","steam_id":76561198070136627,"connected_time":1378000000000,"state":"active","ping":94},{"user_id":607,"name":"BlueCrue","steam_id":76561198066698869,"connected_time":3525000000000,"state":"active","ping":66},{"user_id":649,"name":"dookiemonster33","steam_id":76561198979494052,"connected_time":570000000000,"state":"active","ping":94},{"user_id":653,"name":"Terror","steam_id":76561198188685728,"connected_time":498000000000,"state":"active","ping":46},{"user_id":609,"name":"❤ Ashley ❤","steam_id":76561198056428303,"connected_time":3521000000000,"state":"active","ping":105},{"user_id":626,"name":"TÖZI","steam_id":76561198045268695,"connected_time":2181000000000,"state":"active","ping":91},{"user_id":655,"name":"ProxyRoxy","steam_id":76561198120936328,"connected_time":302000000000,"state":"active","ping":78},{"user_id":621,"name":"Crisp","steam_id":76561198132644084,"connected_time":2473000000000,"state":"active","ping":72},{"user_id":656,"name":"Icarus","steam_id":76561198180484659,"connected_time":298000000000,"state":"active","ping":78},{"user_id":650,"name":"Captain Zyrin","steam_id":76561197983121824,"connected_time":565000000000,"state":"active","ping":75},{"user_id":638,"name":"DonoC","steam_id":76561198274473338,"connected_time":1321000000000,"state":"active","ping":85},{"user_id":642,"name":"milk vibes","steam_id":76561198036753164,"connected_time":1223000000000,"state":"active","ping":60},{"user_id":611,"name":"Raccoon Wizard","steam_id":76561198072562591,"connected_time":3508000000000,"state":"active","ping":90}]},{"server_id":402,"name":"Uncletopia | Chicago | 3 | All Maps","name_short":"chi-3","host":"chi-1.us.uncletopia.com","port":27035,"enabled":true,"region":"us-central","cc":"us","latitude":41.881832,"longitude":-87.62318,"reserved":0,"last_update":"0001-01-01T00:00:00Z","name_a2s":"Uncletopia | Chicago | 3 | All Maps","protocol":17,"map":"pl_badwater","folder":"tf","game":"Team Fortress","app_id":440,"player_count":24,"max_players":24,"Bots":0,"server_type":"Dedicated","server_os":"Linux","password":true,"vac":true,"version":"7961495","steam_id":85568392924515191,"keywords":["nocrits","nodmgspread","payload","uncletopia"],"game_id":440,"stv_port":27036,"stv_name":"Uncletopia | Chicago | 3 | All Maps | STV","players":[{"user_id":682,"name":"his flatulence","steam_id":76561198799404824,"connected_time":2575000000000,"state":"active","ping":66},{"user_id":640,"name":"begolds8","steam_id":76561198841069098,"connected_time":5606000000000,"state":"active","ping":73},{"user_id":707,"name":"badboy6996","steam_id":76561197969386201,"connected_time":278000000000,"state":"active","ping":55},{"user_id":702,"name":"yomommasabitch","steam_id":76561198323217150,"connected_time":762000000000,"state":"active","ping":60},{"user_id":582,"name":"The strongest ⑨ ball","steam_id":76561198126760743,"connected_time":10198000000000,"state":"active","ping":78},{"user_id":646,"name":"Dick Grimes","steam_id":76561198157414556,"connected_time":5472000000000,"state":"active","ping":84},{"user_id":697,"name":"king of bogers","steam_id":76561198045731295,"connected_time":885000000000,"state":"active","ping":60},{"user_id":708,"name":"Claybae","steam_id":76561198064290179,"connected_time":256000000000,"state":"active","ping":81},{"user_id":538,"name":"Uwu Micster","steam_id":76561198843890616,"connected_time":12881000000000,"state":"active","ping":86},{"user_id":692,"name":"non_ai","steam_id":76561198270951938,"connected_time":1742000000000,"state":"active","ping":51},{"user_id":636,"name":"Saul Goodman","steam_id":76561198157305426,"connected_time":5877000000000,"state":"active","ping":60},{"user_id":669,"name":"Tetra","steam_id":76561198012329955,"connected_time":4001000000000,"state":"active","ping":104},{"user_id":699,"name":"LVL","steam_id":76561198334403617,"connected_time":874000000000,"state":"active","ping":58},{"user_id":648,"name":"Butters495","steam_id":76561197998689042,"connected_time":5428000000000,"state":"active","ping":78},{"user_id":676,"name":"Wolf Hat","steam_id":76561198099996051,"connected_time":3141000000000,"state":"active","ping":69},{"user_id":634,"name":"urine trouble","steam_id":76561199013266640,"connected_time":6287000000000,"state":"active","ping":59},{"user_id":678,"name":"JP\u003c3","steam_id":76561198126686695,"connected_time":2910000000000,"state":"active","ping":59},{"user_id":659,"name":"Motreir","steam_id":76561198151717946,"connected_time":4973000000000,"state":"active","ping":76},{"user_id":675,"name":"Fewny","steam_id":76561198225977000,"connected_time":3206000000000,"state":"active","ping":70},{"user_id":709,"name":"CHIKN","steam_id":76561198277792665,"connected_time":241000000000,"state":"active","ping":111},{"user_id":710,"name":"Ayylmao","steam_id":76561198104780147,"connected_time":237000000000,"state":"active","ping":45},{"user_id":705,"name":"that_man4","steam_id":76561198133102865,"connected_time":694000000000,"state":"active","ping":74},{"user_id":653,"name":"Tom Crúaich","steam_id":76561197999439911,"connected_time":5298000000000,"state":"active","ping":66}]},{"server_id":403,"name":"Uncletopia | Chicago | 4 | All Maps","name_short":"chi-4","host":"chi-1.us.uncletopia.com","port":27045,"enabled":true,"region":"us-central","cc":"us","latitude":41.881832,"longitude":-87.62318,"reserved":0,"last_update":"0001-01-01T00:00:00Z","name_a2s":"Uncletopia | Chicago | 4 | All Maps","protocol":17,"map":"pl_badwater","folder":"tf","game":"Team Fortress","app_id":440,"player_count":22,"max_players":24,"Bots":0,"server_type":"Dedicated","server_os":"Linux","password":true,"vac":true,"version":"7961495","steam_id":85568392924515193,"keywords":["nocrits","nodmgspread","payload","uncletopia"],"game_id":440,"stv_port":27046,"stv_name":"Uncletopia | Chicago | 4 | All Maps | STV","players":[{"user_id":800,"name":"zuma deluxe","steam_id":76561198059041027,"connected_time":2009000000000,"state":"active","ping":111},{"user_id":817,"name":"eat Pant","steam_id":76561197974965536,"connected_time":1489000000000,"state":"active","ping":58},{"user_id":802,"name":"eight gyroscopic bees","steam_id":76561198305560736,"connected_time":1955000000000,"state":"active","ping":64},{"user_id":821,"name":"Disco Fever","steam_id":76561198069532215,"connected_time":937000000000,"state":"active","ping":69},{"user_id":830,"name":"Imagine being trash at Medic","steam_id":76561197986530028,"connected_time":150000000000,"state":"active","ping":103},{"user_id":823,"name":"im drunk AF (sorry)","steam_id":76561199010126042,"connected_time":567000000000,"state":"active","ping":91},{"user_id":824,"name":"SPIRE_FAN","steam_id":76561198001486573,"connected_time":484000000000,"state":"active","ping":70},{"user_id":806,"name":"SIN K4RMA","steam_id":76561198869287223,"connected_time":1867000000000,"state":"active","ping":77},{"user_id":765,"name":"kicks","steam_id":76561199228854923,"connected_time":4920000000000,"state":"active","ping":55},{"user_id":820,"name":"Dan","steam_id":76561198453824178,"connected_time":1426000000000,"state":"active","ping":133},{"user_id":826,"name":"Bread","steam_id":76561198251896612,"connected_time":466000000000,"state":"active","ping":38},{"user_id":814,"name":"FROYO donovin","steam_id":76561198045679387,"connected_time":1632000000000,"state":"active","ping":46},{"user_id":762,"name":"Two-Ton Heavy Thing","steam_id":76561198201724274,"connected_time":4943000000000,"state":"active","ping":100},{"user_id":781,"name":"Urbanzpinapple","steam_id":76561198115426938,"connected_time":4377000000000,"state":"active","ping":79},{"user_id":791,"name":"Six Piece Chicken McNobody","steam_id":76561198129848222,"connected_time":3492000000000,"state":"active","ping":67},{"user_id":788,"name":"lili of the valley","steam_id":76561198253172399,"connected_time":3703000000000,"state":"active","ping":75},{"user_id":827,"name":"Tim Bunn","steam_id":76561198213167735,"connected_time":432000000000,"state":"active","ping":54},{"user_id":807,"name":"Lore","steam_id":76561198098407538,"connected_time":1818000000000,"state":"active","ping":56},{"user_id":829,"name":"Phocae","steam_id":76561199317584594,"connected_time":283000000000,"state":"active","ping":62},{"user_id":828,"name":"Furious George","steam_id":76561198405111646,"connected_time":351000000000,"state":"active","ping":102},{"user_id":822,"name":"GreekYogurt","steam_id":76561198037671890,"connected_time":820000000000,"state":"active","ping":115},{"user_id":810,"name":"Hertz","steam_id":76561198245322982,"connected_time":1742000000000,"state":"active","ping":47}]},{"server_id":36,"name":"Uncletopia | Chicago | 5 | All Maps","name_short":"chi-5","host":"chi-2.us.uncletopia.com","port":27015,"enabled":true,"region":"us-central","cc":"us","latitude":41.881832,"longitude":-87.62318,"reserved":0,"last_update":"0001-01-01T00:00:00Z","name_a2s":"Uncletopia | Chicago | 5 | All Maps","protocol":17,"map":"pl_swiftwater_final1","folder":"tf","game":"Team Fortress","app_id":440,"player_count":23,"max_players":24,"Bots":0,"server_type":"Dedicated","server_os":"Linux","password":true,"vac":true,"version":"7961495","steam_id":85568392924866362,"keywords":["nocrits","nodmgspread","payload","uncletopia"],"game_id":440,"stv_port":27016,"stv_name":"Uncletopia | Chicago | 5 | All Maps | STV","players":[{"user_id":595,"name":"Rat_king","steam_id":76561199465689129,"connected_time":3412000000000,"state":"active","ping":78},{"user_id":625,"name":"Gibs Degrossi","steam_id":76561198066152609,"connected_time":1375000000000,"state":"active","ping":59},{"user_id":634,"name":"Juanelo","steam_id":76561199096390505,"connected_time":660000000000,"state":"active","ping":90},{"user_id":608,"name":"no drama","steam_id":76561198115714484,"connected_time":2433000000000,"state":"active","ping":120},{"user_id":626,"name":"y0","steam_id":76561198143894333,"connected_time":1360000000000,"state":"active","ping":46},{"user_id":619,"name":"LFT Roz257","steam_id":76561198842844532,"connected_time":1486000000000,"state":"active","ping":55},{"user_id":616,"name":"andrew","steam_id":76561198107472997,"connected_time":1890000000000,"state":"active","ping":59},{"user_id":584,"name":"RagunCagun","steam_id":76561198132848008,"connected_time":4682000000000,"state":"active","ping":53},{"user_id":637,"name":"Sweatshirt","steam_id":76561198087631219,"connected_time":230000000000,"state":"active","ping":111},{"user_id":565,"name":"Bag","steam_id":76561198152890989,"connected_time":6060000000000,"state":"active","ping":163},{"user_id":622,"name":"ColdTooth","steam_id":76561197994963901,"connected_time":1414000000000,"state":"active","ping":77},{"user_id":494,"name":"super clickteam fusion","steam_id":76561198275101482,"connected_time":10712000000000,"state":"active","ping":137},{"user_id":607,"name":"Gram Tokers Count Doinkula","steam_id":76561198112811565,"connected_time":2444000000000,"state":"active","ping":75},{"user_id":627,"name":"Cute Little Femboy :3","steam_id":76561199280564132,"connected_time":1337000000000,"state":"active","ping":46},{"user_id":596,"name":"⚢","steam_id":76561199117637890,"connected_time":3412000000000,"state":"active","ping":54},{"user_id":635,"name":"ROGUE-PLANET","steam_id":76561198116023052,"connected_time":590000000000,"state":"active","ping":70},{"user_id":638,"name":"bird with bad aim","steam_id":76561198062360755,"connected_time":175000000000,"state":"active","ping":56},{"user_id":639,"name":"Ninjoth","steam_id":76561198038611753,"connected_time":162000000000,"state":"active","ping":82},{"user_id":590,"name":"H.","steam_id":76561198074951179,"connected_time":4439000000000,"state":"active","ping":108},{"user_id":583,"name":"chunk","steam_id":76561198134775401,"connected_time":4696000000000,"state":"active","ping":58},{"user_id":586,"name":"Leonardo DiCaprio","steam_id":76561198121886765,"connected_time":4675000000000,"state":"active","ping":55},{"user_id":621,"name":"mwee machine","steam_id":76561198047126327,"connected_time":1441000000000,"state":"active","ping":76},{"user_id":636,"name":"UUUURT","steam_id":76561198047468140,"connected_time":324000000000,"state":"active","ping":98}]},{"server_id":37,"name":"Uncletopia | Chicago | 6 | All Maps","name_short":"chi-6","host":"chi-2.us.uncletopia.com","port":27025,"enabled":true,"region":"us-central","cc":"us","latitude":41.881832,"longitude":-87.62318,"reserved":0,"last_update":"0001-01-01T00:00:00Z","name_a2s":"Uncletopia | Chicago | 6 | All Maps","protocol":17,"map":"cp_process_final","folder":"tf","game":"Team Fortress","app_id":440,"player_count":23,"max_players":24,"Bots":0,"server_type":"Dedicated","server_os":"Linux","password":true,"vac":true,"version":"7961495","steam_id":85568392924866363,"keywords":["cp","nocrits","nodmgspread","uncletopia"],"game_id":440,"stv_port":27026,"stv_name":"Uncletopia | Chicago | 6 | All Maps | STV","players":[{"user_id":530,"name":"wise","steam_id":76561198030066204,"connected_time":3733000000000,"state":"active","ping":49},{"user_id":569,"name":"Part-Time Pybro","steam_id":76561198079508595,"connected_time":1250000000000,"state":"active","ping":100},{"user_id":545,"name":"/\\/Mr. Phoenix/\\/","steam_id":76561198258944941,"connected_time":2485000000000,"state":"active","ping":73},{"user_id":546,"name":"Kgunner1v","steam_id":76561198259516937,"connected_time":2477000000000,"state":"active","ping":96},{"user_id":555,"name":"Bonk Mann","steam_id":76561199177722296,"connected_time":2282000000000,"state":"active","ping":118},{"user_id":513,"name":"AkimboAoki","steam_id":76561198158323058,"connected_time":5108000000000,"state":"active","ping":93},{"user_id":566,"name":"roman","steam_id":76561198170066797,"connected_time":1323000000000,"state":"active","ping":62},{"user_id":548,"name":"Coms","steam_id":76561198204995668,"connected_time":2416000000000,"state":"active","ping":87},{"user_id":550,"name":"Major_Pippy","steam_id":76561198004482878,"connected_time":2334000000000,"state":"active","ping":103},{"user_id":551,"name":"cliftoce","steam_id":76561197998912007,"connected_time":2330000000000,"state":"active","ping":86},{"user_id":552,"name":"birb borb","steam_id":76561198288922289,"connected_time":2308000000000,"state":"active","ping":114},{"user_id":553,"name":"Tohbeh","steam_id":76561198191173883,"connected_time":2298000000000,"state":"active","ping":103},{"user_id":568,"name":"Decapitation Station","steam_id":76561198201796098,"connected_time":1312000000000,"state":"active","ping":86},{"user_id":573,"name":"MensRightsActivist","steam_id":76561199482149729,"connected_time":1011000000000,"state":"active","ping":58},{"user_id":577,"name":"terrapieseven","steam_id":76561198072062415,"connected_time":122000000000,"state":"active","ping":77},{"user_id":575,"name":"checkswing","steam_id":76561198999816132,"connected_time":296000000000,"state":"active","ping":86},{"user_id":562,"name":"rudy","steam_id":76561198088712799,"connected_time":2131000000000,"state":"active","ping":80},{"user_id":570,"name":"☹","steam_id":76561198804763186,"connected_time":1229000000000,"state":"active","ping":63},{"user_id":561,"name":"TheSpy","steam_id":76561198997837361,"connected_time":2140000000000,"state":"active","ping":58},{"user_id":571,"name":"toastman","steam_id":76561198207073088,"connected_time":1208000000000,"state":"active","ping":66},{"user_id":565,"name":"Zilgrin","steam_id":76561199192857010,"connected_time":1438000000000,"state":"active","ping":88},{"user_id":502,"name":"Ludcmorais","steam_id":76561198359217809,"connected_time":6411000000000,"state":"active","ping":193},{"user_id":572,"name":"Anna","steam_id":76561199071867217,"connected_time":1208000000000,"state":"active","ping":61}]},{"server_id":38,"name":"Uncletopia | Chicago | 7 | Stopwatch","name_short":"chi-7","host":"chi-2.us.uncletopia.com","port":27035,"enabled":true,"region":"us-central","cc":"us","latitude":41.881832,"longitude":-87.62318,"reserved":0,"last_update":"0001-01-01T00:00:00Z","name_a2s":"Uncletopia | Chicago | 7 | Stopwatch","protocol":17,"map":"workshop/koth_clearcut_b15.ugc2107050255","folder":"tf","game":"Team Fortress","app_id":440,"player_count":0,"max_players":24,"Bots":0,"server_type":"Dedicated","server_os":"Linux","password":true,"vac":true,"version":"7961495","steam_id":85568392924866364,"keywords":["cp","nocrits","nodmgspread","uncletopia"],"game_id":440,"stv_port":27036,"stv_name":"Uncletopia | Chicago | 7 | Stopwatch | STV","players":null},{"server_id":39,"name":"Uncletopia | Chicago | 8 | Community","name_short":"chi-8","host":"chi-2.us.uncletopia.com","port":27045,"enabled":true,"region":"us-central","cc":"us","latitude":41.881832,"longitude":-87.62318,"reserved":0,"last_update":"0001-01-01T00:00:00Z","name_a2s":"Uncletopia | Chicago | 8 | Community","protocol":17,"map":"workshop/koth_ramjam_rc1.ugc459778887","folder":"tf","game":"Team Fortress","app_id":440,"player_count":0,"max_players":24,"Bots":0,"server_type":"Dedicated","server_os":"Linux","password":true,"vac":true,"version":"7961495","steam_id":85568392924866365,"keywords":["cp","nocrits","nodmgspread","uncletopia"],"game_id":440,"stv_port":27046,"stv_name":"Uncletopia | Chicago | 8 | Community | STV","players":null},{"server_id":8,"name":"Uncletopia | Dallas | 1 | All Maps","name_short":"dal-1","host":"dal-1.us.uncletopia.com","port":27015,"enabled":true,"region":"us-central","cc":"us","latitude":32.779167,"longitude":-96.80889,"reserved":0,"last_update":"0001-01-01T00:00:00Z","name_a2s":"Uncletopia | Dallas | 1 | All Maps","protocol":17,"map":"pl_snowycoast","folder":"tf","game":"Team Fortress","app_id":440,"player_count":19,"max_players":24,"Bots":0,"server_type":"Dedicated","server_os":"Linux","password":true,"vac":true,"version":"7961495","steam_id":85568392924469986,"keywords":["nocrits","nodmgspread","payload","uncletopia"],"game_id":440,"stv_port":27016,"stv_name":"Uncletopia | Dallas | 1 | All Maps | STV","players":[{"user_id":629,"name":"Dr. Cube","steam_id":76561198025469828,"connected_time":724000000000,"state":"active","ping":103},{"user_id":621,"name":"fried rice","steam_id":76561198928939100,"connected_time":1587000000000,"state":"active","ping":75},{"user_id":631,"name":"Bigfoot ate my ass","steam_id":76561198071605190,"connected_time":606000000000,"state":"active","ping":79},{"user_id":630,"name":"KazmirlYT","steam_id":76561198116008410,"connected_time":704000000000,"state":"active","ping":109},{"user_id":590,"name":"Luffliet.","steam_id":76561198186593707,"connected_time":5161000000000,"state":"active","ping":46},{"user_id":567,"name":"Vaun Leon","steam_id":76561199223266577,"connected_time":7246000000000,"state":"active","ping":68},{"user_id":632,"name":"jerma but crying and lesbian","steam_id":76561198110661425,"connected_time":373000000000,"state":"active","ping":76},{"user_id":530,"name":"Sweet Tooth","steam_id":76561198830158092,"connected_time":12341000000000,"state":"active","ping":72},{"user_id":596,"name":"rocketspires","steam_id":76561198800386026,"connected_time":3955000000000,"state":"active","ping":112},{"user_id":594,"name":"LampMan","steam_id":76561198079857527,"connected_time":4010000000000,"state":"active","ping":54},{"user_id":597,"name":"soft and wet","steam_id":76561198081974528,"connected_time":3547000000000,"state":"active","ping":76},{"user_id":593,"name":"Withered Bonnie (Real)","steam_id":76561198423310113,"connected_time":4262000000000,"state":"active","ping":48},{"user_id":602,"name":"BADWOLF42","steam_id":76561198055447523,"connected_time":3494000000000,"state":"active","ping":51},{"user_id":566,"name":"Lydia","steam_id":76561198800417942,"connected_time":7452000000000,"state":"active","ping":98},{"user_id":624,"name":"Rira","steam_id":76561197995224164,"connected_time":1473000000000,"state":"active","ping":74},{"user_id":625,"name":"poopshitter9000","steam_id":76561198074624639,"connected_time":1318000000000,"state":"active","ping":60},{"user_id":572,"name":"Hedless","steam_id":76561197992723400,"connected_time":6479000000000,"state":"active","ping":87},{"user_id":607,"name":"Manic","steam_id":76561198128149670,"connected_time":3282000000000,"state":"active","ping":45},{"user_id":628,"name":"LeefLett","steam_id":76561199166178308,"connected_time":942000000000,"state":"active","ping":87}]},{"server_id":108,"name":"Uncletopia | Dallas | 2 | All Maps","name_short":"dal-2","host":"dal-1.us.uncletopia.com","port":27025,"enabled":true,"region":"us-central","cc":"us","latitude":32.779167,"longitude":-96.80889,"reserved":0,"last_update":"0001-01-01T00:00:00Z","name_a2s":"Uncletopia | Dallas | 2 | All Maps","protocol":17,"map":"pl_upward","folder":"tf","game":"Team Fortress","app_id":440,"player_count":24,"max_players":24,"Bots":0,"server_type":"Dedicated","server_os":"Linux","password":true,"vac":true,"version":"7961495","steam_id":85568392924469988,"keywords":["nocrits","nodmgspread","payload","uncletopia"],"game_id":440,"stv_port":27026,"stv_name":"Uncletopia | Dallas | 2 | All Maps | STV","players":[{"user_id":536,"name":"bendera","steam_id":76561197965486503,"connected_time":2613000000000,"state":"active","ping":83},{"user_id":563,"name":"makeshift_burrito","steam_id":76561198042510825,"connected_time":264000000000,"state":"active","ping":100},{"user_id":557,"name":"rick miami","steam_id":76561198095600494,"connected_time":928000000000,"state":"active","ping":47},{"user_id":562,"name":"ุ","steam_id":76561198404271005,"connected_time":319000000000,"state":"active","ping":71},{"user_id":468,"name":"Spinch","steam_id":76561198296224166,"connected_time":10456000000000,"state":"active","ping":71},{"user_id":524,"name":"drink enjoyer","steam_id":76561199078359629,"connected_time":3831000000000,"state":"active","ping":75},{"user_id":546,"name":"Kenny[poor]","steam_id":76561199005805984,"connected_time":2291000000000,"state":"active","ping":44},{"user_id":564,"name":"John16Mark","steam_id":76561198119445407,"connected_time":263000000000,"state":"active","ping":62},{"user_id":541,"name":"selling rice","steam_id":76561198063357023,"connected_time":2448000000000,"state":"active","ping":77},{"user_id":553,"name":"☙ Corrupt ❧","steam_id":76561197977631915,"connected_time":1178000000000,"state":"active","ping":71},{"user_id":497,"name":"Winter Turtle","steam_id":76561199013760076,"connected_time":7927000000000,"state":"active","ping":59},{"user_id":556,"name":"cofferhead","steam_id":76561199191108449,"connected_time":1141000000000,"state":"active","ping":84},{"user_id":543,"name":"Harufloofer","steam_id":76561199084506827,"connected_time":2439000000000,"state":"active","ping":42},{"user_id":559,"name":"AtomicSexMachine","steam_id":76561198886585159,"connected_time":526000000000,"state":"active","ping":50},{"user_id":552,"name":"benny worm","steam_id":76561198163238434,"connected_time":1422000000000,"state":"active","ping":91},{"user_id":470,"name":"CeLeb144","steam_id":76561199089907740,"connected_time":10446000000000,"state":"active","ping":69},{"user_id":416,"name":"Publo","steam_id":76561198161777140,"connected_time":15804000000000,"state":"active","ping":44},{"user_id":554,"name":"Lady Heosphoros","steam_id":76561199328635967,"connected_time":1170000000000,"state":"active","ping":50},{"user_id":489,"name":"sloth (be nice im cringe)","steam_id":76561198047098172,"connected_time":8540000000000,"state":"active","ping":89},{"user_id":565,"name":"R O D G E D A N","steam_id":76561198226236524,"connected_time":262000000000,"state":"active","ping":101},{"user_id":555,"name":"type \"bad med\" to kick","steam_id":76561198076402476,"connected_time":1157000000000,"state":"active","ping":93},{"user_id":490,"name":"Miss Rin","steam_id":76561198337607363,"connected_time":8532000000000,"state":"active","ping":103},{"user_id":551,"name":"Gamerfan64","steam_id":76561198801410962,"connected_time":1774000000000,"state":"active","ping":42},{"user_id":535,"name":"BLOCKHEAD","steam_id":76561198808224331,"connected_time":2662000000000,"state":"active","ping":120}]},{"server_id":404,"name":"Uncletopia | Dallas | 3 | All Maps","name_short":"dal-3","host":"dal-1.us.uncletopia.com","port":27035,"enabled":true,"region":"us-central","cc":"us","latitude":32.779167,"longitude":-96.80889,"reserved":0,"last_update":"0001-01-01T00:00:00Z","name_a2s":"Uncletopia | Dallas | 3 | All Maps","protocol":17,"map":"pl_frontier_final","folder":"tf","game":"Team Fortress","app_id":440,"player_count":22,"max_players":24,"Bots":0,"server_type":"Dedicated","server_os":"Linux","password":true,"vac":true,"version":"7961495","steam_id":85568392924515219,"keywords":["nocrits","nodmgspread","payload","uncletopia"],"game_id":440,"stv_port":27036,"stv_name":"Uncletopia | Dallas | 3 | All Maps | STV","players":[{"user_id":57,"name":"Snoopy","steam_id":76561198273735974,"connected_time":32647000000000,"state":"active","ping":71},{"user_id":463,"name":"Kamin","steam_id":76561198255299559,"connected_time":1019000000000,"state":"active","ping":62},{"user_id":417,"name":"ieatboogersAGAGAGAGAGAGA","steam_id":76561198096737300,"connected_time":6714000000000,"state":"active","ping":90},{"user_id":416,"name":"chud smoker","steam_id":76561198120973162,"connected_time":6868000000000,"state":"active","ping":88},{"user_id":460,"name":"leonard_507","steam_id":76561199076665380,"connected_time":1895000000000,"state":"active","ping":65},{"user_id":462,"name":"Awojonator","steam_id":76561198067374266,"connected_time":1257000000000,"state":"active","ping":109},{"user_id":380,"name":"NIYC Rambo","steam_id":76561198136384326,"connected_time":8824000000000,"state":"active","ping":98},{"user_id":437,"name":"RangerArrows","steam_id":76561198965353821,"connected_time":4535000000000,"state":"active","ping":83},{"user_id":465,"name":"Nickson1","steam_id":76561198175839309,"connected_time":983000000000,"state":"active","ping":97},{"user_id":403,"name":"gagobears","steam_id":76561198086008437,"connected_time":7677000000000,"state":"active","ping":49},{"user_id":466,"name":"Do It Yua Serufu","steam_id":76561198078574114,"connected_time":983000000000,"state":"active","ping":78},{"user_id":472,"name":"Ghostmeal","steam_id":76561198042380299,"connected_time":357000000000,"state":"active","ping":55},{"user_id":453,"name":"MaurbaTTV","steam_id":76561198396244334,"connected_time":2640000000000,"state":"active","ping":70},{"user_id":366,"name":"Joe Camel","steam_id":76561198205531739,"connected_time":9527000000000,"state":"active","ping":115},{"user_id":467,"name":"Emiliano722","steam_id":76561198306474745,"connected_time":950000000000,"state":"active","ping":65},{"user_id":422,"name":"kaputon","steam_id":76561198146299782,"connected_time":6104000000000,"state":"active","ping":74},{"user_id":474,"name":"dogerboy48]","steam_id":76561199130835297,"connected_time":85000000000,"state":"active","ping":64},{"user_id":471,"name":"LazySushi","steam_id":76561198043802202,"connected_time":739000000000,"state":"active","ping":76},{"user_id":404,"name":"Jack the Dripper","steam_id":76561198043911582,"connected_time":7676000000000,"state":"active","ping":85},{"user_id":469,"name":"El Duderino","steam_id":76561198084404539,"connected_time":895000000000,"state":"active","ping":117},{"user_id":470,"name":"ʏᴜᴊɪ","steam_id":76561198401572620,"connected_time":888000000000,"state":"active","ping":88},{"user_id":443,"name":"plink","steam_id":76561198057829889,"connected_time":3978000000000,"state":"active","ping":60}]},{"server_id":405,"name":"Uncletopia | Dallas | 4 | Community","name_short":"dal-4","host":"dal-1.us.uncletopia.com","port":27045,"enabled":true,"region":"us-central","cc":"us","latitude":32.779167,"longitude":-96.80889,"reserved":0,"last_update":"0001-01-01T00:00:00Z","name_a2s":"Uncletopia | Dallas | 4 | Community","protocol":17,"map":"workshop/koth_ramjam_rc1.ugc459778887","folder":"tf","game":"Team Fortress","app_id":440,"player_count":23,"max_players":24,"Bots":0,"server_type":"Dedicated","server_os":"Linux","password":true,"vac":true,"version":"7961495","steam_id":85568392924515220,"keywords":["cp","nocrits","nodmgspread","uncletopia"],"game_id":440,"stv_port":27046,"stv_name":"Uncletopia | Dallas | 4 | Community | STV","players":[{"user_id":330,"name":"StillNotGinger","steam_id":76561198063419189,"connected_time":308000000000,"state":"active","ping":55},{"user_id":331,"name":"rice","steam_id":76561198037565441,"connected_time":301000000000,"state":"active","ping":87},{"user_id":254,"name":"reko","steam_id":76561198278020887,"connected_time":5546000000000,"state":"active","ping":59},{"user_id":328,"name":"Trapilicious","steam_id":76561198061430457,"connected_time":452000000000,"state":"active","ping":47},{"user_id":284,"name":"wugmup","steam_id":76561199096287734,"connected_time":3080000000000,"state":"active","ping":91},{"user_id":329,"name":"MarioMaster865@aol.com","steam_id":76561198044923865,"connected_time":356000000000,"state":"active","ping":79},{"user_id":322,"name":"Jesse Pinkman","steam_id":76561199082981750,"connected_time":982000000000,"state":"active","ping":83},{"user_id":332,"name":"t.tv/FamilyGuyFunnyMoments277","steam_id":76561198416047580,"connected_time":224000000000,"state":"active","ping":90},{"user_id":333,"name":"your little goofy homie","steam_id":76561198967158026,"connected_time":210000000000,"state":"active","ping":74},{"user_id":272,"name":"Captain Chicken","steam_id":76561198047767530,"connected_time":4091000000000,"state":"active","ping":113},{"user_id":334,"name":"your lost $20 pokemon card","steam_id":76561198853090480,"connected_time":194000000000,"state":"active","ping":122},{"user_id":339,"name":"The_Pacific_gamer","steam_id":76561198089491446,"connected_time":27000000000,"state":"active","ping":97},{"user_id":300,"name":"Kuyumiester","steam_id":76561198126835302,"connected_time":2423000000000,"state":"active","ping":61},{"user_id":336,"name":"eanshnee","steam_id":76561198280667899,"connected_time":143000000000,"state":"active","ping":85},{"user_id":312,"name":"ARegularJohnDoe","steam_id":76561198015020139,"connected_time":1578000000000,"state":"active","ping":45},{"user_id":313,"name":"remanedur","steam_id":76561198059459507,"connected_time":1561000000000,"state":"active","ping":103},{"user_id":268,"name":"Mer","steam_id":76561198192171041,"connected_time":4553000000000,"state":"active","ping":115},{"user_id":193,"name":"Coach McFish","steam_id":76561198210456405,"connected_time":11179000000000,"state":"active","ping":93},{"user_id":288,"name":"Skyler_Poof","steam_id":76561198172859985,"connected_time":3007000000000,"state":"active","ping":79},{"user_id":314,"name":"PhattyPhlop","steam_id":76561198153349473,"connected_time":1534000000000,"state":"active","ping":81},{"user_id":337,"name":"Squids023","steam_id":76561199013031576,"connected_time":132000000000,"state":"active","ping":103},{"user_id":338,"name":"Peach","steam_id":76561198989497376,"connected_time":89000000000,"state":"active","ping":100},{"user_id":316,"name":"BoX_hEaD101","steam_id":76561198200875467,"connected_time":1375000000000,"state":"active","ping":87}]},{"server_id":5,"name":"Uncletopia | Frankfurt | 1 | All Maps","name_short":"frk-1","host":"frk-1.de.uncletopia.com","port":27015,"enabled":true,"region":"eu","cc":"de","latitude":50.110924,"longitude":8.682127,"reserved":0,"last_update":"0001-01-01T00:00:00Z","name_a2s":"Uncletopia | Frankfurt | 1 | All Maps","protocol":17,"map":"koth_highpass","folder":"tf","game":"Team Fortress","app_id":440,"player_count":0,"max_players":24,"Bots":0,"server_type":"Dedicated","server_os":"Linux","password":true,"vac":true,"version":"7961495","steam_id":85568392924469989,"keywords":["cp","nocrits","nodmgspread","uncletopia"],"game_id":440,"stv_port":27016,"stv_name":"Uncletopia | Frankfurt | 1 | All Maps | STV","players":null},{"server_id":110,"name":"Uncletopia | Frankfurt | 2 | All Maps","name_short":"frk-2","host":"frk-1.de.uncletopia.com","port":27025,"enabled":true,"region":"eu","cc":"de","latitude":50.110924,"longitude":8.682127,"reserved":0,"last_update":"0001-01-01T00:00:00Z","name_a2s":"Uncletopia | Frankfurt | 2 | All Maps","protocol":17,"map":"cp_dustbowl","folder":"tf","game":"Team Fortress","app_id":440,"player_count":0,"max_players":24,"Bots":0,"server_type":"Dedicated","server_os":"Linux","password":true,"vac":true,"version":"7961495","steam_id":85568392924469990,"keywords":["cp","nocrits","nodmgspread","uncletopia"],"game_id":440,"stv_port":27026,"stv_name":"Uncletopia | Frankfurt | 2 | All Maps | STV","players":null},{"server_id":308,"name":"Uncletopia | Frankfurt | 3 | All Maps","name_short":"frk-3","host":"frk-1.de.uncletopia.com","port":27035,"enabled":true,"region":"eu","cc":"de","latitude":50.110924,"longitude":8.682127,"reserved":0,"last_update":"0001-01-01T00:00:00Z","name_a2s":"Uncletopia | Frankfurt | 3 | All Maps","protocol":17,"map":"pl_barnblitz","folder":"tf","game":"Team Fortress","app_id":440,"player_count":0,"max_players":24,"Bots":0,"server_type":"Dedicated","server_os":"Linux","password":true,"vac":true,"version":"7961495","steam_id":85568392924504274,"keywords":["nocrits","nodmgspread","payload","uncletopia"],"game_id":440,"stv_port":27036,"stv_name":"Uncletopia | Frankfurt | 3 | All Maps | STV","players":null},{"server_id":309,"name":"Uncletopia | Frankfurt | 4 | All Maps","name_short":"frk-4","host":"frk-1.de.uncletopia.com","port":27045,"enabled":true,"region":"eu","cc":"de","latitude":50.110924,"longitude":8.682127,"reserved":0,"last_update":"0001-01-01T00:00:00Z","name_a2s":"Uncletopia | Frankfurt | 4 | All Maps","protocol":17,"map":"koth_highpass","folder":"tf","game":"Team Fortress","app_id":440,"player_count":0,"max_players":24,"Bots":0,"server_type":"Dedicated","server_os":"Linux","password":true,"vac":true,"version":"7961495","steam_id":85568392924504275,"keywords":["cp","nocrits","nodmgspread","uncletopia"],"game_id":440,"stv_port":27046,"stv_name":"Uncletopia | Frankfurt | 4 | All Maps | STV","players":null},{"server_id":310,"name":"Uncletopia | Frankfurt | 5 | All Maps","name_short":"frk-5","host":"frk-1.de.uncletopia.com","port":27055,"enabled":true,"region":"eu","cc":"de","latitude":50.110924,"longitude":8.682127,"reserved":0,"last_update":"0001-01-01T00:00:00Z","name_a2s":"Uncletopia | Frankfurt | 5 | All Maps","protocol":17,"map":"pl_badwater","folder":"tf","game":"Team Fortress","app_id":440,"player_count":6,"max_players":24,"Bots":0,"server_type":"Dedicated","server_os":"Linux","password":true,"vac":true,"version":"7961495","steam_id":85568392924504277,"keywords":["nocrits","nodmgspread","payload","uncletopia"],"game_id":440,"stv_port":27056,"stv_name":"Uncletopia | Frankfurt | 5 | All Maps | STV","players":[{"user_id":5,"name":"Chopperson_","steam_id":76561198873728497,"connected_time":1604000000000,"state":"active","ping":100},{"user_id":6,"name":"concussion gaming","steam_id":76561198425494530,"connected_time":1513000000000,"state":"active","ping":112},{"user_id":7,"name":"jonbob","steam_id":76561197963506620,"connected_time":1500000000000,"state":"active","ping":65},{"user_id":10,"name":"demoman","steam_id":76561198046170435,"connected_time":1022000000000,"state":"active","ping":54},{"user_id":12,"name":"󠀡󠀡","steam_id":76561198399390201,"connected_time":521000000000,"state":"active","ping":89},{"user_id":13,"name":"salim shahidy","steam_id":76561198416945706,"connected_time":471000000000,"state":"active","ping":166}]},{"server_id":311,"name":"Uncletopia | Frankfurt | 6 | All Maps","name_short":"frk-6","host":"frk-1.de.uncletopia.com","port":27065,"enabled":true,"region":"eu","cc":"de","latitude":50.110924,"longitude":8.682127,"reserved":0,"last_update":"0001-01-01T00:00:00Z","name_a2s":"Uncletopia | Frankfurt | 6 | All Maps","protocol":17,"map":"cp_altitude","folder":"tf","game":"Team Fortress","app_id":440,"player_count":0,"max_players":24,"Bots":0,"server_type":"Dedicated","server_os":"Linux","password":true,"vac":true,"version":"7961495","steam_id":85568392924504278,"keywords":["cp","nocrits","nodmgspread","uncletopia"],"game_id":440,"stv_port":27066,"stv_name":"Uncletopia | Frankfurt | 6 | All Maps | STV","players":null},{"server_id":23,"name":"Uncletopia | Frankfurt | 7 | Stopwatch","name_short":"frk-7","host":"frk-1.de.uncletopia.com","port":27075,"enabled":true,"region":"eu","cc":"de","latitude":50.110924,"longitude":8.682127,"reserved":0,"last_update":"0001-01-01T00:00:00Z","name_a2s":"Uncletopia | Frankfurt | 7 | Stopwatch","protocol":17,"map":"pl_frontier_final","folder":"tf","game":"Team Fortress","app_id":440,"player_count":0,"max_players":24,"Bots":0,"server_type":"Dedicated","server_os":"Linux","password":true,"vac":true,"version":"7961495","steam_id":85568392924742827,"keywords":["nocrits","nodmgspread","payload","uncletopia"],"game_id":440,"stv_port":27076,"stv_name":"Uncletopia | Frankfurt | 7 | Stopwatch | STV","players":null},{"server_id":24,"name":"Uncletopia | Frankfurt | 8 | Community","name_short":"frk-8","host":"frk-1.de.uncletopia.com","port":27085,"enabled":true,"region":"eu","cc":"de","latitude":50.110924,"longitude":8.682127,"reserved":0,"last_update":"0001-01-01T00:00:00Z","name_a2s":"Uncletopia | Frankfurt | 8 | Community","protocol":17,"map":"workshop/cp_overgrown_rc8.ugc503939302","folder":"tf","game":"Team Fortress","app_id":440,"player_count":1,"max_players":24,"Bots":0,"server_type":"Dedicated","server_os":"Linux","password":true,"vac":true,"version":"7961495","steam_id":85568392924742828,"keywords":["cp","nocrits","nodmgspread","uncletopia"],"game_id":440,"stv_port":27086,"stv_name":"Uncletopia | Frankfurt | 8 | Community | STV","players":[{"user_id":4,"name":"El Elefante","steam_id":76561197998081380,"connected_time":298000000000,"state":"active","ping":58}]},{"server_id":202,"name":"Uncletopia | Hong Kong | 1 | All Maps","name_short":"hgk-1","host":"hgk-1.hk.uncletopia.com","port":27015,"enabled":true,"region":"asia","cc":"hk","latitude":22.302711,"longitude":114.177216,"reserved":0,"last_update":"0001-01-01T00:00:00Z","name_a2s":"Uncletopia | Hong Kong | 1 | All Maps","protocol":17,"map":"cp_sunshine","folder":"tf","game":"Team Fortress","app_id":440,"player_count":24,"max_players":24,"Bots":0,"server_type":"Dedicated","server_os":"Linux","password":true,"vac":true,"version":"7961495","steam_id":85568392924494504,"keywords":["cp","nocrits","nodmgspread","uncletopia"],"game_id":440,"stv_port":27016,"stv_name":"Uncletopia | Hong Kong | 1 | All Maps | STV","players":[{"user_id":84,"name":"Windmill","steam_id":76561199230997986,"connected_time":5297000000000,"state":"active","ping":67},{"user_id":80,"name":"Shinobimono","steam_id":76561198343322788,"connected_time":5650000000000,"state":"active","ping":130},{"user_id":116,"name":"aeross","steam_id":76561198834445483,"connected_time":1593000000000,"state":"active","ping":64},{"user_id":92,"name":"Hay","steam_id":76561199438952901,"connected_time":4446000000000,"state":"active","ping":53},{"user_id":108,"name":"human696982","steam_id":76561199496222946,"connected_time":3181000000000,"state":"active","ping":106},{"user_id":99,"name":"GalaxyTome","steam_id":76561198336372723,"connected_time":3965000000000,"state":"active","ping":99},{"user_id":58,"name":"Corbezy","steam_id":76561197993398349,"connected_time":7430000000000,"state":"active","ping":100},{"user_id":124,"name":"god of cum (platinum cum arc)","steam_id":76561199161406614,"connected_time":111000000000,"state":"active","ping":99},{"user_id":93,"name":"SmeechSmeech","steam_id":76561198139374838,"connected_time":4419000000000,"state":"active","ping":54},{"user_id":101,"name":"villy","steam_id":76561198169263597,"connected_time":3730000000000,"state":"active","ping":40},{"user_id":85,"name":"Lu","steam_id":76561198320532821,"connected_time":5178000000000,"state":"active","ping":62},{"user_id":117,"name":"BAzooKA","steam_id":76561198061628689,"connected_time":1566000000000,"state":"active","ping":54},{"user_id":119,"name":"Dr. m u n c h e w","steam_id":76561198350669781,"connected_time":1292000000000,"state":"active","ping":90},{"user_id":104,"name":"123456","steam_id":76561198333809604,"connected_time":3349000000000,"state":"active","ping":74},{"user_id":103,"name":"Drutzhfer","steam_id":76561198299948446,"connected_time":3367000000000,"state":"active","ping":111},{"user_id":121,"name":"jaye","steam_id":76561198286261614,"connected_time":1218000000000,"state":"active","ping":85},{"user_id":118,"name":"corpse_cadaver","steam_id":76561199225360457,"connected_time":1566000000000,"state":"active","ping":70},{"user_id":105,"name":"E","steam_id":76561198796342005,"connected_time":3347000000000,"state":"active","ping":107},{"user_id":88,"name":"silverhouse7 | A |","steam_id":76561198349634906,"connected_time":4965000000000,"state":"active","ping":128},{"user_id":114,"name":"doze","steam_id":76561198318292720,"connected_time":1597000000000,"state":"active","ping":134},{"user_id":97,"name":"\"SKS\"","steam_id":76561198187995386,"connected_time":4293000000000,"state":"active","ping":90},{"user_id":112,"name":"14","steam_id":76561198113401862,"connected_time":2075000000000,"state":"active","ping":93},{"user_id":110,"name":"im_0ff","steam_id":76561198339346695,"connected_time":2842000000000,"state":"active","ping":124},{"user_id":123,"name":"Ivy","steam_id":76561198400698408,"connected_time":382000000000,"state":"active","ping":96}]},{"server_id":1,"name":"Uncletopia | Los Angeles | 1 | All Maps","name_short":"lax-1","host":"lax-1.us.uncletopia.com","port":27015,"enabled":true,"region":"us-west","cc":"us","latitude":33.94279,"longitude":-118.41004,"reserved":0,"last_update":"0001-01-01T00:00:00Z","name_a2s":"Uncletopia | Los Angeles | 1 | All Maps","protocol":17,"map":"pl_borneo","folder":"tf","game":"Team Fortress","app_id":440,"player_count":24,"max_players":24,"Bots":0,"server_type":"Dedicated","server_os":"Linux","password":true,"vac":true,"version":"7961495","steam_id":85568392924469991,"keywords":["nocrits","nodmgspread","payload","uncletopia"],"game_id":440,"stv_port":27016,"stv_name":"Uncletopia | Los Angeles | 1 | All Maps | STV","players":[{"user_id":845,"name":"MantisToboggan","steam_id":76561197969447887,"connected_time":1707000000000,"state":"active","ping":126},{"user_id":869,"name":"NexFrost","steam_id":76561197985774837,"connected_time":502000000000,"state":"active","ping":71},{"user_id":846,"name":"doughboy","steam_id":76561198219012928,"connected_time":1705000000000,"state":"active","ping":50},{"user_id":851,"name":"coWolves","steam_id":76561198171921618,"connected_time":1572000000000,"state":"active","ping":67},{"user_id":730,"name":"||:♩♩♩♪:|| Opplydead","steam_id":76561198028630334,"connected_time":9795000000000,"state":"active","ping":51},{"user_id":849,"name":"man fish fish man","steam_id":76561198879600285,"connected_time":1648000000000,"state":"active","ping":60},{"user_id":850,"name":"LuckyMinaBall","steam_id":76561198854149071,"connected_time":1634000000000,"state":"active","ping":58},{"user_id":852,"name":"Ralph Kramden (Slim Charles)","steam_id":76561197981687895,"connected_time":1569000000000,"state":"active","ping":63},{"user_id":829,"name":"Maid 'n' China","steam_id":76561198423392976,"connected_time":2515000000000,"state":"active","ping":57},{"user_id":867,"name":"KingSteve42","steam_id":76561198409455888,"connected_time":766000000000,"state":"active","ping":115},{"user_id":854,"name":"FI LO","steam_id":76561198976530881,"connected_time":1544000000000,"state":"active","ping":35},{"user_id":870,"name":"CubedDuck","steam_id":76561198121860858,"connected_time":440000000000,"state":"active","ping":114},{"user_id":813,"name":"Agent Q","steam_id":76561198830829003,"connected_time":3337000000000,"state":"active","ping":69},{"user_id":868,"name":"Fish","steam_id":76561199016308078,"connected_time":548000000000,"state":"active","ping":60},{"user_id":858,"name":"Satori Komeiji","steam_id":76561198158211423,"connected_time":1471000000000,"state":"active","ping":53},{"user_id":871,"name":"spy's flat ass","steam_id":76561198163164053,"connected_time":431000000000,"state":"active","ping":149},{"user_id":862,"name":"skrill issue","steam_id":76561198104086771,"connected_time":1367000000000,"state":"active","ping":50},{"user_id":804,"name":"Festive Mr ?","steam_id":76561199225525494,"connected_time":4078000000000,"state":"active","ping":113},{"user_id":861,"name":"THIRDPIERCE","steam_id":76561198405366314,"connected_time":1415000000000,"state":"active","ping":92},{"user_id":863,"name":"big fish","steam_id":76561198186479818,"connected_time":1334000000000,"state":"active","ping":57},{"user_id":841,"name":"Furioso","steam_id":76561198408747483,"connected_time":1878000000000,"state":"active","ping":61},{"user_id":866,"name":"californjoe","steam_id":76561197965047795,"connected_time":791000000000,"state":"active","ping":57},{"user_id":840,"name":"ChiMaTa","steam_id":76561198067166198,"connected_time":2022000000000,"state":"active","ping":104},{"user_id":792,"name":"Teh Pug","steam_id":76561198085810161,"connected_time":5475000000000,"state":"active","ping":48}]},{"server_id":112,"name":"Uncletopia | Los Angeles | 2 | All Maps","name_short":"lax-2","host":"lax-1.us.uncletopia.com","port":27025,"enabled":true,"region":"us-west","cc":"us","latitude":33.94279,"longitude":-118.41004,"reserved":0,"last_update":"0001-01-01T00:00:00Z","name_a2s":"Uncletopia | Los Angeles | 2 | All Maps","protocol":17,"map":"pl_pier","folder":"tf","game":"Team Fortress","app_id":440,"player_count":23,"max_players":24,"Bots":0,"server_type":"Dedicated","server_os":"Linux","password":true,"vac":true,"version":"7961495","steam_id":85568392924469992,"keywords":["nocrits","nodmgspread","payload","uncletopia"],"game_id":440,"stv_port":27026,"stv_name":"Uncletopia | Los Angeles | 2 | All Maps | STV","players":[{"user_id":331,"name":"Fireheart888","steam_id":76561198044555953,"connected_time":57000000000,"state":"active","ping":82},{"user_id":317,"name":"jon pickle water","steam_id":76561199036212135,"connected_time":1389000000000,"state":"active","ping":93},{"user_id":295,"name":"Sacrificial Lamb","steam_id":76561197988869981,"connected_time":3793000000000,"state":"active","ping":84},{"user_id":293,"name":"can you help me with my homewor","steam_id":76561198408159536,"connected_time":4553000000000,"state":"active","ping":106},{"user_id":323,"name":"Your Dinosaurs","steam_id":76561198392670237,"connected_time":275000000000,"state":"active","ping":58},{"user_id":320,"name":"NewWorldBlues","steam_id":76561198823311447,"connected_time":1193000000000,"state":"active","ping":95},{"user_id":329,"name":"fertile moist and well drained","steam_id":76561198031409921,"connected_time":118000000000,"state":"active","ping":48},{"user_id":319,"name":"Skarp129","steam_id":76561198108679057,"connected_time":1293000000000,"state":"active","ping":47},{"user_id":307,"name":"aaron123","steam_id":76561198184669555,"connected_time":1722000000000,"state":"active","ping":44},{"user_id":303,"name":"for eel? on cod? no carp?","steam_id":76561198095121758,"connected_time":2954000000000,"state":"active","ping":52},{"user_id":308,"name":"Crowvette","steam_id":76561198000457496,"connected_time":1716000000000,"state":"active","ping":46},{"user_id":310,"name":"eem","steam_id":76561198074188938,"connected_time":1688000000000,"state":"active","ping":69},{"user_id":316,"name":"allMAX","steam_id":76561198270980670,"connected_time":1486000000000,"state":"active","ping":173},{"user_id":322,"name":"Squash","steam_id":76561198200037217,"connected_time":298000000000,"state":"active","ping":126},{"user_id":324,"name":"TonesMcGroans","steam_id":76561197996691606,"connected_time":274000000000,"state":"active","ping":73},{"user_id":289,"name":"紅鬍子","steam_id":76561198072410042,"connected_time":5137000000000,"state":"active","ping":52},{"user_id":284,"name":"sola venereum","steam_id":76561198368179166,"connected_time":5370000000000,"state":"active","ping":42},{"user_id":314,"name":"cash {ceci n'est pas une shrimp","steam_id":76561198078406012,"connected_time":1611000000000,"state":"active","ping":71},{"user_id":312,"name":"Saucy Santana(hater blockers on","steam_id":76561198148912147,"connected_time":1673000000000,"state":"active","ping":33},{"user_id":299,"name":"franc | montuga;com","steam_id":76561198417807155,"connected_time":3661000000000,"state":"active","ping":105},{"user_id":305,"name":"jovial","steam_id":76561198297130941,"connected_time":1958000000000,"state":"active","ping":57},{"user_id":321,"name":"Innocent Hubert","steam_id":76561199496059845,"connected_time":844000000000,"state":"active","ping":112},{"user_id":277,"name":"FROYO b4nny","steam_id":76561197970669109,"connected_time":6278000000000,"state":"active","ping":51}]},{"server_id":324,"name":"Uncletopia | Los Angeles | 3 | All Maps","name_short":"lax-3","host":"lax-1.us.uncletopia.com","port":27035,"enabled":true,"region":"us-west","cc":"us","latitude":33.94279,"longitude":-118.41004,"reserved":0,"last_update":"0001-01-01T00:00:00Z","name_a2s":"Uncletopia | Los Angeles | 3 | All Maps","protocol":17,"map":"pl_barnblitz","folder":"tf","game":"Team Fortress","app_id":440,"player_count":20,"max_players":24,"Bots":0,"server_type":"Dedicated","server_os":"Linux","password":true,"vac":true,"version":"7961495","steam_id":85568392924510198,"keywords":["nocrits","nodmgspread","payload","uncletopia"],"game_id":440,"stv_port":27036,"stv_name":"Uncletopia | Los Angeles | 3 | All Maps | STV","players":[{"user_id":136,"name":"It's a Doggydog World","steam_id":76561198018232414,"connected_time":896000000000,"state":"spawning","ping":53},{"user_id":116,"name":"adam1g","steam_id":76561198025747866,"connected_time":2359000000000,"state":"spawning","ping":191},{"user_id":123,"name":"Blue","steam_id":76561198119315134,"connected_time":2274000000000,"state":"spawning","ping":79},{"user_id":75,"name":"BananaFana","steam_id":76561198008891875,"connected_time":4494000000000,"state":"active","ping":53},{"user_id":135,"name":"greens beans","steam_id":76561198153611491,"connected_time":1118000000000,"state":"active","ping":171},{"user_id":88,"name":"walrooos","steam_id":76561198024521839,"connected_time":3581000000000,"state":"spawning","ping":50},{"user_id":112,"name":"here2he1p","steam_id":76561199216977630,"connected_time":2608000000000,"state":"spawning","ping":203},{"user_id":115,"name":"how many sins","steam_id":76561198213385439,"connected_time":2423000000000,"state":"spawning","ping":209},{"user_id":48,"name":"jerss","steam_id":76561199034027802,"connected_time":6690000000000,"state":"spawning","ping":84},{"user_id":130,"name":"DerpyDewott","steam_id":76561198132860765,"connected_time":1975000000000,"state":"spawning","ping":73},{"user_id":141,"name":"baitmode22","steam_id":76561199497945777,"connected_time":392000000000,"state":"spawning","ping":240},{"user_id":137,"name":"marche","steam_id":76561198130096615,"connected_time":786000000000,"state":"spawning","ping":59},{"user_id":127,"name":"Loogus","steam_id":76561198811561721,"connected_time":2133000000000,"state":"spawning","ping":263},{"user_id":107,"name":"marantmed06","steam_id":76561199180381715,"connected_time":2781000000000,"state":"spawning","ping":78},{"user_id":78,"name":"Super Saiyan Bear","steam_id":76561198063118280,"connected_time":4437000000000,"state":"spawning","ping":45},{"user_id":113,"name":"sentry buster ASMR","steam_id":76561198065662025,"connected_time":2606000000000,"state":"spawning","ping":48},{"user_id":133,"name":"mine diam","steam_id":76561198119123981,"connected_time":1584000000000,"state":"active","ping":295},{"user_id":95,"name":"DragonJimmy","steam_id":76561198272966565,"connected_time":3514000000000,"state":"spawning","ping":164},{"user_id":83,"name":"kfroggiedawg","steam_id":76561198371924020,"connected_time":4014000000000,"state":"spawning","ping":65},{"user_id":122,"name":"Sigma Mentality","steam_id":76561198045753316,"connected_time":2290000000000,"state":"active","ping":290}]},{"server_id":25,"name":"Uncletopia | Los Angeles | 4 | Stopwatch","name_short":"lax-4","host":"lax-1.us.uncletopia.com","port":27045,"enabled":true,"region":"us-west","cc":"us","latitude":33.94279,"longitude":-118.41004,"reserved":0,"last_update":"0001-01-01T00:00:00Z","name_a2s":"Uncletopia | Los Angeles | 4 | Stopwatch","protocol":17,"map":"koth_highpass","folder":"tf","game":"Team Fortress","app_id":440,"player_count":0,"max_players":24,"Bots":0,"server_type":"Dedicated","server_os":"Linux","password":true,"vac":true,"version":"7961495","steam_id":85568392924510199,"keywords":["cp","nocrits","nodmgspread","uncletopia"],"game_id":440,"stv_port":27046,"stv_name":"Uncletopia | Los Angeles | 4 | Stopwatch | STV","players":null},{"server_id":11,"name":"Uncletopia | London | 1 | All Maps","name_short":"lon-1","host":"lon-1.uk.uncletopia.com","port":27015,"enabled":true,"region":"eu","cc":"gb","latitude":51.509865,"longitude":-0.118092,"reserved":0,"last_update":"0001-01-01T00:00:00Z","name_a2s":"Uncletopia | London | 1 | All Maps","protocol":17,"map":"koth_highpass","folder":"tf","game":"Team Fortress","app_id":440,"player_count":0,"max_players":24,"Bots":0,"server_type":"Dedicated","server_os":"Linux","password":true,"vac":true,"version":"7961495","steam_id":85568392924367362,"keywords":["cp","nocrits","nodmgspread","uncletopia"],"game_id":440,"stv_port":27016,"stv_name":"Uncletopia | London | 1 | All Maps | STV","players":null},{"server_id":114,"name":"Uncletopia | London | 2 | All Maps","name_short":"lon-2","host":"lon-1.uk.uncletopia.com","port":27025,"enabled":true,"region":"eu","cc":"gb","latitude":51.509865,"longitude":-0.118092,"reserved":0,"last_update":"0001-01-01T00:00:00Z","name_a2s":"Uncletopia | London | 2 | All Maps","protocol":17,"map":"koth_lakeside_final","folder":"tf","game":"Team Fortress","app_id":440,"player_count":0,"max_players":24,"Bots":0,"server_type":"Dedicated","server_os":"Linux","password":true,"vac":true,"version":"7961495","steam_id":85568392924470941,"keywords":["cp","nocrits","nodmgspread","uncletopia"],"game_id":440,"stv_port":27026,"stv_name":"Uncletopia | London | 2 | All Maps | STV","players":null},{"server_id":320,"name":"Uncletopia | London | 3 | All Maps","name_short":"lon-3","host":"lon-1.uk.uncletopia.com","port":27035,"enabled":true,"region":"eu","cc":"gb","latitude":51.509865,"longitude":-0.118092,"reserved":0,"last_update":"0001-01-01T00:00:00Z","name_a2s":"Uncletopia | London | 3 | All Maps","protocol":17,"map":"cp_process_final","folder":"tf","game":"Team Fortress","app_id":440,"player_count":0,"max_players":24,"Bots":0,"server_type":"Dedicated","server_os":"Linux","password":true,"vac":true,"version":"7961495","steam_id":85568392924510192,"keywords":["cp","nocrits","nodmgspread","uncletopia"],"game_id":440,"stv_port":27036,"stv_name":"Uncletopia | London | 3 | All Maps | STV","players":null},{"server_id":321,"name":"Uncletopia | London | 4 | All Maps","name_short":"lon-4","host":"lon-1.uk.uncletopia.com","port":27045,"enabled":true,"region":"eu","cc":"gb","latitude":51.509865,"longitude":-0.118092,"reserved":0,"last_update":"0001-01-01T00:00:00Z","name_a2s":"Uncletopia | London | 4 | All Maps","protocol":17,"map":"koth_cascade","folder":"tf","game":"Team Fortress","app_id":440,"player_count":0,"max_players":24,"Bots":0,"server_type":"Dedicated","server_os":"Linux","password":true,"vac":true,"version":"7961495","steam_id":85568392924510193,"keywords":["cp","nocrits","nodmgspread","uncletopia"],"game_id":440,"stv_port":27046,"stv_name":"Uncletopia | London | 4 | All Maps | STV","players":null},{"server_id":21,"name":"Uncletopia | London | 5 | All Maps","name_short":"lon-5","host":"lon-1.uk.uncletopia.com","port":27055,"enabled":true,"region":"eu","cc":"gb","latitude":51.509865,"longitude":-0.118092,"reserved":0,"last_update":"0001-01-01T00:00:00Z","name_a2s":"Uncletopia | London | 5 | All Maps","protocol":17,"map":"koth_lakeside_final","folder":"tf","game":"Team Fortress","app_id":440,"player_count":0,"max_players":24,"Bots":0,"server_type":"Dedicated","server_os":"Linux","password":true,"vac":true,"version":"7961495","steam_id":85568392924742829,"keywords":["cp","nocrits","nodmgspread","uncletopia"],"game_id":440,"stv_port":27056,"stv_name":"Uncletopia | London | 5 | All Maps | STV","players":null},{"server_id":22,"name":"Uncletopia | London | 6 | All Maps","name_short":"lon-6","host":"lon-1.uk.uncletopia.com","port":27065,"enabled":true,"region":"eu","cc":"gb","latitude":51.509865,"longitude":-0.118092,"reserved":0,"last_update":"0001-01-01T00:00:00Z","name_a2s":"Uncletopia | London | 6 | All Maps","protocol":17,"map":"cp_dustbowl","folder":"tf","game":"Team Fortress","app_id":440,"player_count":0,"max_players":24,"Bots":0,"server_type":"Dedicated","server_os":"Linux","password":true,"vac":true,"version":"7961495","steam_id":85568392924742830,"keywords":["cp","nocrits","nodmgspread","uncletopia"],"game_id":440,"stv_port":27066,"stv_name":"Uncletopia | London | 6 | All Maps | STV","players":null},{"server_id":40,"name":"Uncletopia | London | 7 | Stopwatch","name_short":"lon-7","host":"lon-1.uk.uncletopia.com","port":27075,"enabled":true,"region":"eu","cc":"gb","latitude":51.509865,"longitude":-0.118092,"reserved":0,"last_update":"0001-01-01T00:00:00Z","name_a2s":"Uncletopia | London | 7 | Stopwatch","protocol":17,"map":"koth_lakeside_final","folder":"tf","game":"Team Fortress","app_id":440,"player_count":0,"max_players":24,"Bots":0,"server_type":"Dedicated","server_os":"Linux","password":true,"vac":true,"version":"7961495","steam_id":85568392924964314,"keywords":["cp","nocrits","nodmgspread","uncletopia"],"game_id":440,"stv_port":27076,"stv_name":"Uncletopia | London | 7 | Stopwatch | STV","players":null},{"server_id":41,"name":"Uncletopia | London | 8 | Community","name_short":"lon-8","host":"lon-1.uk.uncletopia.com","port":27085,"enabled":true,"region":"eu","cc":"gb","latitude":51.509865,"longitude":-0.118092,"reserved":0,"last_update":"0001-01-01T00:00:00Z","name_a2s":"Uncletopia | London | 8 | Community","protocol":17,"map":"cp_snakewater_final1","folder":"tf","game":"Team Fortress","app_id":440,"player_count":0,"max_players":24,"Bots":0,"server_type":"Dedicated","server_os":"Linux","password":true,"vac":true,"version":"7961495","steam_id":85568392924964315,"keywords":["cp","nocrits","nodmgspread","uncletopia"],"game_id":440,"stv_port":27086,"stv_name":"Uncletopia | London | 8 | Community | STV","players":null},{"server_id":300,"name":"Uncletopia | Montréal | 1 | One Thousand Uncles","name_short":"mtl-1","host":"mtl-1.ca.uncletopia.com","port":27015,"enabled":true,"region":"us-east","cc":"ca","latitude":45.50889,"longitude":-73.56167,"reserved":0,"last_update":"0001-01-01T00:00:00Z","name_a2s":"","protocol":0,"map":"","folder":"","game":"","app_id":0,"player_count":7,"max_players":0,"Bots":0,"server_type":"","server_os":"","password":false,"vac":false,"version":"","steam_id":0,"keywords":null,"game_id":0,"stv_port":0,"stv_name":"","players":[{"user_id":476,"name":"Draco","steam_id":76561198031226933,"connected_time":3518000000000,"state":"active","ping":136},{"user_id":500,"name":"Muffin","steam_id":76561198111403028,"connected_time":141000000000,"state":"active","ping":47},{"user_id":477,"name":"Vix The Vulpix","steam_id":76561198292181452,"connected_time":3510000000000,"state":"active","ping":99},{"user_id":478,"name":"Error 4 Oh Four","steam_id":76561198121637567,"connected_time":3040000000000,"state":"active","ping":82},{"user_id":499,"name":"Monkey Bat Donkey Rat","steam_id":76561198833982261,"connected_time":410000000000,"state":"active","ping":107},{"user_id":470,"name":"1-800-GHOST-DANCE","steam_id":76561198835430429,"connected_time":4587000000000,"state":"active","ping":89},{"user_id":473,"name":"spyackaso spyu","steam_id":76561198039728594,"connected_time":4255000000000,"state":"active","ping":119}]},{"server_id":301,"name":"Uncletopia | Montréal | 2 | One Thousand Uncles","name_short":"mtl-2","host":"mtl-1.ca.uncletopia.com","port":27025,"enabled":true,"region":"us-east","cc":"ca","latitude":45.50889,"longitude":-73.56167,"reserved":0,"last_update":"0001-01-01T00:00:00Z","name_a2s":"","protocol":0,"map":"","folder":"","game":"","app_id":0,"player_count":0,"max_players":0,"Bots":0,"server_type":"","server_os":"","password":false,"vac":false,"version":"","steam_id":0,"keywords":null,"game_id":0,"stv_port":0,"stv_name":"","players":null},{"server_id":302,"name":"Uncletopia | Montréal | 3 | One Thousand Uncles","name_short":"mtl-3","host":"mtl-1.ca.uncletopia.com","port":27035,"enabled":true,"region":"us-east","cc":"ca","latitude":45.50889,"longitude":-73.56167,"reserved":0,"last_update":"0001-01-01T00:00:00Z","name_a2s":"","protocol":0,"map":"","folder":"","game":"","app_id":0,"player_count":0,"max_players":0,"Bots":0,"server_type":"","server_os":"","password":false,"vac":false,"version":"","steam_id":0,"keywords":null,"game_id":0,"stv_port":0,"stv_name":"","players":null},{"server_id":13,"name":"Uncletopia | New York City | 1 | All Maps","name_short":"nyc-1","host":"nyc-1.us.uncletopia.com","port":27015,"enabled":true,"region":"us-east","cc":"us","latitude":40.73061,"longitude":-73.93524,"reserved":0,"last_update":"0001-01-01T00:00:00Z","name_a2s":"Uncletopia | New York City | 1 | All Maps","protocol":17,"map":"pl_badwater","folder":"tf","game":"Team Fortress","app_id":440,"player_count":24,"max_players":24,"Bots":0,"server_type":"Dedicated","server_os":"Linux","password":true,"vac":true,"version":"7961495","steam_id":85568392924469993,"keywords":["nocrits","nodmgspread","payload","uncletopia"],"game_id":440,"stv_port":27016,"stv_name":"Uncletopia | New York City | 1 | All Maps | STV","players":[{"user_id":646,"name":"Epifiny","steam_id":76561198027958086,"connected_time":670000000000,"state":"active","ping":81},{"user_id":647,"name":"log","steam_id":76561198386992717,"connected_time":564000000000,"state":"active","ping":72},{"user_id":632,"name":"guy","steam_id":76561198079925551,"connected_time":1079000000000,"state":"active","ping":46},{"user_id":656,"name":"squart guy","steam_id":76561199411560141,"connected_time":173000000000,"state":"active","ping":114},{"user_id":633,"name":"C0RV3L","steam_id":76561199205094837,"connected_time":1072000000000,"state":"active","ping":71},{"user_id":559,"name":"Terror-Billy #SaveTF2","steam_id":76561198328141870,"connected_time":8683000000000,"state":"active","ping":66},{"user_id":654,"name":"NANOBITES","steam_id":76561198186944363,"connected_time":277000000000,"state":"active","ping":67},{"user_id":655,"name":"at4p4l  her","steam_id":76561198877065517,"connected_time":232000000000,"state":"active","ping":136},{"user_id":636,"name":"Kdash","steam_id":76561198043829155,"connected_time":1006000000000,"state":"active","ping":102},{"user_id":645,"name":"Burial","steam_id":76561198200227585,"connected_time":745000000000,"state":"active","ping":72},{"user_id":638,"name":"Big Boy B-Franks","steam_id":76561198050292373,"connected_time":842000000000,"state":"active","ping":91},{"user_id":648,"name":"happs (God is good)","steam_id":76561198364093418,"connected_time":456000000000,"state":"active","ping":70},{"user_id":640,"name":"TinyTator","steam_id":76561198799282234,"connected_time":836000000000,"state":"active","ping":81},{"user_id":554,"name":"wool","steam_id":76561198869689933,"connected_time":9748000000000,"state":"active","ping":52},{"user_id":650,"name":"Gary","steam_id":76561199246023546,"connected_time":343000000000,"state":"active","ping":131},{"user_id":657,"name":"Acorn","steam_id":76561198353480153,"connected_time":112000000000,"state":"active","ping":73},{"user_id":642,"name":"Kaden","steam_id":76561198096434754,"connected_time":820000000000,"state":"active","ping":90},{"user_id":643,"name":"Zenire","steam_id":76561199087298510,"connected_time":798000000000,"state":"active","ping":124},{"user_id":629,"name":"Osteo-Oligarch","steam_id":76561198164731896,"connected_time":1643000000000,"state":"active","ping":74},{"user_id":652,"name":"retinz","steam_id":76561198135563495,"connected_time":304000000000,"state":"active","ping":56},{"user_id":581,"name":"CosmicKlown","steam_id":76561198158386235,"connected_time":6451000000000,"state":"active","ping":45},{"user_id":607,"name":"SushiYum","steam_id":76561199376772893,"connected_time":3616000000000,"state":"active","ping":75},{"user_id":658,"name":"ceo of pl_pier","steam_id":76561198085696816,"connected_time":76000000000,"state":"active","ping":65},{"user_id":649,"name":"Exio","steam_id":76561198218639325,"connected_time":449000000000,"state":"active","ping":64}]},{"server_id":14,"name":"Uncletopia | New York City | 2 | All Maps","name_short":"nyc-2","host":"nyc-1.us.uncletopia.com","port":27025,"enabled":true,"region":"us-east","cc":"us","latitude":40.73061,"longitude":-73.93524,"reserved":0,"last_update":"0001-01-01T00:00:00Z","name_a2s":"Uncletopia | New York City | 2 | All Maps","protocol":17,"map":"koth_harvest_final","folder":"tf","game":"Team Fortress","app_id":440,"player_count":22,"max_players":24,"Bots":0,"server_type":"Dedicated","server_os":"Linux","password":true,"vac":true,"version":"7961495","steam_id":85568392924469994,"keywords":["cp","nocrits","nodmgspread","uncletopia"],"game_id":440,"stv_port":27026,"stv_name":"Uncletopia | New York City | 2 | All Maps | STV","players":[{"user_id":863,"name":"Shwartzy","steam_id":76561198073927139,"connected_time":5184000000000,"state":"active","ping":51},{"user_id":867,"name":"Chanddy","steam_id":76561198058949058,"connected_time":4958000000000,"state":"active","ping":58},{"user_id":947,"name":"Sh3ba Spaniel","steam_id":76561198047412394,"connected_time":958000000000,"state":"active","ping":77},{"user_id":931,"name":"addies for free","steam_id":76561199195602221,"connected_time":2343000000000,"state":"active","ping":45},{"user_id":864,"name":"hopdon","steam_id":76561198051616613,"connected_time":4979000000000,"state":"active","ping":86},{"user_id":951,"name":"Slauvy","steam_id":76561198001479663,"connected_time":47000000000,"state":"active","ping":72},{"user_id":891,"name":"Dusk","steam_id":76561198119302704,"connected_time":4181000000000,"state":"active","ping":36},{"user_id":949,"name":"Bastardson62","steam_id":76561199112288342,"connected_time":296000000000,"state":"active","ping":69},{"user_id":932,"name":"TheEmeraldDuck","steam_id":76561197999692032,"connected_time":2249000000000,"state":"active","ping":45},{"user_id":920,"name":"Brigadier General Bacon","steam_id":76561198046787753,"connected_time":3143000000000,"state":"active","ping":84},{"user_id":927,"name":"Draconis","steam_id":76561198151381256,"connected_time":2695000000000,"state":"active","ping":57},{"user_id":952,"name":"ORKERMON","steam_id":76561198295162737,"connected_time":27000000000,"state":"active","ping":66},{"user_id":953,"name":"SasukeGOD","steam_id":76561199077255310,"connected_time":24000000000,"state":"active","ping":70},{"user_id":946,"name":"DivineBanana","steam_id":76561198026529731,"connected_time":1038000000000,"state":"active","ping":85},{"user_id":940,"name":"DededeMain | trade.tf","steam_id":76561198310951632,"connected_time":1721000000000,"state":"active","ping":54},{"user_id":922,"name":"Walter and the Band of the Hawk","steam_id":76561198028431416,"connected_time":3106000000000,"state":"active","ping":102},{"user_id":925,"name":"Baron von Whoopsie","steam_id":76561197996691013,"connected_time":2733000000000,"state":"active","ping":55},{"user_id":846,"name":"Wique","steam_id":76561198071217597,"connected_time":6500000000000,"state":"active","ping":68},{"user_id":836,"name":"˗ˏˋNima´ˎ˗","steam_id":76561198102045762,"connected_time":7796000000000,"state":"active","ping":65},{"user_id":918,"name":"Bush Inspector","steam_id":76561198287505512,"connected_time":3557000000000,"state":"active","ping":129},{"user_id":950,"name":"❤Womp❤","steam_id":76561198167488304,"connected_time":289000000000,"state":"active","ping":64},{"user_id":562,"name":"zpalmtree","steam_id":76561198134307620,"connected_time":23031000000000,"state":"active","ping":64}]},{"server_id":15,"name":"Uncletopia | New York City | 3 | Stopwatch","name_short":"nyc-3","host":"nyc-1.us.uncletopia.com","port":27035,"enabled":true,"region":"us-east","cc":"us","latitude":40.73061,"longitude":-73.93524,"reserved":0,"last_update":"0001-01-01T00:00:00Z","name_a2s":"Uncletopia | New York City | 3 | Stopwatch","protocol":17,"map":"koth_lakeside_final","folder":"tf","game":"Team Fortress","app_id":440,"player_count":0,"max_players":24,"Bots":0,"server_type":"Dedicated","server_os":"Linux","password":true,"vac":true,"version":"7961495","steam_id":85568392924742820,"keywords":["cp","nocrits","nodmgspread","uncletopia"],"game_id":440,"stv_port":27036,"stv_name":"Uncletopia | New York City | 3 | Stopwatch | STV","players":null},{"server_id":16,"name":"Uncletopia | New York City | 4 | Community","name_short":"nyc-4","host":"nyc-1.us.uncletopia.com","port":27045,"enabled":true,"region":"us-east","cc":"us","latitude":40.73061,"longitude":-73.93524,"reserved":0,"last_update":"0001-01-01T00:00:00Z","name_a2s":"Uncletopia | New York City | 4 | Community","protocol":17,"map":"workshop/koth_trenchfoot_b1a.ugc731436616","folder":"tf","game":"Team Fortress","app_id":440,"player_count":0,"max_players":24,"Bots":0,"server_type":"Dedicated","server_os":"Linux","password":true,"vac":true,"version":"7961495","steam_id":85568392924742821,"keywords":["cp","nocrits","nodmgspread","uncletopia"],"game_id":440,"stv_port":27046,"stv_name":"Uncletopia | New York City | 4 | Community | STV","players":null},{"server_id":142,"name":"Uncletopia | São Paulo | 1 | All Maps","name_short":"sao-1","host":"sao-1.br.uncletopia.com","port":27015,"enabled":true,"region":"sa","cc":"br","latitude":-23.533773,"longitude":-46.62529,"reserved":0,"last_update":"0001-01-01T00:00:00Z","name_a2s":"Uncletopia | São Paulo | 1 | All Maps","protocol":17,"map":"pl_frontier_final","folder":"tf","game":"Team Fortress","app_id":440,"player_count":0,"max_players":24,"Bots":0,"server_type":"Dedicated","server_os":"Linux","password":true,"vac":true,"version":"7961495","steam_id":85568392924469996,"keywords":["nocrits","nodmgspread","payload","uncletopia"],"game_id":440,"stv_port":27016,"stv_name":"Uncletopia | São Paulo | 1 | All Maps | STV","players":null},{"server_id":143,"name":"Uncletopia | São Paulo | 2 | Community","name_short":"sao-2","host":"sao-2.br.uncletopia.com","port":27015,"enabled":true,"region":"sa","cc":"br","latitude":-23.533773,"longitude":-46.62529,"reserved":0,"last_update":"0001-01-01T00:00:00Z","name_a2s":"Uncletopia | São Paulo | 2 | Community","protocol":17,"map":"workshop/koth_product_final.ugc454272353","folder":"tf","game":"Team Fortress","app_id":440,"player_count":0,"max_players":24,"Bots":0,"server_type":"Dedicated","server_os":"Linux","password":true,"vac":true,"version":"7961495","steam_id":85568392924485349,"keywords":["cp","nocrits","nodmgspread","uncletopia"],"game_id":440,"stv_port":27016,"stv_name":"Uncletopia | São Paulo | 2 | Community | STV","players":null},{"server_id":7,"name":"Uncletopia | Seattle | 1 | All Maps","name_short":"sea-1","host":"sea-1.us.uncletopia.com","port":27015,"enabled":true,"region":"us-west","cc":"us","latitude":47.608013,"longitude":-122.33517,"reserved":0,"last_update":"0001-01-01T00:00:00Z","name_a2s":"Uncletopia | Seattle | 1 | All Maps","protocol":17,"map":"pl_borneo","folder":"tf","game":"Team Fortress","app_id":440,"player_count":24,"max_players":24,"Bots":0,"server_type":"Dedicated","server_os":"Linux","password":true,"vac":true,"version":"7961495","steam_id":85568392924469997,"keywords":["nocrits","nodmgspread","payload","uncletopia"],"game_id":440,"stv_port":27016,"stv_name":"Uncletopia | Seattle | 1 | All Maps | STV","players":[{"user_id":702,"name":"holiday-sized update","steam_id":76561198023324513,"connected_time":2554000000000,"state":"active","ping":36},{"user_id":688,"name":"jayeskae","steam_id":76561198144220801,"connected_time":2792000000000,"state":"active","ping":53},{"user_id":612,"name":"Spectre","steam_id":76561198037535169,"connected_time":9246000000000,"state":"active","ping":68},{"user_id":583,"name":"nolove","steam_id":76561198274550638,"connected_time":11420000000000,"state":"active","ping":106},{"user_id":712,"name":"mboddy","steam_id":76561197997190809,"connected_time":1156000000000,"state":"active","ping":53},{"user_id":595,"name":"Ayayayayayahuasca","steam_id":76561199002906056,"connected_time":10291000000000,"state":"active","ping":46},{"user_id":670,"name":"♥ Osana Najimi ♥ (Soupcan)","steam_id":76561198056269538,"connected_time":3399000000000,"state":"active","ping":45},{"user_id":678,"name":"Defeat","steam_id":76561198065203818,"connected_time":3206000000000,"state":"active","ping":35},{"user_id":596,"name":"Steeb","steam_id":76561198008058593,"connected_time":10250000000000,"state":"active","ping":75},{"user_id":689,"name":"Sniff","steam_id":76561198010270922,"connected_time":2758000000000,"state":"active","ping":45},{"user_id":718,"name":"TROY","steam_id":76561197983852176,"connected_time":911000000000,"state":"active","ping":75},{"user_id":658,"name":"Grand","steam_id":76561198290143399,"connected_time":4922000000000,"state":"active","ping":74},{"user_id":668,"name":"Luca","steam_id":76561198125087140,"connected_time":4217000000000,"state":"active","ping":45},{"user_id":713,"name":"rat gets the cheese","steam_id":76561198031234032,"connected_time":1154000000000,"state":"active","ping":108},{"user_id":677,"name":"Gm_Trash","steam_id":76561199445091548,"connected_time":3223000000000,"state":"active","ping":60},{"user_id":719,"name":"An Old Lady","steam_id":76561198047480318,"connected_time":548000000000,"state":"active","ping":65},{"user_id":714,"name":"weed boner","steam_id":76561198034131572,"connected_time":1148000000000,"state":"active","ping":38},{"user_id":582,"name":"smeasly","steam_id":76561198028718812,"connected_time":11424000000000,"state":"active","ping":43},{"user_id":715,"name":"gorlab","steam_id":76561198025089694,"connected_time":1145000000000,"state":"active","ping":61},{"user_id":717,"name":"RIP Bashar Jackson","steam_id":76561198062940197,"connected_time":1058000000000,"state":"active","ping":45},{"user_id":674,"name":"Tom Skirrett","steam_id":76561198014600788,"connected_time":3242000000000,"state":"active","ping":74},{"user_id":636,"name":"wendigo","steam_id":76561197994528974,"connected_time":7517000000000,"state":"active","ping":80},{"user_id":705,"name":"frank","steam_id":76561198137777483,"connected_time":2542000000000,"state":"active","ping":112},{"user_id":709,"name":"soup","steam_id":76561198043209046,"connected_time":2023000000000,"state":"active","ping":73}]},{"server_id":119,"name":"Uncletopia | Seattle | 2 | All Maps","name_short":"sea-2","host":"sea-1.us.uncletopia.com","port":27025,"enabled":true,"region":"us-west","cc":"us","latitude":47.608013,"longitude":-122.33517,"reserved":0,"last_update":"0001-01-01T00:00:00Z","name_a2s":"Uncletopia | Seattle | 2 | All Maps","protocol":17,"map":"pl_badwater","folder":"tf","game":"Team Fortress","app_id":440,"player_count":24,"max_players":24,"Bots":0,"server_type":"Dedicated","server_os":"Linux","password":true,"vac":true,"version":"7961495","steam_id":85568392924469998,"keywords":["nocrits","nodmgspread","payload","uncletopia"],"game_id":440,"stv_port":27026,"stv_name":"Uncletopia | Seattle | 2 | All Maps | STV","players":[{"user_id":516,"name":"«Dᵃʳᵏ.,,.Tᵉᵐᵖ»","steam_id":76561198018185884,"connected_time":1339000000000,"state":"active","ping":38},{"user_id":474,"name":"selvhat","steam_id":76561198114225509,"connected_time":5529000000000,"state":"active","ping":79},{"user_id":456,"name":"totally not a pile of beans","steam_id":76561198119851931,"connected_time":6929000000000,"state":"active","ping":130},{"user_id":525,"name":"Retroliar","steam_id":76561199004899484,"connected_time":411000000000,"state":"active","ping":81},{"user_id":488,"name":"Tuna Man","steam_id":76561198039977972,"connected_time":4234000000000,"state":"active","ping":47},{"user_id":526,"name":"Toothpork_","steam_id":76561198152242368,"connected_time":372000000000,"state":"active","ping":87},{"user_id":511,"name":"Spicy Chicken","steam_id":76561198074209737,"connected_time":2348000000000,"state":"active","ping":92},{"user_id":512,"name":"habanero chilli pepper","steam_id":76561197970371943,"connected_time":2289000000000,"state":"active","ping":164},{"user_id":388,"name":"ilun","steam_id":76561198042913843,"connected_time":14130000000000,"state":"active","ping":57},{"user_id":490,"name":"Drone #0432 (they/it)","steam_id":76561198027321950,"connected_time":3667000000000,"state":"active","ping":79},{"user_id":449,"name":"Hindmost","steam_id":76561199081837220,"connected_time":8314000000000,"state":"active","ping":100},{"user_id":513,"name":"sierra","steam_id":76561197969873415,"connected_time":2283000000000,"state":"active","ping":143},{"user_id":391,"name":"SCARCELY LETHAL BUTTERFLY KNIFE","steam_id":76561199488457138,"connected_time":13777000000000,"state":"active","ping":59},{"user_id":524,"name":"Steve","steam_id":76561198352805460,"connected_time":446000000000,"state":"active","ping":71},{"user_id":507,"name":"Azary56","steam_id":76561198321404617,"connected_time":2469000000000,"state":"active","ping":62},{"user_id":527,"name":"Feldspaten","steam_id":76561199122059102,"connected_time":370000000000,"state":"active","ping":95},{"user_id":514,"name":"PHIL1L1L1L1L","steam_id":76561198309010627,"connected_time":2215000000000,"state":"active","ping":83},{"user_id":515,"name":"Wigan Akimbo","steam_id":76561198004916219,"connected_time":1803000000000,"state":"active","ping":73},{"user_id":517,"name":"Poundcake","steam_id":76561198042196918,"connected_time":1005000000000,"state":"active","ping":47},{"user_id":528,"name":"↟ ↟ callie ↟ ↟","steam_id":76561198058199952,"connected_time":39000000000,"state":"active","ping":35},{"user_id":521,"name":"R5-D4","steam_id":76561198025196439,"connected_time":606000000000,"state":"active","ping":55},{"user_id":518,"name":"wrench","steam_id":76561198137242573,"connected_time":974000000000,"state":"active","ping":53},{"user_id":522,"name":"moomin","steam_id":76561198336244269,"connected_time":605000000000,"state":"active","ping":75},{"user_id":523,"name":"digitaldisorder","steam_id":76561198041841128,"connected_time":553000000000,"state":"active","ping":80}]},{"server_id":406,"name":"Uncletopia | Seattle | 3 | Stopwatch","name_short":"sea-3","host":"sea-1.us.uncletopia.com","port":27035,"enabled":true,"region":"us-west","cc":"us","latitude":47.608013,"longitude":-122.33517,"reserved":0,"last_update":"0001-01-01T00:00:00Z","name_a2s":"Uncletopia | Seattle | 3 | Stopwatch","protocol":17,"map":"workshop/koth_bagel_rc6.ugc2514036946","folder":"tf","game":"Team Fortress","app_id":440,"player_count":24,"max_players":24,"Bots":0,"server_type":"Dedicated","server_os":"Linux","password":true,"vac":true,"version":"7961495","steam_id":85568392924515217,"keywords":["cp","nocrits","nodmgspread","uncletopia"],"game_id":440,"stv_port":27036,"stv_name":"Uncletopia | Seattle | 3 | Stopwatch | STV","players":[{"user_id":17,"name":"basement","steam_id":76561198936592005,"connected_time":6518000000000,"state":"active","ping":45},{"user_id":18,"name":"jocsanbruh","steam_id":76561198227338548,"connected_time":6453000000000,"state":"active","ping":41},{"user_id":82,"name":"simcye","steam_id":76561198010991761,"connected_time":1216000000000,"state":"active","ping":47},{"user_id":71,"name":"Acuzik","steam_id":76561198045453400,"connected_time":1571000000000,"state":"active","ping":101},{"user_id":23,"name":"AWildCheeseFish","steam_id":76561198846504974,"connected_time":5382000000000,"state":"active","ping":45},{"user_id":55,"name":"pete davidson","steam_id":76561198073549508,"connected_time":2072000000000,"state":"active","ping":64},{"user_id":27,"name":"MancalaMadMan","steam_id":76561198347324053,"connected_time":4368000000000,"state":"active","ping":108},{"user_id":102,"name":"Gammaplex","steam_id":76561198981228176,"connected_time":376000000000,"state":"active","ping":94},{"user_id":85,"name":"bcizzo","steam_id":76561197994399953,"connected_time":1125000000000,"state":"active","ping":64},{"user_id":75,"name":"Donny Q","steam_id":76561198020901703,"connected_time":1459000000000,"state":"active","ping":37},{"user_id":78,"name":"One Horned Bitch Destroyer","steam_id":76561198045810191,"connected_time":1380000000000,"state":"active","ping":44},{"user_id":96,"name":"Braingoo Hex","steam_id":76561198083094783,"connected_time":724000000000,"state":"active","ping":111},{"user_id":87,"name":"Oryx, Nightmare Daddy","steam_id":76561197989271492,"connected_time":1057000000000,"state":"active","ping":44},{"user_id":81,"name":"Doogly","steam_id":76561198080281457,"connected_time":1275000000000,"state":"active","ping":49},{"user_id":103,"name":"elder lich joe biden","steam_id":76561198257134732,"connected_time":314000000000,"state":"active","ping":53},{"user_id":95,"name":"seats","steam_id":76561197998756039,"connected_time":863000000000,"state":"active","ping":75},{"user_id":92,"name":"El Gato Paranoico","steam_id":76561198116567116,"connected_time":994000000000,"state":"active","ping":136},{"user_id":93,"name":"Mingrim","steam_id":76561197988691849,"connected_time":965000000000,"state":"active","ping":50},{"user_id":97,"name":"big car","steam_id":76561198067082350,"connected_time":673000000000,"state":"active","ping":84},{"user_id":90,"name":"Future_Max","steam_id":76561198312718139,"connected_time":1018000000000,"state":"active","ping":54},{"user_id":101,"name":"CPTforever","steam_id":76561198237767198,"connected_time":515000000000,"state":"active","ping":61},{"user_id":104,"name":"TüCold","steam_id":76561198111278197,"connected_time":299000000000,"state":"active","ping":60},{"user_id":105,"name":"Saintlike #SaveTF2","steam_id":76561198368576108,"connected_time":200000000000,"state":"active","ping":98},{"user_id":106,"name":"shield","steam_id":76561198976876859,"connected_time":112000000000,"state":"active","ping":137}]},{"server_id":17,"name":"Uncletopia | San Francisco | 1 | All Maps","name_short":"sfo-1","host":"sfo-1.us.uncletopia.com","port":27015,"enabled":true,"region":"us-west","cc":"us","latitude":37.77397,"longitude":-122.4313,"reserved":0,"last_update":"0001-01-01T00:00:00Z","name_a2s":"Uncletopia | San Francisco | 1 | All Maps","protocol":17,"map":"pl_pier","folder":"tf","game":"Team Fortress","app_id":440,"player_count":24,"max_players":24,"Bots":0,"server_type":"Dedicated","server_os":"Linux","password":true,"vac":true,"version":"7961495","steam_id":85568392924469999,"keywords":["nocrits","nodmgspread","payload","uncletopia"],"game_id":440,"stv_port":27016,"stv_name":"Uncletopia | San Francisco | 1 | All Maps | STV","players":[{"user_id":576,"name":"Irritated Duck","steam_id":76561198247792076,"connected_time":188000000000,"state":"active","ping":80},{"user_id":569,"name":"Sleepy Bunny","steam_id":76561198069870490,"connected_time":254000000000,"state":"active","ping":66},{"user_id":500,"name":"aisu","steam_id":76561198043768507,"connected_time":6571000000000,"state":"active","ping":104},{"user_id":563,"name":"adolf tickler","steam_id":76561198163120788,"connected_time":1058000000000,"state":"active","ping":60},{"user_id":579,"name":"goug","steam_id":76561198345528370,"connected_time":22000000000,"state":"active","ping":38},{"user_id":558,"name":"EnragedWaters","steam_id":76561198317135757,"connected_time":1595000000000,"state":"active","ping":61},{"user_id":449,"name":"Flinkerdoodle","steam_id":76561198052111706,"connected_time":10131000000000,"state":"active","ping":79},{"user_id":541,"name":"bbits689","steam_id":76561199061014287,"connected_time":3689000000000,"state":"active","ping":91},{"user_id":552,"name":"Cave Dweller","steam_id":76561198374825685,"connected_time":1723000000000,"state":"active","ping":58},{"user_id":571,"name":"Dr. Bob","steam_id":76561198020215410,"connected_time":243000000000,"state":"active","ping":58},{"user_id":572,"name":"Chills","steam_id":76561198086144555,"connected_time":243000000000,"state":"active","ping":83},{"user_id":553,"name":"Data_on_Acid","steam_id":76561198017657660,"connected_time":1711000000000,"state":"active","ping":59},{"user_id":540,"name":"Orange","steam_id":76561199141033230,"connected_time":3731000000000,"state":"active","ping":80},{"user_id":566,"name":"raaabr","steam_id":76561198050339024,"connected_time":670000000000,"state":"active","ping":72},{"user_id":573,"name":"Hello Citizen","steam_id":76561198055522364,"connected_time":234000000000,"state":"active","ping":65},{"user_id":574,"name":"cameltoe joe","steam_id":76561198100779419,"connected_time":222000000000,"state":"active","ping":60},{"user_id":537,"name":"Southern Pacific AC-9","steam_id":76561198126859977,"connected_time":4014000000000,"state":"active","ping":109},{"user_id":564,"name":"Scam Likely","steam_id":76561198044104178,"connected_time":787000000000,"state":"active","ping":86},{"user_id":567,"name":"the milk man","steam_id":76561198192546641,"connected_time":667000000000,"state":"active","ping":90},{"user_id":556,"name":"Pyrotek⁴","steam_id":76561198072747672,"connected_time":1651000000000,"state":"active","ping":46},{"user_id":496,"name":"Professional Virgin","steam_id":76561199074327402,"connected_time":6834000000000,"state":"active","ping":108},{"user_id":575,"name":"sora","steam_id":76561198094256973,"connected_time":217000000000,"state":"active","ping":55},{"user_id":532,"name":"Melody","steam_id":76561198407789232,"connected_time":4134000000000,"state":"active","ping":77},{"user_id":577,"name":"ryqset","steam_id":76561198349299874,"connected_time":185000000000,"state":"active","ping":83}]},{"server_id":18,"name":"Uncletopia | San Francisco | 2 | All Maps","name_short":"sfo-2","host":"sfo-1.us.uncletopia.com","port":27025,"enabled":true,"region":"us-west","cc":"us","latitude":37.77397,"longitude":-122.4313,"reserved":0,"last_update":"0001-01-01T00:00:00Z","name_a2s":"Uncletopia | San Francisco | 2 | All Maps","protocol":17,"map":"koth_cascade","folder":"tf","game":"Team Fortress","app_id":440,"player_count":0,"max_players":24,"Bots":0,"server_type":"Dedicated","server_os":"Linux","password":true,"vac":true,"version":"7961495","steam_id":85568392924470000,"keywords":["cp","nocrits","nodmgspread","uncletopia"],"game_id":440,"stv_port":27026,"stv_name":"Uncletopia | San Francisco | 2 | All Maps | STV","players":null},{"server_id":19,"name":"Uncletopia | San Francisco | 3 | Stopwatch","name_short":"sfo-3","host":"sfo-1.us.uncletopia.com","port":27035,"enabled":true,"region":"us-west","cc":"us","latitude":37.77397,"longitude":-122.4313,"reserved":0,"last_update":"0001-01-01T00:00:00Z","name_a2s":"Uncletopia | San Francisco | 3 | Stopwatch","protocol":17,"map":"workshop/pl_badwater_pro_v12.ugc2142942074","folder":"tf","game":"Team Fortress","app_id":440,"player_count":0,"max_players":24,"Bots":0,"server_type":"Dedicated","server_os":"Linux","password":true,"vac":true,"version":"7961495","steam_id":85568392924742824,"keywords":["nocrits","nodmgspread","payload","uncletopia"],"game_id":440,"stv_port":27036,"stv_name":"Uncletopia | San Francisco | 3 | Stopwatch | STV","players":null},{"server_id":20,"name":"Uncletopia | San Francisco | 4 | Community","name_short":"sfo-4","host":"sfo-1.us.uncletopia.com","port":27045,"enabled":true,"region":"us-west","cc":"us","latitude":37.77397,"longitude":-122.4313,"reserved":0,"last_update":"0001-01-01T00:00:00Z","name_a2s":"Uncletopia | San Francisco | 4 | Community","protocol":17,"map":"workshop/cp_mannbase_rc2a.ugc1900737467","folder":"tf","game":"Team Fortress","app_id":440,"player_count":0,"max_players":24,"Bots":0,"server_type":"Dedicated","server_os":"Linux","password":true,"vac":true,"version":"7961495","steam_id":85568392924742826,"keywords":["cp","nocrits","nodmgspread","uncletopia"],"game_id":440,"stv_port":27046,"stv_name":"Uncletopia | San Francisco | 4 | Community | STV","players":null},{"server_id":141,"name":"Uncletopia | Sydney | 1 | All Maps","name_short":"syd-1","host":"syd-1.au.uncletopia.com","port":27015,"enabled":true,"region":"au","cc":"au","latitude":-33.865143,"longitude":151.2099,"reserved":0,"last_update":"0001-01-01T00:00:00Z","name_a2s":"Uncletopia | Sydney | 1 | All Maps","protocol":17,"map":"pl_thundermountain","folder":"tf","game":"Team Fortress","app_id":440,"player_count":24,"max_players":24,"Bots":0,"server_type":"Dedicated","server_os":"Linux","password":true,"vac":true,"version":"7961495","steam_id":85568392924470001,"keywords":["nocrits","nodmgspread","payload","uncletopia"],"game_id":440,"stv_port":27016,"stv_name":"Uncletopia | Sydney | 1 | All Maps | STV","players":[{"user_id":280,"name":"Massira","steam_id":76561199445907962,"connected_time":1039000000000,"state":"active","ping":53},{"user_id":283,"name":"horrid webbon ᘛ⁐̤ᕐᐷ","steam_id":76561198061998379,"connected_time":802000000000,"state":"active","ping":37},{"user_id":220,"name":"JP","steam_id":76561198026221737,"connected_time":5395000000000,"state":"active","ping":58},{"user_id":293,"name":"jono","steam_id":76561198059701670,"connected_time":378000000000,"state":"active","ping":43},{"user_id":291,"name":"george from young sheldon","steam_id":76561198028764596,"connected_time":500000000000,"state":"active","ping":59},{"user_id":257,"name":"A Burnt Cheeseburger","steam_id":76561198044178223,"connected_time":2592000000000,"state":"active","ping":64},{"user_id":292,"name":"Pseudoman","steam_id":76561198131158447,"connected_time":405000000000,"state":"active","ping":68},{"user_id":287,"name":"raf manji","steam_id":76561198998542066,"connected_time":735000000000,"state":"active","ping":59},{"user_id":268,"name":"frog","steam_id":76561198300661780,"connected_time":1868000000000,"state":"active","ping":42},{"user_id":294,"name":"Toaster Lad","steam_id":76561199070168033,"connected_time":362000000000,"state":"active","ping":65},{"user_id":249,"name":"Batering","steam_id":76561198039849442,"connected_time":3009000000000,"state":"active","ping":54},{"user_id":266,"name":"Dupiter","steam_id":76561198108820767,"connected_time":1982000000000,"state":"active","ping":60},{"user_id":196,"name":"P. Ness","steam_id":76561198037664265,"connected_time":6877000000000,"state":"active","ping":60},{"user_id":285,"name":"Tain","steam_id":76561198255611856,"connected_time":777000000000,"state":"active","ping":75},{"user_id":281,"name":"jacob!","steam_id":76561199253363005,"connected_time":827000000000,"state":"active","ping":111},{"user_id":270,"name":"Moose-tache","steam_id":76561199061383142,"connected_time":1852000000000,"state":"active","ping":55},{"user_id":207,"name":"las","steam_id":76561198039162155,"connected_time":6352000000000,"state":"active","ping":51},{"user_id":274,"name":"Scrumpeh","steam_id":76561198058085957,"connected_time":1720000000000,"state":"active","ping":59},{"user_id":288,"name":"Sinclair","steam_id":76561198836630870,"connected_time":616000000000,"state":"active","ping":101},{"user_id":275,"name":"no teles 4 u","steam_id":76561198018478297,"connected_time":1642000000000,"state":"active","ping":72},{"user_id":256,"name":"Snuky","steam_id":76561198117902338,"connected_time":2595000000000,"state":"active","ping":44},{"user_id":282,"name":"Helohel","steam_id":76561198112998639,"connected_time":827000000000,"state":"active","ping":69},{"user_id":296,"name":"hazz_mcpie -BvM-","steam_id":76561198092450084,"connected_time":140000000000,"state":"active","ping":89},{"user_id":245,"name":"wheezer","steam_id":76561199439508788,"connected_time":3491000000000,"state":"active","ping":66}]},{"server_id":123,"name":"Uncletopia | Sydney | 2 | All Maps","name_short":"syd-2","host":"syd-1.au.uncletopia.com","port":27025,"enabled":true,"region":"au","cc":"au","latitude":-33.865143,"longitude":151.2099,"reserved":0,"last_update":"0001-01-01T00:00:00Z","name_a2s":"Uncletopia | Sydney | 2 | All Maps","protocol":17,"map":"koth_lakeside_final","folder":"tf","game":"Team Fortress","app_id":440,"player_count":0,"max_players":24,"Bots":0,"server_type":"Dedicated","server_os":"Linux","password":true,"vac":true,"version":"7961495","steam_id":85568392924470002,"keywords":["cp","nocrits","nodmgspread","uncletopia"],"game_id":440,"stv_port":27026,"stv_name":"Uncletopia | Sydney | 2 | All Maps | STV","players":null},{"server_id":395,"name":"Uncletopia | Sydney | 3 | All Maps","name_short":"syd-3","host":"syd-1.au.uncletopia.com","port":27035,"enabled":true,"region":"au","cc":"au","latitude":-33.865143,"longitude":151.2099,"reserved":0,"last_update":"0001-01-01T00:00:00Z","name_a2s":"Uncletopia | Sydney | 3 | All Maps","protocol":17,"map":"cp_altitude","folder":"tf","game":"Team Fortress","app_id":440,"player_count":0,"max_players":24,"Bots":0,"server_type":"Dedicated","server_os":"Linux","password":true,"vac":true,"version":"7961495","steam_id":85568392925194467,"keywords":["cp","nocrits","nodmgspread","uncletopia"],"game_id":440,"stv_port":27036,"stv_name":"Uncletopia | Sydney | 3 | All Maps | STV","players":null},{"server_id":396,"name":"Uncletopia | Sydney | 4 | All Maps","name_short":"syd-4","host":"syd-1.au.uncletopia.com","port":27045,"enabled":true,"region":"au","cc":"au","latitude":-33.865143,"longitude":151.2099,"reserved":0,"last_update":"0001-01-01T00:00:00Z","name_a2s":"Uncletopia | Sydney | 4 | All Maps","protocol":17,"map":"cp_dustbowl","folder":"tf","game":"Team Fortress","app_id":440,"player_count":1,"max_players":24,"Bots":0,"server_type":"Dedicated","server_os":"Linux","password":true,"vac":true,"version":"7961495","steam_id":85568392925397958,"keywords":["cp","nocrits","nodmgspread","uncletopia"],"game_id":440,"stv_port":27046,"stv_name":"Uncletopia | Sydney | 4 | All Maps | STV","players":[{"user_id":4,"name":"Phibs","steam_id":76561199323730865,"connected_time":77000000000,"state":"active","ping":31}]},{"server_id":58,"name":"Uncletopia | Sydney | 5 | Stopwatch","name_short":"syd-5","host":"syd-1.au.uncletopia.com","port":27055,"enabled":true,"region":"au","cc":"au","latitude":-33.865143,"longitude":151.2099,"reserved":0,"last_update":"0001-01-01T00:00:00Z","name_a2s":"Uncletopia | Sydney | 5 | Stopwatch","protocol":17,"map":"koth_highpass","folder":"tf","game":"Team Fortress","app_id":440,"player_count":0,"max_players":24,"Bots":0,"server_type":"Dedicated","server_os":"Linux","password":true,"vac":true,"version":"7961495","steam_id":85568392925397959,"keywords":["cp","nocrits","nodmgspread","uncletopia"],"game_id":440,"stv_port":27056,"stv_name":"Uncletopia | Sydney | 5 | Stopwatch | STV","players":null},{"server_id":59,"name":"Uncletopia | Sydney | 6 | Community","name_short":"syd-6","host":"syd-1.au.uncletopia.com","port":27065,"enabled":true,"region":"au","cc":"au","latitude":-33.865143,"longitude":151.2099,"reserved":0,"last_update":"0001-01-01T00:00:00Z","name_a2s":"Uncletopia | Sydney | 6 | Community","protocol":17,"map":"cp_sunshine","folder":"tf","game":"Team Fortress","app_id":440,"player_count":0,"max_players":24,"Bots":0,"server_type":"Dedicated","server_os":"Linux","password":true,"vac":true,"version":"7961495","steam_id":85568392925397960,"keywords":["cp","nocrits","nodmgspread","uncletopia"],"game_id":440,"stv_port":27066,"stv_name":"Uncletopia | Sydney | 6 | Community | STV","players":null},{"server_id":49,"name":"Uncletopia | Warsaw | 1 | One Thousand Uncles","name_short":"waw-1","host":"waw-1.pl.uncletopia.com","port":27015,"enabled":true,"region":"eu","cc":"pl","latitude":52.2297,"longitude":21.017532,"reserved":0,"last_update":"0001-01-01T00:00:00Z","name_a2s":"Uncletopia | Warsaw | 1 | One Thousand Uncles","protocol":17,"map":"koth_highpass","folder":"tf","game":"Team Fortress","app_id":440,"player_count":18,"max_players":32,"Bots":16,"server_type":"Dedicated","server_os":"Linux","password":true,"vac":true,"version":"7961495","steam_id":85568392925397850,"keywords":["alltalk","bots","cp","danepve","increased_maxplayers","nocrits","norespawntime","uncletopia"],"game_id":440,"stv_port":0,"stv_name":"","players":[{"user_id":37,"name":"THEALLSEEINGCAKE","steam_id":76561199251417876,"connected_time":346000000000,"state":"active","ping":92},{"user_id":39,"name":"XFACTOR | {Moshik Roth}","steam_id":76561198352842114,"connected_time":52000000000,"state":"active","ping":121}]},{"server_id":50,"name":"Uncletopia | Warsaw | 2 | One Thousand Uncles","name_short":"waw-2","host":"waw-1.pl.uncletopia.com","port":27025,"enabled":true,"region":"eu","cc":"pl","latitude":52.2297,"longitude":21.017532,"reserved":0,"last_update":"0001-01-01T00:00:00Z","name_a2s":"Uncletopia | Warsaw | 2 | One Thousand Uncles","protocol":17,"map":"pl_goldrush","folder":"tf","game":"Team Fortress","app_id":440,"player_count":0,"max_players":32,"Bots":0,"server_type":"Dedicated","server_os":"Linux","password":true,"vac":true,"version":"7961495","steam_id":85568392925397851,"keywords":["alltalk","danepve","increased_maxplayers","nocrits","norespawntime","payload","uncletopia"],"game_id":440,"stv_port":0,"stv_name":"","players":null},{"server_id":51,"name":"Uncletopia | Warsaw | 3 | All Maps","name_short":"waw-3","host":"waw-1.pl.uncletopia.com","port":27035,"enabled":true,"region":"eu","cc":"pl","latitude":52.2297,"longitude":21.017532,"reserved":0,"last_update":"0001-01-01T00:00:00Z","name_a2s":"Uncletopia | Warsaw | 3 | All Maps","protocol":17,"map":"plr_pipeline","folder":"tf","game":"Team Fortress","app_id":440,"player_count":0,"max_players":24,"Bots":0,"server_type":"Dedicated","server_os":"Linux","password":true,"vac":true,"version":"7961495","steam_id":85568392925397852,"keywords":["nocrits","nodmgspread","payload","uncletopia"],"game_id":440,"stv_port":27036,"stv_name":"Uncletopia | Warsaw | 3 | All Maps | STV","players":null},{"server_id":52,"name":"Uncletopia | Warsaw | 4 | All Maps","name_short":"waw-4","host":"waw-1.pl.uncletopia.com","port":27045,"enabled":true,"region":"eu","cc":"pl","latitude":52.2297,"longitude":21.017532,"reserved":0,"last_update":"0001-01-01T00:00:00Z","name_a2s":"Uncletopia | Warsaw | 4 | All Maps","protocol":17,"map":"cp_coldfront","folder":"tf","game":"Team Fortress","app_id":440,"player_count":0,"max_players":24,"Bots":0,"server_type":"Dedicated","server_os":"Linux","password":true,"vac":true,"version":"7961495","steam_id":85568392925397853,"keywords":["cp","nocrits","nodmgspread","uncletopia"],"game_id":440,"stv_port":27046,"stv_name":"Uncletopia | Warsaw | 4 | All Maps | STV","players":null},{"server_id":53,"name":"Uncletopia | Warsaw | 5 | Stopwatch","name_short":"waw-5","host":"waw-1.pl.uncletopia.com","port":27055,"enabled":true,"region":"eu","cc":"pl","latitude":52.2297,"longitude":21.017532,"reserved":0,"last_update":"0001-01-01T00:00:00Z","name_a2s":"Uncletopia | Warsaw | 5 | Stopwatch","protocol":17,"map":"workshop/koth_bagel_rc6.ugc2514036946","folder":"tf","game":"Team Fortress","app_id":440,"player_count":0,"max_players":24,"Bots":0,"server_type":"Dedicated","server_os":"Linux","password":true,"vac":true,"version":"7961495","steam_id":85568392925397854,"keywords":["cp","nocrits","nodmgspread","uncletopia"],"game_id":440,"stv_port":27056,"stv_name":"Uncletopia | Warsaw | 5 | Stopwatch | STV","players":null},{"server_id":54,"name":"Uncletopia | Warsaw | 6 | Community","name_short":"waw-6","host":"waw-1.pl.uncletopia.com","port":27065,"enabled":true,"region":"eu","cc":"pl","latitude":52.2297,"longitude":21.017532,"reserved":0,"last_update":"0001-01-01T00:00:00Z","name_a2s":"Uncletopia | Warsaw | 6 | Community","protocol":17,"map":"workshop/pl_badwater_pro_v12.ugc2142942074","folder":"tf","game":"Team Fortress","app_id":440,"player_count":0,"max_players":24,"Bots":0,"server_type":"Dedicated","server_os":"Linux","password":true,"vac":true,"version":"7961495","steam_id":85568392925397856,"keywords":["nocrits","nodmgspread","payload","uncletopia"],"game_id":440,"stv_port":27066,"stv_name":"Uncletopia | Warsaw | 6 | Community | STV","players":null}]}