{"status":true,"message":"","result":[{"server_id":9,"name":"Uncletopia | Atlanta | 1 | All Maps","name_short":"atl-1","host":"atl-1.us.uncletopia.com","port":27015,"enabled":true,"region":"us-east","cc":"us","latitude":33.753746,"longitude":-84.38633,"reserved":0,"last_update":"0001-01-01T00:00:00Z","name_a2s":"Uncletopia | Atlanta | 1 | All Maps","protocol":17,"map":"cp_snakewater_final1","folder":"tf","game":"Team Fortress","app_id":440,"player_count":0,"max_players":24,"Bots":0,"server_type":"Dedicated","server_os":"Linux","password":false,"vac":true,"version":"7961495","steam_id":85568392924469982,"keywords":["cp","nocrits","nodmgspread","uncletopia"],"game_id":440,"stv_port":27016,"stv_name":"Uncletopia | Atlanta | 1 | All Maps | STV","players":null},{"server_id":104,"name":"Uncletopia | Atlanta | 2 | All Maps","name_short":"atl-2","host":"atl-1.us.uncletopia.com","port":27025,"enabled":true,"region":"us-east","cc":"us","latitude":33.753746,"longitude":-84.38633,"reserved":0,"last_update":"0001-01-01T00:00:00Z","name_a2s":"Uncletopia | Atlanta | 2 | All Maps","protocol":17,"map":"cp_mountainlab","folder":"tf","game":"Team Fortress","app_id":440,"player_count":0,"max_players":24,"Bots":0,"server_type":"Dedicated","server_os":"Linux","password":false,"vac":true,"version":"7961495","steam_id":85568392924469983,"keywords":["cp","nocrits","nodmgspread","uncletopia"],"game_id":440,"stv_port":27026,"stv_name":"Uncletopia | Atlanta | 2 | All Maps | STV","players":null},{"server_id":400,"name":"Uncletopia | Atlanta | 3 | All Maps","name_short":"atl-3","host":"atl-1.us.uncletopia.com","port":27035,"enabled":true,"region":"us-east","cc":"us","latitude":33.753746,"longitude":-84.38633,"reserved":0,"last_update":"0001-01-01T00:00:00Z","name_a2s":"Uncletopia | Atlanta | 3 | All Maps","protocol":17,"map":"cp_process_final","folder":"tf","game":"Team Fortress","app_id":440,"player_count":0,"max_players":24,"Bots":0,"server_type":"Dedicated","server_os":"Linux","password":false,"vac":true,"version":"7961495","steam_id":85568392924515187,"keywords":["cp","nocrits","nodmgspread","uncletopia"],"game_id":440,"stv_port":27036,"stv_name":"Uncletopia | Atlanta | 3 | All Maps | STV","players":null},{"server_id":401,"name":"Uncletopia | Atlanta | 4 | Community","name_short":"atl-4","host":"atl-1.us.uncletopia.com","port":27045,"enabled":true,"region":"us-east","cc":"us","latitude":33.753746,"longitude":-84.38633,"reserved":0,"last_update":"0001-01-01T00:00:00Z","name_a2s":"Uncletopia | Atlanta | 4 | Community","protocol":17,"map":"koth_lakeside_final","folder":"tf","game":"Team Fortress","app_id":440,"player_count":0,"max_players":24,"Bots":0,"server_type":"Dedicated","server_os":"Linux","password":false,"vac":true,"version":"7961495","steam_id":85568392924515188,"keywords":["cp","nocrits","nodmgspread","uncletopia"],"game_id":440,"stv_port":27046,"stv_name":"Uncletopia | Atlanta | 4 | Community | STV","players":null},{"server_id":2,"name":"Uncletopia | Chicago | 1 | All Maps","name_short":"chi-1","host":"chi-1.us.uncletopia.com","port":27015,"enabled":true,"region":"us-central","cc":"us","latitude":41.881832,"longitude":-87.62318,"reserved":0,"last_update":"0001-01-01T00:00:00Z","name_a2s":"Uncletopia | Chicago | 1 | All Maps","protocol":17,"map":"pl_upward","folder":"tf","game":"Team Fortress","app_id":440,"player_count":24,"max_players":24,"Bots":0,"server_type":"Dedicated","server_os":"Linux","password":true,"vac":true,"version":"7961495","steam_id":85568392924469984,"keywords":["nocrits","nodmgspread","payload","uncletopia"],"game_id":440,"stv_port":27016,"stv_name":"Uncletopia | Chicago | 1 | All Maps | STV","players":[{"user_id":192,"name":"Mimiu the Mimiga","steam_id":76561197976714577,"connected_time":4718000000000,"state":"active","ping":62},{"user_id":169,"name":"Person","steam_id":76561198093244204,"connected_time":6848000000000,"state":"active","ping":73},{"user_id":222,"name":"Glue Gulper","steam_id":76561198158014525,"connected_time":621000000000,"state":"active","ping":59},{"user_id":200,"name":"blob","steam_id":76561198122375328,"connected_time":3722000000000,"state":"active","ping":60},{"user_id":170,"name":"Manfred von Richthofen","steam_id":76561198881106202,"connected_time":6614000000000,"state":"active","ping":103},{"user_id":205,"name":"4 life","steam_id":76561198175961598,"connected_time":3008000000000,"state":"active","ping":118},{"user_id":188,"name":"Bodhi (she/they)","steam_id":76561198103230995,"connected_time":4961000000000,"state":"active","ping":79},{"user_id":197,"name":"Mindset","steam_id":76561198107074449,"connected_time":3832000000000,"state":"active","ping":51},{"user_id":223,"name":"www.FREAKFINDER.net","steam_id":76561198259132395,"connected_time":581000000000,"state":"active","ping":82},{"user_id":194,"name":"gunther","steam_id":76561198118755292,"connected_time":4644000000000,"state":"active","ping":60},{"user_id":203,"name":"177013","steam_id":76561198072303290,"connected_time":3120000000000,"state":"active","ping":62},{"user_id":214,"name":"fried rice","steam_id":76561198928939100,"connected_time":1465000000000,"state":"active","ping":80},{"user_id":208,"name":"Maverick","steam_id":76561198322829814,"connected_time":2256000000000,"state":"active","ping":85},{"user_id":221,"name":"Ashes!","steam_id":76561197998475441,"connected_time":635000000000,"state":"active","ping":84},{"user_id":224,"name":"b√ºddeh","steam_id":76561198070735936,"connected_time":254000000000,"state":"active","ping":57},{"user_id":212,"name":"Undertime Slopper","steam_id":76561198396789061,"connected_time":1758000000000,"state":"active","ping":73},{"user_id":156,"name":"BetoelAff es","steam_id":76561198377842585,"connected_time":7827000000000,"state":"active","ping":119},{"user_id":160,"name":"puppy :3","steam_id":76561198011196264,"connected_time":7489000000000,"state":"active","ping":45},{"user_id":189,"name":"Team Magma Grunt","steam_id":76561198341537452,"connected_time":4960000000000,"state":"active","ping":78},{"user_id":217,"name":"feliser","steam_id":76561198084336096,"connected_time":1356000000000,"state":"active","ping":54},{"user_id":199,"name":"Rec","steam_id":76561198022813906,"connected_time":3814000000000,"state":"active","ping":55},{"user_id":220,"name":"Mexican pyro gaming","steam_id":76561199139660797,"connected_time":1235000000000,"state":"active","ping":93},{"user_id":216,"name":"Sir Real with Milk","steam_id":76561198090356880,"connected_time":1461000000000,"state":"active","ping":45},{"user_id":201,"name":"gary","steam_id":76561198140226890,"connected_time":3722000000000,"state":"active","ping":86}]},{"server_id":106,"name":"Uncletopia | Chicago | 2 | All Maps","name_short":"chi-2","host":"chi-1.us.uncletopia.com","port":27025,"enabled":true,"region":"us-central","cc":"us","latitude":41.881832,"longitude":-87.62318,"reserved":0,"last_update":"0001-01-01T00:00:00Z","name_a2s":"Uncletopia | Chicago | 2 | All Maps","protocol":17,"map":"pl_barnblitz","folder":"tf","game":"Team Fortress","app_id":440,"player_count":24,"max_players":24,"Bots":0,"server_type":"Dedicated","server_os":"Linux","password":true,"vac":true,"version":"7961495","steam_id":85568392924469985,"keywords":["nocrits","nodmgspread","payload","uncletopia"],"game_id":440,"stv_port":27026,"stv_name":"Uncletopia | Chicago | 2 | All Maps | STV","players":[{"user_id":403,"name":"Alexgo","steam_id":76561198044430542,"connected_time":970000000000,"state":"active","ping":108},{"user_id":409,"name":"JamesBlakeFan11","steam_id":76561198440539769,"connected_time":907000000000,"state":"active","ping":111},{"user_id":384,"name":"buma","steam_id":76561198856016840,"connected_time":3129000000000,"state":"active","ping":67},{"user_id":369,"name":"Lovedaddy","steam_id":76561198006569710,"connected_time":3860000000000,"state":"active","ping":79},{"user_id":410,"name":"Dr. House","steam_id":76561198052910702,"connected_time":890000000000,"state":"active","ping":48},{"user_id":394,"name":"im ultrakill (official)","steam_id":76561198415528114,"connected_time":1897000000000,"state":"active","ping":147},{"user_id":415,"name":"eis","steam_id":76561198830293087,"connected_time":532000000000,"state":"active","ping":40},{"user_id":421,"name":"Big Kev","steam_id":76561198058262994,"connected_time":346000000000,"state":"active","ping":40},{"user_id":414,"name":"Draconic Ballad","steam_id":76561198027191515,"connected_time":556000000000,"state":"active","ping":56},{"user_id":417,"name":"1-800-GHOST-DANCE","steam_id":76561198835430429,"connected_time":508000000000,"state":"active","ping":78},{"user_id":418,"name":"bnnnnanna","steam_id":76561198157455741,"connected_time":507000000000,"state":"active","ping":62},{"user_id":266,"name":"CeLeb144","steam_id":76561199089907740,"connected_time":12627000000000,"state":"active","ping":77},{"user_id":380,"name":"mountain goat","steam_id":76561198326628884,"connected_time":3655000000000,"state":"active","ping":71},{"user_id":412,"name":"BL00DFUCKER1","steam_id":76561198085036623,"connected_time":808000000000,"state":"active","ping":84},{"user_id":404,"name":"Mengle","steam_id":76561198001953684,"connected_time":968000000000,"state":"active","ping":61},{"user_id":405,"name":"Acehay14","steam_id":76561198052373291,"connected_time":962000000000,"state":"active","ping":63},{"user_id":345,"name":"SnakeBrine","steam_id":76561198162007787,"connected_time":5699000000000,"state":"active","ping":78},{"user_id":376,"name":"berry delight","steam_id":76561198115254326,"connected_time":3800000000000,"state":"active","ping":52},{"user_id":413,"name":"||||||||||||||||||||||","steam_id":76561198069327610,"connected_time":732000000000,"state":"active","ping":71},{"user_id":377,"name":"not a good idea","steam_id":76561198032259680,"connected_time":3799000000000,"state":"active","ping":76},{"user_id":420,"name":"Mr.Kevin120","steam_id":76561199186919096,"connected_time":398000000000,"state":"active","ping":86},{"user_id":395,"name":"Plasmie{ylo}","steam_id":76561198083513154,"connected_time":1545000000000,"state":"active","ping":73},{"user_id":422,"name":"sonic1394","steam_id":76561198054636788,"connected_time":218000000000,"state":"active","ping":73},{"user_id":388,"name":"Pneumo.","steam_id":76561197987911883,"connected_time":2744000000000,"state":"active","ping":132}]},{"server_id":402,"name":"Uncletopia | Chicago | 3 | All Maps","name_short":"chi-3","host":"chi-1.us.uncletopia.com","port":27035,"enabled":true,"region":"us-central","cc":"us","latitude":41.881832,"longitude":-87.62318,"reserved":0,"last_update":"0001-01-01T00:00:00Z","name_a2s":"Uncletopia | Chicago | 3 | All Maps","protocol":17,"map":"cp_dustbowl","folder":"tf","game":"Team Fortress","app_id":440,"player_count":23,"max_players":24,"Bots":0,"server_type":"Dedicated","server_os":"Linux","password":true,"vac":true,"version":"7961495","steam_id":85568392924515191,"keywords":["cp","nocrits","nodmgspread","uncletopia"],"game_id":440,"stv_port":27036,"stv_name":"Uncletopia | Chicago | 3 | All Maps | STV","players":[{"user_id":185,"name":"4ling","steam_id":76561197994398381,"connected_time":377000000000,"state":"active","ping":72},{"user_id":168,"name":"Jennifer Aniston's Nipples","steam_id":76561198086107548,"connected_time":1663000000000,"state":"active","ping":78},{"user_id":181,"name":"SnazzyCelestial","steam_id":76561198328763813,"connected_time":587000000000,"state":"active","ping":86},{"user_id":158,"name":"armaghgeddon‚Ñ¢","steam_id":76561198018519640,"connected_time":2110000000000,"state":"active","ping":84},{"user_id":165,"name":"big steve","steam_id":76561199037050183,"connected_time":1756000000000,"state":"active","ping":97},{"user_id":130,"name":"Barbershop Quartet At Denny's","steam_id":76561198036591882,"connected_time":4550000000000,"state":"active","ping":82},{"user_id":177,"name":"Whip_the_Rabbit","steam_id":76561198049896057,"connected_time":1062000000000,"state":"active","ping":102},{"user_id":184,"name":"newport menthol 100s CEO","steam_id":76561198050976060,"connected_time":494000000000,"state":"active","ping":52},{"user_id":139,"name":"dr peppah chug!","steam_id":76561198068835693,"connected_time":4172000000000,"state":"active","ping":91},{"user_id":148,"name":"OhFuckOhGodFuckFuckFuck","steam_id":76561198114934927,"connected_time":3075000000000,"state":"active","ping":85},{"user_id":154,"name":"aiden","steam_id":76561198449527009,"connected_time":2448000000000,"state":"active","ping":90},{"user_id":182,"name":"BLOOD !","steam_id":76561198004400850,"connected_time":586000000000,"state":"active","ping":89},{"user_id":186,"name":"sqerkbo","steam_id":76561198080012700,"connected_time":214000000000,"state":"active","ping":60},{"user_id":149,"name":"Lia_Rein","steam_id":76561198151569597,"connected_time":2810000000000,"state":"active","ping":146},{"user_id":183,"name":"Sakrenn","steam_id":76561198329518008,"connected_time":531000000000,"state":"active","ping":108},{"user_id":179,"name":"Isilawuli","steam_id":76561198084150503,"connected_time":777000000000,"state":"active","ping":62},{"user_id":175,"name":"weeb_whacker","steam_id":76561198187098041,"connected_time":1432000000000,"state":"active","ping":58},{"user_id":159,"name":"axo","steam_id":76561198820156066,"connected_time":2071000000000,"state":"active","ping":81},{"user_id":110,"name":"Viennetta","steam_id":76561198044088335,"connected_time":5572000000000,"state":"active","ping":69},{"user_id":151,"name":"judesro","steam_id":76561198352244888,"connected_time":2701000000000,"state":"active","ping":74},{"user_id":172,"name":"Coach McFish","steam_id":76561198210456405,"connected_time":1509000000000,"state":"active","ping":75},{"user_id":111,"name":"thai","steam_id":76561198052462287,"connected_time":5568000000000,"state":"active","ping":86},{"user_id":156,"name":"Hindmost","steam_id":76561199081837220,"connected_time":2181000000000,"state":"active","ping":77}]},{"server_id":403,"name":"Uncletopia | Chicago | 4 | All Maps","name_short":"chi-4","host":"chi-1.us.uncletopia.com","port":27045,"enabled":true,"region":"us-central","cc":"us","latitude":41.881832,"longitude":-87.62318,"reserved":0,"last_update":"0001-01-01T00:00:00Z","name_a2s":"Uncletopia | Chicago | 4 | All Maps","protocol":17,"map":"pl_barnblitz","folder":"tf","game":"Team Fortress","app_id":440,"player_count":24,"max_players":24,"Bots":0,"server_type":"Dedicated","server_os":"Linux","password":true,"vac":true,"version":"7961495","steam_id":85568392924515193,"keywords":["nocrits","nodmgspread","payload","uncletopia"],"game_id":440,"stv_port":27046,"stv_name":"Uncletopia | Chicago | 4 | All Maps | STV","players":[{"user_id":369,"name":"mountainkug","steam_id":76561199491802535,"connected_time":645000000000,"state":"active","ping":88},{"user_id":361,"name":"thatguy_luigi","steam_id":76561198968055462,"connected_time":928000000000,"state":"active","ping":125},{"user_id":302,"name":"steakfarmasian","steam_id":76561198212754036,"connected_time":5371000000000,"state":"active","ping":57},{"user_id":337,"name":"Urbanzpinapple","steam_id":76561198115426938,"connected_time":3473000000000,"state":"active","ping":63},{"user_id":313,"name":"NikoOS (NO SOUND)","steam_id":76561198180020521,"connected_time":4592000000000,"state":"active","ping":108},{"user_id":307,"name":"dodecadron","steam_id":76561198027397222,"connected_time":5139000000000,"state":"active","ping":119},{"user_id":370,"name":"BS","steam_id":76561198026453272,"connected_time":637000000000,"state":"active","ping":61},{"user_id":358,"name":"g.","steam_id":76561197981404672,"connected_time":1358000000000,"state":"active","ping":74},{"user_id":375,"name":"Moss","steam_id":76561199122200727,"connected_time":202000000000,"state":"active","ping":71},{"user_id":349,"name":"shield","steam_id":76561198976876859,"connected_time":2654000000000,"state":"active","ping":87},{"user_id":360,"name":"dulg","steam_id":76561198127640309,"connected_time":933000000000,"state":"active","ping":87},{"user_id":362,"name":"average manicotti enjoyer","steam_id":76561198059535856,"connected_time":923000000000,"state":"active","ping":75},{"user_id":359,"name":"zzz","steam_id":76561198302976864,"connected_time":1076000000000,"state":"active","ping":75},{"user_id":376,"name":"Captain Buggy","steam_id":76561198024444448,"connected_time":123000000000,"state":"active","ping":104},{"user_id":371,"name":"msay","steam_id":76561198170888029,"connected_time":617000000000,"state":"active","ping":111},{"user_id":372,"name":"NUt","steam_id":76561198031007966,"connected_time":611000000000,"state":"active","ping":75},{"user_id":377,"name":"bornarod","steam_id":76561199122002218,"connected_time":123000000000,"state":"active","ping":84},{"user_id":275,"name":"Punsequence64","steam_id":76561199201885917,"connected_time":6788000000000,"state":"active","ping":67},{"user_id":354,"name":"shmoke","steam_id":76561198056996952,"connected_time":2172000000000,"state":"active","ping":62},{"user_id":342,"name":"Hertz","steam_id":76561198245322982,"connected_time":3166000000000,"state":"active","ping":45},{"user_id":290,"name":"det lft","steam_id":76561198170859755,"connected_time":6299000000000,"state":"active","ping":45},{"user_id":366,"name":"P.C. Baby","steam_id":76561198067011379,"connected_time":875000000000,"state":"active","ping":114},{"user_id":367,"name":"GojoPreto","steam_id":76561198979348045,"connected_time":869000000000,"state":"active","ping":92},{"user_id":318,"name":"unicornCatOwO","steam_id":76561199391478575,"connected_time":4499000000000,"state":"active","ping":113}]},{"server_id":36,"name":"Uncletopia | Chicago | 5 | All Maps","name_short":"chi-5","host":"chi-2.us.uncletopia.com","port":27015,"enabled":true,"region":"us-central","cc":"us","latitude":41.881832,"longitude":-87.62318,"reserved":0,"last_update":"0001-01-01T00:00:00Z","name_a2s":"Uncletopia | Chicago | 5 | All Maps","protocol":17,"map":"pl_badwater","folder":"tf","game":"Team Fortress","app_id":440,"player_count":24,"max_players":24,"Bots":0,"server_type":"Dedicated","server_os":"Linux","password":true,"vac":true,"version":"7961495","steam_id":85568392924866362,"keywords":["nocrits","nodmgspread","payload","uncletopia"],"game_id":440,"stv_port":27016,"stv_name":"Uncletopia | Chicago | 5 | All Maps | STV","players":[{"user_id":11,"name":"Stick","steam_id":76561198001509374,"connected_time":3852000000000,"state":"active","ping":77},{"user_id":51,"name":"Bobby Liberty","steam_id":76561199082643794,"connected_time":1949000000000,"state":"active","ping":61},{"user_id":59,"name":"johnny","steam_id":76561198855841242,"connected_time":574000000000,"state":"active","ping":79},{"user_id":53,"name":"Soda Popinski","steam_id":76561198045209288,"connected_time":1875000000000,"state":"active","ping":93},{"user_id":15,"name":"Pie‚Ñ¢","steam_id":76561198158312625,"connected_time":3714000000000,"state":"active","ping":120},{"user_id":62,"name":"under arrest... biggest tits i ","steam_id":76561198249206656,"connected_time":406000000000,"state":"active","ping":75},{"user_id":29,"name":"glankinator","steam_id":76561198354077256,"connected_time":2815000000000,"state":"active","ping":45},{"user_id":30,"name":"Balor","steam_id":76561198180926835,"connected_time":2702000000000,"state":"active","ping":74},{"user_id":69,"name":"Icaras","steam_id":76561198416724843,"connected_time":152000000000,"state":"active","ping":128},{"user_id":32,"name":"ArtMun","steam_id":76561198211527160,"connected_time":2573000000000,"state":"active","ping":126},{"user_id":50,"name":"Donald","steam_id":76561198263909702,"connected_time":2219000000000,"state":"active","ping":62},{"user_id":34,"name":"CoffeeZombee","steam_id":76561198172708053,"connected_time":2525000000000,"state":"active","ping":92},{"user_id":57,"name":"CuSO4","steam_id":76561199278147589,"connected_time":1101000000000,"state":"active","ping":69},{"user_id":36,"name":"thecal","steam_id":76561198307893384,"connected_time":2492000000000,"state":"active","ping":52},{"user_id":37,"name":"Guccini","steam_id":76561198094391395,"connected_time":2437000000000,"state":"active","ping":70},{"user_id":55,"name":"creeeeeee","steam_id":76561198392539722,"connected_time":1305000000000,"state":"active","ping":80},{"user_id":40,"name":"Thellsec","steam_id":76561198144608611,"connected_time":2399000000000,"state":"active","ping":90},{"user_id":60,"name":"squaggles!","steam_id":76561197994995011,"connected_time":564000000000,"state":"active","ping":57},{"user_id":43,"name":"Buff Mimic","steam_id":76561198076396749,"connected_time":2355000000000,"state":"active","ping":84},{"user_id":56,"name":"--_Cook_--","steam_id":76561198080855748,"connected_time":1301000000000,"state":"active","ping":46},{"user_id":61,"name":"Charlotte","steam_id":76561199084344266,"connected_time":555000000000,"state":"active","ping":60},{"user_id":47,"name":"VelocityCubeR","steam_id":76561198044351011,"connected_time":2316000000000,"state":"active","ping":57},{"user_id":54,"name":"k0ndr4k1","steam_id":76561198079877348,"connected_time":1466000000000,"state":"active","ping":94},{"user_id":49,"name":"EL Matador","steam_id":76561197971206879,"connected_time":2304000000000,"state":"active","ping":80}]},{"server_id":37,"name":"Uncletopia | Chicago | 6 | All Maps","name_short":"chi-6","host":"chi-2.us.uncletopia.com","port":27025,"enabled":true,"region":"us-central","cc":"us","latitude":41.881832,"longitude":-87.62318,"reserved":0,"last_update":"0001-01-01T00:00:00Z","name_a2s":"Uncletopia | Chicago | 6 | All Maps","protocol":17,"map":"pl_upward","folder":"tf","game":"Team Fortress","app_id":440,"player_count":21,"max_players":24,"Bots":0,"server_type":"Dedicated","server_os":"Linux","password":true,"vac":true,"version":"7961495","steam_id":85568392924866363,"keywords":["nocrits","nodmgspread","payload","uncletopia"],"game_id":440,"stv_port":27026,"stv_name":"Uncletopia | Chicago | 6 | All Maps | STV","players":[{"user_id":11,"name":"firstlastmcgee","steam_id":76561198170187989,"connected_time":540000000000,"state":"active","ping":59},{"user_id":14,"name":"GrimPheonix","steam_id":76561198400534633,"connected_time":428000000000,"state":"active","ping":75},{"user_id":9,"name":"BugsAreMyWorstEnemy","steam_id":76561199440395505,"connected_time":906000000000,"state":"active","ping":61},{"user_id":10,"name":"HollyBlocky","steam_id":76561198030156100,"connected_time":770000000000,"state":"active","ping":62},{"user_id":13,"name":"Acorn","steam_id":76561198353480153,"connected_time":439000000000,"state":"active","ping":69},{"user_id":21,"name":"boe jiden","steam_id":76561198041048289,"connected_time":235000000000,"state":"active","ping":59},{"user_id":16,"name":"leangreen","steam_id":76561198798241241,"connected_time":347000000000,"state":"active","ping":86},{"user_id":17,"name":"YunKo„ÉÑ","steam_id":76561199107366261,"connected_time":326000000000,"state":"active","ping":82},{"user_id":18,"name":"MeKaso TropStar","steam_id":76561199109895840,"connected_time":297000000000,"state":"active","ping":65},{"user_id":19,"name":"Nilantive","steam_id":76561198177565082,"connected_time":265000000000,"state":"active","ping":52},{"user_id":20,"name":"doinker","steam_id":76561198329067451,"connected_time":251000000000,"state":"active","ping":77},{"user_id":22,"name":"tesagi","steam_id":76561198026664629,"connected_time":219000000000,"state":"active","ping":55},{"user_id":24,"name":"',:^)","steam_id":76561198038123509,"connected_time":156000000000,"state":"active","ping":76},{"user_id":25,"name":"JustaDude013","steam_id":76561199151914748,"connected_time":147000000000,"state":"active","ping":98},{"user_id":26,"name":"Mr. Cool","steam_id":76561198286473342,"connected_time":130000000000,"state":"active","ping":71},{"user_id":28,"name":"Spam„Ç∏„É£„É†","steam_id":76561198070733498,"connected_time":96000000000,"state":"active","ping":62},{"user_id":30,"name":"@reallyBigBoss","steam_id":76561198137903950,"connected_time":88000000000,"state":"active","ping":101},{"user_id":31,"name":"Brob Zombie","steam_id":76561198149795942,"connected_time":85000000000,"state":"active","ping":63},{"user_id":32,"name":"rustlover773","steam_id":76561198146366698,"connected_time":84000000000,"state":"active","ping":59},{"user_id":33,"name":"Skip Hop Doo Bop","steam_id":76561199161571849,"connected_time":72000000000,"state":"active","ping":105},{"user_id":34,"name":"Bored Barred Owl","steam_id":76561198263895597,"connected_time":71000000000,"state":"active","ping":74}]},{"server_id":38,"name":"Uncletopia | Chicago | 7 | Stopwatch Beta","name_short":"chi-7","host":"chi-2.us.uncletopia.com","port":27035,"enabled":true,"region":"us-central","cc":"us","latitude":41.881832,"longitude":-87.62318,"reserved":0,"last_update":"0001-01-01T00:00:00Z","name_a2s":"Uncletopia | Chicago | 7 | Stopwatch Beta","protocol":17,"map":"pl_badwater","folder":"tf","game":"Team Fortress","app_id":440,"player_count":0,"max_players":24,"Bots":0,"server_type":"Dedicated","server_os":"Linux","password":true,"vac":true,"version":"7961495","steam_id":85568392924866364,"keywords":["nocrits","nodmgspread","payload","uncletopia"],"game_id":440,"stv_port":27036,"stv_name":"Uncletopia | Chicago | 7 | Stopwatch Beta | STV","players":null},{"server_id":39,"name":"Uncletopia | Chicago | 8 | Community","name_short":"chi-8","host":"chi-2.us.uncletopia.com","port":27045,"enabled":true,"region":"us-central","cc":"us","latitude":41.881832,"longitude":-87.62318,"reserved":0,"last_update":"0001-01-01T00:00:00Z","name_a2s":"Uncletopia | Chicago | 8 | Community","protocol":17,"map":"koth_cascade","folder":"tf","game":"Team Fortress","app_id":440,"player_count":0,"max_players":24,"Bots":0,"server_type":"Dedicated","server_os":"Linux","password":true,"vac":true,"version":"7961495","steam_id":85568392924866365,"keywords":["cp","nocrits","nodmgspread","uncletopia"],"game_id":440,"stv_port":27046,"stv_name":"Uncletopia | Chicago | 8 | Community | STV","players":null},{"server_id":8,"name":"Uncletopia | Dallas | 1 | All Maps","name_short":"dal-1","host":"dal-1.us.uncletopia.com","port":27015,"enabled":true,"region":"us-central","cc":"us","latitude":32.779167,"longitude":-96.80889,"reserved":0,"last_update":"0001-01-01T00:00:00Z","name_a2s":"Uncletopia | Dallas | 1 | All Maps","protocol":17,"map":"ctf_landfall","folder":"tf","game":"Team Fortress","app_id":440,"player_count":24,"max_players":24,"Bots":0,"server_type":"Dedicated","server_os":"Linux","password":true,"vac":true,"version":"7961495","steam_id":85568392924469986,"keywords":["ctf","nocrits","nodmgspread","uncletopia"],"game_id":440,"stv_port":27016,"stv_name":"Uncletopia | Dallas | 1 | All Maps | STV","players":[{"user_id":137,"name":"TJGSASQUATCH","steam_id":76561198077806921,"connected_time":1949000000000,"state":"active","ping":154},{"user_id":164,"name":"Organ Harvester","steam_id":76561198069948353,"connected_time":99000000000,"state":"active","ping":64},{"user_id":165,"name":"cheetaz","steam_id":76561198224614084,"connected_time":68000000000,"state":"active","ping":75},{"user_id":157,"name":"Zornplays","steam_id":76561199175292302,"connected_time":517000000000,"state":"active","ping":110},{"user_id":104,"name":"Gearbie","steam_id":76561198296243464,"connected_time":4279000000000,"state":"active","ping":55},{"user_id":155,"name":"uncool","steam_id":76561198025885992,"connected_time":730000000000,"state":"active","ping":81},{"user_id":158,"name":"spurious george","steam_id":76561198043558709,"connected_time":501000000000,"state":"active","ping":92},{"user_id":63,"name":"Rob","steam_id":76561199187786660,"connected_time":7766000000000,"state":"active","ping":53},{"user_id":162,"name":"Nordrengr","steam_id":76561198053361274,"connected_time":469000000000,"state":"active","ping":90},{"user_id":136,"name":"Dr Oshawott","steam_id":76561198042021629,"connected_time":1961000000000,"state":"active","ping":87},{"user_id":139,"name":"Local","steam_id":76561198069537437,"connected_time":1568000000000,"state":"active","ping":86},{"user_id":151,"name":"The Robot Sniper","steam_id":76561198125011150,"connected_time":823000000000,"state":"active","ping":66},{"user_id":119,"name":"Bree-chan","steam_id":76561198025193389,"connected_time":3119000000000,"state":"active","ping":118},{"user_id":121,"name":"Spy on cart","steam_id":76561198025466913,"connected_time":3112000000000,"state":"active","ping":73},{"user_id":160,"name":"SanitysEdge","steam_id":76561198130732813,"connected_time":490000000000,"state":"active","ping":77},{"user_id":141,"name":"Normal Man","steam_id":76561198241629912,"connected_time":1376000000000,"state":"active","ping":68},{"user_id":161,"name":"riSygneD","steam_id":76561198331618687,"connected_time":479000000000,"state":"active","ping":67},{"user_id":113,"name":"dell conagher (evil)","steam_id":76561198066566813,"connected_time":3552000000000,"state":"active","ping":109},{"user_id":126,"name":"Mellou","steam_id":76561198212048740,"connected_time":3035000000000,"state":"active","ping":42},{"user_id":143,"name":"gaminpanda52","steam_id":76561199090922778,"connected_time":1275000000000,"state":"active","ping":99},{"user_id":131,"name":"Vem","steam_id":76561198117273112,"connected_time":2868000000000,"state":"active","ping":98},{"user_id":130,"name":"im not gonna sugarcoat it","steam_id":76561198252328518,"connected_time":2902000000000,"state":"active","ping":87},{"user_id":50,"name":"Biden Blast","steam_id":76561198366729030,"connected_time":9453000000000,"state":"active","ping":75},{"user_id":153,"name":"C4K3","steam_id":76561197996963285,"connected_time":782000000000,"state":"active","ping":69}]},{"server_id":108,"name":"Uncletopia | Dallas | 2 | All Maps","name_short":"dal-2","host":"dal-1.us.uncletopia.com","port":27025,"enabled":true,"region":"us-central","cc":"us","latitude":32.779167,"longitude":-96.80889,"reserved":0,"last_update":"0001-01-01T00:00:00Z","name_a2s":"Uncletopia | Dallas | 2 | All Maps","protocol":17,"map":"pl_badwater","folder":"tf","game":"Team Fortress","app_id":440,"player_count":24,"max_players":24,"Bots":0,"server_type":"Dedicated","server_os":"Linux","password":true,"vac":true,"version":"7961495","steam_id":85568392924469988,"keywords":["nocrits","nodmgspread","payload","uncletopia"],"game_id":440,"stv_port":27026,"stv_name":"Uncletopia | Dallas | 2 | All Maps | STV","players":[{"user_id":81,"name":"princess tart.","steam_id":76561198076598729,"connected_time":1449000000000,"state":"active","ping":82},{"user_id":7,"name":"Sussy","steam_id":76561198412836049,"connected_time":6683000000000,"state":"active","ping":98},{"user_id":59,"name":"penis atomizer 9000 üè≥Ô∏è?","steam_id":76561198864841966,"connected_time":2688000000000,"state":"active","ping":96},{"user_id":82,"name":"Ghoulenoir","steam_id":76561198074314573,"connected_time":1443000000000,"state":"active","ping":61},{"user_id":99,"name":"IanFishooks","steam_id":76561199403427527,"connected_time":116000000000,"state":"active","ping":86},{"user_id":13,"name":"deathbringer22","steam_id":76561198318466600,"connected_time":5488000000000,"state":"active","ping":69},{"user_id":100,"name":"Rodgedan","steam_id":76561198226236524,"connected_time":110000000000,"state":"active","ping":102},{"user_id":85,"name":"10000 gecs","steam_id":76561198826878914,"connected_time":1393000000000,"state":"active","ping":66},{"user_id":57,"name":"hforce11","steam_id":76561198087647130,"connected_time":2944000000000,"state":"active","ping":59},{"user_id":63,"name":"1998 Mazda b2500","steam_id":76561198883172857,"connected_time":2656000000000,"state":"active","ping":94},{"user_id":79,"name":"Kirby.exe","steam_id":76561198242714582,"connected_time":1988000000000,"state":"active","ping":49},{"user_id":97,"name":"MAGBASTARD Jr.","steam_id":76561199071277523,"connected_time":258000000000,"state":"active","ping":53},{"user_id":93,"name":"In-N-Out Double Double","steam_id":76561198104086771,"connected_time":446000000000,"state":"active","ping":77},{"user_id":80,"name":"bisexual male","steam_id":76561198281186490,"connected_time":1528000000000,"state":"active","ping":97},{"user_id":48,"name":"Mario","steam_id":76561198995177194,"connected_time":3699000000000,"state":"active","ping":65},{"user_id":89,"name":"Wahaha hee","steam_id":76561198098017157,"connected_time":1321000000000,"state":"active","ping":55},{"user_id":87,"name":"Wikked","steam_id":76561198196149207,"connected_time":1390000000000,"state":"active","ping":136},{"user_id":96,"name":"box","steam_id":76561198049531483,"connected_time":284000000000,"state":"active","ping":75},{"user_id":88,"name":"Zach Reeee","steam_id":76561198096698210,"connected_time":1387000000000,"state":"active","ping":54},{"user_id":92,"name":"Pepper","steam_id":76561197995191233,"connected_time":616000000000,"state":"active","ping":91},{"user_id":76,"name":"poopshitter9000","steam_id":76561198074624639,"connected_time":2232000000000,"state":"active","ping":75},{"user_id":78,"name":"Stinkpilled Femcel‚Ñ¢","steam_id":76561198036441270,"connected_time":2203000000000,"state":"active","ping":103},{"user_id":72,"name":"Provocator","steam_id":76561197961830410,"connected_time":2454000000000,"state":"active","ping":90},{"user_id":39,"name":"Peepster","steam_id":76561198297854733,"connected_time":4230000000000,"state":"active","ping":103}]},{"server_id":404,"name":"Uncletopia | Dallas | 3 | All Maps","name_short":"dal-3","host":"dal-1.us.uncletopia.com","port":27035,"enabled":true,"region":"us-central","cc":"us","latitude":32.779167,"longitude":-96.80889,"reserved":0,"last_update":"0001-01-01T00:00:00Z","name_a2s":"Uncletopia | Dallas | 3 | All Maps","protocol":17,"map":"cp_sunshine","folder":"tf","game":"Team Fortress","app_id":440,"player_count":0,"max_players":24,"Bots":0,"server_type":"Dedicated","server_os":"Linux","password":true,"vac":true,"version":"7961495","steam_id":85568392924515219,"keywords":["cp","nocrits","nodmgspread","uncletopia"],"game_id":440,"stv_port":27036,"stv_name":"Uncletopia | Dallas | 3 | All Maps | STV","players":null},{"server_id":405,"name":"Uncletopia | Dallas | 4 | Community","name_short":"dal-4","host":"dal-1.us.uncletopia.com","port":27045,"enabled":true,"region":"us-central","cc":"us","latitude":32.779167,"longitude":-96.80889,"reserved":0,"last_update":"0001-01-01T00:00:00Z","name_a2s":"Uncletopia | Dallas | 4 | Community","protocol":17,"map":"workshop/pl_boundary_final1.ugc456799153","folder":"tf","game":"Team Fortress","app_id":440,"player_count":0,"max_players":24,"Bots":0,"server_type":"Dedicated","server_os":"Linux","password":true,"vac":true,"version":"7961495","steam_id":85568392924515220,"keywords":["nocrits","nodmgspread","payload","uncletopia"],"game_id":440,"stv_port":27046,"stv_name":"Uncletopia | Dallas | 4 | Community | STV","players":null},{"server_id":5,"name":"Uncletopia | Frankfurt | 1 | All Maps","name_short":"frk-1","host":"frk-1.de.uncletopia.com","port":27015,"enabled":true,"region":"eu","cc":"de","latitude":50.110924,"longitude":8.682127,"reserved":0,"last_update":"0001-01-01T00:00:00Z","name_a2s":"Uncletopia | Frankfurt | 1 | All Maps","protocol":17,"map":"cp_dustbowl","folder":"tf","game":"Team Fortress","app_id":440,"player_count":24,"max_players":24,"Bots":0,"server_type":"Dedicated","server_os":"Linux","password":true,"vac":true,"version":"7961495","steam_id":85568392924469989,"keywords":["cp","nocrits","nodmgspread","uncletopia"],"game_id":440,"stv_port":27016,"stv_name":"Uncletopia | Frankfurt | 1 | All Maps | STV","players":[{"user_id":117,"name":"HelwiiHill","steam_id":76561198066730552,"connected_time":297000000000,"state":"active","ping":75},{"user_id":4,"name":"i want to kill myself","steam_id":76561198242482338,"connected_time":6441000000000,"state":"active","ping":70},{"user_id":109,"name":"Nobody","steam_id":76561198151116796,"connected_time":505000000000,"state":"active","ping":83},{"user_id":93,"name":"KNARRER","steam_id":76561199130777953,"connected_time":2036000000000,"state":"active","ping":49},{"user_id":77,"name":"TidB","steam_id":76561198055342304,"connected_time":3360000000000,"state":"active","ping":58},{"user_id":121,"name":"Ajax","steam_id":76561198362778093,"connected_time":158000000000,"state":"active","ping":87},{"user_id":61,"name":"badrobot","steam_id":76561198322878356,"connected_time":4362000000000,"state":"active","ping":92},{"user_id":119,"name":"il","steam_id":76561198122662610,"connected_time":252000000000,"state":"active","ping":80},{"user_id":111,"name":"Drunken Goose","steam_id":76561198195711522,"connected_time":468000000000,"state":"active","ping":99},{"user_id":86,"name":"Testicular torsion","steam_id":76561198119547399,"connected_time":2278000000000,"state":"active","ping":50},{"user_id":64,"name":"‚ôÇ Animan ‚ôÇ Studios ‚ôÇ","steam_id":76561198308302932,"connected_time":4332000000000,"state":"active","ping":90},{"user_id":100,"name":"mmlock","steam_id":76561198069516191,"connected_time":1163000000000,"state":"active","ping":87},{"user_id":112,"name":"Wet'nt tent","steam_id":76561198101589821,"connected_time":442000000000,"state":"active","ping":112},{"user_id":96,"name":"hipster_doofus","steam_id":76561197970902697,"connected_time":1799000000000,"state":"active","ping":72},{"user_id":79,"name":"MargoulGetron","steam_id":76561198020551698,"connected_time":3181000000000,"state":"active","ping":62},{"user_id":113,"name":"meow (they/them)","steam_id":76561198416657815,"connected_time":440000000000,"state":"active","ping":72},{"user_id":107,"name":"mona","steam_id":76561197994492154,"connected_time":529000000000,"state":"active","ping":60},{"user_id":120,"name":"Flamie","steam_id":76561198150178863,"connected_time":241000000000,"state":"active","ping":90},{"user_id":99,"name":"Mr. Master","steam_id":76561199198569317,"connected_time":1622000000000,"state":"active","ping":51},{"user_id":48,"name":"Ducky[WADZ]","steam_id":76561198060341245,"connected_time":5260000000000,"state":"active","ping":56},{"user_id":122,"name":"Vince","steam_id":76561199103000131,"connected_time":145000000000,"state":"active","ping":60},{"user_id":90,"name":"Mr.Schnittlauch","steam_id":76561198295868113,"connected_time":2054000000000,"state":"active","ping":58},{"user_id":123,"name":"PapaMaxy","steam_id":76561198256362726,"connected_time":132000000000,"state":"active","ping":81},{"user_id":124,"name":"Jayem","steam_id":76561198076470685,"connected_time":128000000000,"state":"active","ping":81}]},{"server_id":110,"name":"Uncletopia | Frankfurt | 2 | All Maps","name_short":"frk-2","host":"frk-1.de.uncletopia.com","port":27025,"enabled":true,"region":"eu","cc":"de","latitude":50.110924,"longitude":8.682127,"reserved":0,"last_update":"0001-01-01T00:00:00Z","name_a2s":"Uncletopia | Frankfurt | 2 | All Maps","protocol":17,"map":"pl_goldrush","folder":"tf","game":"Team Fortress","app_id":440,"player_count":24,"max_players":24,"Bots":0,"server_type":"Dedicated","server_os":"Linux","password":true,"vac":true,"version":"7961495","steam_id":85568392924469990,"keywords":["nocrits","nodmgspread","payload","uncletopia"],"game_id":440,"stv_port":27026,"stv_name":"Uncletopia | Frankfurt | 2 | All Maps | STV","players":[{"user_id":95,"name":"MrMartin","steam_id":76561198399954507,"connected_time":347000000000,"state":"active","ping":90},{"user_id":97,"name":"Popop","steam_id":76561198004793795,"connected_time":326000000000,"state":"active","ping":52},{"user_id":92,"name":"gary","steam_id":76561198330280377,"connected_time":697000000000,"state":"active","ping":66},{"user_id":67,"name":"CurlyLaser","steam_id":76561198347959835,"connected_time":2488000000000,"state":"active","ping":101},{"user_id":100,"name":"Lix","steam_id":76561198130779816,"connected_time":302000000000,"state":"active","ping":66},{"user_id":96,"name":"Shovelhalfrusty","steam_id":76561198346447513,"connected_time":343000000000,"state":"active","ping":72},{"user_id":98,"name":"dpisnow","steam_id":76561198111823703,"connected_time":314000000000,"state":"active","ping":72},{"user_id":87,"name":"galaxy","steam_id":76561198164819022,"connected_time":893000000000,"state":"active","ping":66},{"user_id":88,"name":"4","steam_id":76561197964945192,"connected_time":841000000000,"state":"active","ping":49},{"user_id":99,"name":"BELADIT","steam_id":76561198011911501,"connected_time":308000000000,"state":"active","ping":73},{"user_id":23,"name":"modrako","steam_id":76561198171050526,"connected_time":4984000000000,"state":"active","ping":73},{"user_id":101,"name":"Michal jordan","steam_id":76561199106262610,"connected_time":300000000000,"state":"active","ping":67},{"user_id":78,"name":"Sumac enjoyer","steam_id":76561199150051951,"connected_time":1878000000000,"state":"active","ping":162},{"user_id":89,"name":"zek","steam_id":76561198862763731,"connected_time":824000000000,"state":"active","ping":55},{"user_id":102,"name":"pirate","steam_id":76561198436424012,"connected_time":295000000000,"state":"active","ping":49},{"user_id":94,"name":"Illy","steam_id":76561198045537823,"connected_time":435000000000,"state":"active","ping":83},{"user_id":53,"name":"quarks and stuff","steam_id":76561198137869662,"connected_time":4014000000000,"state":"active","ping":41},{"user_id":58,"name":"the one who grips","steam_id":76561198381106289,"connected_time":3366000000000,"state":"active","ping":73},{"user_id":84,"name":"WATANG!","steam_id":76561198040478926,"connected_time":1283000000000,"state":"active","ping":69},{"user_id":69,"name":"Twik","steam_id":76561198023835056,"connected_time":2355000000000,"state":"active","ping":50},{"user_id":103,"name":"mans big iron","steam_id":76561198011819389,"connected_time":264000000000,"state":"active","ping":66},{"user_id":37,"name":"Pacyfista Feminista Frutarianin","steam_id":76561198435883762,"connected_time":4770000000000,"state":"active","ping":65},{"user_id":91,"name":"Hoodley","steam_id":76561198066974902,"connected_time":799000000000,"state":"active","ping":98},{"user_id":49,"name":"cobblestone","steam_id":76561198079123043,"connected_time":4268000000000,"state":"active","ping":69}]},{"server_id":308,"name":"Uncletopia | Frankfurt | 3 | All Maps","name_short":"frk-3","host":"frk-1.de.uncletopia.com","port":27035,"enabled":true,"region":"eu","cc":"de","latitude":50.110924,"longitude":8.682127,"reserved":0,"last_update":"0001-01-01T00:00:00Z","name_a2s":"Uncletopia | Frankfurt | 3 | All Maps","protocol":17,"map":"koth_viaduct","folder":"tf","game":"Team Fortress","app_id":440,"player_count":4,"max_players":24,"Bots":0,"server_type":"Dedicated","server_os":"Linux","password":true,"vac":true,"version":"7961495","steam_id":85568392924504274,"keywords":["cp","nocrits","nodmgspread","uncletopia"],"game_id":440,"stv_port":27036,"stv_name":"Uncletopia | Frankfurt | 3 | All Maps | STV","players":[{"user_id":37,"name":"Reppy","steam_id":76561198339480413,"connected_time":290000000000,"state":"active","ping":71},{"user_id":38,"name":"ganz_lustiger_name","steam_id":76561199240340943,"connected_time":194000000000,"state":"active","ping":62},{"user_id":39,"name":"Arctik","steam_id":76561198175565114,"connected_time":187000000000,"state":"active","ping":70},{"user_id":40,"name":"ArcticKash","steam_id":76561199428968962,"connected_time":151000000000,"state":"active","ping":64}]},{"server_id":309,"name":"Uncletopia | Frankfurt | 4 | All Maps","name_short":"frk-4","host":"frk-1.de.uncletopia.com","port":27045,"enabled":true,"region":"eu","cc":"de","latitude":50.110924,"longitude":8.682127,"reserved":0,"last_update":"0001-01-01T00:00:00Z","name_a2s":"Uncletopia | Frankfurt | 4 | All Maps","protocol":17,"map":"pl_upward","folder":"tf","game":"Team Fortress","app_id":440,"player_count":0,"max_players":24,"Bots":0,"server_type":"Dedicated","server_os":"Linux","password":true,"vac":true,"version":"7961495","steam_id":85568392924504275,"keywords":["nocrits","nodmgspread","payload","uncletopia"],"game_id":440,"stv_port":27046,"stv_name":"Uncletopia | Frankfurt | 4 | All Maps | STV","players":null},{"server_id":310,"name":"Uncletopia | Frankfurt | 5 | All Maps","name_short":"frk-5","host":"frk-1.de.uncletopia.com","port":27055,"enabled":true,"region":"eu","cc":"de","latitude":50.110924,"longitude":8.682127,"reserved":0,"last_update":"0001-01-01T00:00:00Z","name_a2s":"Uncletopia | Frankfurt | 5 | All Maps","protocol":17,"map":"pl_upward","folder":"tf","game":"Team Fortress","app_id":440,"player_count":19,"max_players":24,"Bots":0,"server_type":"Dedicated","server_os":"Linux","password":true,"vac":true,"version":"7961495","steam_id":85568392924504277,"keywords":["nocrits","nodmgspread","payload","uncletopia"],"game_id":440,"stv_port":27056,"stv_name":"Uncletopia | Frankfurt | 5 | All Maps | STV","players":[{"user_id":69,"name":"Frat Ro Cazz Beta","steam_id":76561198823529926,"connected_time":758000000000,"state":"active","ping":67},{"user_id":73,"name":"COOLGUY007","steam_id":76561199075244155,"connected_time":584000000000,"state":"active","ping":69},{"user_id":82,"name":"dla mnie luty dla ciebie maj","steam_id":76561198228941832,"connected_time":48000000000,"state":"active","ping":87},{"user_id":75,"name":"Bliketod","steam_id":76561198255098671,"connected_time":486000000000,"state":"active","ping":66},{"user_id":83,"name":"Flostro","steam_id":76561198259793697,"connected_time":38000000000,"state":"active","ping":63},{"user_id":14,"name":"DC26","steam_id":76561198882999146,"connected_time":3499000000000,"state":"active","ping":145},{"user_id":77,"name":"Archive","steam_id":76561198071255385,"connected_time":306000000000,"state":"active","ping":98},{"user_id":79,"name":"lunaire","steam_id":76561198163344452,"connected_time":129000000000,"state":"active","ping":75},{"user_id":84,"name":"o_o","steam_id":76561198113045011,"connected_time":31000000000,"state":"active","ping":82},{"user_id":81,"name":"Kelesch","steam_id":76561198043938997,"connected_time":99000000000,"state":"active","ping":69},{"user_id":85,"name":"gaming gamer","steam_id":76561198212488780,"connected_time":30000000000,"state":"active","ping":59},{"user_id":48,"name":"Ross from F.R.I.E.N.D.S.","steam_id":76561198008511665,"connected_time":2036000000000,"state":"active","ping":58},{"user_id":86,"name":"\u003c blank \u003e","steam_id":76561198059375315,"connected_time":23000000000,"state":"active","ping":69},{"user_id":42,"name":"Nor1h_l1zard","steam_id":76561198250011918,"connected_time":2644000000000,"state":"active","ping":74},{"user_id":87,"name":"Lessoz","steam_id":76561199211572036,"connected_time":23000000000,"state":"spawning","ping":90},{"user_id":88,"name":"Wonkglorg","steam_id":76561198302060474,"connected_time":20000000000,"state":"active","ping":70},{"user_id":46,"name":"No0bAce","steam_id":76561198372819576,"connected_time":2283000000000,"state":"active","ping":70},{"user_id":89,"name":"Peen","steam_id":76561198124862665,"connected_time":3000000000,"state":"spawning","ping":77},{"user_id":65,"name":"NuclearMarmi","steam_id":76561199105766538,"connected_time":989000000000,"state":"active","ping":70}]},{"server_id":311,"name":"Uncletopia | Frankfurt | 6 | All Maps","name_short":"frk-6","host":"frk-1.de.uncletopia.com","port":27065,"enabled":true,"region":"eu","cc":"de","latitude":50.110924,"longitude":8.682127,"reserved":0,"last_update":"0001-01-01T00:00:00Z","name_a2s":"Uncletopia | Frankfurt | 6 | All Maps","protocol":17,"map":"cp_sunshine","folder":"tf","game":"Team Fortress","app_id":440,"player_count":0,"max_players":24,"Bots":0,"server_type":"Dedicated","server_os":"Linux","password":true,"vac":true,"version":"7961495","steam_id":85568392924504278,"keywords":["cp","nocrits","nodmgspread","uncletopia"],"game_id":440,"stv_port":27066,"stv_name":"Uncletopia | Frankfurt | 6 | All Maps | STV","players":null},{"server_id":23,"name":"Uncletopia | Frankfurt | 7 | Stopwatch Beta","name_short":"frk-7","host":"frk-1.de.uncletopia.com","port":27075,"enabled":true,"region":"eu","cc":"de","latitude":50.110924,"longitude":8.682127,"reserved":0,"last_update":"0001-01-01T00:00:00Z","name_a2s":"Uncletopia | Frankfurt | 7 | Stopwatch Beta","protocol":17,"map":"workshop/pl_vigil_rc9.ugc1266210012","folder":"tf","game":"Team Fortress","app_id":440,"player_count":2,"max_players":24,"Bots":0,"server_type":"Dedicated","server_os":"Linux","password":true,"vac":true,"version":"7961495","steam_id":85568392924742827,"keywords":["nocrits","nodmgspread","payload","uncletopia"],"game_id":440,"stv_port":27076,"stv_name":"Uncletopia | Frankfurt | 7 | Stopwatch Beta | STV","players":[{"user_id":7,"name":"octavianxyz","steam_id":76561198446728441,"connected_time":127000000000,"state":"active","ping":73},{"user_id":8,"name":"KnugenIV","steam_id":76561198127091993,"connected_time":39000000000,"state":"active","ping":46}]},{"server_id":24,"name":"Uncletopia | Frankfurt | 8 | Community","name_short":"frk-8","host":"frk-1.de.uncletopia.com","port":27085,"enabled":true,"region":"eu","cc":"de","latitude":50.110924,"longitude":8.682127,"reserved":0,"last_update":"0001-01-01T00:00:00Z","name_a2s":"Uncletopia | Frankfurt | 8 | Community","protocol":17,"map":"workshop/koth_trenchfoot_b1a.ugc731436616","folder":"tf","game":"Team Fortress","app_id":440,"player_count":0,"max_players":24,"Bots":0,"server_type":"Dedicated","server_os":"Linux","password":true,"vac":true,"version":"7961495","steam_id":85568392924742828,"keywords":["cp","nocrits","nodmgspread","uncletopia"],"game_id":440,"stv_port":27086,"stv_name":"Uncletopia | Frankfurt | 8 | Community | STV","players":null},{"server_id":202,"name":"Uncletopia | Hong Kong | 1 | All Maps","name_short":"hgk-1","host":"hgk-1.hk.uncletopia.com","port":27015,"enabled":true,"region":"asia","cc":"hk","latitude":22.302711,"longitude":114.177216,"reserved":0,"last_update":"0001-01-01T00:00:00Z","name_a2s":"Uncletopia | Hong Kong | 1 | All Maps","protocol":17,"map":"koth_viaduct","folder":"tf","game":"Team Fortress","app_id":440,"player_count":0,"max_players":24,"Bots":0,"server_type":"Dedicated","server_os":"Linux","password":true,"vac":true,"version":"7961495","steam_id":85568392924494504,"keywords":["cp","nocrits","nodmgspread","uncletopia"],"game_id":440,"stv_port":27016,"stv_name":"Uncletopia | Hong Kong | 1 | All Maps | STV","players":null},{"server_id":1,"name":"Uncletopia | Los Angeles | 1 | All Maps","name_short":"lax-1","host":"lax-1.us.uncletopia.com","port":27015,"enabled":true,"region":"us-west","cc":"us","latitude":33.94279,"longitude":-118.41004,"reserved":0,"last_update":"0001-01-01T00:00:00Z","name_a2s":"Uncletopia | Los Angeles | 1 | All Maps","protocol":17,"map":"cp_dustbowl","folder":"tf","game":"Team Fortress","app_id":440,"player_count":24,"max_players":24,"Bots":0,"server_type":"Dedicated","server_os":"Linux","password":true,"vac":true,"version":"7961495","steam_id":85568392924469991,"keywords":["cp","nocrits","nodmgspread","uncletopia"],"game_id":440,"stv_port":27016,"stv_name":"Uncletopia | Los Angeles | 1 | All Maps | STV","players":[{"user_id":331,"name":"Lorelei Gaymer Queen","steam_id":76561198121470228,"connected_time":1629000000000,"state":"active","ping":48},{"user_id":313,"name":"FI LO","steam_id":76561198976530881,"connected_time":2945000000000,"state":"active","ping":42},{"user_id":240,"name":"Obama","steam_id":76561198194065283,"connected_time":7416000000000,"state":"active","ping":45},{"user_id":335,"name":"not duck","steam_id":76561198116975060,"connected_time":1208000000000,"state":"active","ping":72},{"user_id":303,"name":"Maxmind24","steam_id":76561198859888778,"connected_time":3395000000000,"state":"active","ping":82},{"user_id":330,"name":"triph","steam_id":76561198067196509,"connected_time":1700000000000,"state":"active","ping":43},{"user_id":283,"name":"usedhalfcart","steam_id":76561198072621852,"connected_time":4217000000000,"state":"active","ping":79},{"user_id":327,"name":"noceof","steam_id":76561198043656816,"connected_time":2226000000000,"state":"active","ping":171},{"user_id":344,"name":"Phlog in Dustbowl Enjoyer","steam_id":76561198016168993,"connected_time":1048000000000,"state":"active","ping":91},{"user_id":341,"name":"Scoperaider","steam_id":76561199068449848,"connected_time":1172000000000,"state":"active","ping":50},{"user_id":352,"name":"adapt","steam_id":76561198156181017,"connected_time":110000000000,"state":"active","ping":55},{"user_id":279,"name":"mkl","steam_id":76561197986401685,"connected_time":4914000000000,"state":"active","ping":80},{"user_id":324,"name":"Mr. Pockets","steam_id":76561198053657771,"connected_time":2432000000000,"state":"active","ping":61},{"user_id":334,"name":"jovial","steam_id":76561198297130941,"connected_time":1213000000000,"state":"active","ping":48},{"user_id":337,"name":"tom","steam_id":76561199406261605,"connected_time":1205000000000,"state":"active","ping":86},{"user_id":321,"name":"Lonlily","steam_id":76561198130418647,"connected_time":2629000000000,"state":"active","ping":64},{"user_id":347,"name":"Buswolley","steam_id":76561197995205571,"connected_time":711000000000,"state":"active","ping":59},{"user_id":339,"name":"Froglord","steam_id":76561197995374569,"connected_time":1190000000000,"state":"active","ping":65},{"user_id":222,"name":"Nibotshooter","steam_id":76561199284825579,"connected_time":8929000000000,"state":"active","ping":67},{"user_id":329,"name":"üíÄKing DiamondüíÄ","steam_id":76561198012101598,"connected_time":1708000000000,"state":"active","ping":47},{"user_id":349,"name":"Monki","steam_id":76561198964210411,"connected_time":490000000000,"state":"active","ping":86},{"user_id":342,"name":"TheGrassMan (He/Him)","steam_id":76561198118984048,"connected_time":1156000000000,"state":"active","ping":130},{"user_id":346,"name":"Joe Biden (Deceased)","steam_id":76561198170427507,"connected_time":810000000000,"state":"active","ping":47},{"user_id":351,"name":"RectahlProlapse","steam_id":76561199044655605,"connected_time":380000000000,"state":"active","ping":60}]},{"server_id":112,"name":"Uncletopia | Los Angeles | 2 | All Maps","name_short":"lax-2","host":"lax-1.us.uncletopia.com","port":27025,"enabled":true,"region":"us-west","cc":"us","latitude":33.94279,"longitude":-118.41004,"reserved":0,"last_update":"0001-01-01T00:00:00Z","name_a2s":"Uncletopia | Los Angeles | 2 | All Maps","protocol":17,"map":"cp_mountainlab","folder":"tf","game":"Team Fortress","app_id":440,"player_count":0,"max_players":24,"Bots":0,"server_type":"Dedicated","server_os":"Linux","password":true,"vac":true,"version":"7961495","steam_id":85568392924469992,"keywords":["cp","nocrits","nodmgspread","uncletopia"],"game_id":440,"stv_port":27026,"stv_name":"Uncletopia | Los Angeles | 2 | All Maps | STV","players":null},{"server_id":324,"name":"Uncletopia | Los Angeles | 3 | All Maps","name_short":"lax-3","host":"lax-1.us.uncletopia.com","port":27035,"enabled":true,"region":"us-west","cc":"us","latitude":33.94279,"longitude":-118.41004,"reserved":0,"last_update":"0001-01-01T00:00:00Z","name_a2s":"Uncletopia | Los Angeles | 3 | All Maps","protocol":17,"map":"koth_harvest_final","folder":"tf","game":"Team Fortress","app_id":440,"player_count":0,"max_players":24,"Bots":0,"server_type":"Dedicated","server_os":"Linux","password":true,"vac":true,"version":"7961495","steam_id":85568392924510198,"keywords":["cp","nocrits","nodmgspread","uncletopia"],"game_id":440,"stv_port":27036,"stv_name":"Uncletopia | Los Angeles | 3 | All Maps | STV","players":null},{"server_id":25,"name":"Uncletopia | Los Angeles | 4 | Stopwatch Beta","name_short":"lax-4","host":"lax-1.us.uncletopia.com","port":27045,"enabled":true,"region":"us-west","cc":"us","latitude":33.94279,"longitude":-118.41004,"reserved":0,"last_update":"0001-01-01T00:00:00Z","name_a2s":"Uncletopia | Los Angeles | 4 | Stopwatch Beta","protocol":17,"map":"pl_upward","folder":"tf","game":"Team Fortress","app_id":440,"player_count":0,"max_players":24,"Bots":0,"server_type":"Dedicated","server_os":"Linux","password":true,"vac":true,"version":"7961495","steam_id":85568392924510199,"keywords":["nocrits","nodmgspread","payload","uncletopia"],"game_id":440,"stv_port":27046,"stv_name":"Uncletopia | Los Angeles | 4 | Stopwatch Beta | STV","players":null},{"server_id":11,"name":"Uncletopia | London | 1 | All Maps","name_short":"lon-1","host":"lon-1.uk.uncletopia.com","port":27015,"enabled":true,"region":"eu","cc":"gb","latitude":51.509865,"longitude":-0.118092,"reserved":0,"last_update":"0001-01-01T00:00:00Z","name_a2s":"Uncletopia | London | 1 | All Maps","protocol":17,"map":"pl_snowycoast","folder":"tf","game":"Team Fortress","app_id":440,"player_count":24,"max_players":24,"Bots":0,"server_type":"Dedicated","server_os":"Linux","password":true,"vac":true,"version":"7961495","steam_id":85568392924367362,"keywords":["nocrits","nodmgspread","payload","uncletopia"],"game_id":440,"stv_port":27016,"stv_name":"Uncletopia | London | 1 | All Maps | STV","players":[{"user_id":508,"name":"Kahvi","steam_id":76561198723244199,"connected_time":3394000000000,"state":"active","ping":78},{"user_id":541,"name":"Hey, I¬¥m Andy!","steam_id":76561198060337777,"connected_time":402000000000,"state":"active","ping":89},{"user_id":528,"name":"[PKBG] Pipera","steam_id":76561197998280567,"connected_time":1330000000000,"state":"active","ping":56},{"user_id":543,"name":"owo","steam_id":76561198158209651,"connected_time":394000000000,"state":"active","ping":63},{"user_id":545,"name":"office laptop player","steam_id":76561199475596186,"connected_time":232000000000,"state":"active","ping":125},{"user_id":532,"name":"flappi","steam_id":76561198072892783,"connected_time":1252000000000,"state":"active","ping":71},{"user_id":485,"name":"Aaron","steam_id":76561197990046953,"connected_time":5007000000000,"state":"active","ping":55},{"user_id":540,"name":"Miquel128","steam_id":76561198274955794,"connected_time":451000000000,"state":"active","ping":86},{"user_id":535,"name":"Dyld","steam_id":76561197979603871,"connected_time":1202000000000,"state":"active","ping":65},{"user_id":495,"name":"ein'd","steam_id":76561198152162834,"connected_time":4102000000000,"state":"active","ping":108},{"user_id":544,"name":"ash","steam_id":76561198159073505,"connected_time":371000000000,"state":"active","ping":104},{"user_id":503,"name":"trite","steam_id":76561197983765323,"connected_time":3688000000000,"state":"active","ping":52},{"user_id":449,"name":"Snake-chan","steam_id":76561199044755854,"connected_time":6676000000000,"state":"active","ping":75},{"user_id":516,"name":"üòà COCKDESTROYER üòà","steam_id":76561198042846999,"connected_time":2614000000000,"state":"active","ping":79},{"user_id":496,"name":"SOPHIIEE","steam_id":76561198443798981,"connected_time":3991000000000,"state":"active","ping":57},{"user_id":511,"name":"dec","steam_id":76561198009660168,"connected_time":3155000000000,"state":"active","ping":58},{"user_id":504,"name":"Hexagon","steam_id":76561198151205758,"connected_time":3684000000000,"state":"active","ping":66},{"user_id":537,"name":"FoOzTV","steam_id":76561197998636728,"connected_time":496000000000,"state":"active","ping":70},{"user_id":515,"name":"dispenser gaming","steam_id":76561199112266092,"connected_time":2619000000000,"state":"active","ping":132},{"user_id":494,"name":"CumEater9","steam_id":76561198210682456,"connected_time":4256000000000,"state":"active","ping":59},{"user_id":518,"name":"Prome","steam_id":76561199050383942,"connected_time":2597000000000,"state":"active","ping":61},{"user_id":548,"name":"breakfast burrito","steam_id":76561198148606969,"connected_time":57000000000,"state":"active","ping":74},{"user_id":546,"name":"gremlin GOD","steam_id":76561198169972571,"connected_time":216000000000,"state":"active","ping":59},{"user_id":498,"name":"Fwebbie","steam_id":76561199006875621,"connected_time":3848000000000,"state":"active","ping":65}]},{"server_id":114,"name":"Uncletopia | London | 2 | All Maps","name_short":"lon-2","host":"lon-1.uk.uncletopia.com","port":27025,"enabled":true,"region":"eu","cc":"gb","latitude":51.509865,"longitude":-0.118092,"reserved":0,"last_update":"0001-01-01T00:00:00Z","name_a2s":"Uncletopia | London | 2 | All Maps","protocol":17,"map":"pl_barnblitz","folder":"tf","game":"Team Fortress","app_id":440,"player_count":24,"max_players":24,"Bots":0,"server_type":"Dedicated","server_os":"Linux","password":true,"vac":true,"version":"7961495","steam_id":85568392924470941,"keywords":["nocrits","nodmgspread","payload","uncletopia"],"game_id":440,"stv_port":27026,"stv_name":"Uncletopia | London | 2 | All Maps | STV","players":[{"user_id":412,"name":"RickRoller","steam_id":76561199221172552,"connected_time":1101000000000,"state":"active","ping":52},{"user_id":411,"name":"oxygenWaster","steam_id":76561198218286259,"connected_time":1140000000000,"state":"active","ping":117},{"user_id":413,"name":"Homicidal Tendencies","steam_id":76561198828681043,"connected_time":1088000000000,"state":"active","ping":49},{"user_id":354,"name":"Boki","steam_id":76561198044553351,"connected_time":5592000000000,"state":"active","ping":60},{"user_id":410,"name":"Bobbegaard","steam_id":76561199425101629,"connected_time":1147000000000,"state":"active","ping":87},{"user_id":406,"name":"Kappa#bansniper","steam_id":76561198089341471,"connected_time":1894000000000,"state":"active","ping":71},{"user_id":390,"name":"Puss in Boots","steam_id":76561198211599767,"connected_time":2611000000000,"state":"active","ping":57},{"user_id":368,"name":"Luuk","steam_id":76561198088266026,"connected_time":5164000000000,"state":"active","ping":49},{"user_id":405,"name":"insane, deranged possibly menta","steam_id":76561198139729249,"connected_time":1934000000000,"state":"active","ping":105},{"user_id":407,"name":"MpJens","steam_id":76561198000347669,"connected_time":1651000000000,"state":"active","ping":72},{"user_id":427,"name":"pad6z23h8s","steam_id":76561198880756741,"connected_time":428000000000,"state":"active","ping":89},{"user_id":428,"name":"James","steam_id":76561198168882012,"connected_time":424000000000,"state":"active","ping":52},{"user_id":430,"name":"C0d3s","steam_id":76561198093907544,"connected_time":275000000000,"state":"active","ping":91},{"user_id":426,"name":"mendako","steam_id":76561198295305088,"connected_time":592000000000,"state":"active","ping":71},{"user_id":419,"name":"1Ndigo","steam_id":76561199109470283,"connected_time":862000000000,"state":"active","ping":61},{"user_id":394,"name":"sailorlime","steam_id":76561199122643578,"connected_time":2525000000000,"state":"active","ping":130},{"user_id":329,"name":"Eterneon","steam_id":76561198354080949,"connected_time":8134000000000,"state":"active","ping":60},{"user_id":395,"name":"SkyGhost","steam_id":76561198271474593,"connected_time":2519000000000,"state":"active","ping":85},{"user_id":417,"name":"omgwtfbbqkfc","steam_id":76561198015268844,"connected_time":919000000000,"state":"active","ping":45},{"user_id":416,"name":"‡∂ûbominasus 2137  #SaveTF2","steam_id":76561198030062981,"connected_time":974000000000,"state":"active","ping":82},{"user_id":429,"name":"padillacampos","steam_id":76561198161923970,"connected_time":337000000000,"state":"active","ping":85},{"user_id":425,"name":"Flashback","steam_id":76561197973978552,"connected_time":673000000000,"state":"active","ping":55},{"user_id":424,"name":"Bigbubbajotaro","steam_id":76561199130793590,"connected_time":731000000000,"state":"active","ping":72},{"user_id":376,"name":"Sarah Obama Michella","steam_id":76561198078996559,"connected_time":5125000000000,"state":"active","ping":93}]},{"server_id":320,"name":"Uncletopia | London | 3 | All Maps","name_short":"lon-3","host":"lon-1.uk.uncletopia.com","port":27035,"enabled":true,"region":"eu","cc":"gb","latitude":51.509865,"longitude":-0.118092,"reserved":0,"last_update":"0001-01-01T00:00:00Z","name_a2s":"Uncletopia | London | 3 | All Maps","protocol":17,"map":"pl_badwater","folder":"tf","game":"Team Fortress","app_id":440,"player_count":24,"max_players":24,"Bots":0,"server_type":"Dedicated","server_os":"Linux","password":true,"vac":true,"version":"7961495","steam_id":85568392924510192,"keywords":["nocrits","nodmgspread","payload","uncletopia"],"game_id":440,"stv_port":27036,"stv_name":"Uncletopia | London | 3 | All Maps | STV","players":[{"user_id":239,"name":"meriones","steam_id":76561198034234373,"connected_time":834000000000,"state":"active","ping":41},{"user_id":235,"name":"Mruczys≈Çaw","steam_id":76561198801851780,"connected_time":1162000000000,"state":"active","ping":85},{"user_id":218,"name":"Zelenskiy","steam_id":76561198273199378,"connected_time":1922000000000,"state":"active","ping":76},{"user_id":228,"name":"Fido","steam_id":76561198019826483,"connected_time":1209000000000,"state":"active","ping":62},{"user_id":222,"name":"flamingosaurus","steam_id":76561198051455397,"connected_time":1630000000000,"state":"active","ping":45},{"user_id":197,"name":"Voks_","steam_id":76561198159687785,"connected_time":2802000000000,"state":"active","ping":70},{"user_id":240,"name":"Stupid Rat","steam_id":76561199226339490,"connected_time":727000000000,"state":"active","ping":75},{"user_id":230,"name":"H2n9","steam_id":76561198055811259,"connected_time":1198000000000,"state":"active","ping":50},{"user_id":244,"name":"Rodak","steam_id":76561199135986344,"connected_time":254000000000,"state":"active","ping":77},{"user_id":242,"name":"unpronounceable","steam_id":76561198271860748,"connected_time":388000000000,"state":"active","ping":49},{"user_id":231,"name":"Star in a pond","steam_id":76561198205501279,"connected_time":1190000000000,"state":"active","ping":111},{"user_id":152,"name":"yush","steam_id":76561198121688934,"connected_time":5847000000000,"state":"active","ping":74},{"user_id":219,"name":"akela","steam_id":76561198122010232,"connected_time":1914000000000,"state":"active","ping":84},{"user_id":211,"name":"General Petrov","steam_id":76561198027204104,"connected_time":2380000000000,"state":"active","ping":85},{"user_id":232,"name":"Amandus","steam_id":76561198036281079,"connected_time":1187000000000,"state":"active","ping":66},{"user_id":233,"name":"Syd","steam_id":76561198020515027,"connected_time":1172000000000,"state":"active","ping":83},{"user_id":192,"name":"omnibombulator","steam_id":76561198025858897,"connected_time":3716000000000,"state":"active","ping":48},{"user_id":234,"name":"Hercules","steam_id":76561198041164170,"connected_time":1167000000000,"state":"active","ping":70},{"user_id":201,"name":"Ixsus\u003c3","steam_id":76561198094756869,"connected_time":2733000000000,"state":"active","ping":72},{"user_id":236,"name":"Buddy","steam_id":76561198050185582,"connected_time":1115000000000,"state":"active","ping":72},{"user_id":193,"name":"Dewotter","steam_id":76561198007653168,"connected_time":3714000000000,"state":"active","ping":60},{"user_id":208,"name":"krayy (she/her)","steam_id":76561198035037830,"connected_time":2571000000000,"state":"active","ping":53},{"user_id":204,"name":"A stripper","steam_id":76561198034865891,"connected_time":2690000000000,"state":"active","ping":56},{"user_id":243,"name":"Diggity","steam_id":76561198297157085,"connected_time":360000000000,"state":"active","ping":43}]},{"server_id":321,"name":"Uncletopia | London | 4 | All Maps","name_short":"lon-4","host":"lon-1.uk.uncletopia.com","port":27045,"enabled":true,"region":"eu","cc":"gb","latitude":51.509865,"longitude":-0.118092,"reserved":0,"last_update":"0001-01-01T00:00:00Z","name_a2s":"Uncletopia | London | 4 | All Maps","protocol":17,"map":"pl_badwater","folder":"tf","game":"Team Fortress","app_id":440,"player_count":24,"max_players":24,"Bots":0,"server_type":"Dedicated","server_os":"Linux","password":true,"vac":true,"version":"7961495","steam_id":85568392924510193,"keywords":["nocrits","nodmgspread","payload","uncletopia"],"game_id":440,"stv_port":27046,"stv_name":"Uncletopia | London | 4 | All Maps | STV","players":[{"user_id":481,"name":"XcrimedevilX","steam_id":76561198107540010,"connected_time":9556000000000,"state":"active","ping":68},{"user_id":480,"name":"Blar","steam_id":76561198042438229,"connected_time":9584000000000,"state":"active","ping":64},{"user_id":604,"name":"Larry Penus","steam_id":76561198207546233,"connected_time":828000000000,"state":"active","ping":41},{"user_id":565,"name":"ColossusSteppes","steam_id":76561198040510572,"connected_time":2616000000000,"state":"active","ping":37},{"user_id":566,"name":"OneManEnsemble","steam_id":76561198200890163,"connected_time":2613000000000,"state":"active","ping":137},{"user_id":484,"name":"shadow39344","steam_id":76561198090639618,"connected_time":9527000000000,"state":"active","ping":55},{"user_id":606,"name":"Colingaffney","steam_id":76561198197984574,"connected_time":798000000000,"state":"active","ping":60},{"user_id":613,"name":"Joe","steam_id":76561198303096178,"connected_time":322000000000,"state":"active","ping":64},{"user_id":590,"name":"remote access","steam_id":76561198063590426,"connected_time":1489000000000,"state":"active","ping":60},{"user_id":592,"name":"georgeiscool3","steam_id":76561199116151412,"connected_time":1301000000000,"state":"active","ping":68},{"user_id":564,"name":"Gubbly Bubbins","steam_id":76561198101451654,"connected_time":2657000000000,"state":"active","ping":49},{"user_id":576,"name":"ratot","steam_id":76561198063132645,"connected_time":2134000000000,"state":"active","ping":47},{"user_id":614,"name":"ODanial","steam_id":76561198034854402,"connected_time":320000000000,"state":"active","ping":80},{"user_id":401,"name":"Surry Fex","steam_id":76561198090586031,"connected_time":13562000000000,"state":"active","ping":90},{"user_id":569,"name":"Sabour","steam_id":76561197963965445,"connected_time":2362000000000,"state":"active","ping":71},{"user_id":571,"name":"Nonok","steam_id":76561199480685498,"connected_time":2345000000000,"state":"active","ping":71},{"user_id":612,"name":"cazador","steam_id":76561198123096922,"connected_time":490000000000,"state":"active","ping":105},{"user_id":524,"name":"jimmy kane","steam_id":76561197984425891,"connected_time":5618000000000,"state":"active","ping":47},{"user_id":518,"name":"Orpheus","steam_id":76561198442035906,"connected_time":6413000000000,"state":"active","ping":60},{"user_id":611,"name":"Leituga","steam_id":76561198051127598,"connected_time":691000000000,"state":"active","ping":87},{"user_id":560,"name":"Purps","steam_id":76561198053886680,"connected_time":2956000000000,"state":"active","ping":40},{"user_id":609,"name":"Rask","steam_id":76561198052934944,"connected_time":754000000000,"state":"active","ping":89},{"user_id":596,"name":"God himself.","steam_id":76561198309874415,"connected_time":1229000000000,"state":"active","ping":34},{"user_id":615,"name":"Sir Andrei","steam_id":76561198805136461,"connected_time":299000000000,"state":"active","ping":56}]},{"server_id":21,"name":"Uncletopia | London | 5 | All Maps","name_short":"lon-5","host":"lon-1.uk.uncletopia.com","port":27055,"enabled":true,"region":"eu","cc":"gb","latitude":51.509865,"longitude":-0.118092,"reserved":0,"last_update":"0001-01-01T00:00:00Z","name_a2s":"Uncletopia | London | 5 | All Maps","protocol":17,"map":"cp_altitude","folder":"tf","game":"Team Fortress","app_id":440,"player_count":21,"max_players":24,"Bots":0,"server_type":"Dedicated","server_os":"Linux","password":true,"vac":true,"version":"7961495","steam_id":85568392924742829,"keywords":["cp","nocrits","nodmgspread","uncletopia"],"game_id":440,"stv_port":27056,"stv_name":"Uncletopia | London | 5 | All Maps | STV","players":[{"user_id":210,"name":"Aster","steam_id":76561198037920420,"connected_time":22000000000,"state":"active","ping":160},{"user_id":211,"name":"ROX","steam_id":76561198272289320,"connected_time":20000000000,"state":"spawning","ping":1762},{"user_id":212,"name":"LegoKatt","steam_id":76561198064536870,"connected_time":17000000000,"state":"spawning","ping":82},{"user_id":202,"name":"Emerald","steam_id":76561199141384216,"connected_time":529000000000,"state":"active","ping":46},{"user_id":201,"name":"Sylvanas","steam_id":76561198154904165,"connected_time":833000000000,"state":"spawning","ping":406},{"user_id":186,"name":"MANBOYBOYBOYMAN","steam_id":76561198097612561,"connected_time":1281000000000,"state":"active","ping":85},{"user_id":208,"name":"qrm","steam_id":76561199061345151,"connected_time":177000000000,"state":"active","ping":63},{"user_id":188,"name":"Hollow_Rat","steam_id":76561199383063492,"connected_time":1197000000000,"state":"active","ping":55},{"user_id":167,"name":"Fairy Of Nature","steam_id":76561198274159048,"connected_time":3140000000000,"state":"active","ping":244},{"user_id":166,"name":"Tegnerud","steam_id":76561198214185612,"connected_time":3392000000000,"state":"active","ping":96},{"user_id":203,"name":"Davey","steam_id":76561198256879107,"connected_time":335000000000,"state":"active","ping":78},{"user_id":190,"name":"Dr.potato on ak","steam_id":76561198215813329,"connected_time":1158000000000,"state":"active","ping":87},{"user_id":194,"name":"Smoking problem","steam_id":76561198361351449,"connected_time":1049000000000,"state":"connecting","ping":59},{"user_id":192,"name":"S.E.A.L","steam_id":76561198087310161,"connected_time":1100000000000,"state":"active","ping":92},{"user_id":209,"name":"Liamish11","steam_id":76561198176235318,"connected_time":168000000000,"state":"active","ping":95},{"user_id":193,"name":"Urfangonultasadana","steam_id":76561199389286151,"connected_time":1089000000000,"state":"active","ping":101},{"user_id":195,"name":"PLATINUM PISSED","steam_id":76561198275955087,"connected_time":1015000000000,"state":"spawning","ping":65},{"user_id":196,"name":"Oil-Chan","steam_id":76561198326691870,"connected_time":994000000000,"state":"active","ping":76},{"user_id":197,"name":"Tommy Toughknuckles","steam_id":76561198180438386,"connected_time":954000000000,"state":"active","ping":59},{"user_id":200,"name":"DeterminedXD[HUN]","steam_id":76561199469006453,"connected_time":907000000000,"state":"active","ping":111},{"user_id":71,"name":"lulu","steam_id":76561199147764133,"connected_time":8695000000000,"state":"active","ping":71}]},{"server_id":22,"name":"Uncletopia | London | 6 | All Maps","name_short":"lon-6","host":"lon-1.uk.uncletopia.com","port":27065,"enabled":true,"region":"eu","cc":"gb","latitude":51.509865,"longitude":-0.118092,"reserved":0,"last_update":"0001-01-01T00:00:00Z","name_a2s":"Uncletopia | London | 6 | All Maps","protocol":17,"map":"pl_upward","folder":"tf","game":"Team Fortress","app_id":440,"player_count":24,"max_players":24,"Bots":0,"server_type":"Dedicated","server_os":"Linux","password":true,"vac":true,"version":"7961495","steam_id":85568392924742830,"keywords":["nocrits","nodmgspread","payload","uncletopia"],"game_id":440,"stv_port":27066,"stv_name":"Uncletopia | London | 6 | All Maps | STV","players":[{"user_id":480,"name":"VK2124 :D","steam_id":76561198111130688,"connected_time":4490000000000,"state":"active","ping":65},{"user_id":494,"name":"heisenberg","steam_id":76561198988867951,"connected_time":3296000000000,"state":"active","ping":64},{"user_id":498,"name":"‚àö(-Wolf)","steam_id":76561198024769704,"connected_time":3194000000000,"state":"active","ping":104},{"user_id":518,"name":"xTheDarkLight","steam_id":76561198239128298,"connected_time":1840000000000,"state":"active","ping":60},{"user_id":531,"name":"snork","steam_id":76561198138386260,"connected_time":795000000000,"state":"active","ping":60},{"user_id":517,"name":"caralho","steam_id":76561198442803577,"connected_time":2001000000000,"state":"active","ping":73},{"user_id":496,"name":"Maks","steam_id":76561198315278876,"connected_time":3208000000000,"state":"active","ping":51},{"user_id":520,"name":"„É¨„Éà„ÅÆÂ•áÂ¶ô„Å™ÂÜíÈô∫","steam_id":76561198419429742,"connected_time":1491000000000,"state":"active","ping":62},{"user_id":512,"name":"The_EC","steam_id":76561198025587050,"connected_time":2807000000000,"state":"active","ping":91},{"user_id":509,"name":"IndigoJones","steam_id":76561198050284262,"connected_time":2957000000000,"state":"active","ping":53},{"user_id":521,"name":"Jxgaimo","steam_id":76561198206487323,"connected_time":1474000000000,"state":"active","ping":74},{"user_id":497,"name":"WallHitter","steam_id":76561199394273076,"connected_time":3205000000000,"state":"active","ping":152},{"user_id":535,"name":"Puddsta","steam_id":76561198326711568,"connected_time":679000000000,"state":"active","ping":42},{"user_id":452,"name":"temmers","steam_id":76561198354890792,"connected_time":6957000000000,"state":"active","ping":63},{"user_id":502,"name":"Bradders","steam_id":76561198072225758,"connected_time":3099000000000,"state":"active","ping":45},{"user_id":533,"name":"JareJare","steam_id":76561199040893751,"connected_time":722000000000,"state":"active","ping":84},{"user_id":538,"name":"Bobo","steam_id":76561198052308399,"connected_time":53000000000,"state":"active","ping":78},{"user_id":530,"name":"Eme","steam_id":76561198171619442,"connected_time":837000000000,"state":"active","ping":157},{"user_id":536,"name":"Habimbi","steam_id":76561198047271252,"connected_time":465000000000,"state":"active","ping":75},{"user_id":506,"name":"‚ó£_‚ó¢","steam_id":76561199042470246,"connected_time":3050000000000,"state":"active","ping":64},{"user_id":534,"name":"theodorc68","steam_id":76561199250592158,"connected_time":684000000000,"state":"active","ping":80},{"user_id":528,"name":"Memph","steam_id":76561198093280341,"connected_time":1211000000000,"state":"active","ping":42},{"user_id":513,"name":"Nid","steam_id":76561198023371922,"connected_time":2678000000000,"state":"active","ping":70},{"user_id":495,"name":"MatchaPanda","steam_id":76561198027383926,"connected_time":3288000000000,"state":"active","ping":86}]},{"server_id":40,"name":"Uncletopia | London | 7 | No Payload","name_short":"lon-7","host":"lon-1.uk.uncletopia.com","port":27075,"enabled":true,"region":"eu","cc":"gb","latitude":51.509865,"longitude":-0.118092,"reserved":0,"last_update":"0001-01-01T00:00:00Z","name_a2s":"Uncletopia | London | 7 | No Payload","protocol":17,"map":"cp_steel","folder":"tf","game":"Team Fortress","app_id":440,"player_count":24,"max_players":24,"Bots":0,"server_type":"Dedicated","server_os":"Linux","password":true,"vac":true,"version":"7961495","steam_id":85568392924964314,"keywords":["cp","nocrits","nodmgspread","uncletopia"],"game_id":440,"stv_port":27076,"stv_name":"Uncletopia | London | 7 | No Payload | STV","players":[{"user_id":139,"name":"369","steam_id":76561198149967445,"connected_time":1402000000000,"state":"active","ping":32},{"user_id":124,"name":"Meff","steam_id":76561197970610839,"connected_time":2808000000000,"state":"active","ping":65},{"user_id":66,"name":"cansado","steam_id":76561198003898089,"connected_time":6299000000000,"state":"active","ping":73},{"user_id":129,"name":"hisham","steam_id":76561198414437290,"connected_time":2075000000000,"state":"active","ping":121},{"user_id":152,"name":"joni","steam_id":76561197997323419,"connected_time":277000000000,"state":"active","ping":84},{"user_id":127,"name":"jon","steam_id":76561198031544468,"connected_time":2397000000000,"state":"active","ping":77},{"user_id":141,"name":"Vershal Smershal","steam_id":76561198116223995,"connected_time":1345000000000,"state":"active","ping":58},{"user_id":143,"name":"MasterSpider5","steam_id":76561198033145508,"connected_time":811000000000,"state":"active","ping":67},{"user_id":69,"name":"fartcollector","steam_id":76561198048304703,"connected_time":6173000000000,"state":"active","ping":47},{"user_id":149,"name":"Skatnaset","steam_id":76561198298457353,"connected_time":602000000000,"state":"active","ping":75},{"user_id":117,"name":"Kiers","steam_id":76561198834266801,"connected_time":3319000000000,"state":"active","ping":73},{"user_id":153,"name":"Just Navlis","steam_id":76561198090479609,"connected_time":182000000000,"state":"active","ping":61},{"user_id":104,"name":"Der Herr Doktor","steam_id":76561198119476089,"connected_time":4806000000000,"state":"active","ping":95},{"user_id":131,"name":"Proud Jojo Fan #TF2SP","steam_id":76561198847327216,"connected_time":1993000000000,"state":"active","ping":80},{"user_id":145,"name":"Zyliath","steam_id":76561198245083212,"connected_time":769000000000,"state":"active","ping":84},{"user_id":146,"name":"Unknown","steam_id":76561198071994111,"connected_time":767000000000,"state":"active","ping":88},{"user_id":137,"name":"xavier","steam_id":76561198076494034,"connected_time":1479000000000,"state":"active","ping":50},{"user_id":142,"name":"Captain Brexit","steam_id":76561199025230103,"connected_time":1028000000000,"state":"active","ping":69},{"user_id":72,"name":"sneaky snake","steam_id":76561198279965791,"connected_time":6126000000000,"state":"active","ping":96},{"user_id":119,"name":"Soup","steam_id":76561199081651572,"connected_time":3210000000000,"state":"active","ping":65},{"user_id":147,"name":"To Pizza, or not to Pizza","steam_id":76561198020270981,"connected_time":702000000000,"state":"active","ping":134},{"user_id":151,"name":"DragonLord","steam_id":76561198074279225,"connected_time":457000000000,"state":"active","ping":57},{"user_id":128,"name":"Mi Manchi","steam_id":76561198171573129,"connected_time":2113000000000,"state":"active","ping":69},{"user_id":138,"name":"quak","steam_id":76561198053928976,"connected_time":1410000000000,"state":"active","ping":98}]},{"server_id":41,"name":"Uncletopia | London | 8 | Community","name_short":"lon-8","host":"lon-1.uk.uncletopia.com","port":27085,"enabled":true,"region":"eu","cc":"gb","latitude":51.509865,"longitude":-0.118092,"reserved":0,"last_update":"0001-01-01T00:00:00Z","name_a2s":"Uncletopia | London | 8 | Community","protocol":17,"map":"workshop/koth_bagel_rc6.ugc2514036946","folder":"tf","game":"Team Fortress","app_id":440,"player_count":0,"max_players":24,"Bots":0,"server_type":"Dedicated","server_os":"Linux","password":true,"vac":true,"version":"7961495","steam_id":85568392924964315,"keywords":["cp","nocrits","nodmgspread","uncletopia"],"game_id":440,"stv_port":27086,"stv_name":"Uncletopia | London | 8 | Community | STV","players":null},{"server_id":300,"name":"Uncletopia | Montr√©al | 1 | All Maps","name_short":"mtl-1","host":"mtl-1.ca.uncletopia.com","port":27015,"enabled":true,"region":"us-east","cc":"ca","latitude":45.50889,"longitude":-73.56167,"reserved":0,"last_update":"0001-01-01T00:00:00Z","name_a2s":"","protocol":0,"map":"","folder":"","game":"","app_id":0,"player_count":0,"max_players":0,"Bots":0,"server_type":"","server_os":"","password":false,"vac":false,"version":"","steam_id":0,"keywords":null,"game_id":0,"stv_port":0,"stv_name":"","players":null},{"server_id":301,"name":"Uncletopia | Montr√©al | 2 | All Maps","name_short":"mtl-2","host":"mtl-1.ca.uncletopia.com","port":27025,"enabled":true,"region":"us-east","cc":"ca","latitude":45.50889,"longitude":-73.56167,"reserved":0,"last_update":"0001-01-01T00:00:00Z","name_a2s":"","protocol":0,"map":"","folder":"","game":"","app_id":0,"player_count":0,"max_players":0,"Bots":0,"server_type":"","server_os":"","password":false,"vac":false,"version":"","steam_id":0,"keywords":null,"game_id":0,"stv_port":0,"stv_name":"","players":null},{"server_id":302,"name":"Uncletopia | Montr√©al | 3 | All Maps","name_short":"mtl-3","host":"mtl-1.ca.uncletopia.com","port":27035,"enabled":true,"region":"us-east","cc":"ca","latitude":45.50889,"longitude":-73.56167,"reserved":0,"last_update":"0001-01-01T00:00:00Z","name_a2s":"","protocol":0,"map":"","folder":"","game":"","app_id":0,"player_count":8,"max_players":0,"Bots":0,"server_type":"","server_os":"","password":false,"vac":false,"version":"","steam_id":0,"keywords":null,"game_id":0,"stv_port":0,"stv_name":"","players":[{"user_id":7,"name":"johs","steam_id":76561198827312411,"connected_time":2736000000000,"state":"active","ping":67},{"user_id":8,"name":"BEES","steam_id":76561198811545874,"connected_time":1902000000000,"state":"active","ping":48},{"user_id":9,"name":"Triple-Edged","steam_id":76561198308472155,"connected_time":1879000000000,"state":"active","ping":45},{"user_id":21,"name":"Orange Gaming Llama","steam_id":76561199088577021,"connected_time":295000000000,"state":"active","ping":73},{"user_id":11,"name":"nat","steam_id":76561198865090309,"connected_time":1581000000000,"state":"active","ping":85},{"user_id":13,"name":"rocknroll_comicbooks_\u0026bubblegum","steam_id":76561197998893843,"connected_time":1422000000000,"state":"active","ping":48},{"user_id":16,"name":"Gator Grip","steam_id":76561199005649783,"connected_time":975000000000,"state":"active","ping":100},{"user_id":22,"name":"Congcrab","steam_id":76561198078687685,"connected_time":245000000000,"state":"active","ping":103}]},{"server_id":303,"name":"Uncletopia | Montr√©al | 4 | No Payload","name_short":"mtl-4","host":"mtl-1.ca.uncletopia.com","port":27045,"enabled":true,"region":"us-east","cc":"ca","latitude":45.50889,"longitude":-73.56167,"reserved":0,"last_update":"0001-01-01T00:00:00Z","name_a2s":"","protocol":0,"map":"","folder":"","game":"","app_id":0,"player_count":0,"max_players":0,"Bots":0,"server_type":"","server_os":"","password":false,"vac":false,"version":"","steam_id":0,"keywords":null,"game_id":0,"stv_port":0,"stv_name":"","players":null},{"server_id":13,"name":"Uncletopia | New York City | 1 | All Maps","name_short":"nyc-1","host":"nyc-1.us.uncletopia.com","port":27015,"enabled":true,"region":"us-east","cc":"us","latitude":40.73061,"longitude":-73.93524,"reserved":0,"last_update":"0001-01-01T00:00:00Z","name_a2s":"Uncletopia | New York City | 1 | All Maps","protocol":17,"map":"pl_barnblitz","folder":"tf","game":"Team Fortress","app_id":440,"player_count":23,"max_players":24,"Bots":0,"server_type":"Dedicated","server_os":"Linux","password":true,"vac":true,"version":"7961495","steam_id":85568392924469993,"keywords":["nocrits","nodmgspread","payload","uncletopia"],"game_id":440,"stv_port":27016,"stv_name":"Uncletopia | New York City | 1 | All Maps | STV","players":[{"user_id":260,"name":"ATL1 | cola","steam_id":76561198374390458,"connected_time":4395000000000,"state":"active","ping":74},{"user_id":257,"name":"bojack from the show bojack hor","steam_id":76561198053006712,"connected_time":4712000000000,"state":"active","ping":41},{"user_id":274,"name":"ATL 1 | Save your wifi","steam_id":76561198286147372,"connected_time":3533000000000,"state":"active","ping":98},{"user_id":313,"name":"HarryjusttHarry","steam_id":76561198982810452,"connected_time":210000000000,"state":"active","ping":72},{"user_id":315,"name":"turd ferguson","steam_id":76561198071620782,"connected_time":95000000000,"state":"active","ping":69},{"user_id":289,"name":"BD[PL]","steam_id":76561198115995871,"connected_time":2639000000000,"state":"active","ping":136},{"user_id":256,"name":"Elias","steam_id":76561198106431732,"connected_time":4717000000000,"state":"active","ping":49},{"user_id":317,"name":"The Collective(Hypnotist)","steam_id":76561198170423483,"connected_time":84000000000,"state":"active","ping":71},{"user_id":316,"name":"Connection","steam_id":76561199230740231,"connected_time":93000000000,"state":"active","ping":56},{"user_id":291,"name":"jacksonworr","steam_id":76561199013771332,"connected_time":2613000000000,"state":"active","ping":88},{"user_id":318,"name":"CoralBlue","steam_id":76561199085138970,"connected_time":78000000000,"state":"active","ping":121},{"user_id":304,"name":"space man","steam_id":76561198066333670,"connected_time":1856000000000,"state":"active","ping":79},{"user_id":320,"name":"Just PYE","steam_id":76561199439622967,"connected_time":20000000000,"state":"active","ping":114},{"user_id":308,"name":"M249 | Spectre","steam_id":76561198118334485,"connected_time":1682000000000,"state":"active","ping":88},{"user_id":321,"name":"Mr_Frosty","steam_id":76561199380389079,"connected_time":12000000000,"state":"active","ping":134},{"user_id":234,"name":"Virtual Zorua","steam_id":76561198196180302,"connected_time":6843000000000,"state":"active","ping":87},{"user_id":294,"name":"joeyorr2013","steam_id":76561199273960918,"connected_time":2567000000000,"state":"active","ping":89},{"user_id":322,"name":"Poopisviel Von Einzbern","steam_id":76561198259260433,"connected_time":11000000000,"state":"spawning","ping":68},{"user_id":235,"name":"Fletcher","steam_id":76561198317846538,"connected_time":6819000000000,"state":"active","ping":54},{"user_id":319,"name":"Vortigon23","steam_id":76561198116361805,"connected_time":77000000000,"state":"active","ping":99},{"user_id":297,"name":"the guy inside your printer","steam_id":76561198321313604,"connected_time":2501000000000,"state":"active","ping":70},{"user_id":303,"name":"Slimy","steam_id":76561199486144618,"connected_time":1962000000000,"state":"active","ping":166},{"user_id":269,"name":"Stonks","steam_id":76561199490085068,"connected_time":3937000000000,"state":"active","ping":72}]},{"server_id":14,"name":"Uncletopia | New York City | 2 | All Maps","name_short":"nyc-2","host":"nyc-1.us.uncletopia.com","port":27025,"enabled":true,"region":"us-east","cc":"us","latitude":40.73061,"longitude":-73.93524,"reserved":0,"last_update":"0001-01-01T00:00:00Z","name_a2s":"Uncletopia | New York City | 2 | All Maps","protocol":17,"map":"cp_dustbowl","folder":"tf","game":"Team Fortress","app_id":440,"player_count":24,"max_players":24,"Bots":0,"server_type":"Dedicated","server_os":"Linux","password":true,"vac":true,"version":"7961495","steam_id":85568392924469994,"keywords":["cp","nocrits","nodmgspread","uncletopia"],"game_id":440,"stv_port":27026,"stv_name":"Uncletopia | New York City | 2 | All Maps | STV","players":[{"user_id":318,"name":"Bother","steam_id":76561198336750909,"connected_time":3878000000000,"state":"active","ping":47},{"user_id":352,"name":"Chezaus","steam_id":76561198317397837,"connected_time":673000000000,"state":"active","ping":99},{"user_id":314,"name":"reis","steam_id":76561199232952016,"connected_time":4239000000000,"state":"active","ping":177},{"user_id":316,"name":"—è –≥–æ–º–æ—Å–µ–∫—Å—É–∞–ª","steam_id":76561199013466162,"connected_time":3907000000000,"state":"active","ping":95},{"user_id":326,"name":"kona","steam_id":76561198129983605,"connected_time":2638000000000,"state":"active","ping":44},{"user_id":347,"name":"jojo","steam_id":76561198105245989,"connected_time":1090000000000,"state":"active","ping":97},{"user_id":344,"name":"Kitty Nate =w=","steam_id":76561198953073286,"connected_time":1388000000000,"state":"active","ping":55},{"user_id":338,"name":"Pattar","steam_id":76561198146276146,"connected_time":1684000000000,"state":"active","ping":74},{"user_id":348,"name":"IndianBacca","steam_id":76561199130311873,"connected_time":1067000000000,"state":"active","ping":81},{"user_id":333,"name":"Horrizan","steam_id":76561197965028480,"connected_time":2440000000000,"state":"active","ping":88},{"user_id":276,"name":"A Puppy","steam_id":76561198828184456,"connected_time":8312000000000,"state":"active","ping":48},{"user_id":331,"name":"tsyaki","steam_id":76561198204191239,"connected_time":2593000000000,"state":"active","ping":56},{"user_id":360,"name":"capeeKo","steam_id":76561197970346623,"connected_time":61000000000,"state":"active","ping":60},{"user_id":332,"name":"Indigolake","steam_id":76561198202215807,"connected_time":2583000000000,"state":"active","ping":70},{"user_id":313,"name":"Norse Code","steam_id":76561198036032168,"connected_time":4324000000000,"state":"active","ping":60},{"user_id":291,"name":"Cloud","steam_id":76561198954987128,"connected_time":5843000000000,"state":"active","ping":71},{"user_id":349,"name":"Terminator69","steam_id":76561198809283651,"connected_time":954000000000,"state":"active","ping":46},{"user_id":357,"name":"Vegerot","steam_id":76561197997843710,"connected_time":371000000000,"state":"active","ping":44},{"user_id":284,"name":"Snoopy","steam_id":76561198273735974,"connected_time":7724000000000,"state":"active","ping":121},{"user_id":355,"name":"Drygongames","steam_id":76561198250418424,"connected_time":509000000000,"state":"active","ping":107},{"user_id":358,"name":"Telomerase","steam_id":76561198095792685,"connected_time":350000000000,"state":"active","ping":64},{"user_id":356,"name":"Herdez Hot Salsa","steam_id":76561197991740906,"connected_time":480000000000,"state":"active","ping":67},{"user_id":350,"name":"Joy","steam_id":76561198073690173,"connected_time":865000000000,"state":"active","ping":54},{"user_id":342,"name":"asfg","steam_id":76561198107931997,"connected_time":1620000000000,"state":"active","ping":56}]},{"server_id":15,"name":"Uncletopia | New York City | 3 | Stopwatch Beta","name_short":"nyc-3","host":"nyc-1.us.uncletopia.com","port":27035,"enabled":true,"region":"us-east","cc":"us","latitude":40.73061,"longitude":-73.93524,"reserved":0,"last_update":"0001-01-01T00:00:00Z","name_a2s":"Uncletopia | New York City | 3 | Stopwatch Beta","protocol":17,"map":"workshop/koth_ramjam_rc1.ugc459778887","folder":"tf","game":"Team Fortress","app_id":440,"player_count":0,"max_players":24,"Bots":0,"server_type":"Dedicated","server_os":"Linux","password":true,"vac":true,"version":"7961495","steam_id":85568392924742820,"keywords":["cp","nocrits","nodmgspread","uncletopia"],"game_id":440,"stv_port":27036,"stv_name":"Uncletopia | New York City | 3 | Stopwatch Beta | STV","players":null},{"server_id":16,"name":"Uncletopia | New York City | 4 | Community","name_short":"nyc-4","host":"nyc-1.us.uncletopia.com","port":27045,"enabled":true,"region":"us-east","cc":"us","latitude":40.73061,"longitude":-73.93524,"reserved":0,"last_update":"0001-01-01T00:00:00Z","name_a2s":"Uncletopia | New York City | 4 | Community","protocol":17,"map":"workshop/cp_glacier_rc6.ugc2905735376","folder":"tf","game":"Team Fortress","app_id":440,"player_count":20,"max_players":24,"Bots":0,"server_type":"Dedicated","server_os":"Linux","password":true,"vac":true,"version":"7961495","steam_id":85568392924742821,"keywords":["cp","nocrits","nodmgspread","uncletopia"],"game_id":440,"stv_port":27046,"stv_name":"Uncletopia | New York City | 4 | Community | STV","players":[{"user_id":263,"name":"emerge","steam_id":76561198186882891,"connected_time":4046000000000,"state":"active","ping":69},{"user_id":324,"name":"The Panda Knight","steam_id":76561198150282587,"connected_time":325000000000,"state":"active","ping":117},{"user_id":325,"name":"Dum_Bass(Fish)","steam_id":76561197988105207,"connected_time":295000000000,"state":"active","ping":67},{"user_id":311,"name":"D","steam_id":76561198130086000,"connected_time":802000000000,"state":"active","ping":118},{"user_id":323,"name":"Windup Monkey in a Human Suit","steam_id":76561198119501444,"connected_time":354000000000,"state":"active","ping":115},{"user_id":292,"name":"You like Mending?","steam_id":76561198135731629,"connected_time":1785000000000,"state":"active","ping":50},{"user_id":322,"name":"Blitzy","steam_id":76561198149472890,"connected_time":359000000000,"state":"active","ping":90},{"user_id":326,"name":"a bee gaming","steam_id":76561198103194393,"connected_time":292000000000,"state":"active","ping":74},{"user_id":318,"name":"üÖúüÖîüÖîüÖöüÖ¢üÖ£üÖî\ufffd\ufffd\ufffd","steam_id":76561197999748343,"connected_time":540000000000,"state":"active","ping":75},{"user_id":333,"name":"b4rry","steam_id":76561198365887154,"connected_time":149000000000,"state":"active","ping":48},{"user_id":328,"name":"leumas","steam_id":76561198240408540,"connected_time":257000000000,"state":"active","ping":45},{"user_id":314,"name":"marge","steam_id":76561198064823861,"connected_time":736000000000,"state":"active","ping":60},{"user_id":296,"name":"Marzz","steam_id":76561198059034982,"connected_time":1700000000000,"state":"active","ping":57},{"user_id":330,"name":"Logreir64V","steam_id":76561199076233876,"connected_time":175000000000,"state":"active","ping":125},{"user_id":268,"name":"Mephistopheles","steam_id":76561198253731826,"connected_time":3666000000000,"state":"active","ping":106},{"user_id":320,"name":"ba-loo-loo","steam_id":76561198965894854,"connected_time":499000000000,"state":"active","ping":132},{"user_id":308,"name":"Timothy Grunclebottoms","steam_id":76561198871450477,"connected_time":1180000000000,"state":"active","ping":74},{"user_id":269,"name":"euphoricfilth","steam_id":76561198100160865,"connected_time":3647000000000,"state":"active","ping":48},{"user_id":321,"name":"Nickanader","steam_id":76561199122027856,"connected_time":491000000000,"state":"active","ping":61},{"user_id":334,"name":"Roar","steam_id":76561199476592495,"connected_time":133000000000,"state":"active","ping":45}]},{"server_id":142,"name":"Uncletopia | S√£o Paulo | 1 | All Maps","name_short":"sao-1","host":"sao-1.br.uncletopia.com","port":27015,"enabled":true,"region":"sa","cc":"br","latitude":-23.533773,"longitude":-46.62529,"reserved":0,"last_update":"0001-01-01T00:00:00Z","name_a2s":"Uncletopia | S√£o Paulo | 1 | All Maps","protocol":17,"map":"koth_viaduct","folder":"tf","game":"Team Fortress","app_id":440,"player_count":0,"max_players":24,"Bots":0,"server_type":"Dedicated","server_os":"Linux","password":true,"vac":true,"version":"7961495","steam_id":85568392924469996,"keywords":["cp","nocrits","nodmgspread","uncletopia"],"game_id":440,"stv_port":27016,"stv_name":"Uncletopia | S√£o Paulo | 1 | All Maps | STV","players":null},{"server_id":143,"name":"Uncletopia | S√£o Paulo | 2 | Community","name_short":"sao-2","host":"sao-2.br.uncletopia.com","port":27015,"enabled":true,"region":"sa","cc":"br","latitude":-23.533773,"longitude":-46.62529,"reserved":0,"last_update":"0001-01-01T00:00:00Z","name_a2s":"Uncletopia | S√£o Paulo | 2 | Community","protocol":17,"map":"workshop/cp_kalinka_rc6a.ugc1272700588","folder":"tf","game":"Team Fortress","app_id":440,"player_count":3,"max_players":24,"Bots":0,"server_type":"Dedicated","server_os":"Linux","password":true,"vac":true,"version":"7961495","steam_id":85568392924485349,"keywords":["cp","nocrits","nodmgspread","uncletopia"],"game_id":440,"stv_port":27016,"stv_name":"Uncletopia | S√£o Paulo | 2 | Community | STV","players":[{"user_id":18,"name":"E","steam_id":76561199482242524,"connected_time":1571000000000,"state":"spawning","ping":180},{"user_id":17,"name":"mg11a3","steam_id":76561198872798175,"connected_time":1602000000000,"state":"active","ping":46},{"user_id":19,"name":"T P A I A X","steam_id":76561198131740261,"connected_time":1130000000000,"state":"active","ping":34}]},{"server_id":7,"name":"Uncletopia | Seattle | 1 | All Maps","name_short":"sea-1","host":"sea-1.us.uncletopia.com","port":27015,"enabled":true,"region":"us-west","cc":"us","latitude":47.608013,"longitude":-122.33517,"reserved":0,"last_update":"0001-01-01T00:00:00Z","name_a2s":"Uncletopia | Seattle | 1 | All Maps","protocol":17,"map":"pl_frontier_final","folder":"tf","game":"Team Fortress","app_id":440,"player_count":24,"max_players":24,"Bots":0,"server_type":"Dedicated","server_os":"Linux","password":true,"vac":true,"version":"7961495","steam_id":85568392924469997,"keywords":["nocrits","nodmgspread","payload","uncletopia"],"game_id":440,"stv_port":27016,"stv_name":"Uncletopia | Seattle | 1 | All Maps | STV","players":[{"user_id":149,"name":"Peakt","steam_id":76561198096328768,"connected_time":2254000000000,"state":"active","ping":52},{"user_id":250,"name":"tomandjerry085","steam_id":76561198800789071,"connected_time":427000000000,"state":"active","ping":69},{"user_id":60,"name":"Rally Racer","steam_id":76561198044613715,"connected_time":6933000000000,"state":"active","ping":68},{"user_id":224,"name":"Winter the Witchie","steam_id":76561198151971178,"connected_time":1051000000000,"state":"active","ping":95},{"user_id":58,"name":"Closed.","steam_id":76561198212598967,"connected_time":7026000000000,"state":"active","ping":82},{"user_id":102,"name":"McSpazatron","steam_id":76561198955942148,"connected_time":3787000000000,"state":"active","ping":71},{"user_id":198,"name":"BurdBrain","steam_id":76561197962097737,"connected_time":1533000000000,"state":"active","ping":86},{"user_id":251,"name":"PageBoiSkull","steam_id":76561198237353578,"connected_time":329000000000,"state":"active","ping":72},{"user_id":218,"name":"Integral","steam_id":76561198158225481,"connected_time":1145000000000,"state":"active","ping":86},{"user_id":247,"name":"SketchyEtchaSketch","steam_id":76561198143747486,"connected_time":606000000000,"state":"active","ping":159},{"user_id":246,"name":"moneky","steam_id":76561198419708542,"connected_time":663000000000,"state":"active","ping":65},{"user_id":254,"name":"MondoDong","steam_id":76561197991400109,"connected_time":103000000000,"state":"active","ping":116},{"user_id":83,"name":"gnoblin","steam_id":76561198210322871,"connected_time":5789000000000,"state":"active","ping":91},{"user_id":249,"name":"Ping","steam_id":76561199206514106,"connected_time":477000000000,"state":"active","ping":116},{"user_id":230,"name":"Strikerbolt","steam_id":76561199095622897,"connected_time":926000000000,"state":"active","ping":75},{"user_id":226,"name":"zinnk","steam_id":76561198092081825,"connected_time":1030000000000,"state":"active","ping":61},{"user_id":252,"name":"Always Here for You","steam_id":76561198219252313,"connected_time":314000000000,"state":"active","ping":106},{"user_id":161,"name":"Sollyz","steam_id":76561198081110786,"connected_time":2102000000000,"state":"active","ping":63},{"user_id":163,"name":"Cuisinart TOB-40N Custom Classi","steam_id":76561198039891934,"connected_time":2049000000000,"state":"active","ping":80},{"user_id":53,"name":"The Supreme Itch","steam_id":76561198253185600,"connected_time":7683000000000,"state":"active","ping":62},{"user_id":239,"name":"no vc no c","steam_id":76561197989503095,"connected_time":753000000000,"state":"active","ping":154},{"user_id":181,"name":"Mr.Pan","steam_id":76561198069030613,"connected_time":1746000000000,"state":"active","ping":74},{"user_id":228,"name":"Captain Demytri","steam_id":76561198097998607,"connected_time":1010000000000,"state":"active","ping":93},{"user_id":242,"name":"glue","steam_id":76561198382076026,"connected_time":700000000000,"state":"active","ping":74}]},{"server_id":119,"name":"Uncletopia | Seattle | 2 | All Maps","name_short":"sea-2","host":"sea-1.us.uncletopia.com","port":27025,"enabled":true,"region":"us-west","cc":"us","latitude":47.608013,"longitude":-122.33517,"reserved":0,"last_update":"0001-01-01T00:00:00Z","name_a2s":"Uncletopia | Seattle | 2 | All Maps","protocol":17,"map":"pl_badwater","folder":"tf","game":"Team Fortress","app_id":440,"player_count":23,"max_players":24,"Bots":0,"server_type":"Dedicated","server_os":"Linux","password":true,"vac":true,"version":"7961495","steam_id":85568392924469998,"keywords":["nocrits","nodmgspread","payload","uncletopia"],"game_id":440,"stv_port":27026,"stv_name":"Uncletopia | Seattle | 2 | All Maps | STV","players":[{"user_id":11,"name":"cool beans","steam_id":76561198045758072,"connected_time":4061000000000,"state":"active","ping":60},{"user_id":31,"name":"choco","steam_id":76561199013498035,"connected_time":2441000000000,"state":"active","ping":81},{"user_id":54,"name":"Wan Shi Tong","steam_id":76561198076441225,"connected_time":800000000000,"state":"active","ping":108},{"user_id":24,"name":"ten times","steam_id":76561198858474714,"connected_time":2597000000000,"state":"active","ping":51},{"user_id":68,"name":"Veil","steam_id":76561198041286321,"connected_time":65000000000,"state":"active","ping":43},{"user_id":48,"name":"BlazedBunny","steam_id":76561198243610560,"connected_time":988000000000,"state":"active","ping":73},{"user_id":45,"name":"Yippie!","steam_id":76561198276310307,"connected_time":1557000000000,"state":"active","ping":77},{"user_id":17,"name":"Thequirka","steam_id":76561198968058652,"connected_time":3126000000000,"state":"active","ping":50},{"user_id":66,"name":"thatfunnyguy","steam_id":76561199237687443,"connected_time":287000000000,"state":"active","ping":62},{"user_id":46,"name":"mega","steam_id":76561198089520959,"connected_time":1555000000000,"state":"active","ping":94},{"user_id":25,"name":"Mikey","steam_id":76561198052024164,"connected_time":2592000000000,"state":"active","ping":78},{"user_id":32,"name":"Da Bankman","steam_id":76561199127423378,"connected_time":2412000000000,"state":"active","ping":80},{"user_id":56,"name":"‡πá","steam_id":76561198067666595,"connected_time":796000000000,"state":"active","ping":45},{"user_id":33,"name":"Cinnifox","steam_id":76561198068773971,"connected_time":2254000000000,"state":"active","ping":65},{"user_id":49,"name":"Flexo","steam_id":76561198111618506,"connected_time":945000000000,"state":"active","ping":74},{"user_id":30,"name":"rock gaming","steam_id":76561199402868311,"connected_time":2509000000000,"state":"active","ping":83},{"user_id":67,"name":"Viren","steam_id":76561198012636897,"connected_time":280000000000,"state":"active","ping":107},{"user_id":59,"name":"videogames1000","steam_id":76561198347394948,"connected_time":584000000000,"state":"active","ping":48},{"user_id":47,"name":"dillpickle","steam_id":76561198156957191,"connected_time":1373000000000,"state":"active","ping":51},{"user_id":65,"name":"Kakarot","steam_id":76561198072569646,"connected_time":403000000000,"state":"active","ping":139},{"user_id":38,"name":"Sudsen","steam_id":76561198370603787,"connected_time":2160000000000,"state":"active","ping":74},{"user_id":57,"name":"Karthos","steam_id":76561198040827487,"connected_time":753000000000,"state":"active","ping":59},{"user_id":63,"name":"GoldtoothFour","steam_id":76561198055529332,"connected_time":473000000000,"state":"active","ping":97}]},{"server_id":406,"name":"Uncletopia | Seattle | 3 | Stopwatch Beta","name_short":"sea-3","host":"sea-1.us.uncletopia.com","port":27035,"enabled":true,"region":"us-west","cc":"us","latitude":47.608013,"longitude":-122.33517,"reserved":0,"last_update":"0001-01-01T00:00:00Z","name_a2s":"Uncletopia | Seattle | 3 | Stopwatch Beta","protocol":17,"map":"cp_gullywash_final1","folder":"tf","game":"Team Fortress","app_id":440,"player_count":0,"max_players":24,"Bots":0,"server_type":"Dedicated","server_os":"Linux","password":true,"vac":true,"version":"7961495","steam_id":85568392924515217,"keywords":["cp","nocrits","nodmgspread","uncletopia"],"game_id":440,"stv_port":27036,"stv_name":"Uncletopia | Seattle | 3 | Stopwatch Beta | STV","players":null},{"server_id":17,"name":"Uncletopia | San Francisco | 1 | All Maps","name_short":"sfo-1","host":"sfo-1.us.uncletopia.com","port":27015,"enabled":true,"region":"us-west","cc":"us","latitude":37.77397,"longitude":-122.4313,"reserved":0,"last_update":"0001-01-01T00:00:00Z","name_a2s":"Uncletopia | San Francisco | 1 | All Maps","protocol":17,"map":"pl_swiftwater_final1","folder":"tf","game":"Team Fortress","app_id":440,"player_count":0,"max_players":24,"Bots":0,"server_type":"Dedicated","server_os":"Linux","password":true,"vac":true,"version":"7961495","steam_id":85568392924469999,"keywords":["nocrits","nodmgspread","payload","uncletopia"],"game_id":440,"stv_port":27016,"stv_name":"Uncletopia | San Francisco | 1 | All Maps | STV","players":null},{"server_id":18,"name":"Uncletopia | San Francisco | 2 | All Maps","name_short":"sfo-2","host":"sfo-1.us.uncletopia.com","port":27025,"enabled":true,"region":"us-west","cc":"us","latitude":37.77397,"longitude":-122.4313,"reserved":0,"last_update":"0001-01-01T00:00:00Z","name_a2s":"Uncletopia | San Francisco | 2 | All Maps","protocol":17,"map":"koth_cascade","folder":"tf","game":"Team Fortress","app_id":440,"player_count":0,"max_players":24,"Bots":0,"server_type":"Dedicated","server_os":"Linux","password":true,"vac":true,"version":"7961495","steam_id":85568392924470000,"keywords":["cp","nocrits","nodmgspread","uncletopia"],"game_id":440,"stv_port":27026,"stv_name":"Uncletopia | San Francisco | 2 | All Maps | STV","players":null},{"server_id":19,"name":"Uncletopia | San Francisco | 3 | Stopwatch Beta","name_short":"sfo-3","host":"sfo-1.us.uncletopia.com","port":27035,"enabled":true,"region":"us-west","cc":"us","latitude":37.77397,"longitude":-122.4313,"reserved":0,"last_update":"0001-01-01T00:00:00Z","name_a2s":"Uncletopia | San Francisco | 3 | Stopwatch Beta","protocol":17,"map":"pl_borneo","folder":"tf","game":"Team Fortress","app_id":440,"player_count":0,"max_players":24,"Bots":0,"server_type":"Dedicated","server_os":"Linux","password":true,"vac":true,"version":"7961495","steam_id":85568392924742824,"keywords":["nocrits","nodmgspread","payload","uncletopia"],"game_id":440,"stv_port":27036,"stv_name":"Uncletopia | San Francisco | 3 | Stopwatch Beta | STV","players":null},{"server_id":20,"name":"Uncletopia | San Francisco | 4 | Community","name_short":"sfo-4","host":"sfo-1.us.uncletopia.com","port":27045,"enabled":true,"region":"us-west","cc":"us","latitude":37.77397,"longitude":-122.4313,"reserved":0,"last_update":"0001-01-01T00:00:00Z","name_a2s":"Uncletopia | San Francisco | 4 | Community","protocol":17,"map":"koth_viaduct","folder":"tf","game":"Team Fortress","app_id":440,"player_count":0,"max_players":24,"Bots":0,"server_type":"Dedicated","server_os":"Linux","password":true,"vac":true,"version":"7961495","steam_id":85568392924742826,"keywords":["cp","nocrits","nodmgspread","uncletopia"],"game_id":440,"stv_port":27046,"stv_name":"Uncletopia | San Francisco | 4 | Community | STV","players":null},{"server_id":141,"name":"Uncletopia | Sydney | 1 | All Maps","name_short":"syd-1","host":"syd-1.au.uncletopia.com","port":27015,"enabled":true,"region":"au","cc":"au","latitude":-33.865143,"longitude":151.2099,"reserved":0,"last_update":"0001-01-01T00:00:00Z","name_a2s":"Uncletopia | Sydney | 1 | All Maps","protocol":17,"map":"cp_snakewater_final1","folder":"tf","game":"Team Fortress","app_id":440,"player_count":0,"max_players":24,"Bots":0,"server_type":"Dedicated","server_os":"Linux","password":true,"vac":true,"version":"7961495","steam_id":85568392924470001,"keywords":["cp","nocrits","nodmgspread","uncletopia"],"game_id":440,"stv_port":27016,"stv_name":"Uncletopia | Sydney | 1 | All Maps | STV","players":null},{"server_id":123,"name":"Uncletopia | Sydney | 2 | All Maps","name_short":"syd-2","host":"syd-1.au.uncletopia.com","port":27025,"enabled":true,"region":"au","cc":"au","latitude":-33.865143,"longitude":151.2099,"reserved":0,"last_update":"0001-01-01T00:00:00Z","name_a2s":"Uncletopia | Sydney | 2 | All Maps","protocol":17,"map":"pl_snowycoast","folder":"tf","game":"Team Fortress","app_id":440,"player_count":0,"max_players":24,"Bots":0,"server_type":"Dedicated","server_os":"Linux","password":true,"vac":true,"version":"7961495","steam_id":85568392924470002,"keywords":["nocrits","nodmgspread","payload","uncletopia"],"game_id":440,"stv_port":27026,"stv_name":"Uncletopia | Sydney | 2 | All Maps | STV","players":null},{"server_id":395,"name":"Uncletopia | Sydney | 3 | All Maps","name_short":"syd-3","host":"syd-1.au.uncletopia.com","port":27035,"enabled":true,"region":"au","cc":"au","latitude":-33.865143,"longitude":151.2099,"reserved":0,"last_update":"0001-01-01T00:00:00Z","name_a2s":"Uncletopia | Sydney | 3 | All Maps","protocol":17,"map":"cp_dustbowl","folder":"tf","game":"Team Fortress","app_id":440,"player_count":2,"max_players":24,"Bots":0,"server_type":"Dedicated","server_os":"Linux","password":true,"vac":true,"version":"7961495","steam_id":85568392925194467,"keywords":["cp","nocrits","nodmgspread","uncletopia"],"game_id":440,"stv_port":27036,"stv_name":"Uncletopia | Sydney | 3 | All Maps | STV","players":[{"user_id":3,"name":"Lorelord","steam_id":76561199443152879,"connected_time":585000000000,"state":"active","ping":261},{"user_id":4,"name":"727coolbro","steam_id":76561199134912651,"connected_time":150000000000,"state":"active","ping":328}]},{"server_id":396,"name":"Uncletopia | Sydney | 4 | All Maps","name_short":"syd-4","host":"syd-1.au.uncletopia.com","port":27045,"enabled":true,"region":"au","cc":"au","latitude":-33.865143,"longitude":151.2099,"reserved":0,"last_update":"0001-01-01T00:00:00Z","name_a2s":"Uncletopia | Sydney | 4 | All Maps","protocol":17,"map":"cp_dustbowl","folder":"tf","game":"Team Fortress","app_id":440,"player_count":0,"max_players":24,"Bots":0,"server_type":"Dedicated","server_os":"Linux","password":true,"vac":true,"version":"7961495","steam_id":85568392925397958,"keywords":["cp","nocrits","nodmgspread","uncletopia"],"game_id":440,"stv_port":27046,"stv_name":"Uncletopia | Sydney | 4 | All Maps | STV","players":null},{"server_id":58,"name":"Uncletopia | Sydney | 5 | Stopwatch Beta","name_short":"syd-5","host":"syd-1.au.uncletopia.com","port":27055,"enabled":true,"region":"au","cc":"au","latitude":-33.865143,"longitude":151.2099,"reserved":0,"last_update":"0001-01-01T00:00:00Z","name_a2s":"Uncletopia | Sydney | 5 | Stopwatch Beta","protocol":17,"map":"koth_viaduct","folder":"tf","game":"Team Fortress","app_id":440,"player_count":0,"max_players":24,"Bots":0,"server_type":"Dedicated","server_os":"Linux","password":true,"vac":true,"version":"7961495","steam_id":85568392925397959,"keywords":["cp","nocrits","nodmgspread","uncletopia"],"game_id":440,"stv_port":27056,"stv_name":"Uncletopia | Sydney | 5 | Stopwatch Beta | STV","players":null},{"server_id":59,"name":"Uncletopia | Sydney | 6 | Community","name_short":"syd-6","host":"syd-1.au.uncletopia.com","port":27065,"enabled":true,"region":"au","cc":"au","latitude":-33.865143,"longitude":151.2099,"reserved":0,"last_update":"0001-01-01T00:00:00Z","name_a2s":"Uncletopia | Sydney | 6 | Community","protocol":17,"map":"koth_cascade","folder":"tf","game":"Team Fortress","app_id":440,"player_count":0,"max_players":24,"Bots":0,"server_type":"Dedicated","server_os":"Linux","password":true,"vac":true,"version":"7961495","steam_id":85568392925397960,"keywords":["cp","nocrits","nodmgspread","uncletopia"],"game_id":440,"stv_port":27066,"stv_name":"Uncletopia | Sydney | 6 | Community | STV","players":null},{"server_id":49,"name":"Uncletopia | Warsaw | 1 | All Maps","name_short":"waw-1","host":"waw-1.pl.uncletopia.com","port":27015,"enabled":true,"region":"eu","cc":"pl","latitude":52.2297,"longitude":21.017532,"reserved":0,"last_update":"0001-01-01T00:00:00Z","name_a2s":"Uncletopia | Warsaw | 1 | All Maps","protocol":17,"map":"koth_highpass","folder":"tf","game":"Team Fortress","app_id":440,"player_count":0,"max_players":24,"Bots":0,"server_type":"Dedicated","server_os":"Linux","password":true,"vac":true,"version":"7961495","steam_id":85568392925397850,"keywords":["cp","nocrits","nodmgspread","uncletopia"],"game_id":440,"stv_port":27016,"stv_name":"Uncletopia | Warsaw | 1 | All Maps | STV","players":null},{"server_id":50,"name":"Uncletopia | Warsaw | 2 | All Maps","name_short":"waw-2","host":"waw-1.pl.uncletopia.com","port":27025,"enabled":true,"region":"eu","cc":"pl","latitude":52.2297,"longitude":21.017532,"reserved":0,"last_update":"0001-01-01T00:00:00Z","name_a2s":"Uncletopia | Warsaw | 2 | All Maps","protocol":17,"map":"pl_borneo","folder":"tf","game":"Team Fortress","app_id":440,"player_count":23,"max_players":24,"Bots":0,"server_type":"Dedicated","server_os":"Linux","password":true,"vac":true,"version":"7961495","steam_id":85568392925397851,"keywords":["nocrits","nodmgspread","payload","uncletopia"],"game_id":440,"stv_port":27026,"stv_name":"Uncletopia | Warsaw | 2 | All Maps | STV","players":[{"user_id":179,"name":"Wade Wilson's Spoilt C4","steam_id":76561198013884709,"connected_time":1180000000000,"state":"active","ping":91},{"user_id":199,"name":"TriR–ò–å","steam_id":76561198119622375,"connected_time":192000000000,"state":"active","ping":90},{"user_id":156,"name":"Tampon Lollipop","steam_id":76561198042593027,"connected_time":1752000000000,"state":"active","ping":98},{"user_id":77,"name":"Lorenzo Lovers","steam_id":76561198073973581,"connected_time":5829000000000,"state":"active","ping":99},{"user_id":180,"name":"Bastred","steam_id":76561198854387253,"connected_time":936000000000,"state":"active","ping":174},{"user_id":193,"name":"Shmakey_Bakey","steam_id":76561199441412885,"connected_time":923000000000,"state":"active","ping":85},{"user_id":164,"name":"Astolfo Gaming","steam_id":76561198313804998,"connected_time":1447000000000,"state":"active","ping":109},{"user_id":207,"name":"cat","steam_id":76561198832231975,"connected_time":41000000000,"state":"active","ping":91},{"user_id":204,"name":"Silver","steam_id":76561198175238807,"connected_time":49000000000,"state":"active","ping":81},{"user_id":202,"name":"Carlosmega","steam_id":76561198105060572,"connected_time":88000000000,"state":"active","ping":94},{"user_id":196,"name":"DraGOs512","steam_id":76561198438519964,"connected_time":693000000000,"state":"active","ping":98},{"user_id":203,"name":"Tomfool","steam_id":76561197993256481,"connected_time":66000000000,"state":"active","ping":85},{"user_id":205,"name":"rolling_tim","steam_id":76561198373668332,"connected_time":48000000000,"state":"active","ping":78},{"user_id":170,"name":"The Notorious Goofy T. Tingleso","steam_id":76561199150720017,"connected_time":1344000000000,"state":"active","ping":83},{"user_id":194,"name":"siarczan (VI) miedzi (II)","steam_id":76561198327848460,"connected_time":892000000000,"state":"active","ping":44},{"user_id":195,"name":"Woman (Real)","steam_id":76561199151823932,"connected_time":811000000000,"state":"active","ping":60},{"user_id":161,"name":"Jhole","steam_id":76561198171791053,"connected_time":1616000000000,"state":"active","ping":90},{"user_id":208,"name":"jozthebob","steam_id":76561199476198856,"connected_time":36000000000,"state":"active","ping":232},{"user_id":167,"name":"e word p word","steam_id":76561199384678063,"connected_time":1386000000000,"state":"active","ping":180},{"user_id":171,"name":"69 ME 2NITE","steam_id":76561199124261801,"connected_time":1341000000000,"state":"active","ping":82},{"user_id":177,"name":"bruh","steam_id":76561197993922244,"connected_time":1203000000000,"state":"active","ping":68},{"user_id":172,"name":"Purplenoogie","steam_id":76561198081872160,"connected_time":1341000000000,"state":"active","ping":74},{"user_id":173,"name":"ffc1cc","steam_id":76561198141265646,"connected_time":1325000000000,"state":"active","ping":175}]},{"server_id":51,"name":"Uncletopia | Warsaw | 3 | All Maps","name_short":"waw-3","host":"waw-1.pl.uncletopia.com","port":27035,"enabled":true,"region":"eu","cc":"pl","latitude":52.2297,"longitude":21.017532,"reserved":0,"last_update":"0001-01-01T00:00:00Z","name_a2s":"Uncletopia | Warsaw | 3 | All Maps","protocol":17,"map":"pl_borneo","folder":"tf","game":"Team Fortress","app_id":440,"player_count":24,"max_players":24,"Bots":0,"server_type":"Dedicated","server_os":"Linux","password":true,"vac":true,"version":"7961495","steam_id":85568392925397852,"keywords":["nocrits","nodmgspread","payload","uncletopia"],"game_id":440,"stv_port":27036,"stv_name":"Uncletopia | Warsaw | 3 | All Maps | STV","players":[{"user_id":50,"name":"Leah Kate","steam_id":76561198974207724,"connected_time":2768000000000,"state":"active","ping":118},{"user_id":65,"name":"IFlippie","steam_id":76561198284359977,"connected_time":1842000000000,"state":"active","ping":63},{"user_id":52,"name":"Lukas","steam_id":76561198454286820,"connected_time":2747000000000,"state":"active","ping":90},{"user_id":69,"name":"tyler.d.martin666","steam_id":76561199438075342,"connected_time":1372000000000,"state":"active","ping":165},{"user_id":85,"name":"Toxic_Cicity","steam_id":76561198165753440,"connected_time":475000000000,"state":"active","ping":120},{"user_id":79,"name":"Redmailbox","steam_id":76561198042930322,"connected_time":620000000000,"state":"active","ping":79},{"user_id":84,"name":"I sell exotic parrots","steam_id":76561199192434258,"connected_time":500000000000,"state":"active","ping":114},{"user_id":90,"name":"spherical, casting spells etc","steam_id":76561198145465595,"connected_time":98000000000,"state":"active","ping":75},{"user_id":33,"name":"hans","steam_id":76561198288069556,"connected_time":3511000000000,"state":"active","ping":122},{"user_id":72,"name":"knyazF","steam_id":76561198163278585,"connected_time":1263000000000,"state":"active","ping":56},{"user_id":35,"name":"An_Unoriginal_Gamer","steam_id":76561198864060760,"connected_time":3500000000000,"state":"active","ping":108},{"user_id":77,"name":"fischman","steam_id":76561199064142670,"connected_time":673000000000,"state":"active","ping":72},{"user_id":63,"name":"i have no ass but i must shit","steam_id":76561198326382938,"connected_time":2142000000000,"state":"active","ping":41},{"user_id":59,"name":"Gardvord","steam_id":76561198120715753,"connected_time":2429000000000,"state":"active","ping":98},{"user_id":42,"name":"Juliderkek","steam_id":76561198962270674,"connected_time":3144000000000,"state":"active","ping":101},{"user_id":48,"name":"the eye DROP.SKIN","steam_id":76561198973555649,"connected_time":2873000000000,"state":"active","ping":107},{"user_id":86,"name":"vurtun","steam_id":76561198857395274,"connected_time":441000000000,"state":"active","ping":74},{"user_id":83,"name":"CT","steam_id":76561198043076747,"connected_time":600000000000,"state":"active","ping":71},{"user_id":87,"name":"dead dreamcast","steam_id":76561198181134706,"connected_time":414000000000,"state":"active","ping":55},{"user_id":64,"name":"Vitgone","steam_id":76561198322880238,"connected_time":1931000000000,"state":"active","ping":92},{"user_id":88,"name":"Suetolog","steam_id":76561199053090212,"connected_time":409000000000,"state":"active","ping":53},{"user_id":89,"name":"Ziptied","steam_id":76561198051730057,"connected_time":359000000000,"state":"active","ping":93},{"user_id":61,"name":"Elix","steam_id":76561198157179447,"connected_time":2373000000000,"state":"active","ping":72},{"user_id":71,"name":"Shadow Wizard Money Gang","steam_id":76561198157128867,"connected_time":1369000000000,"state":"active","ping":119}]},{"server_id":52,"name":"Uncletopia | Warsaw | 4 | All Maps","name_short":"waw-4","host":"waw-1.pl.uncletopia.com","port":27045,"enabled":true,"region":"eu","cc":"pl","latitude":52.2297,"longitude":21.017532,"reserved":0,"last_update":"0001-01-01T00:00:00Z","name_a2s":"Uncletopia | Warsaw | 4 | All Maps","protocol":17,"map":"koth_lakeside_final","folder":"tf","game":"Team Fortress","app_id":440,"player_count":0,"max_players":24,"Bots":0,"server_type":"Dedicated","server_os":"Linux","password":true,"vac":true,"version":"7961495","steam_id":85568392925397853,"keywords":["cp","nocrits","nodmgspread","uncletopia"],"game_id":440,"stv_port":27046,"stv_name":"Uncletopia | Warsaw | 4 | All Maps | STV","players":null},{"server_id":53,"name":"Uncletopia | Warsaw | 5 | Stopwatch Beta","name_short":"waw-5","host":"waw-1.pl.uncletopia.com","port":27055,"enabled":true,"region":"eu","cc":"pl","latitude":52.2297,"longitude":21.017532,"reserved":0,"last_update":"0001-01-01T00:00:00Z","name_a2s":"Uncletopia | Warsaw | 5 | Stopwatch Beta","protocol":17,"map":"workshop/koth_ashville_final.ugc2130459942","folder":"tf","game":"Team Fortress","app_id":440,"player_count":0,"max_players":24,"Bots":0,"server_type":"Dedicated","server_os":"Linux","password":true,"vac":true,"version":"7961495","steam_id":85568392925397854,"keywords":["cp","nocrits","nodmgspread","uncletopia"],"game_id":440,"stv_port":27056,"stv_name":"Uncletopia | Warsaw | 5 | Stopwatch Beta | STV","players":null},{"server_id":54,"name":"Uncletopia | Warsaw | 6 | Community","name_short":"waw-6","host":"waw-1.pl.uncletopia.com","port":27065,"enabled":true,"region":"eu","cc":"pl","latitude":52.2297,"longitude":21.017532,"reserved":0,"last_update":"0001-01-01T00:00:00Z","name_a2s":"Uncletopia | Warsaw | 6 | Community","protocol":17,"map":"workshop/koth_slaughter_rc1.ugc1712845210","folder":"tf","game":"Team Fortress","app_id":440,"player_count":0,"max_players":24,"Bots":0,"server_type":"Dedicated","server_os":"Linux","password":true,"vac":true,"version":"7961495","steam_id":85568392925397856,"keywords":["cp","nocrits","nodmgspread","uncletopia"],"game_id":440,"stv_port":27066,"stv_name":"Uncletopia | Warsaw | 6 | Community | STV","players":null}]}