{"status":true,"message":"","result":[{"server_id":9,"name":"Uncletopia | Atlanta | 1 | All Maps","name_short":"atl-1","host":"atl-1.us.uncletopia.com","port":27015,"enabled":true,"region":"us-east","cc":"us","latitude":33.753746,"longitude":-84.38633,"reserved":0,"last_update":"0001-01-01T00:00:00Z","name_a2s":"Uncletopia | Atlanta | 1 | All Maps","protocol":17,"map":"pl_pier","folder":"tf","game":"Team Fortress","app_id":440,"player_count":24,"max_players":24,"Bots":0,"server_type":"Dedicated","server_os":"Linux","password":true,"vac":true,"version":"7961495","steam_id":85568392924469982,"keywords":["nocrits","nodmgspread","payload","uncletopia"],"game_id":440,"stv_port":27016,"stv_name":"Uncletopia | Atlanta | 1 | All Maps | STV","players":null},{"server_id":104,"name":"Uncletopia | Atlanta | 2 | All Maps","name_short":"atl-2","host":"atl-1.us.uncletopia.com","port":27025,"enabled":true,"region":"us-east","cc":"us","latitude":33.753746,"longitude":-84.38633,"reserved":0,"last_update":"0001-01-01T00:00:00Z","name_a2s":"Uncletopia | Atlanta | 2 | All Maps","protocol":17,"map":"cp_altitude","folder":"tf","game":"Team Fortress","app_id":440,"player_count":24,"max_players":24,"Bots":0,"server_type":"Dedicated","server_os":"Linux","password":true,"vac":true,"version":"7961495","steam_id":85568392924469983,"keywords":["cp","nocrits","nodmgspread","uncletopia"],"game_id":440,"stv_port":27026,"stv_name":"Uncletopia | Atlanta | 2 | All Maps | STV","players":null},{"server_id":400,"name":"Uncletopia | Atlanta | 3 | Stopwatch","name_short":"atl-3","host":"atl-1.us.uncletopia.com","port":27035,"enabled":true,"region":"us-east","cc":"us","latitude":33.753746,"longitude":-84.38633,"reserved":0,"last_update":"0001-01-01T00:00:00Z","name_a2s":"Uncletopia | Atlanta | 3 | Stopwatch","protocol":17,"map":"koth_lakeside_final","folder":"tf","game":"Team Fortress","app_id":440,"player_count":0,"max_players":24,"Bots":0,"server_type":"Dedicated","server_os":"Linux","password":true,"vac":true,"version":"7961495","steam_id":85568392924515187,"keywords":["cp","nocrits","nodmgspread","uncletopia"],"game_id":440,"stv_port":27036,"stv_name":"Uncletopia | Atlanta | 3 | Stopwatch | STV","players":null},{"server_id":401,"name":"Uncletopia | Atlanta | 4 | Community","name_short":"atl-4","host":"atl-1.us.uncletopia.com","port":27045,"enabled":true,"region":"us-east","cc":"us","latitude":33.753746,"longitude":-84.38633,"reserved":0,"last_update":"0001-01-01T00:00:00Z","name_a2s":"Uncletopia | Atlanta | 4 | Community","protocol":17,"map":"koth_slaughter_rc1","folder":"tf","game":"Team Fortress","app_id":440,"player_count":24,"max_players":24,"Bots":0,"server_type":"Dedicated","server_os":"Linux","password":true,"vac":true,"version":"7961495","steam_id":85568392924515188,"keywords":["cp","nocrits","nodmgspread","uncletopia"],"game_id":440,"stv_port":27046,"stv_name":"Uncletopia | Atlanta | 4 | Community | STV","players":null},{"server_id":2,"name":"Uncletopia | Chicago | 1 | All Maps","name_short":"chi-1","host":"chi-1.us.uncletopia.com","port":27015,"enabled":true,"region":"us-central","cc":"us","latitude":41.881832,"longitude":-87.62318,"reserved":0,"last_update":"0001-01-01T00:00:00Z","name_a2s":"Uncletopia | Chicago | 1 | All Maps","protocol":17,"map":"pl_snowycoast","folder":"tf","game":"Team Fortress","app_id":440,"player_count":24,"max_players":24,"Bots":0,"server_type":"Dedicated","server_os":"Linux","password":true,"vac":true,"version":"7961495","steam_id":85568392924469984,"keywords":["nocrits","nodmgspread","payload","uncletopia"],"game_id":440,"stv_port":27016,"stv_name":"Uncletopia | Chicago | 1 | All Maps | STV","players":[{"user_id":800,"name":"Coach McFish","steam_id":76561198210456405,"connected_time":66000000000,"state":"active","ping":77},{"user_id":784,"name":"Portal2Player","steam_id":76561198062870114,"connected_time":995000000000,"state":"active","ping":96},{"user_id":792,"name":"ip09 i-0;olk;lj9u","steam_id":76561199490115981,"connected_time":435000000000,"state":"active","ping":66},{"user_id":756,"name":"PKBEAST_7","steam_id":76561198177136537,"connected_time":3270000000000,"state":"active","ping":97},{"user_id":641,"name":"Sentient Plaid Shirt","steam_id":76561198073338999,"connected_time":13022000000000,"state":"active","ping":81},{"user_id":777,"name":"loser","steam_id":76561198259380127,"connected_time":1348000000000,"state":"active","ping":56},{"user_id":797,"name":"Jovo","steam_id":76561197993265970,"connected_time":145000000000,"state":"active","ping":75},{"user_id":782,"name":"Joculatrix","steam_id":76561198012795457,"connected_time":1148000000000,"state":"active","ping":67},{"user_id":769,"name":"stick","steam_id":76561198049489094,"connected_time":2102000000000,"state":"active","ping":59},{"user_id":783,"name":"turnip","steam_id":76561197999375941,"connected_time":1001000000000,"state":"active","ping":86},{"user_id":776,"name":"gaming gerald","steam_id":76561198011707083,"connected_time":1367000000000,"state":"active","ping":59},{"user_id":793,"name":"Celestial Bodies","steam_id":76561198212572955,"connected_time":371000000000,"state":"active","ping":77},{"user_id":728,"name":"‡πñ€£€úMagic","steam_id":76561199272962550,"connected_time":6310000000000,"state":"active","ping":58},{"user_id":779,"name":"Speedboat","steam_id":76561198094841559,"connected_time":1336000000000,"state":"active","ping":53},{"user_id":780,"name":"Kamin","steam_id":76561198255299559,"connected_time":1331000000000,"state":"active","ping":95},{"user_id":745,"name":"Raven_Ash_ (she/They)","steam_id":76561198800351148,"connected_time":4847000000000,"state":"active","ping":99},{"user_id":774,"name":"Snom","steam_id":76561198333827920,"connected_time":1555000000000,"state":"active","ping":101},{"user_id":713,"name":"Cobalt","steam_id":76561198353896624,"connected_time":7540000000000,"state":"active","ping":80},{"user_id":796,"name":"Autumn","steam_id":76561198088925274,"connected_time":150000000000,"state":"active","ping":69},{"user_id":781,"name":"Hindmost","steam_id":76561199081837220,"connected_time":1324000000000,"state":"active","ping":82},{"user_id":795,"name":"Revenge of the Jews in 3D","steam_id":76561199381623663,"connected_time":332000000000,"state":"active","ping":195},{"user_id":799,"name":"Darkmaen","steam_id":76561198060543390,"connected_time":128000000000,"state":"active","ping":138},{"user_id":683,"name":"NukaTheRabbit {Fur}","steam_id":76561198058692928,"connected_time":10013000000000,"state":"active","ping":45},{"user_id":787,"name":"The Goose","steam_id":76561199006093549,"connected_time":605000000000,"state":"active","ping":60}]},{"server_id":106,"name":"Uncletopia | Chicago | 2 | All Maps","name_short":"chi-2","host":"chi-1.us.uncletopia.com","port":27025,"enabled":true,"region":"us-central","cc":"us","latitude":41.881832,"longitude":-87.62318,"reserved":0,"last_update":"0001-01-01T00:00:00Z","name_a2s":"Uncletopia | Chicago | 2 | All Maps","protocol":17,"map":"pl_upward","folder":"tf","game":"Team Fortress","app_id":440,"player_count":24,"max_players":24,"Bots":0,"server_type":"Dedicated","server_os":"Linux","password":true,"vac":true,"version":"7961495","steam_id":85568392924469985,"keywords":["nocrits","nodmgspread","payload","uncletopia"],"game_id":440,"stv_port":27026,"stv_name":"Uncletopia | Chicago | 2 | All Maps | STV","players":[{"user_id":856,"name":"howtobepker","steam_id":76561198115053865,"connected_time":6785000000000,"state":"active","ping":84},{"user_id":897,"name":"Brawling Bouse","steam_id":76561198030271278,"connected_time":2210000000000,"state":"active","ping":68},{"user_id":877,"name":"Zomboboi_","steam_id":76561198139401380,"connected_time":3916000000000,"state":"active","ping":65},{"user_id":900,"name":"Word To Your Mothership","steam_id":76561198034329138,"connected_time":2066000000000,"state":"active","ping":97},{"user_id":901,"name":"Lil' Diabeetus","steam_id":76561198330119627,"connected_time":1692000000000,"state":"active","ping":75},{"user_id":896,"name":"Mr. Tickle","steam_id":76561198126684647,"connected_time":2362000000000,"state":"active","ping":56},{"user_id":868,"name":"Maet","steam_id":76561198030208485,"connected_time":5390000000000,"state":"active","ping":70},{"user_id":872,"name":".JIFF","steam_id":76561198045181760,"connected_time":5358000000000,"state":"active","ping":60},{"user_id":907,"name":"Chirox","steam_id":76561198034516923,"connected_time":137000000000,"state":"active","ping":47},{"user_id":886,"name":"cooljason08","steam_id":76561198248153988,"connected_time":3304000000000,"state":"active","ping":80},{"user_id":835,"name":"Doc Brown","steam_id":76561198015030118,"connected_time":8075000000000,"state":"active","ping":73},{"user_id":905,"name":"MedRed‚Ñ¢ #IATAH","steam_id":76561198002962970,"connected_time":685000000000,"state":"active","ping":94},{"user_id":906,"name":"DinkleBerg","steam_id":76561198891626233,"connected_time":499000000000,"state":"active","ping":77},{"user_id":902,"name":"Û†Å≥ ‚ÅßArgo","steam_id":76561198353725622,"connected_time":1654000000000,"state":"active","ping":86},{"user_id":881,"name":"‚ô¶‚ô£Quadric‚ô•‚ô†","steam_id":76561198061003853,"connected_time":3875000000000,"state":"active","ping":71},{"user_id":888,"name":"Oing Juice","steam_id":76561198160554016,"connected_time":3291000000000,"state":"active","ping":57},{"user_id":834,"name":"tortilla the hun","steam_id":76561198025681784,"connected_time":8128000000000,"state":"active","ping":68},{"user_id":903,"name":"NerdyEnforcement","steam_id":76561198437710820,"connected_time":1642000000000,"state":"active","ping":64},{"user_id":891,"name":"Zanartan","steam_id":76561198050528902,"connected_time":2460000000000,"state":"active","ping":186},{"user_id":876,"name":"TheOneZoot","steam_id":76561198121944243,"connected_time":4565000000000,"state":"active","ping":78},{"user_id":864,"name":"Scooty.","steam_id":76561198138990283,"connected_time":6119000000000,"state":"active","ping":64},{"user_id":713,"name":"Lia_Rein","steam_id":76561198151569597,"connected_time":14134000000000,"state":"active","ping":145},{"user_id":871,"name":"Swash","steam_id":76561197969421355,"connected_time":5365000000000,"state":"active","ping":73},{"user_id":895,"name":"Rokar","steam_id":76561198043903519,"connected_time":2401000000000,"state":"active","ping":77}]},{"server_id":402,"name":"Uncletopia | Chicago | 3 | All Maps","name_short":"chi-3","host":"chi-1.us.uncletopia.com","port":27035,"enabled":true,"region":"us-central","cc":"us","latitude":41.881832,"longitude":-87.62318,"reserved":0,"last_update":"0001-01-01T00:00:00Z","name_a2s":"Uncletopia | Chicago | 3 | All Maps","protocol":17,"map":"cp_mountainlab","folder":"tf","game":"Team Fortress","app_id":440,"player_count":22,"max_players":24,"Bots":0,"server_type":"Dedicated","server_os":"Linux","password":true,"vac":true,"version":"7961495","steam_id":85568392924515191,"keywords":["cp","nocrits","nodmgspread","uncletopia"],"game_id":440,"stv_port":27036,"stv_name":"Uncletopia | Chicago | 3 | All Maps | STV","players":[{"user_id":529,"name":"Puke Skyfucker","steam_id":76561198012846213,"connected_time":65000000000,"state":"active","ping":70},{"user_id":527,"name":"asfg","steam_id":76561198107931997,"connected_time":86000000000,"state":"active","ping":61},{"user_id":489,"name":"Allahgator","steam_id":76561198280659041,"connected_time":4279000000000,"state":"active","ping":67},{"user_id":521,"name":"JokingJayquanda","steam_id":76561198055867599,"connected_time":1117000000000,"state":"active","ping":64},{"user_id":526,"name":"Cosmic sR","steam_id":76561198081738675,"connected_time":260000000000,"state":"active","ping":73},{"user_id":530,"name":"oppenheimer style","steam_id":76561198026664629,"connected_time":52000000000,"state":"active","ping":45},{"user_id":505,"name":"Mr.Bady","steam_id":76561199094651706,"connected_time":2000000000000,"state":"active","ping":89},{"user_id":506,"name":"brrr","steam_id":76561197968436606,"connected_time":1994000000000,"state":"active","ping":101},{"user_id":507,"name":"Rat King (Deposed)","steam_id":76561198271907916,"connected_time":1989000000000,"state":"active","ping":52},{"user_id":531,"name":"kingmrharvey","steam_id":76561198093909870,"connected_time":45000000000,"state":"active","ping":61},{"user_id":447,"name":"SiltyStar85","steam_id":76561198309175923,"connected_time":7955000000000,"state":"active","ping":89},{"user_id":520,"name":"fall damage gaming","steam_id":76561198199790246,"connected_time":1166000000000,"state":"active","ping":103},{"user_id":497,"name":"Warpy","steam_id":76561198055852599,"connected_time":3368000000000,"state":"active","ping":76},{"user_id":509,"name":"Mally","steam_id":76561198025013765,"connected_time":1971000000000,"state":"active","ping":81},{"user_id":532,"name":"SG6623","steam_id":76561199027723231,"connected_time":26000000000,"state":"active","ping":80},{"user_id":499,"name":"blossssssommmmm","steam_id":76561198042735130,"connected_time":3185000000000,"state":"active","ping":95},{"user_id":533,"name":"TerrorOfTheSeas","steam_id":76561198388385659,"connected_time":10000000000,"state":"spawning","ping":59},{"user_id":461,"name":"Amoxicilina","steam_id":76561198168486429,"connected_time":6629000000000,"state":"active","ping":116},{"user_id":528,"name":"Salda√±a","steam_id":76561198214473001,"connected_time":77000000000,"state":"active","ping":86},{"user_id":525,"name":"JetZ","steam_id":76561199122488957,"connected_time":281000000000,"state":"active","ping":55},{"user_id":501,"name":"Cranial Brain Trauma","steam_id":76561198055876398,"connected_time":3130000000000,"state":"active","ping":61},{"user_id":524,"name":"[Soldunk]","steam_id":76561198142400155,"connected_time":695000000000,"state":"active","ping":74}]},{"server_id":403,"name":"Uncletopia | Chicago | 4 | All Maps","name_short":"chi-4","host":"chi-1.us.uncletopia.com","port":27045,"enabled":true,"region":"us-central","cc":"us","latitude":41.881832,"longitude":-87.62318,"reserved":0,"last_update":"0001-01-01T00:00:00Z","name_a2s":"Uncletopia | Chicago | 4 | All Maps","protocol":17,"map":"cp_egypt_final","folder":"tf","game":"Team Fortress","app_id":440,"player_count":23,"max_players":24,"Bots":0,"server_type":"Dedicated","server_os":"Linux","password":true,"vac":true,"version":"7961495","steam_id":85568392924515193,"keywords":["cp","nocrits","nodmgspread","uncletopia"],"game_id":440,"stv_port":27046,"stv_name":"Uncletopia | Chicago | 4 | All Maps | STV","players":[{"user_id":301,"name":"aloysius","steam_id":76561199193617048,"connected_time":4250000000000,"state":"active","ping":83},{"user_id":269,"name":"this stupid thing","steam_id":76561199197497757,"connected_time":6709000000000,"state":"active","ping":66},{"user_id":326,"name":"Noise from pizzatower","steam_id":76561198835144780,"connected_time":1640000000000,"state":"active","ping":74},{"user_id":333,"name":"Triasm","steam_id":76561198057707549,"connected_time":378000000000,"state":"active","ping":111},{"user_id":340,"name":"thecal","steam_id":76561198307893384,"connected_time":175000000000,"state":"active","ping":59},{"user_id":308,"name":"catfish from toontown","steam_id":76561198060070002,"connected_time":3381000000000,"state":"active","ping":72},{"user_id":342,"name":"NGPlus","steam_id":76561198348945217,"connected_time":25000000000,"state":"active","ping":142},{"user_id":231,"name":"wunkem","steam_id":76561198055948497,"connected_time":10393000000000,"state":"active","ping":63},{"user_id":332,"name":"Bomberman6868","steam_id":76561198101086506,"connected_time":391000000000,"state":"active","ping":46},{"user_id":313,"name":"xLeoparrd","steam_id":76561198940657194,"connected_time":2677000000000,"state":"active","ping":78},{"user_id":310,"name":"milk","steam_id":76561198209000640,"connected_time":3001000000000,"state":"active","ping":70},{"user_id":304,"name":"smuffy","steam_id":76561198091459506,"connected_time":4127000000000,"state":"active","ping":67},{"user_id":331,"name":"Boboblin","steam_id":76561199030131717,"connected_time":396000000000,"state":"active","ping":94},{"user_id":337,"name":"The_Pacific_gamer","steam_id":76561198089491446,"connected_time":344000000000,"state":"active","ping":91},{"user_id":302,"name":"pool shark","steam_id":76561198130191179,"connected_time":4197000000000,"state":"active","ping":70},{"user_id":256,"name":"eBay","steam_id":76561198061214569,"connected_time":8681000000000,"state":"active","ping":96},{"user_id":341,"name":"Armpit!","steam_id":76561197978095727,"connected_time":120000000000,"state":"active","ping":115},{"user_id":330,"name":"Siz","steam_id":76561198072962154,"connected_time":650000000000,"state":"active","ping":98},{"user_id":324,"name":"CoziestGlobe","steam_id":76561198199237735,"connected_time":1740000000000,"state":"active","ping":75},{"user_id":338,"name":"Hydra","steam_id":76561197983856163,"connected_time":338000000000,"state":"active","ping":114},{"user_id":314,"name":"Chilis 2 for 20","steam_id":76561198121544531,"connected_time":2637000000000,"state":"active","ping":75},{"user_id":322,"name":"Observer","steam_id":76561198326814067,"connected_time":2128000000000,"state":"active","ping":66},{"user_id":339,"name":"Deathpill","steam_id":76561197994404793,"connected_time":338000000000,"state":"active","ping":78}]},{"server_id":36,"name":"Uncletopia | Chicago | 5 | All Maps","name_short":"chi-5","host":"chi-2.us.uncletopia.com","port":27015,"enabled":true,"region":"us-central","cc":"us","latitude":41.881832,"longitude":-87.62318,"reserved":0,"last_update":"0001-01-01T00:00:00Z","name_a2s":"Uncletopia | Chicago | 5 | All Maps","protocol":17,"map":"cp_dustbowl","folder":"tf","game":"Team Fortress","app_id":440,"player_count":24,"max_players":24,"Bots":0,"server_type":"Dedicated","server_os":"Linux","password":true,"vac":true,"version":"7961495","steam_id":85568392924866362,"keywords":["cp","nocrits","nodmgspread","uncletopia"],"game_id":440,"stv_port":27016,"stv_name":"Uncletopia | Chicago | 5 | All Maps | STV","players":[{"user_id":202,"name":"Hey_Juice","steam_id":76561199013117553,"connected_time":2329000000000,"state":"active","ping":74},{"user_id":76,"name":"Hamz","steam_id":76561199287459211,"connected_time":12671000000000,"state":"active","ping":77},{"user_id":207,"name":"Squids023","steam_id":76561199013031576,"connected_time":1838000000000,"state":"active","ping":117},{"user_id":223,"name":"epicman381","steam_id":76561198800060376,"connected_time":817000000000,"state":"active","ping":75},{"user_id":198,"name":"bubby626","steam_id":76561198183438069,"connected_time":2455000000000,"state":"active","ping":58},{"user_id":145,"name":"Ion{M}","steam_id":76561197993457435,"connected_time":7023000000000,"state":"active","ping":86},{"user_id":208,"name":"Pug_9492","steam_id":76561199078217640,"connected_time":1597000000000,"state":"active","ping":129},{"user_id":204,"name":"Moss","steam_id":76561199122200727,"connected_time":1911000000000,"state":"active","ping":72},{"user_id":218,"name":"MelonFelonies","steam_id":76561198804631199,"connected_time":868000000000,"state":"active","ping":71},{"user_id":212,"name":"FrostStorm","steam_id":76561198142685151,"connected_time":1173000000000,"state":"active","ping":65},{"user_id":213,"name":"rin","steam_id":76561198155841915,"connected_time":1171000000000,"state":"active","ping":75},{"user_id":224,"name":"LVL","steam_id":76561198334403617,"connected_time":291000000000,"state":"active","ping":60},{"user_id":152,"name":"High Medic","steam_id":76561198082405984,"connected_time":6261000000000,"state":"active","ping":60},{"user_id":219,"name":"Ze_√úber_Nerd","steam_id":76561198091148675,"connected_time":859000000000,"state":"active","ping":74},{"user_id":217,"name":"fazaness","steam_id":76561198851525394,"connected_time":915000000000,"state":"active","ping":85},{"user_id":220,"name":"TRx AxIon2","steam_id":76561198980931557,"connected_time":859000000000,"state":"active","ping":65},{"user_id":221,"name":"my name jeff","steam_id":76561198179816898,"connected_time":843000000000,"state":"active","ping":82},{"user_id":210,"name":"Cat_Soldier","steam_id":76561198799974610,"connected_time":1208000000000,"state":"active","ping":74},{"user_id":190,"name":"Fish","steam_id":76561199044619031,"connected_time":3176000000000,"state":"active","ping":64},{"user_id":193,"name":"PenutButterPirate","steam_id":76561198252962312,"connected_time":3062000000000,"state":"active","ping":60},{"user_id":222,"name":"Goober","steam_id":76561199026734167,"connected_time":837000000000,"state":"active","ping":74},{"user_id":206,"name":"swan","steam_id":76561198012569200,"connected_time":1884000000000,"state":"active","ping":75},{"user_id":186,"name":"guac","steam_id":76561198407685013,"connected_time":3387000000000,"state":"active","ping":54},{"user_id":187,"name":"Fred","steam_id":76561199013600767,"connected_time":3387000000000,"state":"active","ping":151}]},{"server_id":37,"name":"Uncletopia | Chicago | 6 | All Maps","name_short":"chi-6","host":"chi-2.us.uncletopia.com","port":27025,"enabled":true,"region":"us-central","cc":"us","latitude":41.881832,"longitude":-87.62318,"reserved":0,"last_update":"0001-01-01T00:00:00Z","name_a2s":"Uncletopia | Chicago | 6 | All Maps","protocol":17,"map":"pl_badwater","folder":"tf","game":"Team Fortress","app_id":440,"player_count":24,"max_players":24,"Bots":0,"server_type":"Dedicated","server_os":"Linux","password":true,"vac":true,"version":"7961495","steam_id":85568392924866363,"keywords":["nocrits","nodmgspread","payload","uncletopia"],"game_id":440,"stv_port":27026,"stv_name":"Uncletopia | Chicago | 6 | All Maps | STV","players":[{"user_id":539,"name":"floom","steam_id":76561198387571809,"connected_time":9637000000000,"state":"active","ping":73},{"user_id":594,"name":"Okpar","steam_id":76561199221067945,"connected_time":1117000000000,"state":"active","ping":98},{"user_id":595,"name":"grand piano tuna","steam_id":76561198135137213,"connected_time":1106000000000,"state":"active","ping":52},{"user_id":580,"name":"crispylego_","steam_id":76561199453679719,"connected_time":4122000000000,"state":"active","ping":108},{"user_id":599,"name":"squaggles!","steam_id":76561197994995011,"connected_time":497000000000,"state":"active","ping":56},{"user_id":575,"name":"Quebec","steam_id":76561198865760503,"connected_time":4601000000000,"state":"active","ping":74},{"user_id":602,"name":"sex enjoyer","steam_id":76561198106320012,"connected_time":336000000000,"state":"active","ping":85},{"user_id":585,"name":"only a spoonful","steam_id":76561198113180616,"connected_time":3021000000000,"state":"active","ping":69},{"user_id":600,"name":"the archmage","steam_id":76561198380018244,"connected_time":489000000000,"state":"active","ping":77},{"user_id":603,"name":"Polar","steam_id":76561198271964253,"connected_time":90000000000,"state":"active","ping":81},{"user_id":505,"name":"Viennetta","steam_id":76561198044088335,"connected_time":12094000000000,"state":"active","ping":66},{"user_id":587,"name":"ElChuchoXf","steam_id":76561199235124146,"connected_time":2252000000000,"state":"active","ping":142},{"user_id":492,"name":"Knavish","steam_id":76561198073434372,"connected_time":13180000000000,"state":"active","ping":101},{"user_id":589,"name":"krimsonxsin","steam_id":76561198379898602,"connected_time":1175000000000,"state":"active","ping":119},{"user_id":586,"name":"RexCreeper456","steam_id":76561199319578396,"connected_time":2937000000000,"state":"active","ping":66},{"user_id":562,"name":"Rafl","steam_id":76561198055222756,"connected_time":6320000000000,"state":"active","ping":71},{"user_id":582,"name":"Spicy Chicken","steam_id":76561198074209737,"connected_time":4069000000000,"state":"active","ping":61},{"user_id":494,"name":"cynosure","steam_id":76561198121286517,"connected_time":13157000000000,"state":"active","ping":135},{"user_id":601,"name":"BigNugs","steam_id":76561198056402610,"connected_time":481000000000,"state":"active","ping":70},{"user_id":593,"name":"lytewerk","steam_id":76561198002819791,"connected_time":1134000000000,"state":"active","ping":75},{"user_id":598,"name":"uheggwhite","steam_id":76561199199795741,"connected_time":884000000000,"state":"active","ping":73},{"user_id":531,"name":"scarybroccoli","steam_id":76561198296440084,"connected_time":10243000000000,"state":"active","ping":74},{"user_id":565,"name":"wiiblob","steam_id":76561198109106242,"connected_time":5895000000000,"state":"active","ping":149},{"user_id":566,"name":"DroidFreak36","steam_id":76561198028681032,"connected_time":5895000000000,"state":"active","ping":61}]},{"server_id":38,"name":"Uncletopia | Chicago | 7 | Stopwatch","name_short":"chi-7","host":"chi-2.us.uncletopia.com","port":27035,"enabled":true,"region":"us-central","cc":"us","latitude":41.881832,"longitude":-87.62318,"reserved":0,"last_update":"0001-01-01T00:00:00Z","name_a2s":"Uncletopia | Chicago | 7 | Stopwatch","protocol":17,"map":"pl_upward","folder":"tf","game":"Team Fortress","app_id":440,"player_count":24,"max_players":24,"Bots":0,"server_type":"Dedicated","server_os":"Linux","password":true,"vac":true,"version":"7961495","steam_id":85568392924866364,"keywords":["nocrits","nodmgspread","payload","uncletopia"],"game_id":440,"stv_port":27036,"stv_name":"Uncletopia | Chicago | 7 | Stopwatch | STV","players":[{"user_id":133,"name":"Ace Chromatica","steam_id":76561198042211131,"connected_time":2491000000000,"state":"active","ping":57},{"user_id":111,"name":"SaCCcCCc","steam_id":76561198309927068,"connected_time":3894000000000,"state":"active","ping":117},{"user_id":142,"name":"walter white (hiesenburg 3000)","steam_id":76561199198551935,"connected_time":2082000000000,"state":"active","ping":78},{"user_id":129,"name":"correctedwolf42","steam_id":76561198988908375,"connected_time":2706000000000,"state":"active","ping":84},{"user_id":137,"name":"gIBBY","steam_id":76561198080099598,"connected_time":2377000000000,"state":"active","ping":59},{"user_id":148,"name":"ADRIEN BRODY","steam_id":76561198009299473,"connected_time":1600000000000,"state":"active","ping":64},{"user_id":157,"name":"Local Skeleton Pirate Captain","steam_id":76561199387783793,"connected_time":222000000000,"state":"active","ping":98},{"user_id":127,"name":"Pines","steam_id":76561199024146278,"connected_time":2719000000000,"state":"active","ping":118},{"user_id":118,"name":"‚ô°Ame‚ô°","steam_id":76561198071217748,"connected_time":3640000000000,"state":"active","ping":54},{"user_id":161,"name":"Luxcraz","steam_id":76561198035278349,"connected_time":170000000000,"state":"active","ping":64},{"user_id":138,"name":"BarrowBaron","steam_id":76561198013633236,"connected_time":2285000000000,"state":"active","ping":62},{"user_id":135,"name":"anotherl2","steam_id":76561198354418895,"connected_time":2418000000000,"state":"active","ping":82},{"user_id":159,"name":"Sweet Iced Tea From McDonald's","steam_id":76561198081110786,"connected_time":183000000000,"state":"active","ping":114},{"user_id":145,"name":"uwu","steam_id":76561199058284787,"connected_time":1825000000000,"state":"active","ping":74},{"user_id":113,"name":"non_ai","steam_id":76561198270951938,"connected_time":3842000000000,"state":"active","ping":60},{"user_id":99,"name":"Delta","steam_id":76561198158985472,"connected_time":4734000000000,"state":"active","ping":142},{"user_id":160,"name":"DigitalWizard","steam_id":76561198085936715,"connected_time":179000000000,"state":"active","ping":72},{"user_id":164,"name":"THIRDPIERCE","steam_id":76561198405366314,"connected_time":110000000000,"state":"active","ping":86},{"user_id":162,"name":"vintagevalentinesviagravolcano","steam_id":76561197972601902,"connected_time":162000000000,"state":"active","ping":82},{"user_id":151,"name":"Fade_Lord","steam_id":76561198972329568,"connected_time":1470000000000,"state":"active","ping":73},{"user_id":116,"name":"Œ© Das Gebeine Œî","steam_id":76561198063665024,"connected_time":3774000000000,"state":"active","ping":75},{"user_id":163,"name":"Psychosis","steam_id":76561198078659070,"connected_time":153000000000,"state":"active","ping":83},{"user_id":150,"name":"Sudiak","steam_id":76561198119246214,"connected_time":1584000000000,"state":"active","ping":71},{"user_id":152,"name":"BaconUltimate","steam_id":76561198060737668,"connected_time":1449000000000,"state":"active","ping":107}]},{"server_id":39,"name":"Uncletopia | Chicago | 8 | Community","name_short":"chi-8","host":"chi-2.us.uncletopia.com","port":27045,"enabled":true,"region":"us-central","cc":"us","latitude":41.881832,"longitude":-87.62318,"reserved":0,"last_update":"0001-01-01T00:00:00Z","name_a2s":"Uncletopia | Chicago | 8 | Community","protocol":17,"map":"workshop/pl_eruption_b9a.ugc2807898013","folder":"tf","game":"Team Fortress","app_id":440,"player_count":22,"max_players":24,"Bots":0,"server_type":"Dedicated","server_os":"Linux","password":true,"vac":true,"version":"7961495","steam_id":85568392924866365,"keywords":["nocrits","nodmgspread","payload","uncletopia"],"game_id":440,"stv_port":27046,"stv_name":"Uncletopia | Chicago | 8 | Community | STV","players":[{"user_id":26,"name":"Danmar33","steam_id":76561198056453091,"connected_time":5950000000000,"state":"active","ping":52},{"user_id":27,"name":"Induce Salt","steam_id":76561198116645978,"connected_time":5947000000000,"state":"active","ping":53},{"user_id":85,"name":"Amish Robot","steam_id":76561198041156065,"connected_time":1882000000000,"state":"active","ping":83},{"user_id":90,"name":"Space Lizard","steam_id":76561198056798193,"connected_time":1558000000000,"state":"active","ping":75},{"user_id":98,"name":"cran","steam_id":76561198178840075,"connected_time":82000000000,"state":"active","ping":80},{"user_id":76,"name":"Bimbonito","steam_id":76561198069676563,"connected_time":2270000000000,"state":"active","ping":70},{"user_id":86,"name":"Candy Sparkles","steam_id":76561198126871264,"connected_time":1869000000000,"state":"active","ping":84},{"user_id":79,"name":"Target Audience","steam_id":76561198095536103,"connected_time":2199000000000,"state":"active","ping":54},{"user_id":43,"name":"Tyranitar9999","steam_id":76561198071637331,"connected_time":4117000000000,"state":"active","ping":76},{"user_id":44,"name":"Spicey","steam_id":76561198039548756,"connected_time":4106000000000,"state":"active","ping":77},{"user_id":95,"name":"toxic mental instability","steam_id":76561198161760556,"connected_time":288000000000,"state":"active","ping":135},{"user_id":52,"name":"mini","steam_id":76561198064214000,"connected_time":3932000000000,"state":"active","ping":72},{"user_id":99,"name":"gorb","steam_id":76561198055180769,"connected_time":22000000000,"state":"spawning","ping":166},{"user_id":78,"name":"Goofy Goober","steam_id":76561198941700660,"connected_time":2252000000000,"state":"active","ping":105},{"user_id":94,"name":"Hertz","steam_id":76561198310927351,"connected_time":579000000000,"state":"active","ping":147},{"user_id":50,"name":"A Nyquil Chicken","steam_id":76561198344471115,"connected_time":3964000000000,"state":"active","ping":126},{"user_id":92,"name":"Chrysalis","steam_id":76561198028576126,"connected_time":726000000000,"state":"active","ping":70},{"user_id":81,"name":"Smiley Fries","steam_id":76561198052763637,"connected_time":2193000000000,"state":"active","ping":56},{"user_id":71,"name":"kimchy101","steam_id":76561198202721584,"connected_time":3338000000000,"state":"active","ping":54},{"user_id":58,"name":"Chagalicious","steam_id":76561198044128240,"connected_time":3819000000000,"state":"active","ping":87},{"user_id":82,"name":"Bob","steam_id":76561198038708273,"connected_time":2186000000000,"state":"active","ping":62},{"user_id":63,"name":"Tohru","steam_id":76561198139393876,"connected_time":3747000000000,"state":"active","ping":76}]},{"server_id":8,"name":"Uncletopia | Dallas | 1 | All Maps","name_short":"dal-1","host":"dal-1.us.uncletopia.com","port":27015,"enabled":true,"region":"us-central","cc":"us","latitude":32.779167,"longitude":-96.80889,"reserved":0,"last_update":"0001-01-01T00:00:00Z","name_a2s":"Uncletopia | Dallas | 1 | All Maps","protocol":17,"map":"pl_pier","folder":"tf","game":"Team Fortress","app_id":440,"player_count":24,"max_players":24,"Bots":0,"server_type":"Dedicated","server_os":"Linux","password":true,"vac":true,"version":"7961495","steam_id":85568392924469986,"keywords":["nocrits","nodmgspread","payload","uncletopia"],"game_id":440,"stv_port":27016,"stv_name":"Uncletopia | Dallas | 1 | All Maps | STV","players":[{"user_id":578,"name":"intek","steam_id":76561198052705291,"connected_time":349000000000,"state":"active","ping":87},{"user_id":547,"name":"shadow gaming","steam_id":76561198890502839,"connected_time":2240000000000,"state":"active","ping":72},{"user_id":526,"name":"Samercam","steam_id":76561198189403190,"connected_time":3718000000000,"state":"active","ping":74},{"user_id":571,"name":"Rage Pyro","steam_id":76561197998285726,"connected_time":1116000000000,"state":"active","ping":95},{"user_id":498,"name":"Darling","steam_id":76561198127525888,"connected_time":6293000000000,"state":"active","ping":57},{"user_id":577,"name":"flatts","steam_id":76561198094127177,"connected_time":487000000000,"state":"active","ping":61},{"user_id":574,"name":"Quick-Fix","steam_id":76561198295501978,"connected_time":904000000000,"state":"active","ping":52},{"user_id":552,"name":"The Notorious Nutter","steam_id":76561198145058709,"connected_time":2185000000000,"state":"active","ping":56},{"user_id":551,"name":"shakoiwa","steam_id":76561199059441773,"connected_time":2193000000000,"state":"active","ping":86},{"user_id":572,"name":"frank","steam_id":76561198137777483,"connected_time":1104000000000,"state":"active","ping":91},{"user_id":566,"name":"„Åµ„Çè„Åµ„ÇèÊØõÂ∏É","steam_id":76561198088403016,"connected_time":1286000000000,"state":"active","ping":186},{"user_id":569,"name":"pinglefingle","steam_id":76561198216580197,"connected_time":1160000000000,"state":"active","ping":56},{"user_id":579,"name":"JayRawgTV","steam_id":76561198044402840,"connected_time":122000000000,"state":"active","ping":48},{"user_id":554,"name":"Siev","steam_id":76561198000518937,"connected_time":2165000000000,"state":"active","ping":69},{"user_id":573,"name":"Charles","steam_id":76561198155322277,"connected_time":1084000000000,"state":"active","ping":91},{"user_id":530,"name":"elrojas4500","steam_id":76561199085282179,"connected_time":3679000000000,"state":"active","ping":90},{"user_id":542,"name":"Jerry","steam_id":76561198847369985,"connected_time":3156000000000,"state":"active","ping":54},{"user_id":435,"name":"THRONGLER","steam_id":76561198198563466,"connected_time":11385000000000,"state":"active","ping":44},{"user_id":557,"name":"Ajax","steam_id":76561198071310833,"connected_time":2082000000000,"state":"active","ping":76},{"user_id":544,"name":"U œâ U","steam_id":76561198118802562,"connected_time":2947000000000,"state":"active","ping":93},{"user_id":545,"name":"Kenku","steam_id":76561199086762926,"connected_time":2498000000000,"state":"active","ping":70},{"user_id":575,"name":"fish fingers","steam_id":76561199078516567,"connected_time":541000000000,"state":"active","ping":118},{"user_id":541,"name":"Mr. Bixby","steam_id":76561198868839264,"connected_time":3294000000000,"state":"active","ping":61},{"user_id":538,"name":"H2OBourne","steam_id":76561198396293109,"connected_time":3408000000000,"state":"active","ping":67}]},{"server_id":108,"name":"Uncletopia | Dallas | 2 | All Maps","name_short":"dal-2","host":"dal-1.us.uncletopia.com","port":27025,"enabled":true,"region":"us-central","cc":"us","latitude":32.779167,"longitude":-96.80889,"reserved":0,"last_update":"0001-01-01T00:00:00Z","name_a2s":"Uncletopia | Dallas | 2 | All Maps","protocol":17,"map":"plr_bananabay","folder":"tf","game":"Team Fortress","app_id":440,"player_count":21,"max_players":24,"Bots":0,"server_type":"Dedicated","server_os":"Linux","password":true,"vac":true,"version":"7961495","steam_id":85568392924469988,"keywords":["nocrits","nodmgspread","payload","uncletopia"],"game_id":440,"stv_port":27026,"stv_name":"Uncletopia | Dallas | 2 | All Maps | STV","players":[{"user_id":327,"name":"Gary Busey","steam_id":76561197970096950,"connected_time":4694000000000,"state":"active","ping":35},{"user_id":366,"name":"satilite","steam_id":76561199127035429,"connected_time":1755000000000,"state":"active","ping":125},{"user_id":395,"name":"Captain Demytri","steam_id":76561198097998607,"connected_time":380000000000,"state":"active","ping":76},{"user_id":386,"name":"Sham Cow","steam_id":76561198064556977,"connected_time":1152000000000,"state":"active","ping":68},{"user_id":387,"name":"Mengle","steam_id":76561198001953684,"connected_time":1040000000000,"state":"active","ping":84},{"user_id":389,"name":"DeckofDragons","steam_id":76561198057398213,"connected_time":930000000000,"state":"active","ping":70},{"user_id":367,"name":"Jamie Hyneman","steam_id":76561199196036481,"connected_time":1703000000000,"state":"active","ping":69},{"user_id":338,"name":"Spy (I Love spy)","steam_id":76561199138738952,"connected_time":4263000000000,"state":"active","ping":73},{"user_id":368,"name":"i am currently evading the IRS","steam_id":76561198085965145,"connected_time":1600000000000,"state":"active","ping":86},{"user_id":399,"name":"Cosmic Soup","steam_id":76561198448801117,"connected_time":42000000000,"state":"active","ping":72},{"user_id":391,"name":"HOODOO_LOVER_2007","steam_id":76561199087691214,"connected_time":845000000000,"state":"active","ping":86},{"user_id":373,"name":"Polge3102","steam_id":76561198155922222,"connected_time":1440000000000,"state":"active","ping":60},{"user_id":400,"name":"sheeum","steam_id":76561198277403366,"connected_time":31000000000,"state":"active","ping":68},{"user_id":398,"name":"Jeff Bridge's Yee-Haw Voice","steam_id":76561198011675372,"connected_time":152000000000,"state":"active","ping":110},{"user_id":375,"name":"juicebox","steam_id":76561198440352528,"connected_time":1419000000000,"state":"active","ping":77},{"user_id":384,"name":"MoopStoop","steam_id":76561198140936620,"connected_time":1190000000000,"state":"active","ping":47},{"user_id":335,"name":"five night at freddy(real)","steam_id":76561199026721822,"connected_time":4446000000000,"state":"active","ping":87},{"user_id":392,"name":"f","steam_id":76561198054534720,"connected_time":836000000000,"state":"active","ping":71},{"user_id":352,"name":"Vanderbean","steam_id":76561198799240913,"connected_time":3351000000000,"state":"active","ping":70},{"user_id":379,"name":"Cosmic_ScreechTTV","steam_id":76561198092551523,"connected_time":1378000000000,"state":"active","ping":67},{"user_id":397,"name":"n00dl3s","steam_id":76561197964492868,"connected_time":369000000000,"state":"active","ping":85}]},{"server_id":404,"name":"Uncletopia | Dallas | 3 | All Maps","name_short":"dal-3","host":"dal-1.us.uncletopia.com","port":27035,"enabled":true,"region":"us-central","cc":"us","latitude":32.779167,"longitude":-96.80889,"reserved":0,"last_update":"0001-01-01T00:00:00Z","name_a2s":"Uncletopia | Dallas | 3 | All Maps","protocol":17,"map":"cp_snakewater_final1","folder":"tf","game":"Team Fortress","app_id":440,"player_count":23,"max_players":24,"Bots":0,"server_type":"Dedicated","server_os":"Linux","password":true,"vac":true,"version":"7961495","steam_id":85568392924515219,"keywords":["cp","nocrits","nodmgspread","uncletopia"],"game_id":440,"stv_port":27036,"stv_name":"Uncletopia | Dallas | 3 | All Maps | STV","players":[{"user_id":235,"name":"Lore","steam_id":76561198098407538,"connected_time":626000000000,"state":"active","ping":74},{"user_id":201,"name":"4 life","steam_id":76561198175961598,"connected_time":3927000000000,"state":"active","ping":100},{"user_id":231,"name":"webaline  =Ôºæ‚óè ‚ãè ‚óèÔºæ=","steam_id":76561199052450127,"connected_time":1563000000000,"state":"active","ping":72},{"user_id":236,"name":"ceres","steam_id":76561198291976960,"connected_time":619000000000,"state":"active","ping":91},{"user_id":230,"name":"nelly modelo","steam_id":76561198044875206,"connected_time":1591000000000,"state":"active","ping":79},{"user_id":237,"name":"Inadequate","steam_id":76561198108263810,"connected_time":523000000000,"state":"active","ping":107},{"user_id":238,"name":"bengineer","steam_id":76561198171912174,"connected_time":499000000000,"state":"active","ping":103},{"user_id":246,"name":"This Water Slaps","steam_id":76561198079089813,"connected_time":84000000000,"state":"active","ping":71},{"user_id":159,"name":"circle with me","steam_id":76561198048992536,"connected_time":5605000000000,"state":"active","ping":48},{"user_id":240,"name":"Bean Marrow","steam_id":76561198116650223,"connected_time":468000000000,"state":"active","ping":72},{"user_id":102,"name":"leonardo doujinshi","steam_id":76561198025810326,"connected_time":9286000000000,"state":"active","ping":89},{"user_id":233,"name":"Interrobang","steam_id":76561198385044529,"connected_time":1113000000000,"state":"active","ping":127},{"user_id":146,"name":"PiolaCat","steam_id":76561199100535345,"connected_time":6886000000000,"state":"active","ping":107},{"user_id":213,"name":"checkswing","steam_id":76561198999816132,"connected_time":2685000000000,"state":"active","ping":103},{"user_id":200,"name":"WIDO365","steam_id":76561198307012137,"connected_time":4054000000000,"state":"active","ping":63},{"user_id":244,"name":"LewdestLoli","steam_id":76561197967842240,"connected_time":247000000000,"state":"active","ping":56},{"user_id":245,"name":"chilis baby back ribs","steam_id":76561198813516435,"connected_time":242000000000,"state":"active","ping":76},{"user_id":211,"name":"leaving lunar orbit","steam_id":76561199085974120,"connected_time":3118000000000,"state":"active","ping":90},{"user_id":170,"name":"Moonflower ‚ú¶","steam_id":76561198191782483,"connected_time":5146000000000,"state":"active","ping":56},{"user_id":243,"name":"the count of badwater last","steam_id":76561198071775268,"connected_time":446000000000,"state":"active","ping":92},{"user_id":222,"name":"ùíÜùíóùíäùíçArnoldGamingÔæ†","steam_id":76561198040140247,"connected_time":2216000000000,"state":"active","ping":106},{"user_id":223,"name":"Crystall","steam_id":76561198346607700,"connected_time":2213000000000,"state":"active","ping":97},{"user_id":225,"name":"Karma","steam_id":76561198320530905,"connected_time":2065000000000,"state":"active","ping":58}]},{"server_id":405,"name":"Uncletopia | Dallas | 4 | Community","name_short":"dal-4","host":"dal-1.us.uncletopia.com","port":27045,"enabled":true,"region":"us-central","cc":"us","latitude":32.779167,"longitude":-96.80889,"reserved":0,"last_update":"0001-01-01T00:00:00Z","name_a2s":"Uncletopia | Dallas | 4 | Community","protocol":17,"map":"workshop/koth_bagel_rc6.ugc2514036946","folder":"tf","game":"Team Fortress","app_id":440,"player_count":2,"max_players":24,"Bots":0,"server_type":"Dedicated","server_os":"Linux","password":true,"vac":true,"version":"7961495","steam_id":85568392924515220,"keywords":["cp","nocrits","nodmgspread","uncletopia"],"game_id":440,"stv_port":27046,"stv_name":"Uncletopia | Dallas | 4 | Community | STV","players":[{"user_id":9,"name":"Brightmuffin","steam_id":76561198357333409,"connected_time":488000000000,"state":"active","ping":82},{"user_id":10,"name":"MERCHANT","steam_id":76561198210010549,"connected_time":270000000000,"state":"active","ping":92}]},{"server_id":5,"name":"Uncletopia | Frankfurt | 1 | All Maps","name_short":"frk-1","host":"frk-1.de.uncletopia.com","port":27015,"enabled":true,"region":"eu","cc":"de","latitude":50.110924,"longitude":8.682127,"reserved":0,"last_update":"0001-01-01T00:00:00Z","name_a2s":"Uncletopia | Frankfurt | 1 | All Maps","protocol":17,"map":"koth_viaduct","folder":"tf","game":"Team Fortress","app_id":440,"player_count":1,"max_players":24,"Bots":0,"server_type":"Dedicated","server_os":"Linux","password":true,"vac":true,"version":"7961495","steam_id":85568392924469989,"keywords":["cp","nocrits","nodmgspread","uncletopia"],"game_id":440,"stv_port":27016,"stv_name":"Uncletopia | Frankfurt | 1 | All Maps | STV","players":[{"user_id":610,"name":"aereo","steam_id":76561198846700800,"connected_time":57000000000,"state":"active","ping":67}]},{"server_id":110,"name":"Uncletopia | Frankfurt | 2 | All Maps","name_short":"frk-2","host":"frk-1.de.uncletopia.com","port":27025,"enabled":true,"region":"eu","cc":"de","latitude":50.110924,"longitude":8.682127,"reserved":0,"last_update":"0001-01-01T00:00:00Z","name_a2s":"Uncletopia | Frankfurt | 2 | All Maps","protocol":17,"map":"koth_viaduct","folder":"tf","game":"Team Fortress","app_id":440,"player_count":0,"max_players":24,"Bots":0,"server_type":"Dedicated","server_os":"Linux","password":true,"vac":true,"version":"7961495","steam_id":85568392924469990,"keywords":["cp","nocrits","nodmgspread","uncletopia"],"game_id":440,"stv_port":27026,"stv_name":"Uncletopia | Frankfurt | 2 | All Maps | STV","players":null},{"server_id":308,"name":"Uncletopia | Frankfurt | 3 | All Maps","name_short":"frk-3","host":"frk-1.de.uncletopia.com","port":27035,"enabled":true,"region":"eu","cc":"de","latitude":50.110924,"longitude":8.682127,"reserved":0,"last_update":"0001-01-01T00:00:00Z","name_a2s":"Uncletopia | Frankfurt | 3 | All Maps","protocol":17,"map":"pl_snowycoast","folder":"tf","game":"Team Fortress","app_id":440,"player_count":0,"max_players":24,"Bots":0,"server_type":"Dedicated","server_os":"Linux","password":true,"vac":true,"version":"7961495","steam_id":85568392924504274,"keywords":["nocrits","nodmgspread","payload","uncletopia"],"game_id":440,"stv_port":27036,"stv_name":"Uncletopia | Frankfurt | 3 | All Maps | STV","players":null},{"server_id":309,"name":"Uncletopia | Frankfurt | 4 | All Maps","name_short":"frk-4","host":"frk-1.de.uncletopia.com","port":27045,"enabled":true,"region":"eu","cc":"de","latitude":50.110924,"longitude":8.682127,"reserved":0,"last_update":"0001-01-01T00:00:00Z","name_a2s":"Uncletopia | Frankfurt | 4 | All Maps","protocol":17,"map":"koth_lakeside_final","folder":"tf","game":"Team Fortress","app_id":440,"player_count":0,"max_players":24,"Bots":0,"server_type":"Dedicated","server_os":"Linux","password":true,"vac":true,"version":"7961495","steam_id":85568392924504275,"keywords":["cp","nocrits","nodmgspread","uncletopia"],"game_id":440,"stv_port":27046,"stv_name":"Uncletopia | Frankfurt | 4 | All Maps | STV","players":null},{"server_id":310,"name":"Uncletopia | Frankfurt | 5 | All Maps","name_short":"frk-5","host":"frk-1.de.uncletopia.com","port":27055,"enabled":true,"region":"eu","cc":"de","latitude":50.110924,"longitude":8.682127,"reserved":0,"last_update":"0001-01-01T00:00:00Z","name_a2s":"Uncletopia | Frankfurt | 5 | All Maps","protocol":17,"map":"koth_lakeside_final","folder":"tf","game":"Team Fortress","app_id":440,"player_count":0,"max_players":24,"Bots":0,"server_type":"Dedicated","server_os":"Linux","password":true,"vac":true,"version":"7961495","steam_id":85568392924504277,"keywords":["cp","nocrits","nodmgspread","uncletopia"],"game_id":440,"stv_port":27056,"stv_name":"Uncletopia | Frankfurt | 5 | All Maps | STV","players":null},{"server_id":311,"name":"Uncletopia | Frankfurt | 6 | All Maps","name_short":"frk-6","host":"frk-1.de.uncletopia.com","port":27065,"enabled":true,"region":"eu","cc":"de","latitude":50.110924,"longitude":8.682127,"reserved":0,"last_update":"0001-01-01T00:00:00Z","name_a2s":"Uncletopia | Frankfurt | 6 | All Maps","protocol":17,"map":"koth_viaduct","folder":"tf","game":"Team Fortress","app_id":440,"player_count":0,"max_players":24,"Bots":0,"server_type":"Dedicated","server_os":"Linux","password":true,"vac":true,"version":"7961495","steam_id":85568392924504278,"keywords":["cp","nocrits","nodmgspread","uncletopia"],"game_id":440,"stv_port":27066,"stv_name":"Uncletopia | Frankfurt | 6 | All Maps | STV","players":null},{"server_id":23,"name":"Uncletopia | Frankfurt | 7 | Stopwatch","name_short":"frk-7","host":"frk-1.de.uncletopia.com","port":27075,"enabled":true,"region":"eu","cc":"de","latitude":50.110924,"longitude":8.682127,"reserved":0,"last_update":"0001-01-01T00:00:00Z","name_a2s":"Uncletopia | Frankfurt | 7 | Stopwatch","protocol":17,"map":"cp_snakewater_final1","folder":"tf","game":"Team Fortress","app_id":440,"player_count":0,"max_players":24,"Bots":0,"server_type":"Dedicated","server_os":"Linux","password":true,"vac":true,"version":"7961495","steam_id":85568392924742827,"keywords":["cp","nocrits","nodmgspread","uncletopia"],"game_id":440,"stv_port":27076,"stv_name":"Uncletopia | Frankfurt | 7 | Stopwatch | STV","players":null},{"server_id":24,"name":"Uncletopia | Frankfurt | 8 | Community","name_short":"frk-8","host":"frk-1.de.uncletopia.com","port":27085,"enabled":true,"region":"eu","cc":"de","latitude":50.110924,"longitude":8.682127,"reserved":0,"last_update":"0001-01-01T00:00:00Z","name_a2s":"Uncletopia | Frankfurt | 8 | Community","protocol":17,"map":"workshop/koth_product_final.ugc454272353","folder":"tf","game":"Team Fortress","app_id":440,"player_count":0,"max_players":24,"Bots":0,"server_type":"Dedicated","server_os":"Linux","password":true,"vac":true,"version":"7961495","steam_id":85568392924742828,"keywords":["cp","nocrits","nodmgspread","uncletopia"],"game_id":440,"stv_port":27086,"stv_name":"Uncletopia | Frankfurt | 8 | Community | STV","players":null},{"server_id":202,"name":"Uncletopia | Hong Kong | 1 | All Maps","name_short":"hgk-1","host":"hgk-1.hk.uncletopia.com","port":27015,"enabled":true,"region":"asia","cc":"hk","latitude":22.302711,"longitude":114.177216,"reserved":0,"last_update":"0001-01-01T00:00:00Z","name_a2s":"Uncletopia | Hong Kong | 1 | All Maps","protocol":17,"map":"cp_mountainlab","folder":"tf","game":"Team Fortress","app_id":440,"player_count":21,"max_players":24,"Bots":0,"server_type":"Dedicated","server_os":"Linux","password":true,"vac":true,"version":"7961495","steam_id":85568392924494504,"keywords":["cp","nocrits","nodmgspread","uncletopia"],"game_id":440,"stv_port":27016,"stv_name":"Uncletopia | Hong Kong | 1 | All Maps | STV","players":[{"user_id":11,"name":"nguyenvanbinh091073","steam_id":76561199496406754,"connected_time":1751000000000,"state":"active","ping":71},{"user_id":8,"name":"3wfFbdrjEze5d2G","steam_id":76561198435900451,"connected_time":1874000000000,"state":"active","ping":166},{"user_id":13,"name":"Chomer \u003c3","steam_id":76561199034546642,"connected_time":1414000000000,"state":"active","ping":101},{"user_id":10,"name":"Hanta","steam_id":76561199031390218,"connected_time":1851000000000,"state":"active","ping":165},{"user_id":14,"name":"HF","steam_id":76561198873180855,"connected_time":1298000000000,"state":"active","ping":83},{"user_id":15,"name":"goober","steam_id":76561199071628027,"connected_time":1223000000000,"state":"active","ping":345},{"user_id":23,"name":"Shterman","steam_id":76561198074411229,"connected_time":521000000000,"state":"active","ping":77},{"user_id":19,"name":"wom","steam_id":76561199375834537,"connected_time":946000000000,"state":"active","ping":109},{"user_id":33,"name":"jeff","steam_id":76561198327306842,"connected_time":41000000000,"state":"active","ping":79},{"user_id":20,"name":"icryinbed","steam_id":76561198084027826,"connected_time":844000000000,"state":"active","ping":102},{"user_id":21,"name":"Average Helltaker Enjoyer","steam_id":76561199250448715,"connected_time":844000000000,"state":"active","ping":114},{"user_id":24,"name":"umaa005","steam_id":76561199486763257,"connected_time":485000000000,"state":"active","ping":85},{"user_id":30,"name":"ùöÅùô∞ùöâùôæùô∫","steam_id":76561199200372829,"connected_time":213000000000,"state":"connecting","ping":0},{"user_id":26,"name":"WhyOwhat","steam_id":76561198137571487,"connected_time":439000000000,"state":"active","ping":164},{"user_id":27,"name":"haru","steam_id":76561198844175596,"connected_time":428000000000,"state":"active","ping":81},{"user_id":28,"name":"JDSFE","steam_id":76561198975490851,"connected_time":332000000000,"state":"active","ping":72},{"user_id":29,"name":"Spy","steam_id":76561199278689695,"connected_time":280000000000,"state":"active","ping":381},{"user_id":34,"name":"Lerroy","steam_id":76561199137927625,"connected_time":31000000000,"state":"active","ping":92},{"user_id":32,"name":"Bossrabeet","steam_id":76561199203075792,"connected_time":179000000000,"state":"active","ping":52},{"user_id":35,"name":"Gordon.Freeman","steam_id":76561198337746852,"connected_time":13000000000,"state":"spawning","ping":52},{"user_id":36,"name":"Dits","steam_id":76561198283833960,"connected_time":9000000000,"state":"spawning","ping":51}]},{"server_id":1,"name":"Uncletopia | Los Angeles | 1 | All Maps","name_short":"lax-1","host":"lax-1.us.uncletopia.com","port":27015,"enabled":true,"region":"us-west","cc":"us","latitude":33.94279,"longitude":-118.41004,"reserved":0,"last_update":"0001-01-01T00:00:00Z","name_a2s":"Uncletopia | Los Angeles | 1 | All Maps","protocol":17,"map":"pl_rumford_event","folder":"tf","game":"Team Fortress","app_id":440,"player_count":24,"max_players":24,"Bots":0,"server_type":"Dedicated","server_os":"Linux","password":true,"vac":true,"version":"7961495","steam_id":85568392924469991,"keywords":["nocrits","nodmgspread","payload","uncletopia"],"game_id":440,"stv_port":27016,"stv_name":"Uncletopia | Los Angeles | 1 | All Maps | STV","players":[{"user_id":279,"name":"Admiral Butt Naked","steam_id":76561198179591062,"connected_time":3209000000000,"state":"active","ping":59},{"user_id":259,"name":"The_Skull","steam_id":76561198121244647,"connected_time":4413000000000,"state":"active","ping":95},{"user_id":305,"name":"DORK","steam_id":76561198037384555,"connected_time":735000000000,"state":"active","ping":64},{"user_id":309,"name":"MintyFreshMentos","steam_id":76561198839944799,"connected_time":567000000000,"state":"active","ping":60},{"user_id":260,"name":"Immortal8Reaper","steam_id":76561198297661559,"connected_time":4409000000000,"state":"active","ping":135},{"user_id":310,"name":"HevyCheddar","steam_id":76561199388576700,"connected_time":534000000000,"state":"active","ping":124},{"user_id":316,"name":"Why aren't you playing Dark and","steam_id":76561198041329791,"connected_time":40000000000,"state":"active","ping":46},{"user_id":298,"name":"cielael","steam_id":76561198043971956,"connected_time":1694000000000,"state":"active","ping":56},{"user_id":303,"name":"ruben!","steam_id":76561198248731498,"connected_time":1262000000000,"state":"active","ping":55},{"user_id":240,"name":"kid named the cart","steam_id":76561197995200743,"connected_time":6128000000000,"state":"active","ping":43},{"user_id":308,"name":"you ain't slick","steam_id":76561199229786558,"connected_time":614000000000,"state":"active","ping":75},{"user_id":268,"name":"ForAPessimistImPrettyOptimistic","steam_id":76561198170128009,"connected_time":4241000000000,"state":"active","ping":63},{"user_id":231,"name":"Nez","steam_id":76561197963109059,"connected_time":6623000000000,"state":"active","ping":65},{"user_id":302,"name":"Yackaboi","steam_id":76561199444911765,"connected_time":1298000000000,"state":"active","ping":100},{"user_id":294,"name":"CORGI.EXE","steam_id":76561198077093432,"connected_time":2007000000000,"state":"active","ping":107},{"user_id":314,"name":"Freedy","steam_id":76561199115274103,"connected_time":449000000000,"state":"active","ping":60},{"user_id":301,"name":"a chicken","steam_id":76561198313121580,"connected_time":1490000000000,"state":"active","ping":46},{"user_id":315,"name":"Cheeses","steam_id":76561198124910662,"connected_time":84000000000,"state":"active","ping":71},{"user_id":291,"name":"Toddinator","steam_id":76561198303329028,"connected_time":2203000000000,"state":"active","ping":131},{"user_id":273,"name":"JavaScript Frappuccino","steam_id":76561198111620153,"connected_time":3769000000000,"state":"active","ping":75},{"user_id":276,"name":"mercenary","steam_id":76561198027901887,"connected_time":3681000000000,"state":"active","ping":74},{"user_id":239,"name":"jungus","steam_id":76561198129862008,"connected_time":6242000000000,"state":"active","ping":52},{"user_id":290,"name":"werolat","steam_id":76561197960544784,"connected_time":2217000000000,"state":"active","ping":78},{"user_id":293,"name":"coffee veins","steam_id":76561198044004639,"connected_time":2142000000000,"state":"active","ping":81}]},{"server_id":112,"name":"Uncletopia | Los Angeles | 2 | All Maps","name_short":"lax-2","host":"lax-1.us.uncletopia.com","port":27025,"enabled":true,"region":"us-west","cc":"us","latitude":33.94279,"longitude":-118.41004,"reserved":0,"last_update":"0001-01-01T00:00:00Z","name_a2s":"Uncletopia | Los Angeles | 2 | All Maps","protocol":17,"map":"koth_highpass","folder":"tf","game":"Team Fortress","app_id":440,"player_count":11,"max_players":24,"Bots":0,"server_type":"Dedicated","server_os":"Linux","password":true,"vac":true,"version":"7961495","steam_id":85568392924469992,"keywords":["cp","nocrits","nodmgspread","uncletopia"],"game_id":440,"stv_port":27026,"stv_name":"Uncletopia | Los Angeles | 2 | All Maps | STV","players":[{"user_id":18,"name":"Star","steam_id":76561199005219702,"connected_time":1037000000000,"state":"active","ping":203},{"user_id":19,"name":"Demonic_Jelly","steam_id":76561198387754121,"connected_time":1021000000000,"state":"active","ping":115},{"user_id":20,"name":"glitchfire999","steam_id":76561199455015793,"connected_time":1020000000000,"state":"active","ping":160},{"user_id":21,"name":"mrthugpug1732","steam_id":76561198881200768,"connected_time":842000000000,"state":"active","ping":56},{"user_id":22,"name":"Zizen","steam_id":76561199011832069,"connected_time":629000000000,"state":"active","ping":62},{"user_id":24,"name":"walrooos","steam_id":76561198024521839,"connected_time":347000000000,"state":"active","ping":44},{"user_id":25,"name":"LEAN \u003c3","steam_id":76561198185286203,"connected_time":316000000000,"state":"active","ping":82},{"user_id":26,"name":"Princess Bloom","steam_id":76561198107492237,"connected_time":187000000000,"state":"active","ping":56},{"user_id":27,"name":"Luna_Blossom","steam_id":76561198816384987,"connected_time":180000000000,"state":"active","ping":146},{"user_id":28,"name":"Whip_the_Rabbit","steam_id":76561198049896057,"connected_time":173000000000,"state":"active","ping":71},{"user_id":29,"name":"Myra1090","steam_id":76561198060917191,"connected_time":171000000000,"state":"active","ping":57}]},{"server_id":324,"name":"Uncletopia | Los Angeles | 3 | All Maps","name_short":"lax-3","host":"lax-1.us.uncletopia.com","port":27035,"enabled":true,"region":"us-west","cc":"us","latitude":33.94279,"longitude":-118.41004,"reserved":0,"last_update":"0001-01-01T00:00:00Z","name_a2s":"Uncletopia | Los Angeles | 3 | All Maps","protocol":17,"map":"koth_viaduct","folder":"tf","game":"Team Fortress","app_id":440,"player_count":24,"max_players":24,"Bots":0,"server_type":"Dedicated","server_os":"Linux","password":true,"vac":true,"version":"7961495","steam_id":85568392924510198,"keywords":["cp","nocrits","nodmgspread","uncletopia"],"game_id":440,"stv_port":27036,"stv_name":"Uncletopia | Los Angeles | 3 | All Maps | STV","players":[{"user_id":384,"name":"greens beans","steam_id":76561198153611491,"connected_time":2977000000000,"state":"active","ping":75},{"user_id":400,"name":"color gibus enjoyer","steam_id":76561198253531160,"connected_time":2274000000000,"state":"active","ping":62},{"user_id":401,"name":"ÍπÄÏ≤†Ïàò","steam_id":76561198162130278,"connected_time":2262000000000,"state":"active","ping":165},{"user_id":254,"name":"ohton","steam_id":76561199033233448,"connected_time":13546000000000,"state":"active","ping":47},{"user_id":391,"name":"NB","steam_id":76561198096037903,"connected_time":2474000000000,"state":"active","ping":181},{"user_id":414,"name":"dodecadron","steam_id":76561198027397222,"connected_time":665000000000,"state":"active","ping":90},{"user_id":403,"name":"Uprightmoss7528","steam_id":76561199200138486,"connected_time":2150000000000,"state":"active","ping":57},{"user_id":413,"name":"Your Favorite Fearless Hero","steam_id":76561199127590316,"connected_time":685000000000,"state":"active","ping":62},{"user_id":363,"name":"Tmiracle","steam_id":76561198052375275,"connected_time":3766000000000,"state":"active","ping":45},{"user_id":408,"name":"exx","steam_id":76561198090552145,"connected_time":1157000000000,"state":"active","ping":48},{"user_id":367,"name":"Neocherry","steam_id":76561198137036962,"connected_time":3744000000000,"state":"active","ping":90},{"user_id":390,"name":"remanedur","steam_id":76561198059459507,"connected_time":2482000000000,"state":"active","ping":127},{"user_id":415,"name":"ShwingyWingos","steam_id":76561198882909333,"connected_time":633000000000,"state":"active","ping":109},{"user_id":405,"name":"Karg","steam_id":76561198091387866,"connected_time":1754000000000,"state":"active","ping":67},{"user_id":368,"name":"DarkWolf","steam_id":76561198392222947,"connected_time":3740000000000,"state":"active","ping":112},{"user_id":374,"name":"monkey squirts","steam_id":76561197983101644,"connected_time":3495000000000,"state":"active","ping":45},{"user_id":396,"name":"Genius Meme","steam_id":76561198162911254,"connected_time":2447000000000,"state":"active","ping":72},{"user_id":395,"name":"mine diam","steam_id":76561198119123981,"connected_time":2453000000000,"state":"active","ping":72},{"user_id":387,"name":"Ferret","steam_id":76561198060416458,"connected_time":2938000000000,"state":"active","ping":67},{"user_id":394,"name":"nav","steam_id":76561198872608266,"connected_time":2463000000000,"state":"active","ping":106},{"user_id":399,"name":"NGsterson","steam_id":76561198162108154,"connected_time":2284000000000,"state":"active","ping":82},{"user_id":412,"name":"bubbles","steam_id":76561198040940902,"connected_time":928000000000,"state":"active","ping":51},{"user_id":411,"name":"AlphaBoi","steam_id":76561198995017977,"connected_time":1094000000000,"state":"active","ping":86},{"user_id":393,"name":"john.","steam_id":76561198982939658,"connected_time":2467000000000,"state":"active","ping":61}]},{"server_id":25,"name":"Uncletopia | Los Angeles | 4 | Stopwatch","name_short":"lax-4","host":"lax-1.us.uncletopia.com","port":27045,"enabled":true,"region":"us-west","cc":"us","latitude":33.94279,"longitude":-118.41004,"reserved":0,"last_update":"0001-01-01T00:00:00Z","name_a2s":"Uncletopia | Los Angeles | 4 | Stopwatch","protocol":17,"map":"workshop/koth_bagel_rc6.ugc2514036946","folder":"tf","game":"Team Fortress","app_id":440,"player_count":24,"max_players":24,"Bots":0,"server_type":"Dedicated","server_os":"Linux","password":true,"vac":true,"version":"7961495","steam_id":85568392924510199,"keywords":["cp","nocrits","nodmgspread","uncletopia"],"game_id":440,"stv_port":27046,"stv_name":"Uncletopia | Los Angeles | 4 | Stopwatch | STV","players":[{"user_id":133,"name":"mechanicvirus","steam_id":76561198038161480,"connected_time":1343000000000,"state":"active","ping":64},{"user_id":85,"name":"crumbles","steam_id":76561198168707036,"connected_time":3863000000000,"state":"active","ping":60},{"user_id":141,"name":"Hat Stack","steam_id":76561198806729611,"connected_time":659000000000,"state":"active","ping":85},{"user_id":129,"name":"Canned Bread","steam_id":76561198354916213,"connected_time":1572000000000,"state":"active","ping":74},{"user_id":120,"name":"‰ªôÂ•≥Â§¥Â≠ê‰∫éË∞¶","steam_id":76561199031075505,"connected_time":2234000000000,"state":"active","ping":142},{"user_id":130,"name":"The premium licking experience","steam_id":76561199213456232,"connected_time":1531000000000,"state":"active","ping":54},{"user_id":131,"name":"Sirmrmagoo","steam_id":76561198993190424,"connected_time":1506000000000,"state":"active","ping":95},{"user_id":132,"name":"aiko","steam_id":76561197970056960,"connected_time":1491000000000,"state":"active","ping":84},{"user_id":112,"name":"FaZe hyazZzZ","steam_id":76561199100342013,"connected_time":2797000000000,"state":"active","ping":45},{"user_id":127,"name":"T√ºCold","steam_id":76561198111278197,"connected_time":1766000000000,"state":"active","ping":60},{"user_id":100,"name":"Erebus","steam_id":76561199061956673,"connected_time":3231000000000,"state":"active","ping":132},{"user_id":80,"name":"marty","steam_id":76561198032782746,"connected_time":3943000000000,"state":"active","ping":71},{"user_id":143,"name":"Sheets","steam_id":76561198182088207,"connected_time":612000000000,"state":"active","ping":104},{"user_id":146,"name":"cbt youtube tutorial","steam_id":76561199122915452,"connected_time":450000000000,"state":"active","ping":84},{"user_id":122,"name":"John Wick (Real)","steam_id":76561198308193624,"connected_time":2099000000000,"state":"active","ping":90},{"user_id":138,"name":"CheesyPoofs","steam_id":76561197998650617,"connected_time":886000000000,"state":"active","ping":85},{"user_id":103,"name":"b","steam_id":76561198156336213,"connected_time":3131000000000,"state":"active","ping":60},{"user_id":145,"name":"LayinPipe","steam_id":76561198042801748,"connected_time":501000000000,"state":"active","ping":84},{"user_id":119,"name":"KombatWombat","steam_id":76561198062536642,"connected_time":2268000000000,"state":"active","ping":70},{"user_id":124,"name":"ACK","steam_id":76561198130390689,"connected_time":2095000000000,"state":"active","ping":68},{"user_id":134,"name":"lol","steam_id":76561199099376333,"connected_time":1332000000000,"state":"active","ping":102},{"user_id":125,"name":"mmmmmmmmmmmm","steam_id":76561199267742979,"connected_time":2081000000000,"state":"active","ping":70},{"user_id":148,"name":"indyjacob","steam_id":76561198065158713,"connected_time":329000000000,"state":"active","ping":71},{"user_id":108,"name":"gerge","steam_id":76561198092238353,"connected_time":2991000000000,"state":"active","ping":84}]},{"server_id":11,"name":"Uncletopia | London | 1 | All Maps","name_short":"lon-1","host":"lon-1.uk.uncletopia.com","port":27015,"enabled":true,"region":"eu","cc":"gb","latitude":51.509865,"longitude":-0.118092,"reserved":0,"last_update":"0001-01-01T00:00:00Z","name_a2s":"Uncletopia | London | 1 | All Maps","protocol":17,"map":"pl_swiftwater_final1","folder":"tf","game":"Team Fortress","app_id":440,"player_count":0,"max_players":24,"Bots":0,"server_type":"Dedicated","server_os":"Linux","password":true,"vac":true,"version":"7961495","steam_id":85568392924367362,"keywords":["nocrits","nodmgspread","payload","uncletopia"],"game_id":440,"stv_port":27016,"stv_name":"Uncletopia | London | 1 | All Maps | STV","players":null},{"server_id":114,"name":"Uncletopia | London | 2 | All Maps","name_short":"lon-2","host":"lon-1.uk.uncletopia.com","port":27025,"enabled":true,"region":"eu","cc":"gb","latitude":51.509865,"longitude":-0.118092,"reserved":0,"last_update":"0001-01-01T00:00:00Z","name_a2s":"Uncletopia | London | 2 | All Maps","protocol":17,"map":"pl_barnblitz","folder":"tf","game":"Team Fortress","app_id":440,"player_count":0,"max_players":24,"Bots":0,"server_type":"Dedicated","server_os":"Linux","password":true,"vac":true,"version":"7961495","steam_id":85568392924470941,"keywords":["nocrits","nodmgspread","payload","uncletopia"],"game_id":440,"stv_port":27026,"stv_name":"Uncletopia | London | 2 | All Maps | STV","players":null},{"server_id":320,"name":"Uncletopia | London | 3 | All Maps","name_short":"lon-3","host":"lon-1.uk.uncletopia.com","port":27035,"enabled":true,"region":"eu","cc":"gb","latitude":51.509865,"longitude":-0.118092,"reserved":0,"last_update":"0001-01-01T00:00:00Z","name_a2s":"Uncletopia | London | 3 | All Maps","protocol":17,"map":"cp_altitude","folder":"tf","game":"Team Fortress","app_id":440,"player_count":0,"max_players":24,"Bots":0,"server_type":"Dedicated","server_os":"Linux","password":true,"vac":true,"version":"7961495","steam_id":85568392924510192,"keywords":["cp","nocrits","nodmgspread","uncletopia"],"game_id":440,"stv_port":27036,"stv_name":"Uncletopia | London | 3 | All Maps | STV","players":null},{"server_id":321,"name":"Uncletopia | London | 4 | All Maps","name_short":"lon-4","host":"lon-1.uk.uncletopia.com","port":27045,"enabled":true,"region":"eu","cc":"gb","latitude":51.509865,"longitude":-0.118092,"reserved":0,"last_update":"0001-01-01T00:00:00Z","name_a2s":"Uncletopia | London | 4 | All Maps","protocol":17,"map":"cp_snakewater_final1","folder":"tf","game":"Team Fortress","app_id":440,"player_count":0,"max_players":24,"Bots":0,"server_type":"Dedicated","server_os":"Linux","password":true,"vac":true,"version":"7961495","steam_id":85568392924510193,"keywords":["cp","nocrits","nodmgspread","uncletopia"],"game_id":440,"stv_port":27046,"stv_name":"Uncletopia | London | 4 | All Maps | STV","players":null},{"server_id":21,"name":"Uncletopia | London | 5 | All Maps","name_short":"lon-5","host":"lon-1.uk.uncletopia.com","port":27055,"enabled":true,"region":"eu","cc":"gb","latitude":51.509865,"longitude":-0.118092,"reserved":0,"last_update":"0001-01-01T00:00:00Z","name_a2s":"Uncletopia | London | 5 | All Maps","protocol":17,"map":"pl_snowycoast","folder":"tf","game":"Team Fortress","app_id":440,"player_count":0,"max_players":24,"Bots":0,"server_type":"Dedicated","server_os":"Linux","password":true,"vac":true,"version":"7961495","steam_id":85568392924742829,"keywords":["nocrits","nodmgspread","payload","uncletopia"],"game_id":440,"stv_port":27056,"stv_name":"Uncletopia | London | 5 | All Maps | STV","players":null},{"server_id":22,"name":"Uncletopia | London | 6 | All Maps","name_short":"lon-6","host":"lon-1.uk.uncletopia.com","port":27065,"enabled":true,"region":"eu","cc":"gb","latitude":51.509865,"longitude":-0.118092,"reserved":0,"last_update":"0001-01-01T00:00:00Z","name_a2s":"Uncletopia | London | 6 | All Maps","protocol":17,"map":"koth_lakeside_final","folder":"tf","game":"Team Fortress","app_id":440,"player_count":0,"max_players":24,"Bots":0,"server_type":"Dedicated","server_os":"Linux","password":true,"vac":true,"version":"7961495","steam_id":85568392924742830,"keywords":["cp","nocrits","nodmgspread","uncletopia"],"game_id":440,"stv_port":27066,"stv_name":"Uncletopia | London | 6 | All Maps | STV","players":null},{"server_id":40,"name":"Uncletopia | London | 7 | Stopwatch","name_short":"lon-7","host":"lon-1.uk.uncletopia.com","port":27075,"enabled":true,"region":"eu","cc":"gb","latitude":51.509865,"longitude":-0.118092,"reserved":0,"last_update":"0001-01-01T00:00:00Z","name_a2s":"Uncletopia | London | 7 | Stopwatch","protocol":17,"map":"koth_lakeside_final","folder":"tf","game":"Team Fortress","app_id":440,"player_count":0,"max_players":24,"Bots":0,"server_type":"Dedicated","server_os":"Linux","password":true,"vac":true,"version":"7961495","steam_id":85568392924964314,"keywords":["cp","nocrits","nodmgspread","uncletopia"],"game_id":440,"stv_port":27076,"stv_name":"Uncletopia | London | 7 | Stopwatch | STV","players":null},{"server_id":41,"name":"Uncletopia | London | 8 | Community","name_short":"lon-8","host":"lon-1.uk.uncletopia.com","port":27085,"enabled":true,"region":"eu","cc":"gb","latitude":51.509865,"longitude":-0.118092,"reserved":0,"last_update":"0001-01-01T00:00:00Z","name_a2s":"Uncletopia | London | 8 | Community","protocol":17,"map":"workshop/pl_eruption_b9a.ugc2807898013","folder":"tf","game":"Team Fortress","app_id":440,"player_count":0,"max_players":24,"Bots":0,"server_type":"Dedicated","server_os":"Linux","password":true,"vac":true,"version":"7961495","steam_id":85568392924964315,"keywords":["nocrits","nodmgspread","payload","uncletopia"],"game_id":440,"stv_port":27086,"stv_name":"Uncletopia | London | 8 | Community | STV","players":null},{"server_id":300,"name":"Uncletopia | Montr√©al | 1 | All Maps","name_short":"mtl-1","host":"mtl-1.ca.uncletopia.com","port":27015,"enabled":true,"region":"us-east","cc":"ca","latitude":45.50889,"longitude":-73.56167,"reserved":0,"last_update":"0001-01-01T00:00:00Z","name_a2s":"","protocol":0,"map":"","folder":"","game":"","app_id":0,"player_count":17,"max_players":0,"Bots":0,"server_type":"","server_os":"","password":false,"vac":false,"version":"","steam_id":0,"keywords":null,"game_id":0,"stv_port":0,"stv_name":"","players":[{"user_id":25,"name":"Johnny Lawrence #JohnnyMaxxing","steam_id":76561199367141671,"connected_time":639000000000,"state":"active","ping":57},{"user_id":4,"name":"LordOfTheNoobs","steam_id":76561197962697523,"connected_time":2277000000000,"state":"active","ping":67},{"user_id":28,"name":"Jim Guy Tucker","steam_id":76561197999035461,"connected_time":268000000000,"state":"active","ping":85},{"user_id":31,"name":"YesMargaret","steam_id":76561198127971751,"connected_time":244000000000,"state":"active","ping":43},{"user_id":32,"name":"Nennoh","steam_id":76561198236198620,"connected_time":240000000000,"state":"active","ping":178},{"user_id":10,"name":"cooper","steam_id":76561198272034065,"connected_time":1611000000000,"state":"active","ping":85},{"user_id":42,"name":"Zoarork25","steam_id":76561198373589711,"connected_time":21000000000,"state":"active","ping":80},{"user_id":43,"name":"Master17Gaming","steam_id":76561198145986516,"connected_time":15000000000,"state":"spawning","ping":243},{"user_id":34,"name":"Insurance Man for the Funk","steam_id":76561198049001959,"connected_time":219000000000,"state":"active","ping":111},{"user_id":35,"name":"Grandaddy Longlegs","steam_id":76561198003505579,"connected_time":214000000000,"state":"active","ping":71},{"user_id":16,"name":"Franklin M. Hooverville","steam_id":76561198245109084,"connected_time":966000000000,"state":"active","ping":57},{"user_id":36,"name":"Uncle Bert","steam_id":76561197996574751,"connected_time":187000000000,"state":"active","ping":92},{"user_id":18,"name":"ashsillygoober","steam_id":76561199454622997,"connected_time":957000000000,"state":"active","ping":75},{"user_id":19,"name":"XboxGold14dayfreetrial","steam_id":76561199087480628,"connected_time":859000000000,"state":"active","ping":102},{"user_id":37,"name":"mitty","steam_id":76561197996031815,"connected_time":172000000000,"state":"active","ping":92},{"user_id":38,"name":"QueenCake575","steam_id":76561198996882407,"connected_time":104000000000,"state":"active","ping":137},{"user_id":39,"name":"erem2k","steam_id":76561198079020059,"connected_time":85000000000,"state":"active","ping":42}]},{"server_id":301,"name":"Uncletopia | Montr√©al | 2 | ???","name_short":"mtl-2","host":"mtl-1.ca.uncletopia.com","port":27025,"enabled":true,"region":"us-east","cc":"ca","latitude":45.50889,"longitude":-73.56167,"reserved":0,"last_update":"0001-01-01T00:00:00Z","name_a2s":"","protocol":0,"map":"","folder":"","game":"","app_id":0,"player_count":0,"max_players":0,"Bots":0,"server_type":"","server_os":"","password":false,"vac":false,"version":"","steam_id":0,"keywords":null,"game_id":0,"stv_port":0,"stv_name":"","players":null},{"server_id":13,"name":"Uncletopia | New York City | 1 | All Maps","name_short":"nyc-1","host":"nyc-1.us.uncletopia.com","port":27015,"enabled":true,"region":"us-east","cc":"us","latitude":40.73061,"longitude":-73.93524,"reserved":0,"last_update":"0001-01-01T00:00:00Z","name_a2s":"Uncletopia | New York City | 1 | All Maps","protocol":17,"map":"plr_bananabay","folder":"tf","game":"Team Fortress","app_id":440,"player_count":24,"max_players":24,"Bots":0,"server_type":"Dedicated","server_os":"Linux","password":true,"vac":true,"version":"7961495","steam_id":85568392924469993,"keywords":["nocrits","nodmgspread","payload","uncletopia"],"game_id":440,"stv_port":27016,"stv_name":"Uncletopia | New York City | 1 | All Maps | STV","players":[{"user_id":528,"name":"Top Quacker","steam_id":76561198261316128,"connected_time":3000000000,"state":"spawning","ping":45},{"user_id":511,"name":"Jimbo Slice","steam_id":76561198064830847,"connected_time":1172000000000,"state":"active","ping":54},{"user_id":507,"name":"Shades McKenzie","steam_id":76561198007051107,"connected_time":1346000000000,"state":"active","ping":96},{"user_id":502,"name":"A Puppy","steam_id":76561198828184456,"connected_time":1988000000000,"state":"active","ping":46},{"user_id":503,"name":"Bunnyboy","steam_id":76561198298416058,"connected_time":1405000000000,"state":"active","ping":68},{"user_id":488,"name":"Snoogs","steam_id":76561198444880931,"connected_time":2790000000000,"state":"active","ping":61},{"user_id":523,"name":"Gustavo_Banana","steam_id":76561198387866587,"connected_time":166000000000,"state":"active","ping":151},{"user_id":506,"name":"ndvr","steam_id":76561199379200102,"connected_time":1382000000000,"state":"active","ping":54},{"user_id":465,"name":"M249 | Spectre","steam_id":76561198118334485,"connected_time":4339000000000,"state":"active","ping":59},{"user_id":527,"name":"Benjamin Franklin","steam_id":76561198863803062,"connected_time":100000000000,"state":"active","ping":91},{"user_id":494,"name":"diego","steam_id":76561199120555224,"connected_time":2607000000000,"state":"active","ping":119},{"user_id":518,"name":"peee pee man","steam_id":76561198044979205,"connected_time":202000000000,"state":"active","ping":46},{"user_id":436,"name":"Umme","steam_id":76561198053809566,"connected_time":6346000000000,"state":"active","ping":158},{"user_id":515,"name":"Herdez Hot Salsa","steam_id":76561197991740906,"connected_time":859000000000,"state":"active","ping":68},{"user_id":524,"name":"Ashley","steam_id":76561198056152479,"connected_time":158000000000,"state":"active","ping":118},{"user_id":526,"name":"dcqwerty","steam_id":76561198964101426,"connected_time":149000000000,"state":"active","ping":42},{"user_id":525,"name":"cnropwr","steam_id":76561198144964633,"connected_time":157000000000,"state":"active","ping":144},{"user_id":521,"name":"CrunchCisco","steam_id":76561199162724832,"connected_time":187000000000,"state":"active","ping":90},{"user_id":519,"name":"milk","steam_id":76561198813251405,"connected_time":202000000000,"state":"active","ping":54},{"user_id":510,"name":"Volkan, Pervert Extraordinaire","steam_id":76561198004569575,"connected_time":1281000000000,"state":"active","ping":60},{"user_id":454,"name":"Urbanzpinapple","steam_id":76561198115426938,"connected_time":5199000000000,"state":"active","ping":73},{"user_id":479,"name":"Fish","steam_id":76561199258053772,"connected_time":3503000000000,"state":"active","ping":87},{"user_id":473,"name":"The Deer Consumer","steam_id":76561198812026312,"connected_time":3625000000000,"state":"active","ping":78},{"user_id":470,"name":"Hideo Kojima","steam_id":76561198082582335,"connected_time":3923000000000,"state":"active","ping":58}]},{"server_id":14,"name":"Uncletopia | New York City | 2 | All Maps","name_short":"nyc-2","host":"nyc-1.us.uncletopia.com","port":27025,"enabled":true,"region":"us-east","cc":"us","latitude":40.73061,"longitude":-73.93524,"reserved":0,"last_update":"0001-01-01T00:00:00Z","name_a2s":"Uncletopia | New York City | 2 | All Maps","protocol":17,"map":"pl_swiftwater_final1","folder":"tf","game":"Team Fortress","app_id":440,"player_count":24,"max_players":24,"Bots":0,"server_type":"Dedicated","server_os":"Linux","password":true,"vac":true,"version":"7961495","steam_id":85568392924469994,"keywords":["nocrits","nodmgspread","payload","uncletopia"],"game_id":440,"stv_port":27026,"stv_name":"Uncletopia | New York City | 2 | All Maps | STV","players":[{"user_id":639,"name":"Bee","steam_id":76561198074681324,"connected_time":1787000000000,"state":"active","ping":48},{"user_id":649,"name":"Territorial Rotbart","steam_id":76561198353246054,"connected_time":1389000000000,"state":"active","ping":69},{"user_id":585,"name":"Naffty","steam_id":76561198119734981,"connected_time":6799000000000,"state":"active","ping":91},{"user_id":595,"name":"Bob's your Uncle","steam_id":76561197995230744,"connected_time":6058000000000,"state":"active","ping":67},{"user_id":611,"name":"James","steam_id":76561198081313916,"connected_time":4320000000000,"state":"active","ping":72},{"user_id":537,"name":"Heropon","steam_id":76561198105224481,"connected_time":10613000000000,"state":"active","ping":56},{"user_id":642,"name":"City City The City City","steam_id":76561198046942778,"connected_time":1493000000000,"state":"active","ping":109},{"user_id":643,"name":"smocc","steam_id":76561197993726746,"connected_time":1467000000000,"state":"active","ping":45},{"user_id":555,"name":"Fishman_200","steam_id":76561198152455167,"connected_time":9031000000000,"state":"active","ping":63},{"user_id":652,"name":"Pine","steam_id":76561198056892915,"connected_time":1221000000000,"state":"active","ping":112},{"user_id":654,"name":"Rodrick Knee","steam_id":76561198283021062,"connected_time":7000000000,"state":"spawning","ping":65},{"user_id":629,"name":"Silvercoat's Stargazer","steam_id":76561198399525329,"connected_time":2386000000000,"state":"active","ping":66},{"user_id":640,"name":"Ian","steam_id":76561199078852180,"connected_time":1611000000000,"state":"active","ping":74},{"user_id":630,"name":"The Winter Medic","steam_id":76561198197112922,"connected_time":2352000000000,"state":"active","ping":68},{"user_id":635,"name":"random dood","steam_id":76561198314624729,"connected_time":1976000000000,"state":"active","ping":71},{"user_id":653,"name":"Connection","steam_id":76561199230740231,"connected_time":637000000000,"state":"active","ping":56},{"user_id":645,"name":"M0T0BREATH  \\TG/","steam_id":76561197961205221,"connected_time":1416000000000,"state":"active","ping":74},{"user_id":621,"name":"Novu","steam_id":76561198886997024,"connected_time":3355000000000,"state":"active","ping":73},{"user_id":646,"name":"Shaymoo","steam_id":76561198063659732,"connected_time":1412000000000,"state":"active","ping":101},{"user_id":641,"name":"Denzel McFlurry","steam_id":76561199231296521,"connected_time":1586000000000,"state":"active","ping":62},{"user_id":622,"name":"bagel cream cheese","steam_id":76561198017954785,"connected_time":3232000000000,"state":"active","ping":85},{"user_id":650,"name":"Rex Tremendae","steam_id":76561198046651215,"connected_time":1340000000000,"state":"active","ping":129},{"user_id":648,"name":"Pop","steam_id":76561198041278811,"connected_time":1406000000000,"state":"active","ping":105}]},{"server_id":15,"name":"Uncletopia | New York City | 3 | Stopwatch","name_short":"nyc-3","host":"nyc-1.us.uncletopia.com","port":27035,"enabled":true,"region":"us-east","cc":"us","latitude":40.73061,"longitude":-73.93524,"reserved":0,"last_update":"0001-01-01T00:00:00Z","name_a2s":"Uncletopia | New York City | 3 | Stopwatch","protocol":17,"map":"cp_granary","folder":"tf","game":"Team Fortress","app_id":440,"player_count":24,"max_players":24,"Bots":0,"server_type":"Dedicated","server_os":"Linux","password":true,"vac":true,"version":"7961495","steam_id":85568392924742820,"keywords":["cp","nocrits","nodmgspread","uncletopia"],"game_id":440,"stv_port":27036,"stv_name":"Uncletopia | New York City | 3 | Stopwatch | STV","players":[{"user_id":215,"name":"DaMultiversalist","steam_id":76561198239552412,"connected_time":10578000000000,"state":"active","ping":83},{"user_id":296,"name":"Dr. Cube","steam_id":76561198025469828,"connected_time":3877000000000,"state":"active","ping":69},{"user_id":346,"name":"NOBODY","steam_id":76561198094578887,"connected_time":103000000000,"state":"active","ping":35},{"user_id":279,"name":"Ako's Sugar","steam_id":76561198289280906,"connected_time":5559000000000,"state":"active","ping":86},{"user_id":347,"name":"Scum Knight | T.I.D.K.","steam_id":76561198282444763,"connected_time":86000000000,"state":"active","ping":51},{"user_id":348,"name":"Smuggs","steam_id":76561197999456003,"connected_time":72000000000,"state":"active","ping":104},{"user_id":340,"name":"Bronze Age Furvert","steam_id":76561198859118263,"connected_time":545000000000,"state":"active","ping":74},{"user_id":320,"name":"Untossed Salad","steam_id":76561198966239603,"connected_time":1877000000000,"state":"active","ping":52},{"user_id":322,"name":"Fredrick","steam_id":76561197981419964,"connected_time":1837000000000,"state":"active","ping":45},{"user_id":323,"name":"Glonk","steam_id":76561198362627946,"connected_time":1830000000000,"state":"active","ping":64},{"user_id":305,"name":"Terror of Zanarkand","steam_id":76561198106153194,"connected_time":2839000000000,"state":"active","ping":87},{"user_id":341,"name":"Feldspar","steam_id":76561198027437590,"connected_time":543000000000,"state":"active","ping":63},{"user_id":284,"name":"b4rry","steam_id":76561198365887154,"connected_time":5206000000000,"state":"active","ping":47},{"user_id":303,"name":"Railly","steam_id":76561198357355915,"connected_time":2960000000000,"state":"active","ping":91},{"user_id":332,"name":"Eomy","steam_id":76561198297783627,"connected_time":1295000000000,"state":"active","ping":71},{"user_id":338,"name":"eMcP!","steam_id":76561198382509396,"connected_time":591000000000,"state":"active","ping":133},{"user_id":343,"name":"rally","steam_id":76561198889987634,"connected_time":446000000000,"state":"active","ping":148},{"user_id":339,"name":"DoggyDogWhirl","steam_id":76561198042841344,"connected_time":564000000000,"state":"active","ping":71},{"user_id":315,"name":"solipsism","steam_id":76561198063457494,"connected_time":2189000000000,"state":"active","ping":63},{"user_id":331,"name":"The Spanked Monkey","steam_id":76561198128293111,"connected_time":1573000000000,"state":"active","ping":61},{"user_id":333,"name":"jimmyfnaf172198yay","steam_id":76561198311446636,"connected_time":1271000000000,"state":"active","ping":81},{"user_id":334,"name":"Goose","steam_id":76561198328998533,"connected_time":1254000000000,"state":"active","ping":71},{"user_id":309,"name":"Blehnder","steam_id":76561198172097526,"connected_time":2612000000000,"state":"active","ping":73},{"user_id":336,"name":"Sentry Gun Main Man","steam_id":76561198327938247,"connected_time":615000000000,"state":"active","ping":86}]},{"server_id":16,"name":"Uncletopia | New York City | 4 | Community","name_short":"nyc-4","host":"nyc-1.us.uncletopia.com","port":27045,"enabled":true,"region":"us-east","cc":"us","latitude":40.73061,"longitude":-73.93524,"reserved":0,"last_update":"0001-01-01T00:00:00Z","name_a2s":"Uncletopia | New York City | 4 | Community","protocol":17,"map":"workshop/cp_logjam_rc12.ugc454812035","folder":"tf","game":"Team Fortress","app_id":440,"player_count":0,"max_players":24,"Bots":0,"server_type":"Dedicated","server_os":"Linux","password":true,"vac":true,"version":"7961495","steam_id":85568392924742821,"keywords":["cp","nocrits","nodmgspread","uncletopia"],"game_id":440,"stv_port":27046,"stv_name":"Uncletopia | New York City | 4 | Community | STV","players":null},{"server_id":142,"name":"Uncletopia | S√£o Paulo | 1 | All Maps","name_short":"sao-1","host":"sao-1.br.uncletopia.com","port":27015,"enabled":true,"region":"sa","cc":"br","latitude":-23.533773,"longitude":-46.62529,"reserved":0,"last_update":"0001-01-01T00:00:00Z","name_a2s":"Uncletopia | S√£o Paulo | 1 | All Maps","protocol":17,"map":"pl_barnblitz","folder":"tf","game":"Team Fortress","app_id":440,"player_count":6,"max_players":24,"Bots":0,"server_type":"Dedicated","server_os":"Linux","password":true,"vac":true,"version":"7961495","steam_id":85568392924469996,"keywords":["nocrits","nodmgspread","payload","uncletopia"],"game_id":440,"stv_port":27016,"stv_name":"Uncletopia | S√£o Paulo | 1 | All Maps | STV","players":[{"user_id":107,"name":"Cley","steam_id":76561198142839368,"connected_time":3363000000000,"state":"active","ping":46},{"user_id":112,"name":"aimee","steam_id":76561198834309212,"connected_time":1409000000000,"state":"active","ping":178},{"user_id":114,"name":"‡πá‡πá‡πá‡πá‡πá‡πá‡πá‡πá‡πá‡πá","steam_id":76561198444488420,"connected_time":1166000000000,"state":"active","ping":54},{"user_id":115,"name":"Tato","steam_id":76561198118685464,"connected_time":574000000000,"state":"active","ping":105},{"user_id":103,"name":"guarda-chuva","steam_id":76561198078694330,"connected_time":3899000000000,"state":"active","ping":55},{"user_id":61,"name":"Meth","steam_id":76561199077281700,"connected_time":7443000000000,"state":"active","ping":42}]},{"server_id":143,"name":"Uncletopia | S√£o Paulo | 2 | Community","name_short":"sao-2","host":"sao-2.br.uncletopia.com","port":27015,"enabled":true,"region":"sa","cc":"br","latitude":-23.533773,"longitude":-46.62529,"reserved":0,"last_update":"0001-01-01T00:00:00Z","name_a2s":"Uncletopia | S√£o Paulo | 2 | Community","protocol":17,"map":"workshop/koth_bagel_rc6.ugc2514036946","folder":"tf","game":"Team Fortress","app_id":440,"player_count":0,"max_players":24,"Bots":0,"server_type":"Dedicated","server_os":"Linux","password":true,"vac":true,"version":"7961495","steam_id":85568392924485349,"keywords":["cp","nocrits","nodmgspread","uncletopia"],"game_id":440,"stv_port":27016,"stv_name":"Uncletopia | S√£o Paulo | 2 | Community | STV","players":null},{"server_id":7,"name":"Uncletopia | Seattle | 1 | All Maps","name_short":"sea-1","host":"sea-1.us.uncletopia.com","port":27015,"enabled":true,"region":"us-west","cc":"us","latitude":47.608013,"longitude":-122.33517,"reserved":0,"last_update":"0001-01-01T00:00:00Z","name_a2s":"Uncletopia | Seattle | 1 | All Maps","protocol":17,"map":"pl_borneo","folder":"tf","game":"Team Fortress","app_id":440,"player_count":24,"max_players":24,"Bots":0,"server_type":"Dedicated","server_os":"Linux","password":true,"vac":true,"version":"7961495","steam_id":85568392924469997,"keywords":["nocrits","nodmgspread","payload","uncletopia"],"game_id":440,"stv_port":27016,"stv_name":"Uncletopia | Seattle | 1 | All Maps | STV","players":[{"user_id":511,"name":"Vincent Van Bro","steam_id":76561197966919802,"connected_time":1140000000000,"state":"active","ping":57},{"user_id":508,"name":"drevott74","steam_id":76561199262592779,"connected_time":1323000000000,"state":"active","ping":112},{"user_id":493,"name":"merkury731","steam_id":76561198110565430,"connected_time":2283000000000,"state":"active","ping":114},{"user_id":509,"name":"AXZIOM","steam_id":76561198255074952,"connected_time":1313000000000,"state":"active","ping":48},{"user_id":505,"name":"RUF","steam_id":76561198062315805,"connected_time":1599000000000,"state":"active","ping":81},{"user_id":456,"name":"Username","steam_id":76561199033122306,"connected_time":6707000000000,"state":"active","ping":159},{"user_id":494,"name":"Kanga Roo","steam_id":76561198073358867,"connected_time":2281000000000,"state":"active","ping":46},{"user_id":516,"name":"lavender","steam_id":76561199069518286,"connected_time":362000000000,"state":"active","ping":68},{"user_id":513,"name":"Frank [LIVE ON TWITCH]","steam_id":76561198126681511,"connected_time":877000000000,"state":"active","ping":79},{"user_id":507,"name":"Ben Larson","steam_id":76561198870649125,"connected_time":1357000000000,"state":"active","ping":87},{"user_id":450,"name":"Thunder","steam_id":76561198097721532,"connected_time":7618000000000,"state":"active","ping":76},{"user_id":481,"name":"gimp daddy","steam_id":76561198981518998,"connected_time":3460000000000,"state":"active","ping":45},{"user_id":515,"name":"fountain Mann","steam_id":76561198834350355,"connected_time":698000000000,"state":"active","ping":72},{"user_id":514,"name":"luc","steam_id":76561198093883448,"connected_time":795000000000,"state":"active","ping":46},{"user_id":499,"name":"Greskrendtregk","steam_id":76561197969553142,"connected_time":2255000000000,"state":"active","ping":51},{"user_id":496,"name":"Reggie","steam_id":76561198835737236,"connected_time":2276000000000,"state":"active","ping":121},{"user_id":395,"name":"Grand","steam_id":76561198290143399,"connected_time":13955000000000,"state":"active","ping":77},{"user_id":417,"name":"alpharuby","steam_id":76561198051638462,"connected_time":11981000000000,"state":"active","ping":77},{"user_id":517,"name":"Bocchi The Rock Johnson","steam_id":76561198216017952,"connected_time":90000000000,"state":"active","ping":81},{"user_id":475,"name":"Sp√ºkiiTV","steam_id":76561198098281824,"connected_time":4816000000000,"state":"active","ping":98},{"user_id":487,"name":"aligmatism","steam_id":76561198065662025,"connected_time":2619000000000,"state":"active","ping":70},{"user_id":492,"name":"Villchip","steam_id":76561198198599982,"connected_time":2311000000000,"state":"active","ping":53},{"user_id":504,"name":"Cam","steam_id":76561198285054047,"connected_time":1619000000000,"state":"active","ping":81},{"user_id":484,"name":"TeCon","steam_id":76561198049127236,"connected_time":3008000000000,"state":"active","ping":88}]},{"server_id":119,"name":"Uncletopia | Seattle | 2 | All Maps","name_short":"sea-2","host":"sea-1.us.uncletopia.com","port":27025,"enabled":true,"region":"us-west","cc":"us","latitude":47.608013,"longitude":-122.33517,"reserved":0,"last_update":"0001-01-01T00:00:00Z","name_a2s":"Uncletopia | Seattle | 2 | All Maps","protocol":17,"map":"koth_harvest_final","folder":"tf","game":"Team Fortress","app_id":440,"player_count":24,"max_players":24,"Bots":0,"server_type":"Dedicated","server_os":"Linux","password":true,"vac":true,"version":"7961495","steam_id":85568392924469998,"keywords":["cp","nocrits","nodmgspread","uncletopia"],"game_id":440,"stv_port":27026,"stv_name":"Uncletopia | Seattle | 2 | All Maps | STV","players":[{"user_id":261,"name":"moe","steam_id":76561198929586245,"connected_time":619000000000,"state":"active","ping":69},{"user_id":259,"name":"Starpillow ‚ô°","steam_id":76561198095034817,"connected_time":827000000000,"state":"active","ping":51},{"user_id":229,"name":"marja.adair","steam_id":76561198962787422,"connected_time":3888000000000,"state":"active","ping":65},{"user_id":226,"name":"Stranger","steam_id":76561198043314392,"connected_time":4549000000000,"state":"active","ping":43},{"user_id":264,"name":"Skabbety","steam_id":76561198168044257,"connected_time":112000000000,"state":"active","ping":43},{"user_id":248,"name":"BLU3","steam_id":76561198059652670,"connected_time":2002000000000,"state":"active","ping":46},{"user_id":225,"name":"‚ô´ Gilgion","steam_id":76561198050297529,"connected_time":4559000000000,"state":"active","ping":47},{"user_id":235,"name":"Wafflemuscle","steam_id":76561198868628982,"connected_time":2983000000000,"state":"active","ping":51},{"user_id":232,"name":"Mii Guest C, From Wii Sports","steam_id":76561198197964803,"connected_time":3454000000000,"state":"active","ping":62},{"user_id":241,"name":"ORANGE","steam_id":76561198000401769,"connected_time":2397000000000,"state":"active","ping":50},{"user_id":195,"name":"[FaZe] MLGadult44","steam_id":76561198067232540,"connected_time":6179000000000,"state":"active","ping":120},{"user_id":250,"name":"(ngv) Antwan","steam_id":76561198018017318,"connected_time":1656000000000,"state":"active","ping":79},{"user_id":245,"name":"Mr defrost","steam_id":76561198322125657,"connected_time":2374000000000,"state":"active","ping":65},{"user_id":234,"name":"kkazda","steam_id":76561198982054576,"connected_time":3405000000000,"state":"active","ping":69},{"user_id":231,"name":"Green Mario","steam_id":76561198094325997,"connected_time":3456000000000,"state":"active","ping":79},{"user_id":262,"name":"Kyrubo","steam_id":76561198137446080,"connected_time":573000000000,"state":"active","ping":103},{"user_id":247,"name":"Attrition","steam_id":76561197969881916,"connected_time":2102000000000,"state":"active","ping":57},{"user_id":228,"name":"jodie.blend","steam_id":76561198140701807,"connected_time":4394000000000,"state":"active","ping":94},{"user_id":215,"name":"mub","steam_id":76561197961943948,"connected_time":5192000000000,"state":"active","ping":46},{"user_id":252,"name":"COOL master_9","steam_id":76561198073041151,"connected_time":1365000000000,"state":"active","ping":99},{"user_id":233,"name":"Daz","steam_id":76561198041431938,"connected_time":3449000000000,"state":"active","ping":51},{"user_id":244,"name":"MrRojan","steam_id":76561197993760849,"connected_time":2385000000000,"state":"active","ping":65},{"user_id":242,"name":"Whapper","steam_id":76561198044029606,"connected_time":2397000000000,"state":"active","ping":78},{"user_id":254,"name":"Dimple #TF2Center","steam_id":76561198980324190,"connected_time":956000000000,"state":"active","ping":69}]},{"server_id":406,"name":"Uncletopia | Seattle | 3 | Stopwatch","name_short":"sea-3","host":"sea-1.us.uncletopia.com","port":27035,"enabled":true,"region":"us-west","cc":"us","latitude":47.608013,"longitude":-122.33517,"reserved":0,"last_update":"0001-01-01T00:00:00Z","name_a2s":"Uncletopia | Seattle | 3 | Stopwatch","protocol":17,"map":"pl_borneo","folder":"tf","game":"Team Fortress","app_id":440,"player_count":3,"max_players":24,"Bots":0,"server_type":"Dedicated","server_os":"Linux","password":true,"vac":true,"version":"7961495","steam_id":85568392924515217,"keywords":["nocrits","nodmgspread","payload","uncletopia"],"game_id":440,"stv_port":27036,"stv_name":"Uncletopia | Seattle | 3 | Stopwatch | STV","players":[{"user_id":47,"name":"Mexican Dragonite","steam_id":76561199054205242,"connected_time":844000000000,"state":"active","ping":106},{"user_id":48,"name":"Master Roshi","steam_id":76561198104954286,"connected_time":750000000000,"state":"active","ping":73},{"user_id":50,"name":"Belisarius Cawl","steam_id":76561198043977710,"connected_time":98000000000,"state":"active","ping":85}]},{"server_id":17,"name":"Uncletopia | San Francisco | 1 | All Maps","name_short":"sfo-1","host":"sfo-1.us.uncletopia.com","port":27015,"enabled":true,"region":"us-west","cc":"us","latitude":37.77397,"longitude":-122.4313,"reserved":0,"last_update":"0001-01-01T00:00:00Z","name_a2s":"Uncletopia | San Francisco | 1 | All Maps","protocol":17,"map":"koth_viaduct","folder":"tf","game":"Team Fortress","app_id":440,"player_count":0,"max_players":24,"Bots":0,"server_type":"Dedicated","server_os":"Linux","password":true,"vac":true,"version":"7961495","steam_id":85568392924469999,"keywords":["cp","nocrits","nodmgspread","uncletopia"],"game_id":440,"stv_port":27016,"stv_name":"Uncletopia | San Francisco | 1 | All Maps | STV","players":null},{"server_id":18,"name":"Uncletopia | San Francisco | 2 | All Maps","name_short":"sfo-2","host":"sfo-1.us.uncletopia.com","port":27025,"enabled":true,"region":"us-west","cc":"us","latitude":37.77397,"longitude":-122.4313,"reserved":0,"last_update":"0001-01-01T00:00:00Z","name_a2s":"Uncletopia | San Francisco | 2 | All Maps","protocol":17,"map":"koth_sawmill","folder":"tf","game":"Team Fortress","app_id":440,"player_count":3,"max_players":24,"Bots":0,"server_type":"Dedicated","server_os":"Linux","password":true,"vac":true,"version":"7961495","steam_id":85568392924470000,"keywords":["cp","nocrits","nodmgspread","uncletopia"],"game_id":440,"stv_port":27026,"stv_name":"Uncletopia | San Francisco | 2 | All Maps | STV","players":[{"user_id":28,"name":"blue duck the 2nd","steam_id":76561198263142765,"connected_time":508000000000,"state":"active","ping":103},{"user_id":29,"name":"Caspian","steam_id":76561199041466962,"connected_time":441000000000,"state":"active","ping":67},{"user_id":30,"name":"BluCoffee","steam_id":76561198214995967,"connected_time":101000000000,"state":"active","ping":139}]},{"server_id":19,"name":"Uncletopia | San Francisco | 3 | Stopwatch","name_short":"sfo-3","host":"sfo-1.us.uncletopia.com","port":27035,"enabled":true,"region":"us-west","cc":"us","latitude":37.77397,"longitude":-122.4313,"reserved":0,"last_update":"0001-01-01T00:00:00Z","name_a2s":"Uncletopia | San Francisco | 3 | Stopwatch","protocol":17,"map":"pl_swiftwater_final1","folder":"tf","game":"Team Fortress","app_id":440,"player_count":0,"max_players":24,"Bots":0,"server_type":"Dedicated","server_os":"Linux","password":true,"vac":true,"version":"7961495","steam_id":85568392924742824,"keywords":["nocrits","nodmgspread","payload","uncletopia"],"game_id":440,"stv_port":27036,"stv_name":"Uncletopia | San Francisco | 3 | Stopwatch | STV","players":null},{"server_id":20,"name":"Uncletopia | San Francisco | 4 | Community","name_short":"sfo-4","host":"sfo-1.us.uncletopia.com","port":27045,"enabled":true,"region":"us-west","cc":"us","latitude":37.77397,"longitude":-122.4313,"reserved":0,"last_update":"0001-01-01T00:00:00Z","name_a2s":"Uncletopia | San Francisco | 4 | Community","protocol":17,"map":"pl_pier","folder":"tf","game":"Team Fortress","app_id":440,"player_count":0,"max_players":24,"Bots":0,"server_type":"Dedicated","server_os":"Linux","password":true,"vac":true,"version":"7961495","steam_id":85568392924742826,"keywords":["nocrits","nodmgspread","payload","uncletopia"],"game_id":440,"stv_port":27046,"stv_name":"Uncletopia | San Francisco | 4 | Community | STV","players":null},{"server_id":141,"name":"Uncletopia | Sydney | 1 | All Maps","name_short":"syd-1","host":"syd-1.au.uncletopia.com","port":27015,"enabled":true,"region":"au","cc":"au","latitude":-33.865143,"longitude":151.2099,"reserved":0,"last_update":"0001-01-01T00:00:00Z","name_a2s":"Uncletopia | Sydney | 1 | All Maps","protocol":17,"map":"pl_borneo","folder":"tf","game":"Team Fortress","app_id":440,"player_count":24,"max_players":24,"Bots":0,"server_type":"Dedicated","server_os":"Linux","password":true,"vac":true,"version":"7961495","steam_id":85568392924470001,"keywords":["nocrits","nodmgspread","payload","uncletopia"],"game_id":440,"stv_port":27016,"stv_name":"Uncletopia | Sydney | 1 | All Maps | STV","players":[{"user_id":163,"name":"ViVi ‚òÑ","steam_id":76561198044727237,"connected_time":3734000000000,"state":"active","ping":55},{"user_id":215,"name":"Precipire","steam_id":76561198076159518,"connected_time":442000000000,"state":"active","ping":55},{"user_id":191,"name":"please be patient i have autism","steam_id":76561199219741520,"connected_time":2274000000000,"state":"active","ping":91},{"user_id":209,"name":"Trotter","steam_id":76561198343965263,"connected_time":1392000000000,"state":"active","ping":55},{"user_id":211,"name":"WikkyD","steam_id":76561198043452962,"connected_time":1062000000000,"state":"active","ping":65},{"user_id":200,"name":"Marzell","steam_id":76561198151276153,"connected_time":1839000000000,"state":"active","ping":91},{"user_id":202,"name":"FlightOfGrey","steam_id":76561198025253662,"connected_time":1819000000000,"state":"active","ping":80},{"user_id":196,"name":"Ben is mightier than the sword","steam_id":76561198301282416,"connected_time":2128000000000,"state":"active","ping":62},{"user_id":162,"name":"sweet mouse ‚òÑ","steam_id":76561198013779321,"connected_time":3797000000000,"state":"active","ping":58},{"user_id":205,"name":"Sentry Gun (EpicGuy4227)","steam_id":76561198094132328,"connected_time":1703000000000,"state":"active","ping":54},{"user_id":213,"name":"glumpo groingoin","steam_id":76561198048064049,"connected_time":467000000000,"state":"active","ping":95},{"user_id":201,"name":"SaltierThanYou","steam_id":76561198444395188,"connected_time":1828000000000,"state":"active","ping":95},{"user_id":204,"name":"LeoJoeD","steam_id":76561198161848749,"connected_time":1796000000000,"state":"active","ping":43},{"user_id":212,"name":"Sherpa","steam_id":76561198018913829,"connected_time":1018000000000,"state":"active","ping":55},{"user_id":210,"name":"Teamfighting","steam_id":76561198160135508,"connected_time":1259000000000,"state":"active","ping":55},{"user_id":207,"name":"Frank","steam_id":76561198142635376,"connected_time":1437000000000,"state":"active","ping":57},{"user_id":206,"name":"kamO","steam_id":76561198000303139,"connected_time":1532000000000,"state":"active","ping":72},{"user_id":217,"name":"Finger Bun Fun","steam_id":76561198118383219,"connected_time":215000000000,"state":"active","ping":51},{"user_id":189,"name":"zorsploogus justmarrriedus","steam_id":76561198063481761,"connected_time":2385000000000,"state":"active","ping":44},{"user_id":190,"name":"perturb (feed/seed)","steam_id":76561198085124297,"connected_time":2373000000000,"state":"active","ping":49},{"user_id":198,"name":"oldbie","steam_id":76561198053297711,"connected_time":2056000000000,"state":"active","ping":77},{"user_id":199,"name":"theatreTECHIE","steam_id":76561198134226028,"connected_time":2042000000000,"state":"active","ping":73},{"user_id":216,"name":"[T√êK] KeRpaL","steam_id":76561197974427061,"connected_time":435000000000,"state":"active","ping":58}]},{"server_id":123,"name":"Uncletopia | Sydney | 2 | All Maps","name_short":"syd-2","host":"syd-1.au.uncletopia.com","port":27025,"enabled":true,"region":"au","cc":"au","latitude":-33.865143,"longitude":151.2099,"reserved":0,"last_update":"0001-01-01T00:00:00Z","name_a2s":"Uncletopia | Sydney | 2 | All Maps","protocol":17,"map":"koth_lakeside_final","folder":"tf","game":"Team Fortress","app_id":440,"player_count":1,"max_players":24,"Bots":0,"server_type":"Dedicated","server_os":"Linux","password":true,"vac":true,"version":"7961495","steam_id":85568392924470002,"keywords":["cp","nocrits","nodmgspread","uncletopia"],"game_id":440,"stv_port":27026,"stv_name":"Uncletopia | Sydney | 2 | All Maps | STV","players":[{"user_id":5,"name":"KillerBlow","steam_id":76561198930232832,"connected_time":547000000000,"state":"active","ping":62}]},{"server_id":395,"name":"Uncletopia | Sydney | 3 | All Maps","name_short":"syd-3","host":"syd-1.au.uncletopia.com","port":27035,"enabled":true,"region":"au","cc":"au","latitude":-33.865143,"longitude":151.2099,"reserved":0,"last_update":"0001-01-01T00:00:00Z","name_a2s":"Uncletopia | Sydney | 3 | All Maps","protocol":17,"map":"pl_frontier_final","folder":"tf","game":"Team Fortress","app_id":440,"player_count":0,"max_players":24,"Bots":0,"server_type":"Dedicated","server_os":"Linux","password":true,"vac":true,"version":"7961495","steam_id":85568392925194467,"keywords":["nocrits","nodmgspread","payload","uncletopia"],"game_id":440,"stv_port":27036,"stv_name":"Uncletopia | Sydney | 3 | All Maps | STV","players":null},{"server_id":396,"name":"Uncletopia | Sydney | 4 | All Maps","name_short":"syd-4","host":"syd-1.au.uncletopia.com","port":27045,"enabled":true,"region":"au","cc":"au","latitude":-33.865143,"longitude":151.2099,"reserved":0,"last_update":"0001-01-01T00:00:00Z","name_a2s":"Uncletopia | Sydney | 4 | All Maps","protocol":17,"map":"koth_cascade","folder":"tf","game":"Team Fortress","app_id":440,"player_count":0,"max_players":24,"Bots":0,"server_type":"Dedicated","server_os":"Linux","password":true,"vac":true,"version":"7961495","steam_id":85568392925397958,"keywords":["cp","nocrits","nodmgspread","uncletopia"],"game_id":440,"stv_port":27046,"stv_name":"Uncletopia | Sydney | 4 | All Maps | STV","players":null},{"server_id":58,"name":"Uncletopia | Sydney | 5 | Stopwatch","name_short":"syd-5","host":"syd-1.au.uncletopia.com","port":27055,"enabled":true,"region":"au","cc":"au","latitude":-33.865143,"longitude":151.2099,"reserved":0,"last_update":"0001-01-01T00:00:00Z","name_a2s":"Uncletopia | Sydney | 5 | Stopwatch","protocol":17,"map":"cp_sunshine","folder":"tf","game":"Team Fortress","app_id":440,"player_count":0,"max_players":24,"Bots":0,"server_type":"Dedicated","server_os":"Linux","password":true,"vac":true,"version":"7961495","steam_id":85568392925397959,"keywords":["cp","nocrits","nodmgspread","uncletopia"],"game_id":440,"stv_port":27056,"stv_name":"Uncletopia | Sydney | 5 | Stopwatch | STV","players":null},{"server_id":59,"name":"Uncletopia | Sydney | 6 | Community","name_short":"syd-6","host":"syd-1.au.uncletopia.com","port":27065,"enabled":true,"region":"au","cc":"au","latitude":-33.865143,"longitude":151.2099,"reserved":0,"last_update":"0001-01-01T00:00:00Z","name_a2s":"Uncletopia | Sydney | 6 | Community","protocol":17,"map":"cp_sunshine","folder":"tf","game":"Team Fortress","app_id":440,"player_count":0,"max_players":24,"Bots":0,"server_type":"Dedicated","server_os":"Linux","password":true,"vac":true,"version":"7961495","steam_id":85568392925397960,"keywords":["cp","nocrits","nodmgspread","uncletopia"],"game_id":440,"stv_port":27066,"stv_name":"Uncletopia | Sydney | 6 | Community | STV","players":null},{"server_id":49,"name":"Uncletopia | Warsaw | 1 | All Maps","name_short":"waw-1","host":"waw-1.pl.uncletopia.com","port":27015,"enabled":true,"region":"eu","cc":"pl","latitude":52.2297,"longitude":21.017532,"reserved":0,"last_update":"0001-01-01T00:00:00Z","name_a2s":"Uncletopia | Warsaw | 1 | All Maps","protocol":17,"map":"koth_lakeside_final","folder":"tf","game":"Team Fortress","app_id":440,"player_count":0,"max_players":24,"Bots":0,"server_type":"Dedicated","server_os":"Linux","password":true,"vac":true,"version":"7961495","steam_id":85568392925397850,"keywords":["cp","nocrits","nodmgspread","uncletopia"],"game_id":440,"stv_port":27016,"stv_name":"Uncletopia | Warsaw | 1 | All Maps | STV","players":null},{"server_id":50,"name":"Uncletopia | Warsaw | 2 | All Maps","name_short":"waw-2","host":"waw-1.pl.uncletopia.com","port":27025,"enabled":true,"region":"eu","cc":"pl","latitude":52.2297,"longitude":21.017532,"reserved":0,"last_update":"0001-01-01T00:00:00Z","name_a2s":"Uncletopia | Warsaw | 2 | All Maps","protocol":17,"map":"koth_cascade","folder":"tf","game":"Team Fortress","app_id":440,"player_count":0,"max_players":24,"Bots":0,"server_type":"Dedicated","server_os":"Linux","password":true,"vac":true,"version":"7961495","steam_id":85568392925397851,"keywords":["cp","nocrits","nodmgspread","uncletopia"],"game_id":440,"stv_port":27026,"stv_name":"Uncletopia | Warsaw | 2 | All Maps | STV","players":null},{"server_id":51,"name":"Uncletopia | Warsaw | 3 | All Maps","name_short":"waw-3","host":"waw-1.pl.uncletopia.com","port":27035,"enabled":true,"region":"eu","cc":"pl","latitude":52.2297,"longitude":21.017532,"reserved":0,"last_update":"0001-01-01T00:00:00Z","name_a2s":"Uncletopia | Warsaw | 3 | All Maps","protocol":17,"map":"koth_highpass","folder":"tf","game":"Team Fortress","app_id":440,"player_count":0,"max_players":24,"Bots":0,"server_type":"Dedicated","server_os":"Linux","password":true,"vac":true,"version":"7961495","steam_id":85568392925397852,"keywords":["cp","nocrits","nodmgspread","uncletopia"],"game_id":440,"stv_port":27036,"stv_name":"Uncletopia | Warsaw | 3 | All Maps | STV","players":null},{"server_id":52,"name":"Uncletopia | Warsaw | 4 | All Maps","name_short":"waw-4","host":"waw-1.pl.uncletopia.com","port":27045,"enabled":true,"region":"eu","cc":"pl","latitude":52.2297,"longitude":21.017532,"reserved":0,"last_update":"0001-01-01T00:00:00Z","name_a2s":"Uncletopia | Warsaw | 4 | All Maps","protocol":17,"map":"cp_altitude","folder":"tf","game":"Team Fortress","app_id":440,"player_count":0,"max_players":24,"Bots":0,"server_type":"Dedicated","server_os":"Linux","password":true,"vac":true,"version":"7961495","steam_id":85568392925397853,"keywords":["cp","nocrits","nodmgspread","uncletopia"],"game_id":440,"stv_port":27046,"stv_name":"Uncletopia | Warsaw | 4 | All Maps | STV","players":null},{"server_id":53,"name":"Uncletopia | Warsaw | 5 | Stopwatch","name_short":"waw-5","host":"waw-1.pl.uncletopia.com","port":27055,"enabled":true,"region":"eu","cc":"pl","latitude":52.2297,"longitude":21.017532,"reserved":0,"last_update":"0001-01-01T00:00:00Z","name_a2s":"Uncletopia | Warsaw | 5 | Stopwatch","protocol":17,"map":"cp_metalworks","folder":"tf","game":"Team Fortress","app_id":440,"player_count":0,"max_players":24,"Bots":0,"server_type":"Dedicated","server_os":"Linux","password":true,"vac":true,"version":"7961495","steam_id":85568392925397854,"keywords":["cp","nocrits","nodmgspread","uncletopia"],"game_id":440,"stv_port":27056,"stv_name":"Uncletopia | Warsaw | 5 | Stopwatch | STV","players":null},{"server_id":54,"name":"Uncletopia | Warsaw | 6 | Community","name_short":"waw-6","host":"waw-1.pl.uncletopia.com","port":27065,"enabled":true,"region":"eu","cc":"pl","latitude":52.2297,"longitude":21.017532,"reserved":0,"last_update":"0001-01-01T00:00:00Z","name_a2s":"Uncletopia | Warsaw | 6 | Community","protocol":17,"map":"workshop/koth_synthetic_rc6a.ugc1549817316","folder":"tf","game":"Team Fortress","app_id":440,"player_count":0,"max_players":24,"Bots":0,"server_type":"Dedicated","server_os":"Linux","password":true,"vac":true,"version":"7961495","steam_id":85568392925397856,"keywords":["cp","nocrits","nodmgspread","uncletopia"],"game_id":440,"stv_port":27066,"stv_name":"Uncletopia | Warsaw | 6 | Community | STV","players":null}]}