{"status":true,"message":"","result":[{"server_id":9,"name":"Uncletopia | Atlanta | 1 | All Maps","name_short":"atl-1","host":"atl-1.us.uncletopia.com","port":27015,"enabled":true,"region":"us-east","cc":"us","latitude":33.753746,"longitude":-84.38633,"reserved":0,"last_update":"0001-01-01T00:00:00Z","name_a2s":"Uncletopia | Atlanta | 1 | All Maps","protocol":17,"map":"cp_steel","folder":"tf","game":"Team Fortress","app_id":440,"player_count":24,"max_players":24,"Bots":0,"server_type":"Dedicated","server_os":"Linux","password":true,"vac":true,"version":"7742253","steam_id":85568392924469982,"keywords":["cp","nocrits","nodmgspread","uncletopia"],"game_id":440,"stv_port":27016,"stv_name":"Uncletopia | Atlanta | 1 | All Maps | STV","players":[{"user_id":65,"name":"Ziath","steam_id":76561198094009164,"connected_time":8266000000000,"state":"active","ping":66},{"user_id":126,"name":"Obelisk","steam_id":76561198049416866,"connected_time":2660000000000,"state":"active","ping":52},{"user_id":158,"name":"FemboyNate","steam_id":76561198146636410,"connected_time":413000000000,"state":"active","ping":70},{"user_id":163,"name":"Potato Cyph0n","steam_id":76561198031564577,"connected_time":52000000000,"state":"active","ping":73},{"user_id":155,"name":"rizztraining order","steam_id":76561198069600113,"connected_time":492000000000,"state":"active","ping":51},{"user_id":151,"name":"Regrettable Decisions","steam_id":76561199084088704,"connected_time":824000000000,"state":"active","ping":139},{"user_id":133,"name":"Alt","steam_id":76561197992591984,"connected_time":2113000000000,"state":"active","ping":77},{"user_id":150,"name":"RoboWarrior0410a","steam_id":76561199106531261,"connected_time":850000000000,"state":"active","ping":52},{"user_id":160,"name":"Willis The Whale","steam_id":76561198240046452,"connected_time":189000000000,"state":"active","ping":107},{"user_id":119,"name":"the ham man from ham land","steam_id":76561198251977820,"connected_time":3296000000000,"state":"active","ping":110},{"user_id":162,"name":"ATL1 | J O V A","steam_id":76561198090333536,"connected_time":83000000000,"state":"active","ping":60},{"user_id":140,"name":"Rockhead","steam_id":76561197995196535,"connected_time":1124000000000,"state":"active","ping":65},{"user_id":143,"name":"mario","steam_id":76561198148282278,"connected_time":1066000000000,"state":"active","ping":82},{"user_id":120,"name":"SwingDickerson","steam_id":76561198045542926,"connected_time":3295000000000,"state":"active","ping":84},{"user_id":144,"name":"Quack-San","steam_id":76561198074090034,"connected_time":1059000000000,"state":"active","ping":113},{"user_id":132,"name":"jackhillard83","steam_id":76561199057098390,"connected_time":2394000000000,"state":"active","ping":85},{"user_id":104,"name":"DO NOT call me BART SIMPSON!!","steam_id":76561198069113375,"connected_time":4655000000000,"state":"active","ping":86},{"user_id":125,"name":"--_Cook_--","steam_id":76561198080855748,"connected_time":2991000000000,"state":"active","ping":61},{"user_id":164,"name":"gypsy_disco","steam_id":76561198153496203,"connected_time":37000000000,"state":"active","ping":59},{"user_id":146,"name":"t.tv/ibbKitty ‚àë:3","steam_id":76561198110858518,"connected_time":1025000000000,"state":"active","ping":75},{"user_id":135,"name":"C papi","steam_id":76561198027779564,"connected_time":2110000000000,"state":"active","ping":60},{"user_id":147,"name":"Cthulwho?","steam_id":76561198165550810,"connected_time":1025000000000,"state":"active","ping":80},{"user_id":156,"name":"Andrew Tate","steam_id":76561199172527665,"connected_time":491000000000,"state":"active","ping":111},{"user_id":159,"name":"knotsofunny","steam_id":76561198071336304,"connected_time":223000000000,"state":"active","ping":67}]},{"server_id":400,"name":"Uncletopia | Atlanta | 3 | Stopwatch Beta","name_short":"atl-3","host":"atl-1.us.uncletopia.com","port":27035,"enabled":true,"region":"us-east","cc":"us","latitude":33.753746,"longitude":-84.38633,"reserved":0,"last_update":"0001-01-01T00:00:00Z","name_a2s":"Uncletopia | Atlanta | 3 | Stopwatch Beta","protocol":17,"map":"pl_pier","folder":"tf","game":"Team Fortress","app_id":440,"player_count":0,"max_players":24,"Bots":0,"server_type":"Dedicated","server_os":"Linux","password":true,"vac":true,"version":"7742253","steam_id":85568392924515187,"keywords":["nocrits","nodmgspread","payload","uncletopia"],"game_id":440,"stv_port":27036,"stv_name":"Uncletopia | Atlanta | 3 | Stopwatch Beta | STV","players":null},{"server_id":401,"name":"Uncletopia | Atlanta | 4 | No Payload","name_short":"atl-4","host":"atl-1.us.uncletopia.com","port":27045,"enabled":true,"region":"us-east","cc":"us","latitude":33.753746,"longitude":-84.38633,"reserved":0,"last_update":"0001-01-01T00:00:00Z","name_a2s":"Uncletopia | Atlanta | 4 | No Payload","protocol":17,"map":"pl_pier","folder":"tf","game":"Team Fortress","app_id":440,"player_count":0,"max_players":24,"Bots":0,"server_type":"Dedicated","server_os":"Linux","password":true,"vac":true,"version":"7723704","steam_id":85568392924515188,"keywords":["nocrits","nodmgspread","payload","uncletopia"],"game_id":440,"stv_port":27046,"stv_name":"Uncletopia | Atlanta | 4 | No Payload | STV","players":null},{"server_id":2,"name":"Uncletopia | Chicago | 1 | All Maps","name_short":"chi-1","host":"chi-1.us.uncletopia.com","port":27015,"enabled":true,"region":"us-central","cc":"us","latitude":41.881832,"longitude":-87.62318,"reserved":0,"last_update":"0001-01-01T00:00:00Z","name_a2s":"Uncletopia | Chicago | 1 | All Maps","protocol":17,"map":"pl_snowycoast","folder":"tf","game":"Team Fortress","app_id":440,"player_count":24,"max_players":24,"Bots":0,"server_type":"Dedicated","server_os":"Linux","password":true,"vac":true,"version":"7742253","steam_id":85568392924469984,"keywords":["nocrits","nodmgspread","payload","uncletopia"],"game_id":440,"stv_port":27016,"stv_name":"Uncletopia | Chicago | 1 | All Maps | STV","players":[{"user_id":11,"name":"Astori√¶!","steam_id":76561199090168858,"connected_time":2437000000000,"state":"active","ping":59},{"user_id":49,"name":"SquipSquap","steam_id":76561198295884253,"connected_time":952000000000,"state":"active","ping":86},{"user_id":51,"name":"superbad","steam_id":76561198065913973,"connected_time":661000000000,"state":"active","ping":102},{"user_id":54,"name":"BananaArm","steam_id":76561199087528350,"connected_time":245000000000,"state":"active","ping":63},{"user_id":15,"name":"Open Mailbox","steam_id":76561198051933580,"connected_time":2223000000000,"state":"active","ping":78},{"user_id":56,"name":"Mortimer Khan","steam_id":76561197968829990,"connected_time":167000000000,"state":"active","ping":67},{"user_id":28,"name":"Bl√•haj","steam_id":76561198444871237,"connected_time":1442000000000,"state":"active","ping":65},{"user_id":22,"name":"Jujitsu82","steam_id":76561198445522556,"connected_time":1577000000000,"state":"active","ping":77},{"user_id":53,"name":"sansa musa","steam_id":76561198163723555,"connected_time":346000000000,"state":"active","ping":75},{"user_id":24,"name":"JunZI","steam_id":76561199121850793,"connected_time":1528000000000,"state":"active","ping":48},{"user_id":25,"name":"45 Cent","steam_id":76561198048690188,"connected_time":1523000000000,"state":"active","ping":74},{"user_id":26,"name":"woul","steam_id":76561199134296565,"connected_time":1507000000000,"state":"active","ping":70},{"user_id":29,"name":"‡πáYou got Killed by --\u003e","steam_id":76561198039763676,"connected_time":1436000000000,"state":"active","ping":64},{"user_id":36,"name":"AOkScrump","steam_id":76561198996230924,"connected_time":1317000000000,"state":"active","ping":49},{"user_id":48,"name":"Xavibite","steam_id":76561198209380493,"connected_time":989000000000,"state":"active","ping":60},{"user_id":50,"name":"Pablo Sanchez","steam_id":76561197982219837,"connected_time":934000000000,"state":"active","ping":63},{"user_id":47,"name":"Supa Dupt","steam_id":76561198166666289,"connected_time":1031000000000,"state":"active","ping":101},{"user_id":34,"name":"ScoutWantsBobux69","steam_id":76561199316368867,"connected_time":1359000000000,"state":"active","ping":57},{"user_id":38,"name":"Smig","steam_id":76561198408846602,"connected_time":1278000000000,"state":"active","ping":71},{"user_id":52,"name":"Slice","steam_id":76561198046508636,"connected_time":443000000000,"state":"active","ping":68},{"user_id":40,"name":"Kartyac","steam_id":76561197991069005,"connected_time":1269000000000,"state":"active","ping":84},{"user_id":41,"name":"green drink","steam_id":76561199260739414,"connected_time":1264000000000,"state":"active","ping":68},{"user_id":43,"name":"Data","steam_id":76561197996329548,"connected_time":1210000000000,"state":"active","ping":61},{"user_id":57,"name":"Pyrovision Enthusiast","steam_id":76561198211892779,"connected_time":3000000000,"state":"spawning","ping":63}]},{"server_id":106,"name":"Uncletopia | Chicago | 2 | All Maps","name_short":"chi-2","host":"chi-1.us.uncletopia.com","port":27025,"enabled":true,"region":"us-central","cc":"us","latitude":41.881832,"longitude":-87.62318,"reserved":0,"last_update":"0001-01-01T00:00:00Z","name_a2s":"Uncletopia | Chicago | 2 | All Maps","protocol":17,"map":"cp_mountainlab","folder":"tf","game":"Team Fortress","app_id":440,"player_count":24,"max_players":24,"Bots":0,"server_type":"Dedicated","server_os":"Linux","password":true,"vac":true,"version":"7742253","steam_id":85568392924469985,"keywords":["cp","nocrits","nodmgspread","uncletopia"],"game_id":440,"stv_port":27026,"stv_name":"Uncletopia | Chicago | 2 | All Maps | STV","players":[{"user_id":154,"name":"dog","steam_id":76561198263873491,"connected_time":779000000000,"state":"active","ping":41},{"user_id":151,"name":"A Puppy","steam_id":76561198828184456,"connected_time":839000000000,"state":"active","ping":55},{"user_id":89,"name":"LunarrD","steam_id":76561198811220107,"connected_time":6553000000000,"state":"active","ping":71},{"user_id":113,"name":"Candy Quill","steam_id":76561198044092009,"connected_time":4833000000000,"state":"active","ping":89},{"user_id":170,"name":"therealdeal680","steam_id":76561199190330316,"connected_time":83000000000,"state":"active","ping":93},{"user_id":171,"name":"TV","steam_id":76561198177326926,"connected_time":46000000000,"state":"active","ping":114},{"user_id":99,"name":"Dumbus Denny","steam_id":76561198052328616,"connected_time":6027000000000,"state":"active","ping":55},{"user_id":169,"name":"lutican","steam_id":76561198215383452,"connected_time":201000000000,"state":"active","ping":53},{"user_id":145,"name":"gaming elliptical","steam_id":76561198013456569,"connected_time":1769000000000,"state":"active","ping":49},{"user_id":152,"name":"IncogNeeto","steam_id":76561199091278006,"connected_time":834000000000,"state":"active","ping":124},{"user_id":141,"name":"Chicken","steam_id":76561199187641532,"connected_time":2369000000000,"state":"active","ping":83},{"user_id":147,"name":"Im totally a hacker","steam_id":76561198888005736,"connected_time":1403000000000,"state":"active","ping":72},{"user_id":172,"name":"FISH","steam_id":76561199122475583,"connected_time":46000000000,"state":"spawning","ping":64},{"user_id":174,"name":"Aster","steam_id":76561198037920420,"connected_time":0,"state":"spawning","ping":30},{"user_id":73,"name":"Rornir","steam_id":76561198081829615,"connected_time":7740000000000,"state":"active","ping":36},{"user_id":138,"name":"Koishi","steam_id":76561198054541054,"connected_time":2475000000000,"state":"active","ping":57},{"user_id":163,"name":"Mrs.Donkey","steam_id":76561197970143019,"connected_time":431000000000,"state":"active","ping":51},{"user_id":168,"name":"IssueSolved","steam_id":76561199242915501,"connected_time":327000000000,"state":"active","ping":77},{"user_id":158,"name":"Noxxy","steam_id":76561198001531982,"connected_time":699000000000,"state":"active","ping":73},{"user_id":173,"name":"meghan trainor's bass","steam_id":76561198075858067,"connected_time":12000000000,"state":"active","ping":59},{"user_id":125,"name":"Carl, Good to see you","steam_id":76561198070574075,"connected_time":3504000000000,"state":"active","ping":60},{"user_id":160,"name":"Donkey","steam_id":76561197968155896,"connected_time":695000000000,"state":"active","ping":54},{"user_id":161,"name":"SnakeEyes505","steam_id":76561198267634428,"connected_time":684000000000,"state":"active","ping":63},{"user_id":133,"name":"Swedish Crowbar","steam_id":76561199105488936,"connected_time":3027000000000,"state":"active","ping":143}]},{"server_id":402,"name":"Uncletopia | Chicago | 3 | All Maps","name_short":"chi-3","host":"chi-1.us.uncletopia.com","port":27035,"enabled":true,"region":"us-central","cc":"us","latitude":41.881832,"longitude":-87.62318,"reserved":0,"last_update":"0001-01-01T00:00:00Z","name_a2s":"Uncletopia | Chicago | 3 | All Maps","protocol":17,"map":"koth_viaduct","folder":"tf","game":"Team Fortress","app_id":440,"player_count":0,"max_players":24,"Bots":0,"server_type":"Dedicated","server_os":"Linux","password":true,"vac":true,"version":"7742253","steam_id":85568392924515191,"keywords":["cp","nocrits","nodmgspread","uncletopia"],"game_id":440,"stv_port":27036,"stv_name":"Uncletopia | Chicago | 3 | All Maps | STV","players":null},{"server_id":403,"name":"Uncletopia | Chicago | 4 | All Maps","name_short":"chi-4","host":"chi-1.us.uncletopia.com","port":27045,"enabled":true,"region":"us-central","cc":"us","latitude":41.881832,"longitude":-87.62318,"reserved":0,"last_update":"0001-01-01T00:00:00Z","name_a2s":"Uncletopia | Chicago | 4 | All Maps","protocol":17,"map":"pl_borneo","folder":"tf","game":"Team Fortress","app_id":440,"player_count":24,"max_players":24,"Bots":0,"server_type":"Dedicated","server_os":"Linux","password":true,"vac":true,"version":"7742253","steam_id":85568392924515193,"keywords":["nocrits","nodmgspread","payload","uncletopia"],"game_id":440,"stv_port":27046,"stv_name":"Uncletopia | Chicago | 4 | All Maps | STV","players":[{"user_id":110,"name":"Neptune","steam_id":76561198165137220,"connected_time":286000000000,"state":"active","ping":130},{"user_id":106,"name":"Grayo","steam_id":76561198059652623,"connected_time":353000000000,"state":"active","ping":54},{"user_id":72,"name":"scarybroccoli","steam_id":76561198296440084,"connected_time":3069000000000,"state":"active","ping":72},{"user_id":98,"name":"zip it gungus","steam_id":76561198077272494,"connected_time":1383000000000,"state":"active","ping":52},{"user_id":95,"name":"QuarticalPhysics","steam_id":76561198061386266,"connected_time":1512000000000,"state":"active","ping":72},{"user_id":91,"name":"Tyler\u0026Fingers","steam_id":76561198085154485,"connected_time":1595000000000,"state":"active","ping":80},{"user_id":102,"name":"Dr.Bobert (Listening to MCR)","steam_id":76561198072186001,"connected_time":452000000000,"state":"active","ping":76},{"user_id":84,"name":"True American Hero","steam_id":76561198025473302,"connected_time":2087000000000,"state":"active","ping":76},{"user_id":88,"name":"thomasdee725","steam_id":76561199189526173,"connected_time":1852000000000,"state":"active","ping":79},{"user_id":80,"name":"{ST} Pip","steam_id":76561198200365894,"connected_time":2805000000000,"state":"active","ping":44},{"user_id":64,"name":"The Beheaded","steam_id":76561199067788742,"connected_time":3968000000000,"state":"active","ping":70},{"user_id":81,"name":"Krazy","steam_id":76561198835502709,"connected_time":2645000000000,"state":"active","ping":101},{"user_id":104,"name":"‚ô• Dolphiniz ‚ô•","steam_id":76561199093367765,"connected_time":414000000000,"state":"active","ping":104},{"user_id":62,"name":"Whoa","steam_id":76561197970353496,"connected_time":4066000000000,"state":"active","ping":76},{"user_id":76,"name":"Reckless Klondike","steam_id":76561198060904416,"connected_time":3028000000000,"state":"active","ping":73},{"user_id":56,"name":"Rusty","steam_id":76561198055585129,"connected_time":4573000000000,"state":"active","ping":93},{"user_id":100,"name":"Fumohuxi Viriphyto","steam_id":76561198369395636,"connected_time":1010000000000,"state":"active","ping":83},{"user_id":94,"name":"‚ù§Dumpster Cat‚ù§","steam_id":76561199200969139,"connected_time":1565000000000,"state":"active","ping":135},{"user_id":97,"name":"Stapler","steam_id":76561198099295077,"connected_time":1427000000000,"state":"active","ping":92},{"user_id":78,"name":"Meowth from Team Rocket","steam_id":76561198144049265,"connected_time":3027000000000,"state":"active","ping":60},{"user_id":108,"name":"doug","steam_id":76561198020534493,"connected_time":332000000000,"state":"active","ping":72},{"user_id":99,"name":"nyaanbinary catboy gayming","steam_id":76561198262604439,"connected_time":1111000000000,"state":"active","ping":47},{"user_id":111,"name":"Spicy Duck","steam_id":76561198065905730,"connected_time":189000000000,"state":"active","ping":71},{"user_id":109,"name":"Arrythmia","steam_id":76561198093748123,"connected_time":327000000000,"state":"active","ping":101}]},{"server_id":36,"name":"Uncletopia | Chicago | 5 | All Maps","name_short":"chi-5","host":"chi-2.us.uncletopia.com","port":27015,"enabled":true,"region":"us-central","cc":"us","latitude":41.881832,"longitude":-87.62318,"reserved":0,"last_update":"0001-01-01T00:00:00Z","name_a2s":"Uncletopia | Chicago | 5 | All Maps","protocol":17,"map":"pl_upward","folder":"tf","game":"Team Fortress","app_id":440,"player_count":24,"max_players":24,"Bots":0,"server_type":"Dedicated","server_os":"Linux","password":true,"vac":true,"version":"7742253","steam_id":85568392924866362,"keywords":["nocrits","nodmgspread","payload","uncletopia"],"game_id":440,"stv_port":27016,"stv_name":"Uncletopia | Chicago | 5 | All Maps | STV","players":[{"user_id":341,"name":"dr peppah chug!","steam_id":76561198068835693,"connected_time":129000000000,"state":"active","ping":103},{"user_id":310,"name":"TeaPirate [TTC]","steam_id":76561197993068398,"connected_time":1472000000000,"state":"active","ping":65},{"user_id":342,"name":"NopeBox","steam_id":76561198043575536,"connected_time":81000000000,"state":"active","ping":70},{"user_id":343,"name":"Robyn Goodfellowe","steam_id":76561198074719241,"connected_time":81000000000,"state":"active","ping":62},{"user_id":329,"name":"Bongman","steam_id":76561199041948900,"connected_time":802000000000,"state":"active","ping":99},{"user_id":330,"name":"Deltaco","steam_id":76561198094572694,"connected_time":786000000000,"state":"active","ping":115},{"user_id":335,"name":"Chuburn","steam_id":76561199078803862,"connected_time":522000000000,"state":"active","ping":66},{"user_id":325,"name":"The One True Pineapple #SaveTF2","steam_id":76561198083157236,"connected_time":935000000000,"state":"active","ping":72},{"user_id":337,"name":"Xuey","steam_id":76561199120960187,"connected_time":426000000000,"state":"active","ping":58},{"user_id":324,"name":"Hertz","steam_id":76561198245322982,"connected_time":996000000000,"state":"active","ping":55},{"user_id":340,"name":".BL14","steam_id":76561198374604922,"connected_time":177000000000,"state":"active","ping":60},{"user_id":296,"name":"BoxesOnCheetahs","steam_id":76561198213080323,"connected_time":1923000000000,"state":"active","ping":64},{"user_id":344,"name":"Penrose42","steam_id":76561198288577396,"connected_time":72000000000,"state":"active","ping":76},{"user_id":333,"name":"Mattron1","steam_id":76561198012270524,"connected_time":721000000000,"state":"active","ping":56},{"user_id":287,"name":"YourUncle'sUncle.","steam_id":76561198239040554,"connected_time":2322000000000,"state":"active","ping":61},{"user_id":317,"name":"Laft","steam_id":76561198364501558,"connected_time":1288000000000,"state":"active","ping":68},{"user_id":320,"name":"Arttur","steam_id":76561199080503175,"connected_time":1182000000000,"state":"active","ping":177},{"user_id":208,"name":"The Caretaker","steam_id":76561198125241411,"connected_time":6368000000000,"state":"active","ping":123},{"user_id":336,"name":"turnip","steam_id":76561197999375941,"connected_time":510000000000,"state":"active","ping":76},{"user_id":318,"name":"xJEMAx","steam_id":76561198370956616,"connected_time":1284000000000,"state":"active","ping":88},{"user_id":297,"name":"Chuk Benis","steam_id":76561198107659080,"connected_time":1907000000000,"state":"active","ping":60},{"user_id":338,"name":"tasty","steam_id":76561198083839061,"connected_time":425000000000,"state":"active","ping":59},{"user_id":266,"name":"Kol","steam_id":76561199151398882,"connected_time":2901000000000,"state":"active","ping":88},{"user_id":267,"name":"Spectre","steam_id":76561198025652246,"connected_time":2901000000000,"state":"active","ping":32}]},{"server_id":37,"name":"Uncletopia | Chicago | 6 | All Maps","name_short":"chi-6","host":"chi-2.us.uncletopia.com","port":27025,"enabled":true,"region":"us-central","cc":"us","latitude":41.881832,"longitude":-87.62318,"reserved":0,"last_update":"0001-01-01T00:00:00Z","name_a2s":"Uncletopia | Chicago | 6 | All Maps","protocol":17,"map":"cp_mountainlab","folder":"tf","game":"Team Fortress","app_id":440,"player_count":0,"max_players":24,"Bots":0,"server_type":"Dedicated","server_os":"Linux","password":true,"vac":true,"version":"7742253","steam_id":85568392924866363,"keywords":["cp","nocrits","nodmgspread","uncletopia"],"game_id":440,"stv_port":27026,"stv_name":"Uncletopia | Chicago | 6 | All Maps | STV","players":null},{"server_id":38,"name":"Uncletopia | Chicago | 7 | Stopwatch Beta","name_short":"chi-7","host":"chi-2.us.uncletopia.com","port":27035,"enabled":true,"region":"us-central","cc":"us","latitude":41.881832,"longitude":-87.62318,"reserved":0,"last_update":"0001-01-01T00:00:00Z","name_a2s":"Uncletopia | Chicago | 7 | Stopwatch Beta","protocol":17,"map":"koth_lakeside_final","folder":"tf","game":"Team Fortress","app_id":440,"player_count":0,"max_players":24,"Bots":0,"server_type":"Dedicated","server_os":"Linux","password":true,"vac":true,"version":"7742253","steam_id":85568392924866364,"keywords":["cp","nocrits","nodmgspread","uncletopia"],"game_id":440,"stv_port":27036,"stv_name":"Uncletopia | Chicago | 7 | Stopwatch Beta | STV","players":null},{"server_id":39,"name":"Uncletopia | Chicago | 8 | Community","name_short":"chi-8","host":"chi-2.us.uncletopia.com","port":27045,"enabled":true,"region":"us-central","cc":"us","latitude":41.881832,"longitude":-87.62318,"reserved":0,"last_update":"0001-01-01T00:00:00Z","name_a2s":"Uncletopia | Chicago | 8 | Community","protocol":17,"map":"koth_lakeside_final","folder":"tf","game":"Team Fortress","app_id":440,"player_count":0,"max_players":24,"Bots":0,"server_type":"Dedicated","server_os":"Linux","password":true,"vac":true,"version":"7742253","steam_id":85568392924866365,"keywords":["cp","nocrits","nodmgspread","uncletopia"],"game_id":440,"stv_port":27046,"stv_name":"Uncletopia | Chicago | 8 | Community | STV","players":null},{"server_id":8,"name":"Uncletopia | Dallas | 1 | All Maps","name_short":"dal-1","host":"dal-1.us.uncletopia.com","port":27015,"enabled":true,"region":"us-central","cc":"us","latitude":32.779167,"longitude":-96.80889,"reserved":0,"last_update":"0001-01-01T00:00:00Z","name_a2s":"Uncletopia | Dallas | 1 | All Maps","protocol":17,"map":"cp_sunshine","folder":"tf","game":"Team Fortress","app_id":440,"player_count":24,"max_players":24,"Bots":0,"server_type":"Dedicated","server_os":"Linux","password":true,"vac":true,"version":"7742253","steam_id":85568392924469986,"keywords":["cp","nocrits","nodmgspread","uncletopia"],"game_id":440,"stv_port":27016,"stv_name":"Uncletopia | Dallas | 1 | All Maps | STV","players":[{"user_id":52,"name":"Chicken Bake","steam_id":76561198045366628,"connected_time":1140000000000,"state":"active","ping":99},{"user_id":60,"name":"SunzeroCanadian","steam_id":76561199129634091,"connected_time":73000000000,"state":"active","ping":111},{"user_id":44,"name":"Cad","steam_id":76561198312145232,"connected_time":1533000000000,"state":"active","ping":93},{"user_id":9,"name":"Game Trooper","steam_id":76561198044979579,"connected_time":2980000000000,"state":"active","ping":88},{"user_id":55,"name":"PzVIIIMaus","steam_id":76561198346559365,"connected_time":1011000000000,"state":"active","ping":75},{"user_id":13,"name":"scuttles","steam_id":76561199250039100,"connected_time":2639000000000,"state":"active","ping":55},{"user_id":14,"name":"Critical","steam_id":76561198123744966,"connected_time":2632000000000,"state":"active","ping":80},{"user_id":17,"name":"the doom of acoustic","steam_id":76561198328109873,"connected_time":2185000000000,"state":"active","ping":92},{"user_id":51,"name":"Echo Gaming","steam_id":76561198242890502,"connected_time":1157000000000,"state":"active","ping":57},{"user_id":54,"name":"hola","steam_id":76561198873043242,"connected_time":1090000000000,"state":"active","ping":125},{"user_id":56,"name":"theodoric","steam_id":76561198017539604,"connected_time":975000000000,"state":"active","ping":73},{"user_id":57,"name":"Mao Zedoge","steam_id":76561198141939154,"connected_time":949000000000,"state":"active","ping":78},{"user_id":24,"name":"apple","steam_id":76561198310578571,"connected_time":1860000000000,"state":"active","ping":96},{"user_id":46,"name":"Leo","steam_id":76561198309760791,"connected_time":1506000000000,"state":"active","ping":122},{"user_id":26,"name":"BrightOrangeMango","steam_id":76561198023144607,"connected_time":1827000000000,"state":"active","ping":75},{"user_id":27,"name":"adrianvilla58","steam_id":76561199079317084,"connected_time":1817000000000,"state":"active","ping":102},{"user_id":28,"name":"\"Heavy\"","steam_id":76561198964539315,"connected_time":1799000000000,"state":"active","ping":68},{"user_id":29,"name":":0","steam_id":76561199049071249,"connected_time":1790000000000,"state":"active","ping":78},{"user_id":40,"name":"Paleblood","steam_id":76561198083943268,"connected_time":1586000000000,"state":"active","ping":72},{"user_id":31,"name":"Frank","steam_id":76561198126681511,"connected_time":1741000000000,"state":"active","ping":102},{"user_id":41,"name":"jeremiah","steam_id":76561198314490927,"connected_time":1583000000000,"state":"active","ping":67},{"user_id":53,"name":"Obamacare","steam_id":76561198018894553,"connected_time":1138000000000,"state":"active","ping":72},{"user_id":47,"name":"NovaMonkey","steam_id":76561198157828317,"connected_time":1505000000000,"state":"active","ping":86},{"user_id":59,"name":"roughly 7 italians","steam_id":76561199443213821,"connected_time":798000000000,"state":"active","ping":119}]},{"server_id":108,"name":"Uncletopia | Dallas | 2 | All Maps","name_short":"dal-2","host":"dal-1.us.uncletopia.com","port":27025,"enabled":true,"region":"us-central","cc":"us","latitude":32.779167,"longitude":-96.80889,"reserved":0,"last_update":"0001-01-01T00:00:00Z","name_a2s":"Uncletopia | Dallas | 2 | All Maps","protocol":17,"map":"pl_barnblitz","folder":"tf","game":"Team Fortress","app_id":440,"player_count":24,"max_players":24,"Bots":0,"server_type":"Dedicated","server_os":"Linux","password":true,"vac":true,"version":"7742253","steam_id":85568392924469988,"keywords":["nocrits","nodmgspread","payload","uncletopia"],"game_id":440,"stv_port":27026,"stv_name":"Uncletopia | Dallas | 2 | All Maps | STV","players":[{"user_id":96,"name":"spot (paradise edition)","steam_id":76561198151135298,"connected_time":2274000000000,"state":"active","ping":70},{"user_id":111,"name":"mikey | I'm Burning Bright!","steam_id":76561198985847893,"connected_time":1626000000000,"state":"active","ping":46},{"user_id":92,"name":"Pyvon","steam_id":76561198167302164,"connected_time":2690000000000,"state":"active","ping":30},{"user_id":134,"name":"[LINUX] F2P=S*(M/B)+H || Spy!","steam_id":76561198093538786,"connected_time":90000000000,"state":"active","ping":45},{"user_id":124,"name":"Yiff Police","steam_id":76561198103938356,"connected_time":902000000000,"state":"active","ping":60},{"user_id":82,"name":"Maranata","steam_id":76561198830158092,"connected_time":3587000000000,"state":"active","ping":74},{"user_id":129,"name":"Tazaoka","steam_id":76561199014448779,"connected_time":436000000000,"state":"active","ping":55},{"user_id":99,"name":"ly","steam_id":76561198062922146,"connected_time":2255000000000,"state":"active","ping":55},{"user_id":12,"name":"Lolxdloldx","steam_id":76561198136887125,"connected_time":7886000000000,"state":"active","ping":82},{"user_id":125,"name":"papas","steam_id":76561198823848914,"connected_time":881000000000,"state":"active","ping":72},{"user_id":75,"name":"eBay","steam_id":76561198061214569,"connected_time":4094000000000,"state":"active","ping":83},{"user_id":130,"name":"THIRDPIERCE","steam_id":76561198405366314,"connected_time":433000000000,"state":"active","ping":61},{"user_id":16,"name":"Hobocop","steam_id":76561198076321907,"connected_time":7404000000000,"state":"active","ping":107},{"user_id":105,"name":"King Baldski","steam_id":76561198359568400,"connected_time":2082000000000,"state":"active","ping":133},{"user_id":127,"name":"spoonycookie2","steam_id":76561198799454812,"connected_time":833000000000,"state":"active","ping":78},{"user_id":122,"name":"TheBrocklobster","steam_id":76561198039682984,"connected_time":1088000000000,"state":"active","ping":83},{"user_id":131,"name":"twizted","steam_id":76561197960407274,"connected_time":426000000000,"state":"active","ping":114},{"user_id":120,"name":"dicksnip","steam_id":76561198356515396,"connected_time":1231000000000,"state":"active","ping":65},{"user_id":94,"name":"Vsause","steam_id":76561198799268441,"connected_time":2301000000000,"state":"active","ping":81},{"user_id":85,"name":"theholylightone","steam_id":76561198423539449,"connected_time":3495000000000,"state":"active","ping":81},{"user_id":114,"name":"TheFlyingTortis","steam_id":76561198071576016,"connected_time":1436000000000,"state":"active","ping":74},{"user_id":132,"name":".KITTEN ON A RAMPAGE.","steam_id":76561198079230721,"connected_time":409000000000,"state":"active","ping":95},{"user_id":133,"name":"TheRealFezz","steam_id":76561198023644271,"connected_time":394000000000,"state":"active","ping":80},{"user_id":115,"name":"Magitrex","steam_id":76561199088811754,"connected_time":1431000000000,"state":"active","ping":47}]},{"server_id":5,"name":"Uncletopia | Frankfurt | 1 | All Maps","name_short":"frk-1","host":"frk-1.de.uncletopia.com","port":27015,"enabled":true,"region":"eu","cc":"de","latitude":50.110924,"longitude":8.682127,"reserved":0,"last_update":"0001-01-01T00:00:00Z","name_a2s":"Uncletopia | Frankfurt | 1 | All Maps","protocol":17,"map":"pl_upward","folder":"tf","game":"Team Fortress","app_id":440,"player_count":24,"max_players":24,"Bots":0,"server_type":"Dedicated","server_os":"Linux","password":true,"vac":true,"version":"7742253","steam_id":85568392924469989,"keywords":["nocrits","nodmgspread","payload","uncletopia"],"game_id":440,"stv_port":27016,"stv_name":"Uncletopia | Frankfurt | 1 | All Maps | STV","players":[{"user_id":659,"name":"BenJantr_","steam_id":76561198882922635,"connected_time":2129000000000,"state":"active","ping":78},{"user_id":683,"name":"Dachowiec","steam_id":76561198195408281,"connected_time":386000000000,"state":"active","ping":53},{"user_id":676,"name":"üÉî Nugg1t(sme/lly)","steam_id":76561198065652251,"connected_time":618000000000,"state":"active","ping":43},{"user_id":660,"name":"zazuza","steam_id":76561198049820905,"connected_time":1842000000000,"state":"active","ping":62},{"user_id":643,"name":"tealoverr.190","steam_id":76561199028497703,"connected_time":2783000000000,"state":"active","ping":90},{"user_id":674,"name":"MAJAX","steam_id":76561198254828632,"connected_time":761000000000,"state":"active","ping":67},{"user_id":686,"name":"Hell Striker","steam_id":76561199023875942,"connected_time":87000000000,"state":"active","ping":105},{"user_id":665,"name":"Miton","steam_id":76561197970323209,"connected_time":1754000000000,"state":"active","ping":87},{"user_id":677,"name":"Dr. Drive07","steam_id":76561199285435663,"connected_time":569000000000,"state":"active","ping":153},{"user_id":644,"name":"Yagumbus","steam_id":76561198039691679,"connected_time":2707000000000,"state":"active","ping":79},{"user_id":645,"name":"James Elroy - 1967","steam_id":76561198799616345,"connected_time":2705000000000,"state":"active","ping":85},{"user_id":583,"name":"TheShadowScribe","steam_id":76561199037525945,"connected_time":6963000000000,"state":"active","ping":85},{"user_id":678,"name":"njofra","steam_id":76561199143737200,"connected_time":553000000000,"state":"active","ping":81},{"user_id":667,"name":"AleXandriX","steam_id":76561198035203950,"connected_time":1678000000000,"state":"active","ping":61},{"user_id":673,"name":"Taskyy","steam_id":76561198134901175,"connected_time":943000000000,"state":"active","ping":76},{"user_id":670,"name":"Zero (Orbital Gear Mastermind)","steam_id":76561198017416816,"connected_time":1194000000000,"state":"active","ping":59},{"user_id":679,"name":"Wildfap","steam_id":76561198075816743,"connected_time":544000000000,"state":"active","ping":71},{"user_id":685,"name":"Thors","steam_id":76561197968739075,"connected_time":197000000000,"state":"active","ping":45},{"user_id":598,"name":"Mariachi Dave","steam_id":76561198074274900,"connected_time":5971000000000,"state":"active","ping":63},{"user_id":681,"name":"Goliath","steam_id":76561198088583638,"connected_time":507000000000,"state":"active","ping":47},{"user_id":687,"name":"Mundy","steam_id":76561198208580177,"connected_time":80000000000,"state":"active","ping":92},{"user_id":682,"name":"hamude.alsarhan2011","steam_id":76561199259727736,"connected_time":490000000000,"state":"active","ping":51},{"user_id":684,"name":"Marc","steam_id":76561198869851742,"connected_time":360000000000,"state":"active","ping":69},{"user_id":671,"name":"Madetter_","steam_id":76561198067838929,"connected_time":1153000000000,"state":"active","ping":86}]},{"server_id":110,"name":"Uncletopia | Frankfurt | 2 | All Maps","name_short":"frk-2","host":"frk-1.de.uncletopia.com","port":27025,"enabled":true,"region":"eu","cc":"de","latitude":50.110924,"longitude":8.682127,"reserved":0,"last_update":"0001-01-01T00:00:00Z","name_a2s":"Uncletopia | Frankfurt | 2 | All Maps","protocol":17,"map":"pl_badwater","folder":"tf","game":"Team Fortress","app_id":440,"player_count":24,"max_players":24,"Bots":0,"server_type":"Dedicated","server_os":"Linux","password":true,"vac":true,"version":"7742253","steam_id":85568392924469990,"keywords":["nocrits","nodmgspread","payload","uncletopia"],"game_id":440,"stv_port":27026,"stv_name":"Uncletopia | Frankfurt | 2 | All Maps | STV","players":[{"user_id":448,"name":"Doriian","steam_id":76561198071438810,"connected_time":1788000000000,"state":"active","ping":90},{"user_id":463,"name":"freemantel30","steam_id":76561198065669800,"connected_time":942000000000,"state":"active","ping":49},{"user_id":472,"name":"Sneakykindaham","steam_id":76561198158743287,"connected_time":274000000000,"state":"active","ping":58},{"user_id":447,"name":"tekszi","steam_id":76561198107220903,"connected_time":1884000000000,"state":"active","ping":46},{"user_id":451,"name":"Sir Oldryn Shootsalot","steam_id":76561198060264635,"connected_time":1484000000000,"state":"active","ping":45},{"user_id":466,"name":"gerizekalƒ±","steam_id":76561198432937497,"connected_time":581000000000,"state":"active","ping":85},{"user_id":437,"name":"ryft","steam_id":76561198429138254,"connected_time":2287000000000,"state":"active","ping":67},{"user_id":449,"name":"Silky smooth","steam_id":76561198345773558,"connected_time":1606000000000,"state":"active","ping":116},{"user_id":468,"name":"777","steam_id":76561198071933028,"connected_time":455000000000,"state":"active","ping":74},{"user_id":469,"name":"olga","steam_id":76561198062107879,"connected_time":444000000000,"state":"active","ping":76},{"user_id":470,"name":"disturbing polish father","steam_id":76561198126398022,"connected_time":419000000000,"state":"active","ping":75},{"user_id":423,"name":"Noob_with_source","steam_id":76561198870362103,"connected_time":3122000000000,"state":"active","ping":61},{"user_id":438,"name":"greeneyo","steam_id":76561198316173029,"connected_time":2248000000000,"state":"active","ping":76},{"user_id":405,"name":"cappy","steam_id":76561198231859236,"connected_time":4228000000000,"state":"active","ping":89},{"user_id":433,"name":"sex bob","steam_id":76561199235435358,"connected_time":2366000000000,"state":"active","ping":79},{"user_id":456,"name":"Joe","steam_id":76561198061717026,"connected_time":1390000000000,"state":"active","ping":60},{"user_id":440,"name":"MR.MOON","steam_id":76561198846124429,"connected_time":2171000000000,"state":"active","ping":110},{"user_id":424,"name":"Lyra","steam_id":76561198043601838,"connected_time":3115000000000,"state":"active","ping":60},{"user_id":474,"name":"Salih","steam_id":76561198287934839,"connected_time":29000000000,"state":"active","ping":47},{"user_id":453,"name":"Ranidaphobia","steam_id":76561198865564747,"connected_time":1456000000000,"state":"active","ping":113},{"user_id":461,"name":"ck","steam_id":76561197984084920,"connected_time":1092000000000,"state":"active","ping":66},{"user_id":464,"name":"G6 sherlock","steam_id":76561198802967796,"connected_time":688000000000,"state":"active","ping":125},{"user_id":471,"name":"Yes, 100 Percent","steam_id":76561198104896547,"connected_time":389000000000,"state":"active","ping":72},{"user_id":458,"name":"flora","steam_id":76561197994492154,"connected_time":1339000000000,"state":"active","ping":65}]},{"server_id":308,"name":"Uncletopia | Frankfurt | 3 | All Maps","name_short":"frk-3","host":"frk-1.de.uncletopia.com","port":27035,"enabled":true,"region":"eu","cc":"de","latitude":50.110924,"longitude":8.682127,"reserved":0,"last_update":"0001-01-01T00:00:00Z","name_a2s":"Uncletopia | Frankfurt | 3 | All Maps","protocol":17,"map":"pl_frontier_final","folder":"tf","game":"Team Fortress","app_id":440,"player_count":23,"max_players":24,"Bots":0,"server_type":"Dedicated","server_os":"Linux","password":true,"vac":true,"version":"7742253","steam_id":85568392924504274,"keywords":["nocrits","nodmgspread","payload","uncletopia"],"game_id":440,"stv_port":27036,"stv_name":"Uncletopia | Frankfurt | 3 | All Maps | STV","players":[{"user_id":104,"name":"The Funny Cat-Heaby","steam_id":76561198439978112,"connected_time":1786000000000,"state":"active","ping":97},{"user_id":105,"name":"poliakov.noam","steam_id":76561199259322961,"connected_time":1723000000000,"state":"active","ping":98},{"user_id":124,"name":"System","steam_id":76561199442503973,"connected_time":307000000000,"state":"active","ping":46},{"user_id":113,"name":"-rikeOo-","steam_id":76561198303995379,"connected_time":808000000000,"state":"active","ping":66},{"user_id":87,"name":"LasagnaLarry22","steam_id":76561198089478290,"connected_time":2881000000000,"state":"active","ping":52},{"user_id":114,"name":"nachtraaf","steam_id":76561197960473205,"connected_time":777000000000,"state":"active","ping":59},{"user_id":112,"name":"Gravity‚Ñ¢","steam_id":76561197992193212,"connected_time":820000000000,"state":"active","ping":53},{"user_id":99,"name":"Morbeus","steam_id":76561198057717808,"connected_time":2130000000000,"state":"active","ping":95},{"user_id":116,"name":"SgtRookie","steam_id":76561198030230427,"connected_time":759000000000,"state":"active","ping":85},{"user_id":86,"name":"Pabs :D","steam_id":76561198000016962,"connected_time":2890000000000,"state":"active","ping":61},{"user_id":123,"name":"NotFionn","steam_id":76561198890525176,"connected_time":412000000000,"state":"active","ping":87},{"user_id":94,"name":"Frazzles","steam_id":76561199228009586,"connected_time":2489000000000,"state":"active","ping":60},{"user_id":118,"name":"Diggity","steam_id":76561198297157085,"connected_time":716000000000,"state":"active","ping":64},{"user_id":70,"name":"X-tis","steam_id":76561198043837480,"connected_time":3408000000000,"state":"active","ping":76},{"user_id":71,"name":"Fat Pigeon","steam_id":76561198817940142,"connected_time":3387000000000,"state":"active","ping":53},{"user_id":101,"name":"Sweat Plantation","steam_id":76561198025086883,"connected_time":1837000000000,"state":"active","ping":78},{"user_id":110,"name":"Espa√±aa","steam_id":76561198879587832,"connected_time":1622000000000,"state":"active","ping":87},{"user_id":119,"name":"ŸÖ€åÿÆŸàÿßŸÖ","steam_id":76561198327135462,"connected_time":696000000000,"state":"active","ping":154},{"user_id":115,"name":"PabloGamerPro5000","steam_id":76561198358173553,"connected_time":765000000000,"state":"active","ping":76},{"user_id":100,"name":"Lord of the Lockerroom","steam_id":76561198080619697,"connected_time":2091000000000,"state":"active","ping":96},{"user_id":80,"name":"Rarky","steam_id":76561198054398642,"connected_time":3194000000000,"state":"active","ping":52},{"user_id":81,"name":"Swibby","steam_id":76561198041296417,"connected_time":3185000000000,"state":"active","ping":65},{"user_id":126,"name":"Montana","steam_id":76561198449437002,"connected_time":208000000000,"state":"active","ping":88}]},{"server_id":309,"name":"Uncletopia | Frankfurt | 4 | All Maps","name_short":"frk-4","host":"frk-1.de.uncletopia.com","port":27045,"enabled":true,"region":"eu","cc":"de","latitude":50.110924,"longitude":8.682127,"reserved":0,"last_update":"0001-01-01T00:00:00Z","name_a2s":"Uncletopia | Frankfurt | 4 | All Maps","protocol":17,"map":"pl_badwater","folder":"tf","game":"Team Fortress","app_id":440,"player_count":24,"max_players":24,"Bots":0,"server_type":"Dedicated","server_os":"Linux","password":true,"vac":true,"version":"7742253","steam_id":85568392924504275,"keywords":["nocrits","nodmgspread","payload","uncletopia"],"game_id":440,"stv_port":27046,"stv_name":"Uncletopia | Frankfurt | 4 | All Maps | STV","players":[{"user_id":48,"name":"...","steam_id":76561198969234594,"connected_time":1133000000000,"state":"active","ping":67},{"user_id":31,"name":"Elon","steam_id":76561198140751130,"connected_time":2935000000000,"state":"active","ping":69},{"user_id":80,"name":"Olek5229","steam_id":76561198325276848,"connected_time":13000000000,"state":"active","ping":82},{"user_id":78,"name":"dunduu","steam_id":76561198875240717,"connected_time":87000000000,"state":"active","ping":69},{"user_id":79,"name":"(wm) Das Fleisch","steam_id":76561198001250715,"connected_time":45000000000,"state":"active","ping":52},{"user_id":72,"name":"wxyz kapƒ±cƒ± izzet","steam_id":76561198241873438,"connected_time":508000000000,"state":"active","ping":106},{"user_id":50,"name":"marsel","steam_id":76561198116168271,"connected_time":1091000000000,"state":"active","ping":73},{"user_id":51,"name":"live","steam_id":76561198039254055,"connected_time":1066000000000,"state":"active","ping":141},{"user_id":73,"name":"·óúÀ∞·óú","steam_id":76561198148074472,"connected_time":392000000000,"state":"active","ping":45},{"user_id":69,"name":"Exe_Red","steam_id":76561198154952759,"connected_time":609000000000,"state":"active","ping":76},{"user_id":53,"name":"honey live","steam_id":76561198345972230,"connected_time":1062000000000,"state":"active","ping":79},{"user_id":54,"name":"quack","steam_id":76561198121003465,"connected_time":1035000000000,"state":"active","ping":63},{"user_id":55,"name":"Chef Magpie","steam_id":76561198043926401,"connected_time":1028000000000,"state":"active","ping":102},{"user_id":56,"name":"Û†Ä°Û†Ä°","steam_id":76561198015585266,"connected_time":1010000000000,"state":"active","ping":69},{"user_id":58,"name":"Knoxxen","steam_id":76561198071114510,"connected_time":988000000000,"state":"active","ping":61},{"user_id":74,"name":"Penis Contortionist","steam_id":76561198073663784,"connected_time":334000000000,"state":"active","ping":49},{"user_id":60,"name":"ra","steam_id":76561198147277460,"connected_time":912000000000,"state":"active","ping":60},{"user_id":61,"name":"ChaseYourDream56065","steam_id":76561199008351754,"connected_time":891000000000,"state":"active","ping":159},{"user_id":62,"name":"Luminark","steam_id":76561198176747370,"connected_time":867000000000,"state":"active","ping":50},{"user_id":75,"name":"–ò–Ω—Å–ø–µ–∫—Ç–æ—Ä –ê—Ç–∞—Å","steam_id":76561199175688390,"connected_time":322000000000,"state":"active","ping":75},{"user_id":70,"name":"Peaced.old","steam_id":76561197993682469,"connected_time":588000000000,"state":"active","ping":57},{"user_id":71,"name":"RNTenant","steam_id":76561198081863650,"connected_time":582000000000,"state":"active","ping":85},{"user_id":66,"name":"filo","steam_id":76561198103633797,"connected_time":842000000000,"state":"active","ping":83},{"user_id":67,"name":"Lizardly","steam_id":76561198176750238,"connected_time":842000000000,"state":"active","ping":73}]},{"server_id":310,"name":"Uncletopia | Frankfurt | 5 | All Maps","name_short":"frk-5","host":"frk-1.de.uncletopia.com","port":27055,"enabled":true,"region":"eu","cc":"de","latitude":50.110924,"longitude":8.682127,"reserved":0,"last_update":"0001-01-01T00:00:00Z","name_a2s":"Uncletopia | Frankfurt | 5 | All Maps","protocol":17,"map":"pl_badwater","folder":"tf","game":"Team Fortress","app_id":440,"player_count":24,"max_players":24,"Bots":0,"server_type":"Dedicated","server_os":"Linux","password":true,"vac":true,"version":"7742253","steam_id":85568392924504277,"keywords":["nocrits","nodmgspread","payload","uncletopia"],"game_id":440,"stv_port":27056,"stv_name":"Uncletopia | Frankfurt | 5 | All Maps | STV","players":[{"user_id":310,"name":"Jiant","steam_id":76561198374998274,"connected_time":857000000000,"state":"active","ping":88},{"user_id":288,"name":"GodOfGobboz","steam_id":76561198154677956,"connected_time":2094000000000,"state":"active","ping":66},{"user_id":270,"name":"KeepIT.OK?","steam_id":76561198957890584,"connected_time":2971000000000,"state":"active","ping":143},{"user_id":194,"name":"Zateske","steam_id":76561198047446276,"connected_time":7293000000000,"state":"active","ping":62},{"user_id":259,"name":"Cerberus","steam_id":76561198140442059,"connected_time":3424000000000,"state":"active","ping":51},{"user_id":279,"name":"FurryLover","steam_id":76561198159328061,"connected_time":2607000000000,"state":"active","ping":88},{"user_id":308,"name":"gaming","steam_id":76561199015038728,"connected_time":939000000000,"state":"active","ping":72},{"user_id":287,"name":"Noah May","steam_id":76561198411732527,"connected_time":2101000000000,"state":"active","ping":61},{"user_id":298,"name":"Azra","steam_id":76561198331351205,"connected_time":1649000000000,"state":"active","ping":85},{"user_id":302,"name":"dafydd","steam_id":76561198052200325,"connected_time":1125000000000,"state":"active","ping":76},{"user_id":306,"name":"Combat Wombat","steam_id":76561197994720068,"connected_time":996000000000,"state":"active","ping":63},{"user_id":318,"name":"Sandvich Gaming","steam_id":76561199079493666,"connected_time":149000000000,"state":"active","ping":90},{"user_id":309,"name":"Floris","steam_id":76561198001717422,"connected_time":910000000000,"state":"active","ping":57},{"user_id":313,"name":"Wolframen","steam_id":76561198074103958,"connected_time":746000000000,"state":"active","ping":69},{"user_id":304,"name":"Martial Autist","steam_id":76561198392067162,"connected_time":1098000000000,"state":"active","ping":72},{"user_id":293,"name":"Milosz52","steam_id":76561199060940204,"connected_time":1901000000000,"state":"active","ping":70},{"user_id":221,"name":"Valoxi","steam_id":76561197995042938,"connected_time":5574000000000,"state":"active","ping":65},{"user_id":307,"name":"Daddy Donovan","steam_id":76561198140938904,"connected_time":990000000000,"state":"active","ping":68},{"user_id":314,"name":"fried","steam_id":76561198307522022,"connected_time":742000000000,"state":"active","ping":59},{"user_id":316,"name":"tictak211","steam_id":76561198128091924,"connected_time":706000000000,"state":"active","ping":78},{"user_id":321,"name":"Sen","steam_id":76561198015184823,"connected_time":90000000000,"state":"active","ping":66},{"user_id":320,"name":"Denialman (Muted)","steam_id":76561198309182092,"connected_time":123000000000,"state":"active","ping":61},{"user_id":292,"name":"√ì√∞inn","steam_id":76561198132690562,"connected_time":1982000000000,"state":"active","ping":53},{"user_id":297,"name":"Gatsby","steam_id":76561198259576959,"connected_time":1767000000000,"state":"active","ping":74}]},{"server_id":311,"name":"Uncletopia | Frankfurt | 6 | All Maps","name_short":"frk-6","host":"frk-1.de.uncletopia.com","port":27065,"enabled":true,"region":"eu","cc":"de","latitude":50.110924,"longitude":8.682127,"reserved":0,"last_update":"0001-01-01T00:00:00Z","name_a2s":"Uncletopia | Frankfurt | 6 | All Maps","protocol":17,"map":"pl_rumford_event","folder":"tf","game":"Team Fortress","app_id":440,"player_count":19,"max_players":24,"Bots":0,"server_type":"Dedicated","server_os":"Linux","password":true,"vac":true,"version":"7742253","steam_id":85568392924504278,"keywords":["nocrits","nodmgspread","payload","uncletopia"],"game_id":440,"stv_port":27066,"stv_name":"Uncletopia | Frankfurt | 6 | All Maps | STV","players":[{"user_id":355,"name":"jormavainen","steam_id":76561198126115435,"connected_time":297000000000,"state":"active","ping":102},{"user_id":357,"name":"Donnie_Frisco","steam_id":76561198046018714,"connected_time":220000000000,"state":"active","ping":58},{"user_id":341,"name":"ScarredPixel123","steam_id":76561199165112703,"connected_time":1867000000000,"state":"active","ping":79},{"user_id":356,"name":"Meff","steam_id":76561197970610839,"connected_time":259000000000,"state":"active","ping":45},{"user_id":361,"name":"pizzahawaiiEnjoyerwithbigdick","steam_id":76561198079752629,"connected_time":94000000000,"state":"active","ping":55},{"user_id":348,"name":"XavierSweet","steam_id":76561198091781913,"connected_time":1199000000000,"state":"active","ping":67},{"user_id":350,"name":"agent youppii","steam_id":76561198055264447,"connected_time":857000000000,"state":"active","ping":72},{"user_id":346,"name":"NaN","steam_id":76561198071098413,"connected_time":1478000000000,"state":"active","ping":45},{"user_id":362,"name":"DaVitsChi","steam_id":76561199035895096,"connected_time":77000000000,"state":"active","ping":61},{"user_id":293,"name":"TH3 V1CT0R","steam_id":76561198007025172,"connected_time":5153000000000,"state":"active","ping":60},{"user_id":354,"name":"Vershal Smershal","steam_id":76561198116223995,"connected_time":339000000000,"state":"active","ping":60},{"user_id":288,"name":"Bajas","steam_id":76561198179339326,"connected_time":5638000000000,"state":"active","ping":76},{"user_id":363,"name":"TJ1212","steam_id":76561199013575313,"connected_time":51000000000,"state":"active","ping":68},{"user_id":333,"name":"Warrior_Tongs","steam_id":76561197971278858,"connected_time":2569000000000,"state":"active","ping":64},{"user_id":364,"name":"winocm","steam_id":76561198066977580,"connected_time":40000000000,"state":"active","ping":114},{"user_id":365,"name":"Viperense","steam_id":76561198036206811,"connected_time":33000000000,"state":"active","ping":91},{"user_id":366,"name":"Brob Isn't Real","steam_id":76561199105529860,"connected_time":24000000000,"state":"spawning","ping":117},{"user_id":339,"name":"Pain in a Box","steam_id":76561197990777173,"connected_time":1935000000000,"state":"active","ping":65},{"user_id":344,"name":"lolimsogreat21","steam_id":76561199052033788,"connected_time":1592000000000,"state":"active","ping":71}]},{"server_id":23,"name":"Uncletopia | Frankfurt | 7 | Stopwatch Beta","name_short":"frk-7","host":"frk-1.de.uncletopia.com","port":27075,"enabled":true,"region":"eu","cc":"de","latitude":50.110924,"longitude":8.682127,"reserved":0,"last_update":"0001-01-01T00:00:00Z","name_a2s":"Uncletopia | Frankfurt | 7 | Stopwatch Beta","protocol":17,"map":"pl_badwater","folder":"tf","game":"Team Fortress","app_id":440,"player_count":0,"max_players":24,"Bots":0,"server_type":"Dedicated","server_os":"Linux","password":true,"vac":true,"version":"7742253","steam_id":85568392924742827,"keywords":["nocrits","nodmgspread","payload","uncletopia"],"game_id":440,"stv_port":27076,"stv_name":"Uncletopia | Frankfurt | 7 | Stopwatch Beta | STV","players":null},{"server_id":24,"name":"Uncletopia | Frankfurt | 8 | Community","name_short":"frk-8","host":"frk-1.de.uncletopia.com","port":27085,"enabled":true,"region":"eu","cc":"de","latitude":50.110924,"longitude":8.682127,"reserved":0,"last_update":"0001-01-01T00:00:00Z","name_a2s":"Uncletopia | Frankfurt | 8 | Community","protocol":17,"map":"koth_cascade","folder":"tf","game":"Team Fortress","app_id":440,"player_count":4,"max_players":24,"Bots":0,"server_type":"Dedicated","server_os":"Linux","password":true,"vac":true,"version":"7742253","steam_id":85568392924742828,"keywords":["cp","nocrits","nodmgspread","uncletopia"],"game_id":440,"stv_port":27086,"stv_name":"Uncletopia | Frankfurt | 8 | Community | STV","players":[{"user_id":38,"name":"Name_not_available","steam_id":76561198332519382,"connected_time":1059000000000,"state":"active","ping":51},{"user_id":39,"name":"Divide by Zero","steam_id":76561198815450806,"connected_time":1057000000000,"state":"active","ping":47},{"user_id":40,"name":"Mormarnus","steam_id":76561198328455859,"connected_time":1057000000000,"state":"active","ping":49},{"user_id":41,"name":"mark","steam_id":76561198309246388,"connected_time":818000000000,"state":"active","ping":45}]},{"server_id":202,"name":"Uncletopia | Hong Kong | 1 | All Maps","name_short":"hgk-1","host":"hgk-1.hk.uncletopia.com","port":27015,"enabled":true,"region":"asia","cc":"hk","latitude":22.302711,"longitude":114.177216,"reserved":0,"last_update":"0001-01-01T00:00:00Z","name_a2s":"Uncletopia | Hong Kong | 1 | All Maps","protocol":17,"map":"pl_frontier_final","folder":"tf","game":"Team Fortress","app_id":440,"player_count":0,"max_players":24,"Bots":0,"server_type":"Dedicated","server_os":"Linux","password":true,"vac":true,"version":"7742253","steam_id":85568392924494504,"keywords":["nocrits","nodmgspread","payload","uncletopia"],"game_id":440,"stv_port":27016,"stv_name":"Uncletopia | Hong Kong | 1 | All Maps | STV","players":null},{"server_id":1,"name":"Uncletopia | Los Angeles | 1 | All Maps","name_short":"lax-1","host":"lax-1.us.uncletopia.com","port":27015,"enabled":true,"region":"us-west","cc":"us","latitude":33.94279,"longitude":-118.41004,"reserved":0,"last_update":"0001-01-01T00:00:00Z","name_a2s":"Uncletopia | Los Angeles | 1 | All Maps","protocol":17,"map":"pl_upward","folder":"tf","game":"Team Fortress","app_id":440,"player_count":3,"max_players":24,"Bots":0,"server_type":"Dedicated","server_os":"Linux","password":true,"vac":true,"version":"7742253","steam_id":85568392924469991,"keywords":["nocrits","nodmgspread","payload","uncletopia"],"game_id":440,"stv_port":27016,"stv_name":"Uncletopia | Los Angeles | 1 | All Maps | STV","players":[{"user_id":10,"name":"CatLord","steam_id":76561198873807317,"connected_time":462000000000,"state":"active","ping":101},{"user_id":11,"name":"Scent Tree","steam_id":76561198444371121,"connected_time":443000000000,"state":"active","ping":114},{"user_id":8,"name":"Risky","steam_id":76561198231029328,"connected_time":901000000000,"state":"active","ping":45}]},{"server_id":112,"name":"Uncletopia | Los Angeles | 2 | All Maps","name_short":"lax-2","host":"lax-1.us.uncletopia.com","port":27025,"enabled":true,"region":"us-west","cc":"us","latitude":33.94279,"longitude":-118.41004,"reserved":0,"last_update":"0001-01-01T00:00:00Z","name_a2s":"Uncletopia | Los Angeles | 2 | All Maps","protocol":17,"map":"koth_highpass","folder":"tf","game":"Team Fortress","app_id":440,"player_count":0,"max_players":24,"Bots":0,"server_type":"Dedicated","server_os":"Linux","password":true,"vac":true,"version":"7742253","steam_id":85568392924469992,"keywords":["cp","nocrits","nodmgspread","uncletopia"],"game_id":440,"stv_port":27026,"stv_name":"Uncletopia | Los Angeles | 2 | All Maps | STV","players":null},{"server_id":324,"name":"Uncletopia | Los Angeles | 3 | All Maps","name_short":"lax-3","host":"lax-1.us.uncletopia.com","port":27035,"enabled":true,"region":"us-west","cc":"us","latitude":33.94279,"longitude":-118.41004,"reserved":0,"last_update":"0001-01-01T00:00:00Z","name_a2s":"Uncletopia | Los Angeles | 3 | All Maps","protocol":17,"map":"koth_viaduct","folder":"tf","game":"Team Fortress","app_id":440,"player_count":0,"max_players":24,"Bots":0,"server_type":"Dedicated","server_os":"Linux","password":true,"vac":true,"version":"7742253","steam_id":85568392924510198,"keywords":["cp","nocrits","nodmgspread","uncletopia"],"game_id":440,"stv_port":27036,"stv_name":"Uncletopia | Los Angeles | 3 | All Maps | STV","players":null},{"server_id":25,"name":"Uncletopia | Los Angeles | 4 | Stopwatch Beta","name_short":"lax-4","host":"lax-1.us.uncletopia.com","port":27045,"enabled":true,"region":"us-west","cc":"us","latitude":33.94279,"longitude":-118.41004,"reserved":0,"last_update":"0001-01-01T00:00:00Z","name_a2s":"Uncletopia | Los Angeles | 4 | Stopwatch Beta","protocol":17,"map":"cp_snakewater_final1","folder":"tf","game":"Team Fortress","app_id":440,"player_count":0,"max_players":24,"Bots":0,"server_type":"Dedicated","server_os":"Linux","password":true,"vac":true,"version":"7742253","steam_id":85568392924510199,"keywords":["cp","nocrits","nodmgspread","uncletopia"],"game_id":440,"stv_port":27046,"stv_name":"Uncletopia | Los Angeles | 4 | Stopwatch Beta | STV","players":null},{"server_id":11,"name":"Uncletopia | London | 1 | All Maps","name_short":"lon-1","host":"lon-1.uk.uncletopia.com","port":27015,"enabled":true,"region":"eu","cc":"gb","latitude":51.509865,"longitude":-0.118092,"reserved":0,"last_update":"0001-01-01T00:00:00Z","name_a2s":"Uncletopia | London | 1 | All Maps","protocol":17,"map":"pl_badwater","folder":"tf","game":"Team Fortress","app_id":440,"player_count":24,"max_players":24,"Bots":0,"server_type":"Dedicated","server_os":"Linux","password":true,"vac":true,"version":"7742253","steam_id":85568392924367362,"keywords":["nocrits","nodmgspread","payload","uncletopia"],"game_id":440,"stv_port":27016,"stv_name":"Uncletopia | London | 1 | All Maps | STV","players":[{"user_id":363,"name":"Windows Vista Cruiser","steam_id":76561198064102233,"connected_time":426000000000,"state":"active","ping":66},{"user_id":308,"name":"Bruschetta","steam_id":76561198251927162,"connected_time":3862000000000,"state":"active","ping":59},{"user_id":332,"name":"Avoonix","steam_id":76561198186954897,"connected_time":2405000000000,"state":"active","ping":66},{"user_id":340,"name":"Veliki Gospar","steam_id":76561198077733475,"connected_time":2220000000000,"state":"active","ping":74},{"user_id":329,"name":"Saiko","steam_id":76561198140258756,"connected_time":2757000000000,"state":"active","ping":94},{"user_id":345,"name":"Bits\u0026Peices","steam_id":76561199225453607,"connected_time":1867000000000,"state":"active","ping":96},{"user_id":365,"name":"Yony","steam_id":76561199070569941,"connected_time":398000000000,"state":"active","ping":76},{"user_id":362,"name":"cropper","steam_id":76561198047728149,"connected_time":829000000000,"state":"active","ping":45},{"user_id":364,"name":"sunsetteOS","steam_id":76561198030654079,"connected_time":409000000000,"state":"active","ping":115},{"user_id":350,"name":"Axord","steam_id":76561199289652176,"connected_time":1769000000000,"state":"active","ping":55},{"user_id":334,"name":"Alegz","steam_id":76561198287810139,"connected_time":2341000000000,"state":"active","ping":65},{"user_id":356,"name":"Nitrogliceryna","steam_id":76561199105104134,"connected_time":1576000000000,"state":"active","ping":164},{"user_id":347,"name":"Rat, the ungodly rat #SaveTF2","steam_id":76561199126577423,"connected_time":1836000000000,"state":"active","ping":72},{"user_id":366,"name":"LesaP√°n","steam_id":76561198158691758,"connected_time":392000000000,"state":"active","ping":105},{"user_id":367,"name":"The cost of living in the UK","steam_id":76561199000520747,"connected_time":372000000000,"state":"active","ping":49},{"user_id":368,"name":"Roasted Toast","steam_id":76561198045051290,"connected_time":369000000000,"state":"active","ping":62},{"user_id":351,"name":"Ice Tea","steam_id":76561199180744278,"connected_time":1759000000000,"state":"active","ping":68},{"user_id":301,"name":"Vectillion","steam_id":76561198074292454,"connected_time":4085000000000,"state":"active","ping":63},{"user_id":343,"name":"CarBombEnthusiast","steam_id":76561199448185434,"connected_time":1995000000000,"state":"active","ping":61},{"user_id":369,"name":"Kosher Twink","steam_id":76561198397024973,"connected_time":70000000000,"state":"active","ping":33},{"user_id":309,"name":"Asoivel","steam_id":76561198172052699,"connected_time":3846000000000,"state":"active","ping":59},{"user_id":358,"name":"R3inis","steam_id":76561199030393569,"connected_time":1302000000000,"state":"active","ping":85},{"user_id":353,"name":"Shady guy","steam_id":76561198365698508,"connected_time":1737000000000,"state":"active","ping":61},{"user_id":331,"name":"Dr.Razor","steam_id":76561198061747145,"connected_time":2459000000000,"state":"active","ping":120}]},{"server_id":114,"name":"Uncletopia | London | 2 | All Maps","name_short":"lon-2","host":"lon-1.uk.uncletopia.com","port":27025,"enabled":true,"region":"eu","cc":"gb","latitude":51.509865,"longitude":-0.118092,"reserved":0,"last_update":"0001-01-01T00:00:00Z","name_a2s":"Uncletopia | London | 2 | All Maps","protocol":17,"map":"cp_yukon_final","folder":"tf","game":"Team Fortress","app_id":440,"player_count":22,"max_players":24,"Bots":0,"server_type":"Dedicated","server_os":"Linux","password":true,"vac":true,"version":"7742253","steam_id":85568392924470941,"keywords":["cp","nocrits","nodmgspread","uncletopia"],"game_id":440,"stv_port":27026,"stv_name":"Uncletopia | London | 2 | All Maps | STV","players":[{"user_id":517,"name":"Incoming","steam_id":76561199062581310,"connected_time":49000000000,"state":"active","ping":136},{"user_id":518,"name":"Superiumentarius","steam_id":76561198081642249,"connected_time":36000000000,"state":"active","ping":60},{"user_id":453,"name":"Mr. Mundy","steam_id":76561198132008918,"connected_time":3633000000000,"state":"active","ping":86},{"user_id":519,"name":"Frank","steam_id":76561198086672774,"connected_time":6000000000,"state":"spawning","ping":46},{"user_id":516,"name":"Hetmanych","steam_id":76561198870926865,"connected_time":76000000000,"state":"active","ping":43},{"user_id":498,"name":"Jughead","steam_id":76561198000355410,"connected_time":1028000000000,"state":"active","ping":37},{"user_id":480,"name":"DoctorTopLeL","steam_id":76561198088533595,"connected_time":2091000000000,"state":"active","ping":108},{"user_id":455,"name":"Hexagon","steam_id":76561198151205758,"connected_time":3461000000000,"state":"active","ping":61},{"user_id":510,"name":"Garden Freeman","steam_id":76561199073314677,"connected_time":373000000000,"state":"active","ping":124},{"user_id":492,"name":"4's up Rigby","steam_id":76561199122067976,"connected_time":1351000000000,"state":"active","ping":48},{"user_id":499,"name":"Marekh","steam_id":76561198116468433,"connected_time":975000000000,"state":"active","ping":91},{"user_id":507,"name":"LemonLeCitron","steam_id":76561198215545267,"connected_time":609000000000,"state":"active","ping":112},{"user_id":473,"name":"Nick","steam_id":76561198036109469,"connected_time":2256000000000,"state":"active","ping":120},{"user_id":491,"name":"Koli","steam_id":76561197992428783,"connected_time":1373000000000,"state":"active","ping":59},{"user_id":515,"name":"Dongus","steam_id":76561198042774930,"connected_time":124000000000,"state":"active","ping":50},{"user_id":511,"name":"SuperTyroni","steam_id":76561198078442172,"connected_time":362000000000,"state":"active","ping":108},{"user_id":482,"name":"bigwish | bmod.tf","steam_id":76561197997859723,"connected_time":2068000000000,"state":"active","ping":81},{"user_id":496,"name":"That Demo Is A Spy","steam_id":76561199013368332,"connected_time":1112000000000,"state":"active","ping":54},{"user_id":514,"name":"üòà COCKDESTROYER üòà","steam_id":76561198042846999,"connected_time":218000000000,"state":"active","ping":76},{"user_id":483,"name":"danno civilnetworks.net","steam_id":76561198079126551,"connected_time":1973000000000,"state":"active","ping":50},{"user_id":513,"name":"Stats","steam_id":76561198257248737,"connected_time":315000000000,"state":"active","ping":51},{"user_id":502,"name":"Jano8887","steam_id":76561199020113205,"connected_time":879000000000,"state":"active","ping":71}]},{"server_id":320,"name":"Uncletopia | London | 3 | All Maps","name_short":"lon-3","host":"lon-1.uk.uncletopia.com","port":27035,"enabled":true,"region":"eu","cc":"gb","latitude":51.509865,"longitude":-0.118092,"reserved":0,"last_update":"0001-01-01T00:00:00Z","name_a2s":"Uncletopia | London | 3 | All Maps","protocol":17,"map":"koth_viaduct","folder":"tf","game":"Team Fortress","app_id":440,"player_count":23,"max_players":24,"Bots":0,"server_type":"Dedicated","server_os":"Linux","password":true,"vac":true,"version":"7742253","steam_id":85568392924510192,"keywords":["cp","nocrits","nodmgspread","uncletopia"],"game_id":440,"stv_port":27036,"stv_name":"Uncletopia | London | 3 | All Maps | STV","players":[{"user_id":296,"name":"FROYO gr4nny","steam_id":76561198241759034,"connected_time":1870000000000,"state":"active","ping":102},{"user_id":273,"name":"Spootnak","steam_id":76561198049052518,"connected_time":2947000000000,"state":"active","ping":47},{"user_id":274,"name":"nidhalmbarkihere","steam_id":76561199252399754,"connected_time":2889000000000,"state":"active","ping":98},{"user_id":261,"name":"ShoobyDooby","steam_id":76561198118473910,"connected_time":3747000000000,"state":"active","ping":45},{"user_id":312,"name":"ScottMachine","steam_id":76561198813531432,"connected_time":38000000000,"state":"active","ping":46},{"user_id":258,"name":"IX","steam_id":76561198039589783,"connected_time":4008000000000,"state":"active","ping":54},{"user_id":295,"name":"guacardo","steam_id":76561199063253626,"connected_time":2093000000000,"state":"active","ping":143},{"user_id":308,"name":"Chopper","steam_id":76561199013212815,"connected_time":260000000000,"state":"active","ping":84},{"user_id":302,"name":"Sappin'","steam_id":76561198107054587,"connected_time":628000000000,"state":"active","ping":49},{"user_id":313,"name":"wheelie bin","steam_id":76561198040040328,"connected_time":29000000000,"state":"active","ping":45},{"user_id":299,"name":"sv_MrGibbs","steam_id":76561198114071972,"connected_time":946000000000,"state":"active","ping":45},{"user_id":310,"name":"Lag","steam_id":76561198159360376,"connected_time":157000000000,"state":"active","ping":41},{"user_id":227,"name":"I love femboys","steam_id":76561198196357213,"connected_time":5390000000000,"state":"active","ping":82},{"user_id":304,"name":"HOLYS**TILOVEBROWN","steam_id":76561199164308915,"connected_time":622000000000,"state":"active","ping":60},{"user_id":311,"name":"nynon","steam_id":76561197998432126,"connected_time":62000000000,"state":"active","ping":80},{"user_id":289,"name":"Remyie","steam_id":76561198131031404,"connected_time":2254000000000,"state":"active","ping":89},{"user_id":294,"name":"NoodlesOnchair","steam_id":76561198986667242,"connected_time":2137000000000,"state":"active","ping":41},{"user_id":284,"name":"ArekanPL","steam_id":76561198306811916,"connected_time":2593000000000,"state":"active","ping":67},{"user_id":300,"name":"Deva Path","steam_id":76561198085763542,"connected_time":809000000000,"state":"active","ping":77},{"user_id":301,"name":"Man O' Steel","steam_id":76561198108612758,"connected_time":757000000000,"state":"active","ping":54},{"user_id":306,"name":"no_name.dll","steam_id":76561199011969062,"connected_time":295000000000,"state":"active","ping":57},{"user_id":305,"name":"Laggy Sniper","steam_id":76561198336862244,"connected_time":614000000000,"state":"active","ping":39},{"user_id":307,"name":"steakman10","steam_id":76561198152584691,"connected_time":295000000000,"state":"active","ping":66}]},{"server_id":321,"name":"Uncletopia | London | 4 | All Maps","name_short":"lon-4","host":"lon-1.uk.uncletopia.com","port":27045,"enabled":true,"region":"eu","cc":"gb","latitude":51.509865,"longitude":-0.118092,"reserved":0,"last_update":"0001-01-01T00:00:00Z","name_a2s":"Uncletopia | London | 4 | All Maps","protocol":17,"map":"pl_frontier_final","folder":"tf","game":"Team Fortress","app_id":440,"player_count":17,"max_players":24,"Bots":0,"server_type":"Dedicated","server_os":"Linux","password":true,"vac":true,"version":"7742253","steam_id":85568392924510193,"keywords":["nocrits","nodmgspread","payload","uncletopia"],"game_id":440,"stv_port":27046,"stv_name":"Uncletopia | London | 4 | All Maps | STV","players":[{"user_id":508,"name":"MR_JONHSON","steam_id":76561199198894168,"connected_time":175000000000,"state":"active","ping":71},{"user_id":504,"name":"etc","steam_id":76561197998394797,"connected_time":470000000000,"state":"active","ping":52},{"user_id":270,"name":"Suspicious Cabin","steam_id":76561198083261198,"connected_time":15849000000000,"state":"active","ping":48},{"user_id":505,"name":"Flynn","steam_id":76561198170029867,"connected_time":364000000000,"state":"active","ping":40},{"user_id":433,"name":"M@T!X „Éû„ÉÜ„Ç£","steam_id":76561198273121669,"connected_time":2840000000000,"state":"active","ping":91},{"user_id":422,"name":"luma","steam_id":76561198081649669,"connected_time":3563000000000,"state":"active","ping":76},{"user_id":510,"name":"bANji","steam_id":76561198108898161,"connected_time":151000000000,"state":"active","ping":44},{"user_id":426,"name":"Hey, I¬¥m Andy!","steam_id":76561198060337777,"connected_time":2974000000000,"state":"active","ping":75},{"user_id":511,"name":"Blue Eyes Ace Dragon.","steam_id":76561198048214237,"connected_time":60000000000,"state":"active","ping":102},{"user_id":512,"name":"rainbowmaster25!","steam_id":76561199215255414,"connected_time":22000000000,"state":"spawning","ping":179},{"user_id":470,"name":"pile of marie amiibos","steam_id":76561199131526517,"connected_time":2045000000000,"state":"active","ping":44},{"user_id":497,"name":"KFC Enjoyer","steam_id":76561198840259819,"connected_time":1457000000000,"state":"active","ping":58},{"user_id":499,"name":"Mr.Dies a lot","steam_id":76561199061602946,"connected_time":1296000000000,"state":"active","ping":88},{"user_id":503,"name":"YourDoom","steam_id":76561198080790857,"connected_time":703000000000,"state":"active","ping":45},{"user_id":448,"name":"SoupER","steam_id":76561198063056668,"connected_time":2524000000000,"state":"active","ping":40},{"user_id":462,"name":"Wizardfort","steam_id":76561198095320741,"connected_time":2265000000000,"state":"active","ping":126},{"user_id":471,"name":"Khoreo","steam_id":76561198208096339,"connected_time":2035000000000,"state":"active","ping":46}]},{"server_id":21,"name":"Uncletopia | London | 5 | All Maps","name_short":"lon-5","host":"lon-1.uk.uncletopia.com","port":27055,"enabled":true,"region":"eu","cc":"gb","latitude":51.509865,"longitude":-0.118092,"reserved":0,"last_update":"0001-01-01T00:00:00Z","name_a2s":"Uncletopia | London | 5 | All Maps","protocol":17,"map":"pl_borneo","folder":"tf","game":"Team Fortress","app_id":440,"player_count":24,"max_players":24,"Bots":0,"server_type":"Dedicated","server_os":"Linux","password":true,"vac":true,"version":"7742253","steam_id":85568392924742829,"keywords":["nocrits","nodmgspread","payload","uncletopia"],"game_id":440,"stv_port":27056,"stv_name":"Uncletopia | London | 5 | All Maps | STV","players":[{"user_id":12,"name":"A Cat","steam_id":76561198221549132,"connected_time":2471000000000,"state":"active","ping":34},{"user_id":13,"name":"frost^","steam_id":76561198167675482,"connected_time":2462000000000,"state":"active","ping":96},{"user_id":20,"name":"albinos","steam_id":76561198959964655,"connected_time":1534000000000,"state":"active","ping":80},{"user_id":16,"name":"Kahvi","steam_id":76561198723244199,"connected_time":1755000000000,"state":"active","ping":76},{"user_id":47,"name":"Marley","steam_id":76561198045380078,"connected_time":558000000000,"state":"active","ping":74},{"user_id":52,"name":"lark","steam_id":76561198091724522,"connected_time":386000000000,"state":"active","ping":59},{"user_id":54,"name":"zurzz","steam_id":76561198384423612,"connected_time":210000000000,"state":"active","ping":52},{"user_id":24,"name":"ralph62x","steam_id":76561198865294231,"connected_time":1163000000000,"state":"active","ping":50},{"user_id":27,"name":"TheBeardedM1G","steam_id":76561198040208946,"connected_time":998000000000,"state":"active","ping":46},{"user_id":50,"name":"adam samdler","steam_id":76561198161252578,"connected_time":498000000000,"state":"active","ping":131},{"user_id":29,"name":"Insain Bolt!","steam_id":76561198025687726,"connected_time":882000000000,"state":"active","ping":67},{"user_id":30,"name":"Nehtrix","steam_id":76561199166167449,"connected_time":857000000000,"state":"active","ping":126},{"user_id":31,"name":"Izzermann","steam_id":76561199100131945,"connected_time":841000000000,"state":"active","ping":47},{"user_id":34,"name":"Avitz","steam_id":76561197986150359,"connected_time":813000000000,"state":"active","ping":141},{"user_id":41,"name":"Druid5333","steam_id":76561198348066287,"connected_time":680000000000,"state":"active","ping":65},{"user_id":35,"name":"Saken","steam_id":76561198049075295,"connected_time":799000000000,"state":"active","ping":59},{"user_id":36,"name":"suna militisto","steam_id":76561198352926998,"connected_time":792000000000,"state":"active","ping":100},{"user_id":48,"name":"dobrapozitiva","steam_id":76561198023258411,"connected_time":551000000000,"state":"active","ping":101},{"user_id":49,"name":"Rick Astley's left foot","steam_id":76561198177287273,"connected_time":548000000000,"state":"active","ping":51},{"user_id":51,"name":"Son Goku","steam_id":76561199383437138,"connected_time":495000000000,"state":"active","ping":125},{"user_id":42,"name":"Mass","steam_id":76561198432195204,"connected_time":663000000000,"state":"active","ping":60},{"user_id":43,"name":"Coac","steam_id":76561198085265740,"connected_time":662000000000,"state":"active","ping":72},{"user_id":55,"name":"Sipsu","steam_id":76561198059424107,"connected_time":179000000000,"state":"active","ping":91},{"user_id":45,"name":".Aq","steam_id":76561198043376092,"connected_time":652000000000,"state":"active","ping":97}]},{"server_id":22,"name":"Uncletopia | London | 6 | All Maps","name_short":"lon-6","host":"lon-1.uk.uncletopia.com","port":27065,"enabled":true,"region":"eu","cc":"gb","latitude":51.509865,"longitude":-0.118092,"reserved":0,"last_update":"0001-01-01T00:00:00Z","name_a2s":"Uncletopia | London | 6 | All Maps","protocol":17,"map":"koth_lakeside_final","folder":"tf","game":"Team Fortress","app_id":440,"player_count":0,"max_players":24,"Bots":0,"server_type":"Dedicated","server_os":"Linux","password":true,"vac":true,"version":"7742253","steam_id":85568392924742830,"keywords":["cp","nocrits","nodmgspread","uncletopia"],"game_id":440,"stv_port":27066,"stv_name":"Uncletopia | London | 6 | All Maps | STV","players":null},{"server_id":40,"name":"Uncletopia | London | 7 | No Payload","name_short":"lon-7","host":"lon-1.uk.uncletopia.com","port":27075,"enabled":true,"region":"eu","cc":"gb","latitude":51.509865,"longitude":-0.118092,"reserved":0,"last_update":"0001-01-01T00:00:00Z","name_a2s":"Uncletopia | London | 7 | No Payload","protocol":17,"map":"koth_viaduct","folder":"tf","game":"Team Fortress","app_id":440,"player_count":0,"max_players":24,"Bots":0,"server_type":"Dedicated","server_os":"Linux","password":true,"vac":true,"version":"7742253","steam_id":85568392924964314,"keywords":["cp","nocrits","nodmgspread","uncletopia"],"game_id":440,"stv_port":27076,"stv_name":"Uncletopia | London | 7 | No Payload | STV","players":null},{"server_id":41,"name":"Uncletopia | London | 8 | Community","name_short":"lon-8","host":"lon-1.uk.uncletopia.com","port":27085,"enabled":true,"region":"eu","cc":"gb","latitude":51.509865,"longitude":-0.118092,"reserved":0,"last_update":"0001-01-01T00:00:00Z","name_a2s":"Uncletopia | London | 8 | Community","protocol":17,"map":"workshop/koth_ramjam_rc1.ugc459778887","folder":"tf","game":"Team Fortress","app_id":440,"player_count":0,"max_players":24,"Bots":0,"server_type":"Dedicated","server_os":"Linux","password":true,"vac":true,"version":"7742253","steam_id":85568392924964315,"keywords":["cp","nocrits","nodmgspread","uncletopia"],"game_id":440,"stv_port":27086,"stv_name":"Uncletopia | London | 8 | Community | STV","players":null},{"server_id":300,"name":"Uncletopia | Montr√©al | 1 | All Maps","name_short":"mtl-1","host":"mtl-1.ca.uncletopia.com","port":27015,"enabled":true,"region":"us-east","cc":"ca","latitude":45.50889,"longitude":-73.56167,"reserved":0,"last_update":"0001-01-01T00:00:00Z","name_a2s":"Uncletopia | Montr√©al | 1 | All Maps","protocol":17,"map":"pl_swiftwater_final1","folder":"tf","game":"Team Fortress","app_id":440,"player_count":0,"max_players":24,"Bots":0,"server_type":"Dedicated","server_os":"Linux","password":true,"vac":true,"version":"7742253","steam_id":85568392924500087,"keywords":["nocrits","nodmgspread","payload","uncletopia"],"game_id":440,"stv_port":27016,"stv_name":"Uncletopia | Montr√©al | 1 | All Maps | STV","players":null},{"server_id":301,"name":"Uncletopia | Montr√©al | 2 | All Maps","name_short":"mtl-2","host":"mtl-1.ca.uncletopia.com","port":27025,"enabled":true,"region":"us-east","cc":"ca","latitude":45.50889,"longitude":-73.56167,"reserved":0,"last_update":"0001-01-01T00:00:00Z","name_a2s":"Uncletopia | Montr√©al | 2 | All Maps","protocol":17,"map":"koth_highpass","folder":"tf","game":"Team Fortress","app_id":440,"player_count":0,"max_players":24,"Bots":0,"server_type":"Dedicated","server_os":"Linux","password":true,"vac":true,"version":"7742253","steam_id":85568392924500088,"keywords":["cp","nocrits","nodmgspread","uncletopia"],"game_id":440,"stv_port":27026,"stv_name":"Uncletopia | Montr√©al | 2 | All Maps | STV","players":null},{"server_id":302,"name":"Uncletopia | Montr√©al | 3 | All Maps","name_short":"mtl-3","host":"mtl-1.ca.uncletopia.com","port":27035,"enabled":true,"region":"us-east","cc":"ca","latitude":45.50889,"longitude":-73.56167,"reserved":0,"last_update":"0001-01-01T00:00:00Z","name_a2s":"Uncletopia | Montr√©al | 3 | All Maps","protocol":17,"map":"cp_mountainlab","folder":"tf","game":"Team Fortress","app_id":440,"player_count":0,"max_players":24,"Bots":0,"server_type":"Dedicated","server_os":"Linux","password":true,"vac":true,"version":"7742253","steam_id":85568392924500089,"keywords":["cp","nocrits","nodmgspread","uncletopia"],"game_id":440,"stv_port":27036,"stv_name":"Uncletopia | Montr√©al | 3 | All Maps | STV","players":null},{"server_id":303,"name":"Uncletopia | Montr√©al | 4 | No Payload","name_short":"mtl-4","host":"mtl-1.ca.uncletopia.com","port":27045,"enabled":true,"region":"us-east","cc":"ca","latitude":45.50889,"longitude":-73.56167,"reserved":0,"last_update":"0001-01-01T00:00:00Z","name_a2s":"Uncletopia | Montr√©al | 4 | No Payload","protocol":17,"map":"cp_snakewater_final1","folder":"tf","game":"Team Fortress","app_id":440,"player_count":0,"max_players":24,"Bots":0,"server_type":"Dedicated","server_os":"Linux","password":true,"vac":true,"version":"7742253","steam_id":85568392924500090,"keywords":["cp","nocrits","nodmgspread","uncletopia"],"game_id":440,"stv_port":27046,"stv_name":"Uncletopia | Montr√©al | 4 | No Payload | STV","players":null},{"server_id":13,"name":"Uncletopia | New York City | 1 | All Maps","name_short":"nyc-1","host":"nyc-1.us.uncletopia.com","port":27015,"enabled":true,"region":"us-east","cc":"us","latitude":40.73061,"longitude":-73.93524,"reserved":0,"last_update":"0001-01-01T00:00:00Z","name_a2s":"Uncletopia | New York City | 1 | All Maps","protocol":17,"map":"cp_dustbowl","folder":"tf","game":"Team Fortress","app_id":440,"player_count":24,"max_players":24,"Bots":0,"server_type":"Dedicated","server_os":"Linux","password":true,"vac":true,"version":"7742253","steam_id":85568392924469993,"keywords":["cp","nocrits","nodmgspread","uncletopia"],"game_id":440,"stv_port":27016,"stv_name":"Uncletopia | New York City | 1 | All Maps | STV","players":[{"user_id":127,"name":"Doctor Sex","steam_id":76561198119503652,"connected_time":2709000000000,"state":"active","ping":69},{"user_id":148,"name":"the spy from team fortress 2","steam_id":76561198047797306,"connected_time":966000000000,"state":"active","ping":45},{"user_id":130,"name":"Soldie","steam_id":76561198118414372,"connected_time":2647000000000,"state":"active","ping":64},{"user_id":159,"name":"SoupyCoopey","steam_id":76561198300785543,"connected_time":672000000000,"state":"active","ping":59},{"user_id":140,"name":"Chase McCain","steam_id":76561198314538469,"connected_time":2461000000000,"state":"active","ping":50},{"user_id":80,"name":"Chase from Paw Patrol‚Ñ¢","steam_id":76561198145283389,"connected_time":6068000000000,"state":"active","ping":55},{"user_id":145,"name":"happs (God is good)","steam_id":76561198364093418,"connected_time":1010000000000,"state":"active","ping":57},{"user_id":150,"name":"woodrow","steam_id":76561198323702203,"connected_time":913000000000,"state":"active","ping":86},{"user_id":147,"name":"Snugboo","steam_id":76561198147970327,"connected_time":996000000000,"state":"active","ping":44},{"user_id":144,"name":"dandanostar","steam_id":76561198313293205,"connected_time":1677000000000,"state":"active","ping":59},{"user_id":151,"name":"scrapheap","steam_id":76561198202407087,"connected_time":871000000000,"state":"active","ping":78},{"user_id":108,"name":"Loafus","steam_id":76561198154561111,"connected_time":4059000000000,"state":"active","ping":70},{"user_id":163,"name":"Rogerium","steam_id":76561198366237958,"connected_time":84000000000,"state":"active","ping":239},{"user_id":160,"name":"cornsoup","steam_id":76561198083597196,"connected_time":239000000000,"state":"active","ping":44},{"user_id":131,"name":"sock","steam_id":76561199117597830,"connected_time":2641000000000,"state":"active","ping":61},{"user_id":125,"name":"SLaPPy- oNaSiS","steam_id":76561198009286862,"connected_time":2822000000000,"state":"active","ping":69},{"user_id":72,"name":"Bulk","steam_id":76561199009814535,"connected_time":6546000000000,"state":"active","ping":46},{"user_id":117,"name":"PizzaPasta","steam_id":76561199125109082,"connected_time":2925000000000,"state":"active","ping":66},{"user_id":161,"name":"moodi catgirl","steam_id":76561198124028045,"connected_time":204000000000,"state":"active","ping":56},{"user_id":156,"name":"Sacred Relic","steam_id":76561198140341533,"connected_time":780000000000,"state":"active","ping":55},{"user_id":162,"name":"Jailbreak","steam_id":76561198802085218,"connected_time":183000000000,"state":"active","ping":93},{"user_id":137,"name":"Obama F. Kennedy","steam_id":76561198282499318,"connected_time":2520000000000,"state":"active","ping":46},{"user_id":157,"name":"average gibbon call enjoyer","steam_id":76561198103376881,"connected_time":759000000000,"state":"active","ping":61},{"user_id":139,"name":"PunchGhost","steam_id":76561198041668043,"connected_time":2506000000000,"state":"active","ping":67}]},{"server_id":14,"name":"Uncletopia | New York City | 2 | All Maps","name_short":"nyc-2","host":"nyc-1.us.uncletopia.com","port":27025,"enabled":true,"region":"us-east","cc":"us","latitude":40.73061,"longitude":-73.93524,"reserved":0,"last_update":"0001-01-01T00:00:00Z","name_a2s":"Uncletopia | New York City | 2 | All Maps","protocol":17,"map":"koth_cascade","folder":"tf","game":"Team Fortress","app_id":440,"player_count":0,"max_players":24,"Bots":0,"server_type":"Dedicated","server_os":"Linux","password":true,"vac":true,"version":"7742253","steam_id":85568392924469994,"keywords":["cp","nocrits","nodmgspread","uncletopia"],"game_id":440,"stv_port":27026,"stv_name":"Uncletopia | New York City | 2 | All Maps | STV","players":null},{"server_id":15,"name":"Uncletopia | New York City | 3 | Stopwatch Beta","name_short":"nyc-3","host":"nyc-1.us.uncletopia.com","port":27035,"enabled":true,"region":"us-east","cc":"us","latitude":40.73061,"longitude":-73.93524,"reserved":0,"last_update":"0001-01-01T00:00:00Z","name_a2s":"Uncletopia | New York City | 3 | Stopwatch Beta","protocol":17,"map":"pl_pier","folder":"tf","game":"Team Fortress","app_id":440,"player_count":0,"max_players":24,"Bots":0,"server_type":"Dedicated","server_os":"Linux","password":true,"vac":true,"version":"7742253","steam_id":85568392924742820,"keywords":["nocrits","nodmgspread","payload","uncletopia"],"game_id":440,"stv_port":27036,"stv_name":"Uncletopia | New York City | 3 | Stopwatch Beta | STV","players":null},{"server_id":16,"name":"Uncletopia | New York City | 4 | Community","name_short":"nyc-4","host":"nyc-1.us.uncletopia.com","port":27045,"enabled":true,"region":"us-east","cc":"us","latitude":40.73061,"longitude":-73.93524,"reserved":0,"last_update":"0001-01-01T00:00:00Z","name_a2s":"Uncletopia | New York City | 4 | Community","protocol":17,"map":"koth_viaduct","folder":"tf","game":"Team Fortress","app_id":440,"player_count":0,"max_players":24,"Bots":0,"server_type":"Dedicated","server_os":"Linux","password":true,"vac":true,"version":"7742253","steam_id":85568392924742821,"keywords":["cp","nocrits","nodmgspread","uncletopia"],"game_id":440,"stv_port":27046,"stv_name":"Uncletopia | New York City | 4 | Community | STV","players":null},{"server_id":142,"name":"Uncletopia | S√£o Paulo | 1 | All Maps","name_short":"sao-1","host":"sao-1.br.uncletopia.com","port":27015,"enabled":true,"region":"sa","cc":"br","latitude":-23.533773,"longitude":-46.62529,"reserved":0,"last_update":"0001-01-01T00:00:00Z","name_a2s":"Uncletopia | S√£o Paulo | 1 | All Maps","protocol":17,"map":"koth_viaduct","folder":"tf","game":"Team Fortress","app_id":440,"player_count":0,"max_players":24,"Bots":0,"server_type":"Dedicated","server_os":"Linux","password":true,"vac":true,"version":"7742253","steam_id":85568392924469996,"keywords":["cp","nocrits","nodmgspread","uncletopia"],"game_id":440,"stv_port":27016,"stv_name":"Uncletopia | S√£o Paulo | 1 | All Maps | STV","players":null},{"server_id":143,"name":"Uncletopia | S√£o Paulo | 2 | All Maps","name_short":"sao-2","host":"sao-2.br.uncletopia.com","port":27015,"enabled":true,"region":"sa","cc":"br","latitude":-23.533773,"longitude":-46.62529,"reserved":0,"last_update":"0001-01-01T00:00:00Z","name_a2s":"Uncletopia | S√£o Paulo | 2 | All Maps","protocol":17,"map":"koth_viaduct","folder":"tf","game":"Team Fortress","app_id":440,"player_count":0,"max_players":24,"Bots":0,"server_type":"Dedicated","server_os":"Linux","password":true,"vac":true,"version":"7742253","steam_id":85568392924485349,"keywords":["cp","nocrits","nodmgspread","uncletopia"],"game_id":440,"stv_port":27016,"stv_name":"Uncletopia | S√£o Paulo | 2 | All Maps | STV","players":null},{"server_id":7,"name":"Uncletopia | Seattle | 1 | All Maps","name_short":"sea-1","host":"sea-1.us.uncletopia.com","port":27015,"enabled":true,"region":"us-west","cc":"us","latitude":47.608013,"longitude":-122.33517,"reserved":0,"last_update":"0001-01-01T00:00:00Z","name_a2s":"Uncletopia | Seattle | 1 | All Maps","protocol":17,"map":"pl_snowycoast","folder":"tf","game":"Team Fortress","app_id":440,"player_count":24,"max_players":24,"Bots":0,"server_type":"Dedicated","server_os":"Linux","password":true,"vac":true,"version":"7742253","steam_id":85568392924469997,"keywords":["nocrits","nodmgspread","payload","uncletopia"],"game_id":440,"stv_port":27016,"stv_name":"Uncletopia | Seattle | 1 | All Maps | STV","players":[{"user_id":236,"name":"Evanb","steam_id":76561198042057792,"connected_time":536000000000,"state":"active","ping":44},{"user_id":227,"name":"toomyzoom","steam_id":76561198041774837,"connected_time":1321000000000,"state":"active","ping":65},{"user_id":217,"name":"Sparks","steam_id":76561198050950496,"connected_time":2203000000000,"state":"active","ping":87},{"user_id":224,"name":"young thug weaponry","steam_id":76561198363821364,"connected_time":1382000000000,"state":"active","ping":60},{"user_id":238,"name":"jorbert","steam_id":76561197975606100,"connected_time":439000000000,"state":"active","ping":122},{"user_id":234,"name":"177013","steam_id":76561198072303290,"connected_time":602000000000,"state":"active","ping":120},{"user_id":240,"name":"WeAreTheSpirits","steam_id":76561198191555728,"connected_time":152000000000,"state":"active","ping":61},{"user_id":221,"name":"SirJellyRolls","steam_id":76561198119277244,"connected_time":1389000000000,"state":"active","ping":54},{"user_id":216,"name":"Limp Pumpo Discography Fan Club","steam_id":76561198145748479,"connected_time":2223000000000,"state":"active","ping":53},{"user_id":219,"name":"laggy mcstab","steam_id":76561198106379962,"connected_time":2051000000000,"state":"active","ping":59},{"user_id":218,"name":"Void","steam_id":76561198308290211,"connected_time":2157000000000,"state":"active","ping":87},{"user_id":191,"name":"Nassu","steam_id":76561198147367577,"connected_time":3765000000000,"state":"active","ping":119},{"user_id":235,"name":"Marc G","steam_id":76561198062650363,"connected_time":580000000000,"state":"active","ping":106},{"user_id":182,"name":"Reggievich","steam_id":76561198173252835,"connected_time":4174000000000,"state":"active","ping":107},{"user_id":230,"name":"Jface1221","steam_id":76561198188082091,"connected_time":1246000000000,"state":"active","ping":82},{"user_id":225,"name":"misterjozo","steam_id":76561198012300755,"connected_time":1381000000000,"state":"active","ping":55},{"user_id":195,"name":"SGT_Kano","steam_id":76561199162423120,"connected_time":3727000000000,"state":"active","ping":93},{"user_id":228,"name":"oo","steam_id":76561198119626492,"connected_time":1304000000000,"state":"active","ping":80},{"user_id":232,"name":"Cottontail","steam_id":76561198213634567,"connected_time":983000000000,"state":"active","ping":102},{"user_id":210,"name":"la loveiathenne","steam_id":76561198046394237,"connected_time":2454000000000,"state":"active","ping":48},{"user_id":194,"name":"King Sans","steam_id":76561198294198517,"connected_time":3744000000000,"state":"active","ping":125},{"user_id":151,"name":"that sweater gal","steam_id":76561198322956099,"connected_time":6921000000000,"state":"active","ping":89},{"user_id":229,"name":"chief sosa","steam_id":76561198095495769,"connected_time":1299000000000,"state":"active","ping":61},{"user_id":231,"name":"Jwags","steam_id":76561199241794549,"connected_time":1168000000000,"state":"active","ping":108}]},{"server_id":119,"name":"Uncletopia | Seattle | 2 | All Maps","name_short":"sea-2","host":"sea-1.us.uncletopia.com","port":27025,"enabled":true,"region":"us-west","cc":"us","latitude":47.608013,"longitude":-122.33517,"reserved":0,"last_update":"0001-01-01T00:00:00Z","name_a2s":"Uncletopia | Seattle | 2 | All Maps","protocol":17,"map":"koth_viaduct","folder":"tf","game":"Team Fortress","app_id":440,"player_count":1,"max_players":24,"Bots":0,"server_type":"Dedicated","server_os":"Linux","password":true,"vac":true,"version":"7742253","steam_id":85568392924469998,"keywords":["cp","nocrits","nodmgspread","uncletopia"],"game_id":440,"stv_port":27026,"stv_name":"Uncletopia | Seattle | 2 | All Maps | STV","players":[{"user_id":7,"name":"Seriously Bruh","steam_id":76561198070408485,"connected_time":91000000000,"state":"active","ping":59}]},{"server_id":406,"name":"Uncletopia | Seattle | 3 | Stopwatch Beta","name_short":"sea-3","host":"sea-1.us.uncletopia.com","port":27035,"enabled":true,"region":"us-west","cc":"us","latitude":47.608013,"longitude":-122.33517,"reserved":0,"last_update":"0001-01-01T00:00:00Z","name_a2s":"Uncletopia | Seattle | 3 | Stopwatch Beta","protocol":17,"map":"workshop/koth_bagel_rc5.ugc2514036946","folder":"tf","game":"Team Fortress","app_id":440,"player_count":0,"max_players":24,"Bots":0,"server_type":"Dedicated","server_os":"Linux","password":true,"vac":true,"version":"7742253","steam_id":85568392924515217,"keywords":["cp","nocrits","nodmgspread","uncletopia"],"game_id":440,"stv_port":27036,"stv_name":"Uncletopia | Seattle | 3 | Stopwatch Beta | STV","players":null},{"server_id":17,"name":"Uncletopia | San Francisco | 1 | All Maps","name_short":"sfo-1","host":"sfo-1.us.uncletopia.com","port":27015,"enabled":true,"region":"us-west","cc":"us","latitude":37.77397,"longitude":-122.4313,"reserved":0,"last_update":"0001-01-01T00:00:00Z","name_a2s":"Uncletopia | San Francisco | 1 | All Maps","protocol":17,"map":"pl_snowycoast","folder":"tf","game":"Team Fortress","app_id":440,"player_count":0,"max_players":24,"Bots":0,"server_type":"Dedicated","server_os":"Linux","password":true,"vac":true,"version":"7742253","steam_id":85568392924469999,"keywords":["nocrits","nodmgspread","payload","uncletopia"],"game_id":440,"stv_port":27016,"stv_name":"Uncletopia | San Francisco | 1 | All Maps | STV","players":null},{"server_id":18,"name":"Uncletopia | San Francisco | 2 | All Maps","name_short":"sfo-2","host":"sfo-1.us.uncletopia.com","port":27025,"enabled":true,"region":"us-west","cc":"us","latitude":37.77397,"longitude":-122.4313,"reserved":0,"last_update":"0001-01-01T00:00:00Z","name_a2s":"Uncletopia | San Francisco | 2 | All Maps","protocol":17,"map":"cp_altitude","folder":"tf","game":"Team Fortress","app_id":440,"player_count":0,"max_players":24,"Bots":0,"server_type":"Dedicated","server_os":"Linux","password":true,"vac":true,"version":"7742253","steam_id":85568392924470000,"keywords":["cp","nocrits","nodmgspread","uncletopia"],"game_id":440,"stv_port":27026,"stv_name":"Uncletopia | San Francisco | 2 | All Maps | STV","players":null},{"server_id":19,"name":"Uncletopia | San Francisco | 3 | Stopwatch Beta","name_short":"sfo-3","host":"sfo-1.us.uncletopia.com","port":27035,"enabled":true,"region":"us-west","cc":"us","latitude":37.77397,"longitude":-122.4313,"reserved":0,"last_update":"0001-01-01T00:00:00Z","name_a2s":"Uncletopia | San Francisco | 3 | Stopwatch Beta","protocol":17,"map":"koth_highpass","folder":"tf","game":"Team Fortress","app_id":440,"player_count":0,"max_players":24,"Bots":0,"server_type":"Dedicated","server_os":"Linux","password":true,"vac":true,"version":"7742253","steam_id":85568392924742824,"keywords":["cp","nocrits","nodmgspread","uncletopia"],"game_id":440,"stv_port":27036,"stv_name":"Uncletopia | San Francisco | 3 | Stopwatch Beta | STV","players":null},{"server_id":20,"name":"Uncletopia | San Francisco | 4 | Community","name_short":"sfo-4","host":"sfo-1.us.uncletopia.com","port":27045,"enabled":true,"region":"us-west","cc":"us","latitude":37.77397,"longitude":-122.4313,"reserved":0,"last_update":"0001-01-01T00:00:00Z","name_a2s":"Uncletopia | San Francisco | 4 | Community","protocol":17,"map":"cp_dustbowl","folder":"tf","game":"Team Fortress","app_id":440,"player_count":0,"max_players":24,"Bots":0,"server_type":"Dedicated","server_os":"Linux","password":true,"vac":true,"version":"7742253","steam_id":85568392924742826,"keywords":["cp","nocrits","nodmgspread","uncletopia"],"game_id":440,"stv_port":27046,"stv_name":"Uncletopia | San Francisco | 4 | Community | STV","players":null},{"server_id":141,"name":"Uncletopia | Sydney | 1 | All Maps","name_short":"syd-1","host":"syd-1.au.uncletopia.com","port":27015,"enabled":true,"region":"au","cc":"au","latitude":-33.865143,"longitude":151.2099,"reserved":0,"last_update":"0001-01-01T00:00:00Z","name_a2s":"Uncletopia | Sydney | 1 | All Maps","protocol":17,"map":"koth_viaduct","folder":"tf","game":"Team Fortress","app_id":440,"player_count":0,"max_players":24,"Bots":0,"server_type":"Dedicated","server_os":"Linux","password":true,"vac":true,"version":"7742253","steam_id":85568392924470001,"keywords":["cp","nocrits","nodmgspread","uncletopia"],"game_id":440,"stv_port":27016,"stv_name":"Uncletopia | Sydney | 1 | All Maps | STV","players":null},{"server_id":123,"name":"Uncletopia | Sydney | 2 | All Maps","name_short":"syd-2","host":"syd-1.au.uncletopia.com","port":27025,"enabled":true,"region":"au","cc":"au","latitude":-33.865143,"longitude":151.2099,"reserved":0,"last_update":"0001-01-01T00:00:00Z","name_a2s":"Uncletopia | Sydney | 2 | All Maps","protocol":17,"map":"koth_cascade","folder":"tf","game":"Team Fortress","app_id":440,"player_count":0,"max_players":24,"Bots":0,"server_type":"Dedicated","server_os":"Linux","password":true,"vac":true,"version":"7742253","steam_id":85568392924470002,"keywords":["cp","nocrits","nodmgspread","uncletopia"],"game_id":440,"stv_port":27026,"stv_name":"Uncletopia | Sydney | 2 | All Maps | STV","players":null},{"server_id":395,"name":"Uncletopia | Sydney | 3 | All Maps","name_short":"syd-3","host":"syd-1.au.uncletopia.com","port":27035,"enabled":true,"region":"au","cc":"au","latitude":-33.865143,"longitude":151.2099,"reserved":0,"last_update":"0001-01-01T00:00:00Z","name_a2s":"Uncletopia | Sydney | 3 | All Maps","protocol":17,"map":"koth_highpass","folder":"tf","game":"Team Fortress","app_id":440,"player_count":0,"max_players":24,"Bots":0,"server_type":"Dedicated","server_os":"Linux","password":true,"vac":true,"version":"7742253","steam_id":85568392925194467,"keywords":["cp","nocrits","nodmgspread","uncletopia"],"game_id":440,"stv_port":27036,"stv_name":"Uncletopia | Sydney | 3 | All Maps | STV","players":null},{"server_id":396,"name":"Uncletopia | Sydney | 4 | All Maps","name_short":"syd-4","host":"syd-1.au.uncletopia.com","port":27045,"enabled":true,"region":"au","cc":"au","latitude":-33.865143,"longitude":151.2099,"reserved":0,"last_update":"0001-01-01T00:00:00Z","name_a2s":"Uncletopia | Sydney | 4 | All Maps","protocol":17,"map":"koth_lakeside_final","folder":"tf","game":"Team Fortress","app_id":440,"player_count":0,"max_players":24,"Bots":0,"server_type":"Dedicated","server_os":"Linux","password":true,"vac":true,"version":"7742253","steam_id":85568392925397958,"keywords":["cp","nocrits","nodmgspread","uncletopia"],"game_id":440,"stv_port":27046,"stv_name":"Uncletopia | Sydney | 4 | All Maps | STV","players":null},{"server_id":58,"name":"Uncletopia | Sydney | 5 | Stopwatch Beta","name_short":"syd-5","host":"syd-1.au.uncletopia.com","port":27055,"enabled":true,"region":"au","cc":"au","latitude":-33.865143,"longitude":151.2099,"reserved":0,"last_update":"0001-01-01T00:00:00Z","name_a2s":"Uncletopia | Sydney | 5 | Stopwatch Beta","protocol":17,"map":"workshop/koth_bagel_rc5.ugc2514036946","folder":"tf","game":"Team Fortress","app_id":440,"player_count":0,"max_players":24,"Bots":0,"server_type":"Dedicated","server_os":"Linux","password":true,"vac":true,"version":"7742253","steam_id":85568392925397959,"keywords":["cp","nocrits","nodmgspread","uncletopia"],"game_id":440,"stv_port":27056,"stv_name":"Uncletopia | Sydney | 5 | Stopwatch Beta | STV","players":null},{"server_id":59,"name":"Uncletopia | Sydney | 6 | Community","name_short":"syd-6","host":"syd-1.au.uncletopia.com","port":27065,"enabled":true,"region":"au","cc":"au","latitude":-33.865143,"longitude":151.2099,"reserved":0,"last_update":"0001-01-01T00:00:00Z","name_a2s":"Uncletopia | Sydney | 6 | Community","protocol":17,"map":"workshop/koth_synthetic_rc6a.ugc1549817316","folder":"tf","game":"Team Fortress","app_id":440,"player_count":0,"max_players":24,"Bots":0,"server_type":"Dedicated","server_os":"Linux","password":true,"vac":true,"version":"7742253","steam_id":85568392925397960,"keywords":["cp","nocrits","nodmgspread","uncletopia"],"game_id":440,"stv_port":27066,"stv_name":"Uncletopia | Sydney | 6 | Community | STV","players":null},{"server_id":49,"name":"Uncletopia | Warsaw | 1 | All Maps","name_short":"waw-1","host":"waw-1.pl.uncletopia.com","port":27015,"enabled":true,"region":"eu","cc":"pl","latitude":52.2297,"longitude":21.017532,"reserved":0,"last_update":"0001-01-01T00:00:00Z","name_a2s":"","protocol":0,"map":"","folder":"","game":"","app_id":0,"player_count":0,"max_players":0,"Bots":0,"server_type":"","server_os":"","password":false,"vac":false,"version":"","steam_id":0,"keywords":null,"game_id":0,"stv_port":0,"stv_name":"","players":null},{"server_id":50,"name":"Uncletopia | Warsaw | 2 | All Maps","name_short":"waw-2","host":"waw-1.pl.uncletopia.com","port":27025,"enabled":true,"region":"eu","cc":"pl","latitude":52.2297,"longitude":21.017532,"reserved":0,"last_update":"0001-01-01T00:00:00Z","name_a2s":"Uncletopia | Warsaw | 2 | All Maps","protocol":17,"map":"koth_lakeside_final","folder":"tf","game":"Team Fortress","app_id":440,"player_count":0,"max_players":24,"Bots":0,"server_type":"Dedicated","server_os":"Linux","password":true,"vac":true,"version":"7742253","steam_id":85568392925397851,"keywords":["cp","nocrits","nodmgspread","uncletopia"],"game_id":440,"stv_port":27026,"stv_name":"Uncletopia | Warsaw | 2 | All Maps | STV","players":null},{"server_id":51,"name":"Uncletopia | Warsaw | 3 | All Maps","name_short":"waw-3","host":"waw-1.pl.uncletopia.com","port":27035,"enabled":true,"region":"eu","cc":"pl","latitude":52.2297,"longitude":21.017532,"reserved":0,"last_update":"0001-01-01T00:00:00Z","name_a2s":"Uncletopia | Warsaw | 3 | All Maps","protocol":17,"map":"koth_lakeside_final","folder":"tf","game":"Team Fortress","app_id":440,"player_count":3,"max_players":24,"Bots":0,"server_type":"Dedicated","server_os":"Linux","password":true,"vac":true,"version":"7742253","steam_id":85568392925397852,"keywords":["cp","nocrits","nodmgspread","uncletopia"],"game_id":440,"stv_port":27036,"stv_name":"Uncletopia | Warsaw | 3 | All Maps | STV","players":[{"user_id":4,"name":"CzarnyRycerzMomon","steam_id":76561199028465810,"connected_time":1993000000000,"state":"active","ping":41},{"user_id":5,"name":"Wojowniczek.pl","steam_id":76561199228645329,"connected_time":1941000000000,"state":"active","ping":82},{"user_id":8,"name":"zlitvinkov","steam_id":76561199433503750,"connected_time":55000000000,"state":"spawning","ping":114}]},{"server_id":52,"name":"Uncletopia | Warsaw | 4 | All Maps","name_short":"waw-4","host":"waw-1.pl.uncletopia.com","port":27045,"enabled":true,"region":"eu","cc":"pl","latitude":52.2297,"longitude":21.017532,"reserved":0,"last_update":"0001-01-01T00:00:00Z","name_a2s":"Uncletopia | Warsaw | 4 | All Maps","protocol":17,"map":"pl_barnblitz","folder":"tf","game":"Team Fortress","app_id":440,"player_count":23,"max_players":24,"Bots":0,"server_type":"Dedicated","server_os":"Linux","password":true,"vac":true,"version":"7742253","steam_id":85568392925397853,"keywords":["nocrits","nodmgspread","payload","uncletopia"],"game_id":440,"stv_port":27046,"stv_name":"Uncletopia | Warsaw | 4 | All Maps | STV","players":[{"user_id":313,"name":"jpl8","steam_id":76561198077770726,"connected_time":2533000000000,"state":"active","ping":131},{"user_id":378,"name":"Bread Boi","steam_id":76561199060307324,"connected_time":1243000000000,"state":"active","ping":103},{"user_id":379,"name":"reho-iwnw","steam_id":76561198348062373,"connected_time":1191000000000,"state":"active","ping":64},{"user_id":380,"name":"frikandel speciaal","steam_id":76561198137997056,"connected_time":1175000000000,"state":"active","ping":75},{"user_id":358,"name":"SODA!!!!!!!","steam_id":76561198107362485,"connected_time":1658000000000,"state":"active","ping":42},{"user_id":303,"name":"Wigion the first","steam_id":76561198899108901,"connected_time":3050000000000,"state":"active","ping":71},{"user_id":390,"name":"nexus","steam_id":76561198445936642,"connected_time":506000000000,"state":"active","ping":60},{"user_id":334,"name":"Shirogame","steam_id":76561198126154697,"connected_time":2134000000000,"state":"active","ping":82},{"user_id":393,"name":"Majami","steam_id":76561198054365738,"connected_time":334000000000,"state":"active","ping":96},{"user_id":311,"name":"Tmpod","steam_id":76561198069210431,"connected_time":2564000000000,"state":"active","ping":90},{"user_id":394,"name":"Zylx","steam_id":76561198883608713,"connected_time":309000000000,"state":"active","ping":141},{"user_id":322,"name":"Mr. Dick‚Ñ¢","steam_id":76561198047309044,"connected_time":2327000000000,"state":"active","ping":166},{"user_id":383,"name":"night.s","steam_id":76561198326287823,"connected_time":1130000000000,"state":"active","ping":101},{"user_id":365,"name":"Tryrn","steam_id":76561198075487436,"connected_time":1560000000000,"state":"active","ping":69},{"user_id":384,"name":"Kameleon","steam_id":76561198041394657,"connected_time":1111000000000,"state":"active","ping":33},{"user_id":320,"name":"GrantTheMedicYT","steam_id":76561199077176696,"connected_time":2350000000000,"state":"active","ping":163},{"user_id":395,"name":"Vince","steam_id":76561199103000131,"connected_time":290000000000,"state":"active","ping":75},{"user_id":368,"name":"Sotviing","steam_id":76561198154311159,"connected_time":1474000000000,"state":"active","ping":97},{"user_id":329,"name":"Konoko_x3","steam_id":76561198065342613,"connected_time":2194000000000,"state":"active","ping":104},{"user_id":369,"name":"lilleskutte","steam_id":76561198033164425,"connected_time":1457000000000,"state":"active","ping":90},{"user_id":370,"name":"simonjohna646","steam_id":76561199403481880,"connected_time":1449000000000,"state":"active","ping":121},{"user_id":396,"name":"tayro","steam_id":76561198202990635,"connected_time":278000000000,"state":"active","ping":44},{"user_id":388,"name":"Big They/Them is watching YOU","steam_id":76561198307598168,"connected_time":984000000000,"state":"active","ping":35}]},{"server_id":53,"name":"Uncletopia | Warsaw | 5 | Stopwatch Beta","name_short":"waw-5","host":"waw-1.pl.uncletopia.com","port":27055,"enabled":true,"region":"eu","cc":"pl","latitude":52.2297,"longitude":21.017532,"reserved":0,"last_update":"0001-01-01T00:00:00Z","name_a2s":"Uncletopia | Warsaw | 5 | Stopwatch Beta","protocol":17,"map":"pl_swiftwater_final1","folder":"tf","game":"Team Fortress","app_id":440,"player_count":0,"max_players":24,"Bots":0,"server_type":"Dedicated","server_os":"Linux","password":true,"vac":true,"version":"7742253","steam_id":85568392925397854,"keywords":["nocrits","nodmgspread","payload","uncletopia"],"game_id":440,"stv_port":27056,"stv_name":"Uncletopia | Warsaw | 5 | Stopwatch Beta | STV","players":null},{"server_id":54,"name":"Uncletopia | Warsaw | 6 | Community","name_short":"waw-6","host":"waw-1.pl.uncletopia.com","port":27065,"enabled":true,"region":"eu","cc":"pl","latitude":52.2297,"longitude":21.017532,"reserved":0,"last_update":"0001-01-01T00:00:00Z","name_a2s":"Uncletopia | Warsaw | 6 | Community","protocol":17,"map":"koth_highpass","folder":"tf","game":"Team Fortress","app_id":440,"player_count":0,"max_players":24,"Bots":0,"server_type":"Dedicated","server_os":"Linux","password":true,"vac":true,"version":"7742253","steam_id":85568392925397856,"keywords":["cp","nocrits","nodmgspread","uncletopia"],"game_id":440,"stv_port":27066,"stv_name":"Uncletopia | Warsaw | 6 | Community | STV","players":null}]}