{"status":true,"message":"","result":[{"server_id":9,"name":"Uncletopia | Atlanta | 1 | All Maps","name_short":"atl-1","host":"atl-1.us.uncletopia.com","port":27015,"enabled":true,"region":"us-east","cc":"us","latitude":33.753746,"longitude":-84.38633,"reserved":0,"last_update":"0001-01-01T00:00:00Z","name_a2s":"Uncletopia | Atlanta | 1 | All Maps","protocol":17,"map":"cp_altitude","folder":"tf","game":"Team Fortress","app_id":440,"player_count":24,"max_players":24,"Bots":0,"server_type":"Dedicated","server_os":"Linux","password":true,"vac":true,"version":"7961495","steam_id":85568392924469982,"keywords":["cp","nocrits","nodmgspread","uncletopia"],"game_id":440,"stv_port":27016,"stv_name":"Uncletopia | Atlanta | 1 | All Maps | STV","players":[{"user_id":308,"name":"Smiles","steam_id":76561198107197973,"connected_time":921000000000,"state":"active","ping":90},{"user_id":324,"name":"The Cleveland Creamer","steam_id":76561198000468344,"connected_time":147000000000,"state":"active","ping":63},{"user_id":312,"name":"diigdugg","steam_id":76561198172581861,"connected_time":756000000000,"state":"active","ping":62},{"user_id":320,"name":"garten of peakpeak","steam_id":76561198181153199,"connected_time":457000000000,"state":"active","ping":79},{"user_id":269,"name":"gallowsCalibrator","steam_id":76561198404707578,"connected_time":5329000000000,"state":"active","ping":59},{"user_id":316,"name":"awak","steam_id":76561198092135570,"connected_time":619000000000,"state":"active","ping":62},{"user_id":307,"name":"QUINZEL","steam_id":76561198096738991,"connected_time":1110000000000,"state":"active","ping":90},{"user_id":317,"name":"the pest","steam_id":76561198826298849,"connected_time":583000000000,"state":"active","ping":93},{"user_id":318,"name":"Volkan, Pervert Extraordinaire","steam_id":76561198004569575,"connected_time":517000000000,"state":"active","ping":118},{"user_id":319,"name":"Cornelius","steam_id":76561198123447388,"connected_time":513000000000,"state":"active","ping":67},{"user_id":281,"name":"YolkOnYou","steam_id":76561198088760655,"connected_time":4346000000000,"state":"active","ping":168},{"user_id":309,"name":"craven","steam_id":76561198088191503,"connected_time":917000000000,"state":"active","ping":61},{"user_id":282,"name":"rose","steam_id":76561198048882285,"connected_time":4345000000000,"state":"active","ping":60},{"user_id":323,"name":"Cat","steam_id":76561198132362099,"connected_time":395000000000,"state":"active","ping":112},{"user_id":131,"name":"eish","steam_id":76561198089463603,"connected_time":11364000000000,"state":"active","ping":119},{"user_id":313,"name":"Turkey Panini","steam_id":76561198067656416,"connected_time":745000000000,"state":"active","ping":131},{"user_id":298,"name":"Pight","steam_id":76561198823422389,"connected_time":2050000000000,"state":"active","ping":86},{"user_id":300,"name":"frog from pond","steam_id":76561198184900753,"connected_time":1805000000000,"state":"active","ping":74},{"user_id":278,"name":"Mayhem","steam_id":76561198063465337,"connected_time":4419000000000,"state":"active","ping":80},{"user_id":322,"name":"Pharaxer‚Ñ¢","steam_id":76561198051236069,"connected_time":439000000000,"state":"active","ping":158},{"user_id":279,"name":"Darth","steam_id":76561198027621265,"connected_time":4417000000000,"state":"active","ping":56},{"user_id":287,"name":"Bunt","steam_id":76561198124477567,"connected_time":3596000000000,"state":"active","ping":44},{"user_id":294,"name":"Legally Braindead","steam_id":76561198377574031,"connected_time":2666000000000,"state":"active","ping":90},{"user_id":252,"name":"Tay1Qr","steam_id":76561198082809935,"connected_time":6645000000000,"state":"active","ping":63}]},{"server_id":104,"name":"Uncletopia | Atlanta | 2 | All Maps","name_short":"atl-2","host":"atl-1.us.uncletopia.com","port":27025,"enabled":true,"region":"us-east","cc":"us","latitude":33.753746,"longitude":-84.38633,"reserved":0,"last_update":"0001-01-01T00:00:00Z","name_a2s":"Uncletopia | Atlanta | 2 | All Maps","protocol":17,"map":"koth_highpass","folder":"tf","game":"Team Fortress","app_id":440,"player_count":0,"max_players":24,"Bots":0,"server_type":"Dedicated","server_os":"Linux","password":true,"vac":true,"version":"7961495","steam_id":85568392924469983,"keywords":["cp","nocrits","nodmgspread","uncletopia"],"game_id":440,"stv_port":27026,"stv_name":"Uncletopia | Atlanta | 2 | All Maps | STV","players":null},{"server_id":400,"name":"Uncletopia | Atlanta | 3 | Stopwatch","name_short":"atl-3","host":"atl-1.us.uncletopia.com","port":27035,"enabled":true,"region":"us-east","cc":"us","latitude":33.753746,"longitude":-84.38633,"reserved":0,"last_update":"0001-01-01T00:00:00Z","name_a2s":"Uncletopia | Atlanta | 3 | Stopwatch","protocol":17,"map":"workshop/pl_summercoast_rc8e.ugc1761528829","folder":"tf","game":"Team Fortress","app_id":440,"player_count":0,"max_players":24,"Bots":0,"server_type":"Dedicated","server_os":"Linux","password":true,"vac":true,"version":"7961495","steam_id":85568392924515187,"keywords":["nocrits","nodmgspread","payload","uncletopia"],"game_id":440,"stv_port":27036,"stv_name":"Uncletopia | Atlanta | 3 | Stopwatch | STV","players":null},{"server_id":401,"name":"Uncletopia | Atlanta | 4 | Community","name_short":"atl-4","host":"atl-1.us.uncletopia.com","port":27045,"enabled":true,"region":"us-east","cc":"us","latitude":33.753746,"longitude":-84.38633,"reserved":0,"last_update":"0001-01-01T00:00:00Z","name_a2s":"Uncletopia | Atlanta | 4 | Community","protocol":17,"map":"workshop/koth_ramjam_rc1.ugc459778887","folder":"tf","game":"Team Fortress","app_id":440,"player_count":0,"max_players":24,"Bots":0,"server_type":"Dedicated","server_os":"Linux","password":true,"vac":true,"version":"7961495","steam_id":85568392924515188,"keywords":["cp","nocrits","nodmgspread","uncletopia"],"game_id":440,"stv_port":27046,"stv_name":"Uncletopia | Atlanta | 4 | Community | STV","players":null},{"server_id":2,"name":"Uncletopia | Chicago | 1 | All Maps","name_short":"chi-1","host":"chi-1.us.uncletopia.com","port":27015,"enabled":true,"region":"us-central","cc":"us","latitude":41.881832,"longitude":-87.62318,"reserved":0,"last_update":"0001-01-01T00:00:00Z","name_a2s":"Uncletopia | Chicago | 1 | All Maps","protocol":17,"map":"cp_snakewater_final1","folder":"tf","game":"Team Fortress","app_id":440,"player_count":0,"max_players":24,"Bots":0,"server_type":"Dedicated","server_os":"Linux","password":true,"vac":true,"version":"7961495","steam_id":85568392924469984,"keywords":["cp","nocrits","nodmgspread","uncletopia"],"game_id":440,"stv_port":27016,"stv_name":"Uncletopia | Chicago | 1 | All Maps | STV","players":null},{"server_id":106,"name":"Uncletopia | Chicago | 2 | All Maps","name_short":"chi-2","host":"chi-1.us.uncletopia.com","port":27025,"enabled":true,"region":"us-central","cc":"us","latitude":41.881832,"longitude":-87.62318,"reserved":0,"last_update":"0001-01-01T00:00:00Z","name_a2s":"Uncletopia | Chicago | 2 | All Maps","protocol":17,"map":"cp_steel","folder":"tf","game":"Team Fortress","app_id":440,"player_count":24,"max_players":24,"Bots":0,"server_type":"Dedicated","server_os":"Linux","password":true,"vac":true,"version":"7961495","steam_id":85568392924469985,"keywords":["cp","nocrits","nodmgspread","uncletopia"],"game_id":440,"stv_port":27026,"stv_name":"Uncletopia | Chicago | 2 | All Maps | STV","players":[{"user_id":684,"name":"DeMarc0","steam_id":76561198150900434,"connected_time":2985000000000,"state":"active","ping":64},{"user_id":725,"name":"Jelqing Table","steam_id":76561198051373750,"connected_time":159000000000,"state":"active","ping":71},{"user_id":714,"name":"Monte","steam_id":76561198097499917,"connected_time":774000000000,"state":"active","ping":91},{"user_id":712,"name":"Torensz64(But weezer)","steam_id":76561198239036482,"connected_time":789000000000,"state":"active","ping":51},{"user_id":670,"name":"the scranton dirt smoker","steam_id":76561198305796131,"connected_time":3487000000000,"state":"active","ping":45},{"user_id":671,"name":"Heir","steam_id":76561198350772943,"connected_time":3298000000000,"state":"active","ping":72},{"user_id":697,"name":"Wanderer","steam_id":76561198430991724,"connected_time":1682000000000,"state":"active","ping":143},{"user_id":717,"name":"EnragedWaters","steam_id":76561198317135757,"connected_time":758000000000,"state":"active","ping":115},{"user_id":716,"name":"keffers","steam_id":76561198202338796,"connected_time":768000000000,"state":"active","ping":73},{"user_id":710,"name":"Thewaffleman141","steam_id":76561198083068694,"connected_time":870000000000,"state":"active","ping":68},{"user_id":694,"name":"Tohru","steam_id":76561198139393876,"connected_time":1937000000000,"state":"active","ping":72},{"user_id":634,"name":"Skeptical","steam_id":76561198038261789,"connected_time":6582000000000,"state":"active","ping":98},{"user_id":723,"name":"Cruisin'","steam_id":76561199245457119,"connected_time":533000000000,"state":"active","ping":74},{"user_id":695,"name":"A Pack of Traffic Greens","steam_id":76561198111866305,"connected_time":1761000000000,"state":"active","ping":95},{"user_id":688,"name":"The Weatherman is fucking dying","steam_id":76561198000445420,"connected_time":2764000000000,"state":"active","ping":71},{"user_id":661,"name":"DeckofDragons","steam_id":76561198057398213,"connected_time":4279000000000,"state":"active","ping":71},{"user_id":711,"name":"Embrace the Moonlight","steam_id":76561198985225750,"connected_time":843000000000,"state":"active","ping":69},{"user_id":678,"name":"KILL YOUR PARENTS","steam_id":76561198064214000,"connected_time":3081000000000,"state":"active","ping":76},{"user_id":719,"name":"Antwan","steam_id":76561198246200638,"connected_time":726000000000,"state":"active","ping":63},{"user_id":642,"name":"sheep","steam_id":76561198172943006,"connected_time":5560000000000,"state":"active","ping":50},{"user_id":724,"name":"ChoccyMiltank","steam_id":76561198981474284,"connected_time":198000000000,"state":"active","ping":107},{"user_id":691,"name":"Moonshine Man","steam_id":76561198088010073,"connected_time":2383000000000,"state":"active","ping":89},{"user_id":722,"name":"WalrusNyetheBonkGuy","steam_id":76561197995626774,"connected_time":589000000000,"state":"active","ping":110},{"user_id":708,"name":"Laner2045","steam_id":76561198014645697,"connected_time":941000000000,"state":"active","ping":74}]},{"server_id":402,"name":"Uncletopia | Chicago | 3 | All Maps","name_short":"chi-3","host":"chi-1.us.uncletopia.com","port":27035,"enabled":true,"region":"us-central","cc":"us","latitude":41.881832,"longitude":-87.62318,"reserved":0,"last_update":"0001-01-01T00:00:00Z","name_a2s":"Uncletopia | Chicago | 3 | All Maps","protocol":17,"map":"pl_barnblitz","folder":"tf","game":"Team Fortress","app_id":440,"player_count":16,"max_players":24,"Bots":0,"server_type":"Dedicated","server_os":"Linux","password":true,"vac":true,"version":"7961495","steam_id":85568392924515191,"keywords":["nocrits","nodmgspread","payload","uncletopia"],"game_id":440,"stv_port":27036,"stv_name":"Uncletopia | Chicago | 3 | All Maps | STV","players":[{"user_id":408,"name":"Little Skull Boi","steam_id":76561198093595888,"connected_time":153000000000,"state":"active","ping":101},{"user_id":387,"name":"Arty","steam_id":76561197960445953,"connected_time":3359000000000,"state":"active","ping":101},{"user_id":407,"name":"37 septillion tapeworms","steam_id":76561198186128723,"connected_time":169000000000,"state":"active","ping":64},{"user_id":379,"name":"Ghost","steam_id":76561198426370628,"connected_time":3839000000000,"state":"active","ping":62},{"user_id":409,"name":" ï„Å£‚Ä¢·¥•‚Ä¢ î„Å£","steam_id":76561198010392559,"connected_time":52000000000,"state":"active","ping":89},{"user_id":410,"name":"paetho YT","steam_id":76561198152690003,"connected_time":43000000000,"state":"spawning","ping":79},{"user_id":411,"name":"killjoy","steam_id":76561198234719276,"connected_time":42000000000,"state":"active","ping":99},{"user_id":412,"name":"pigswill","steam_id":76561197999081865,"connected_time":9000000000,"state":"spawning","ping":135},{"user_id":392,"name":"lesbian jolyne cujoh","steam_id":76561198988918229,"connected_time":2210000000000,"state":"active","ping":85},{"user_id":395,"name":"the girl girlkisser","steam_id":76561198438737908,"connected_time":2192000000000,"state":"active","ping":78},{"user_id":382,"name":"Cairna ‚ô•","steam_id":76561198035418464,"connected_time":3728000000000,"state":"active","ping":66},{"user_id":403,"name":"sleepy","steam_id":76561198255015060,"connected_time":950000000000,"state":"active","ping":97},{"user_id":405,"name":"Gene Takovic","steam_id":76561198881039861,"connected_time":414000000000,"state":"active","ping":43},{"user_id":404,"name":"Fruity","steam_id":76561198999674564,"connected_time":933000000000,"state":"active","ping":86},{"user_id":385,"name":"Raccoon Wizard","steam_id":76561198072562591,"connected_time":3566000000000,"state":"active","ping":76},{"user_id":390,"name":"The Caretaker","steam_id":76561198125241411,"connected_time":2619000000000,"state":"active","ping":119}]},{"server_id":403,"name":"Uncletopia | Chicago | 4 | All Maps","name_short":"chi-4","host":"chi-1.us.uncletopia.com","port":27045,"enabled":true,"region":"us-central","cc":"us","latitude":41.881832,"longitude":-87.62318,"reserved":0,"last_update":"0001-01-01T00:00:00Z","name_a2s":"Uncletopia | Chicago | 4 | All Maps","protocol":17,"map":"ctf_turbine","folder":"tf","game":"Team Fortress","app_id":440,"player_count":24,"max_players":24,"Bots":0,"server_type":"Dedicated","server_os":"Linux","password":true,"vac":true,"version":"7961495","steam_id":85568392924515193,"keywords":["ctf","nocrits","nodmgspread","uncletopia"],"game_id":440,"stv_port":27046,"stv_name":"Uncletopia | Chicago | 4 | All Maps | STV","players":[{"user_id":890,"name":"Emnize","steam_id":76561198330950019,"connected_time":2966000000000,"state":"active","ping":72},{"user_id":891,"name":"Guess I'm just popo","steam_id":76561197966419253,"connected_time":2890000000000,"state":"active","ping":86},{"user_id":921,"name":"TheSnipersHat","steam_id":76561198057684066,"connected_time":449000000000,"state":"active","ping":51},{"user_id":862,"name":"Enfield","steam_id":76561197961097111,"connected_time":5126000000000,"state":"active","ping":70},{"user_id":889,"name":"plink","steam_id":76561198274112032,"connected_time":3038000000000,"state":"active","ping":89},{"user_id":907,"name":"Filtershakes","steam_id":76561197990484413,"connected_time":1212000000000,"state":"active","ping":81},{"user_id":885,"name":"Cassius","steam_id":76561199181383832,"connected_time":3169000000000,"state":"active","ping":87},{"user_id":892,"name":"lys de mer","steam_id":76561198054906945,"connected_time":2870000000000,"state":"active","ping":91},{"user_id":881,"name":"ekgooby","steam_id":76561198043678479,"connected_time":3305000000000,"state":"active","ping":45},{"user_id":886,"name":"collacot","steam_id":76561198243248798,"connected_time":3118000000000,"state":"active","ping":78},{"user_id":859,"name":"RAWRWAFL","steam_id":76561198032118386,"connected_time":5190000000000,"state":"active","ping":85},{"user_id":887,"name":"BananaMangoFestival2013","steam_id":76561198218558897,"connected_time":3109000000000,"state":"active","ping":141},{"user_id":902,"name":"Romeo","steam_id":76561198057889522,"connected_time":1717000000000,"state":"active","ping":70},{"user_id":928,"name":"Strange Festive Femboy","steam_id":76561198050385093,"connected_time":257000000000,"state":"active","ping":85},{"user_id":894,"name":"stuffedidiot","steam_id":76561199181513019,"connected_time":2788000000000,"state":"active","ping":92},{"user_id":896,"name":"AdosOS","steam_id":76561198051624021,"connected_time":2740000000000,"state":"active","ping":76},{"user_id":911,"name":"erotio","steam_id":76561199423366156,"connected_time":1086000000000,"state":"active","ping":160},{"user_id":929,"name":"on that zaza?","steam_id":76561198038713198,"connected_time":110000000000,"state":"active","ping":61},{"user_id":901,"name":"Rat Smacker","steam_id":76561198043629646,"connected_time":1945000000000,"state":"active","ping":82},{"user_id":927,"name":"_copkilla.B1G$L1M‚Ç¨.zaddY_","steam_id":76561198283687382,"connected_time":270000000000,"state":"active","ping":74},{"user_id":923,"name":"Natsuki the Scunt","steam_id":76561199175922684,"connected_time":406000000000,"state":"active","ping":96},{"user_id":926,"name":"Toastered","steam_id":76561198178459042,"connected_time":291000000000,"state":"active","ping":100},{"user_id":900,"name":"Supur","steam_id":76561198051814355,"connected_time":2456000000000,"state":"active","ping":87},{"user_id":914,"name":"TheBrocklobster","steam_id":76561198039682984,"connected_time":1028000000000,"state":"active","ping":105}]},{"server_id":36,"name":"Uncletopia | Chicago | 5 | All Maps","name_short":"chi-5","host":"chi-2.us.uncletopia.com","port":27015,"enabled":true,"region":"us-central","cc":"us","latitude":41.881832,"longitude":-87.62318,"reserved":0,"last_update":"0001-01-01T00:00:00Z","name_a2s":"Uncletopia | Chicago | 5 | All Maps","protocol":17,"map":"pl_barnblitz","folder":"tf","game":"Team Fortress","app_id":440,"player_count":0,"max_players":24,"Bots":0,"server_type":"Dedicated","server_os":"Linux","password":true,"vac":true,"version":"7961495","steam_id":85568392924866362,"keywords":["nocrits","nodmgspread","payload","uncletopia"],"game_id":440,"stv_port":27016,"stv_name":"Uncletopia | Chicago | 5 | All Maps | STV","players":null},{"server_id":37,"name":"Uncletopia | Chicago | 6 | All Maps","name_short":"chi-6","host":"chi-2.us.uncletopia.com","port":27025,"enabled":true,"region":"us-central","cc":"us","latitude":41.881832,"longitude":-87.62318,"reserved":0,"last_update":"0001-01-01T00:00:00Z","name_a2s":"Uncletopia | Chicago | 6 | All Maps","protocol":17,"map":"cp_dustbowl","folder":"tf","game":"Team Fortress","app_id":440,"player_count":16,"max_players":24,"Bots":0,"server_type":"Dedicated","server_os":"Linux","password":true,"vac":true,"version":"7961495","steam_id":85568392924866363,"keywords":["cp","nocrits","nodmgspread","uncletopia"],"game_id":440,"stv_port":27026,"stv_name":"Uncletopia | Chicago | 6 | All Maps | STV","players":[{"user_id":419,"name":"One Lick Sleepy Joe","steam_id":76561198116751373,"connected_time":1971000000000,"state":"active","ping":105},{"user_id":434,"name":"mudspaw","steam_id":76561198101327448,"connected_time":33000000000,"state":"active","ping":57},{"user_id":341,"name":"chrischrischris3018@yahoo.com","steam_id":76561198137316053,"connected_time":7442000000000,"state":"active","ping":72},{"user_id":422,"name":"¬°c√°lmate!","steam_id":76561198071421094,"connected_time":1839000000000,"state":"active","ping":95},{"user_id":403,"name":"·óúÀ¨·óú","steam_id":76561198049076233,"connected_time":2703000000000,"state":"active","ping":72},{"user_id":385,"name":"Glover Speedrunner","steam_id":76561198015154311,"connected_time":4164000000000,"state":"active","ping":47},{"user_id":402,"name":"plasmaofthedawn","steam_id":76561198287916194,"connected_time":2729000000000,"state":"active","ping":89},{"user_id":406,"name":"Storethis","steam_id":76561198082792619,"connected_time":2669000000000,"state":"active","ping":66},{"user_id":368,"name":"aqua","steam_id":76561199407709552,"connected_time":5349000000000,"state":"active","ping":50},{"user_id":350,"name":"DaMultiversalist","steam_id":76561198239552412,"connected_time":6833000000000,"state":"active","ping":60},{"user_id":413,"name":"Orceus","steam_id":76561198254906285,"connected_time":2418000000000,"state":"active","ping":160},{"user_id":374,"name":"Some_Arse","steam_id":76561198039095394,"connected_time":4595000000000,"state":"active","ping":60},{"user_id":432,"name":"malvery","steam_id":76561198076554933,"connected_time":291000000000,"state":"active","ping":91},{"user_id":405,"name":"Nazmir Boglord","steam_id":76561198162890584,"connected_time":2690000000000,"state":"active","ping":71},{"user_id":418,"name":"Cringelander","steam_id":76561198841559088,"connected_time":2217000000000,"state":"active","ping":60},{"user_id":361,"name":"`o2","steam_id":76561197992030936,"connected_time":6379000000000,"state":"active","ping":66}]},{"server_id":38,"name":"Uncletopia | Chicago | 7 | Stopwatch","name_short":"chi-7","host":"chi-2.us.uncletopia.com","port":27035,"enabled":true,"region":"us-central","cc":"us","latitude":41.881832,"longitude":-87.62318,"reserved":0,"last_update":"0001-01-01T00:00:00Z","name_a2s":"Uncletopia | Chicago | 7 | Stopwatch","protocol":17,"map":"pl_borneo","folder":"tf","game":"Team Fortress","app_id":440,"player_count":0,"max_players":24,"Bots":0,"server_type":"Dedicated","server_os":"Linux","password":true,"vac":true,"version":"7961495","steam_id":85568392924866364,"keywords":["nocrits","nodmgspread","payload","uncletopia"],"game_id":440,"stv_port":27036,"stv_name":"Uncletopia | Chicago | 7 | Stopwatch | STV","players":null},{"server_id":39,"name":"Uncletopia | Chicago | 8 | Community","name_short":"chi-8","host":"chi-2.us.uncletopia.com","port":27045,"enabled":true,"region":"us-central","cc":"us","latitude":41.881832,"longitude":-87.62318,"reserved":0,"last_update":"0001-01-01T00:00:00Z","name_a2s":"Uncletopia | Chicago | 8 | Community","protocol":17,"map":"workshop/koth_slaughter_rc1.ugc1712845210","folder":"tf","game":"Team Fortress","app_id":440,"player_count":0,"max_players":24,"Bots":0,"server_type":"Dedicated","server_os":"Linux","password":true,"vac":true,"version":"7961495","steam_id":85568392924866365,"keywords":["cp","nocrits","nodmgspread","uncletopia"],"game_id":440,"stv_port":27046,"stv_name":"Uncletopia | Chicago | 8 | Community | STV","players":null},{"server_id":8,"name":"Uncletopia | Dallas | 1 | All Maps","name_short":"dal-1","host":"dal-1.us.uncletopia.com","port":27015,"enabled":true,"region":"us-central","cc":"us","latitude":32.779167,"longitude":-96.80889,"reserved":0,"last_update":"0001-01-01T00:00:00Z","name_a2s":"Uncletopia | Dallas | 1 | All Maps","protocol":17,"map":"cp_snakewater_final1","folder":"tf","game":"Team Fortress","app_id":440,"player_count":0,"max_players":24,"Bots":0,"server_type":"Dedicated","server_os":"Linux","password":true,"vac":true,"version":"7961495","steam_id":85568392924469986,"keywords":["cp","nocrits","nodmgspread","uncletopia"],"game_id":440,"stv_port":27016,"stv_name":"Uncletopia | Dallas | 1 | All Maps | STV","players":null},{"server_id":108,"name":"Uncletopia | Dallas | 2 | All Maps","name_short":"dal-2","host":"dal-1.us.uncletopia.com","port":27025,"enabled":true,"region":"us-central","cc":"us","latitude":32.779167,"longitude":-96.80889,"reserved":0,"last_update":"0001-01-01T00:00:00Z","name_a2s":"Uncletopia | Dallas | 2 | All Maps","protocol":17,"map":"cp_gorge","folder":"tf","game":"Team Fortress","app_id":440,"player_count":0,"max_players":24,"Bots":0,"server_type":"Dedicated","server_os":"Linux","password":true,"vac":true,"version":"7961495","steam_id":85568392924469988,"keywords":["cp","nocrits","nodmgspread","uncletopia"],"game_id":440,"stv_port":27026,"stv_name":"Uncletopia | Dallas | 2 | All Maps | STV","players":null},{"server_id":404,"name":"Uncletopia | Dallas | 3 | All Maps","name_short":"dal-3","host":"dal-1.us.uncletopia.com","port":27035,"enabled":true,"region":"us-central","cc":"us","latitude":32.779167,"longitude":-96.80889,"reserved":0,"last_update":"0001-01-01T00:00:00Z","name_a2s":"Uncletopia | Dallas | 3 | All Maps","protocol":17,"map":"cp_dustbowl","folder":"tf","game":"Team Fortress","app_id":440,"player_count":24,"max_players":24,"Bots":0,"server_type":"Dedicated","server_os":"Linux","password":true,"vac":true,"version":"7961495","steam_id":85568392924515219,"keywords":["cp","nocrits","nodmgspread","uncletopia"],"game_id":440,"stv_port":27036,"stv_name":"Uncletopia | Dallas | 3 | All Maps | STV","players":[{"user_id":174,"name":"xbox record that","steam_id":76561198150117455,"connected_time":805000000000,"state":"active","ping":65},{"user_id":145,"name":"hideyochest","steam_id":76561198090366059,"connected_time":3022000000000,"state":"active","ping":41},{"user_id":167,"name":"Colonel Knacker","steam_id":76561198151578423,"connected_time":1363000000000,"state":"active","ping":65},{"user_id":183,"name":"Moofins","steam_id":76561198050291949,"connected_time":218000000000,"state":"active","ping":84},{"user_id":157,"name":"Jesse Bear","steam_id":76561198217075305,"connected_time":2208000000000,"state":"active","ping":95},{"user_id":163,"name":"evil sorceress","steam_id":76561199196442823,"connected_time":1552000000000,"state":"active","ping":152},{"user_id":179,"name":"Sweater-Fan","steam_id":76561199389567214,"connected_time":401000000000,"state":"active","ping":60},{"user_id":170,"name":"penzfan","steam_id":76561198230422640,"connected_time":1150000000000,"state":"active","ping":71},{"user_id":168,"name":"Jovyel","steam_id":76561198118777065,"connected_time":1263000000000,"state":"active","ping":61},{"user_id":141,"name":"Waesel","steam_id":76561198069188177,"connected_time":3397000000000,"state":"active","ping":67},{"user_id":142,"name":"HUMBY","steam_id":76561198065045867,"connected_time":3390000000000,"state":"active","ping":79},{"user_id":150,"name":"Kuro","steam_id":76561198148107307,"connected_time":2477000000000,"state":"active","ping":65},{"user_id":88,"name":"Drakon","steam_id":76561198078210822,"connected_time":6216000000000,"state":"active","ping":100},{"user_id":178,"name":"chesterwnimitz","steam_id":76561198062664377,"connected_time":597000000000,"state":"active","ping":85},{"user_id":176,"name":"King","steam_id":76561198039763676,"connected_time":747000000000,"state":"active","ping":60},{"user_id":180,"name":"PIPPIN","steam_id":76561199013202758,"connected_time":399000000000,"state":"active","ping":81},{"user_id":169,"name":"shadowtaco69","steam_id":76561198112453714,"connected_time":1221000000000,"state":"active","ping":66},{"user_id":184,"name":"KiWii","steam_id":76561199013608864,"connected_time":62000000000,"state":"active","ping":63},{"user_id":107,"name":"Mayor McCheese","steam_id":76561198347579460,"connected_time":5226000000000,"state":"active","ping":104},{"user_id":182,"name":"Keyboardbreaker","steam_id":76561198372836132,"connected_time":248000000000,"state":"active","ping":101},{"user_id":152,"name":"Byakko","steam_id":76561198150451032,"connected_time":2463000000000,"state":"active","ping":66},{"user_id":153,"name":"üéÉBunnyüéÉ","steam_id":76561198074872531,"connected_time":2344000000000,"state":"active","ping":64},{"user_id":105,"name":"tuz","steam_id":76561197979961213,"connected_time":5400000000000,"state":"active","ping":66},{"user_id":108,"name":"Double Cheeseburger","steam_id":76561198107807617,"connected_time":5209000000000,"state":"active","ping":88}]},{"server_id":405,"name":"Uncletopia | Dallas | 4 | Community","name_short":"dal-4","host":"dal-1.us.uncletopia.com","port":27045,"enabled":true,"region":"us-central","cc":"us","latitude":32.779167,"longitude":-96.80889,"reserved":0,"last_update":"0001-01-01T00:00:00Z","name_a2s":"Uncletopia | Dallas | 4 | Community","protocol":17,"map":"workshop/koth_slaughter_rc1.ugc1712845210","folder":"tf","game":"Team Fortress","app_id":440,"player_count":3,"max_players":24,"Bots":0,"server_type":"Dedicated","server_os":"Linux","password":true,"vac":true,"version":"7961495","steam_id":85568392924515220,"keywords":["cp","nocrits","nodmgspread","uncletopia"],"game_id":440,"stv_port":27046,"stv_name":"Uncletopia | Dallas | 4 | Community | STV","players":[{"user_id":43,"name":"Kuyumiester","steam_id":76561198126835302,"connected_time":270000000000,"state":"active","ping":49},{"user_id":40,"name":"pink_flame","steam_id":76561198450290326,"connected_time":878000000000,"state":"active","ping":155},{"user_id":41,"name":"1000 Ping","steam_id":76561198098330939,"connected_time":665000000000,"state":"active","ping":96}]},{"server_id":5,"name":"Uncletopia | Frankfurt | 1 | All Maps","name_short":"frk-1","host":"frk-1.de.uncletopia.com","port":27015,"enabled":true,"region":"eu","cc":"de","latitude":50.110924,"longitude":8.682127,"reserved":0,"last_update":"0001-01-01T00:00:00Z","name_a2s":"Uncletopia | Frankfurt | 1 | All Maps","protocol":17,"map":"koth_highpass","folder":"tf","game":"Team Fortress","app_id":440,"player_count":0,"max_players":24,"Bots":0,"server_type":"Dedicated","server_os":"Linux","password":true,"vac":true,"version":"7961495","steam_id":85568392924469989,"keywords":["cp","nocrits","nodmgspread","uncletopia"],"game_id":440,"stv_port":27016,"stv_name":"Uncletopia | Frankfurt | 1 | All Maps | STV","players":null},{"server_id":110,"name":"Uncletopia | Frankfurt | 2 | All Maps","name_short":"frk-2","host":"frk-1.de.uncletopia.com","port":27025,"enabled":true,"region":"eu","cc":"de","latitude":50.110924,"longitude":8.682127,"reserved":0,"last_update":"0001-01-01T00:00:00Z","name_a2s":"Uncletopia | Frankfurt | 2 | All Maps","protocol":17,"map":"cp_snakewater_final1","folder":"tf","game":"Team Fortress","app_id":440,"player_count":0,"max_players":24,"Bots":0,"server_type":"Dedicated","server_os":"Linux","password":true,"vac":true,"version":"7961495","steam_id":85568392924469990,"keywords":["cp","nocrits","nodmgspread","uncletopia"],"game_id":440,"stv_port":27026,"stv_name":"Uncletopia | Frankfurt | 2 | All Maps | STV","players":null},{"server_id":308,"name":"Uncletopia | Frankfurt | 3 | All Maps","name_short":"frk-3","host":"frk-1.de.uncletopia.com","port":27035,"enabled":true,"region":"eu","cc":"de","latitude":50.110924,"longitude":8.682127,"reserved":0,"last_update":"0001-01-01T00:00:00Z","name_a2s":"Uncletopia | Frankfurt | 3 | All Maps","protocol":17,"map":"pl_barnblitz","folder":"tf","game":"Team Fortress","app_id":440,"player_count":0,"max_players":24,"Bots":0,"server_type":"Dedicated","server_os":"Linux","password":true,"vac":true,"version":"7961495","steam_id":85568392924504274,"keywords":["nocrits","nodmgspread","payload","uncletopia"],"game_id":440,"stv_port":27036,"stv_name":"Uncletopia | Frankfurt | 3 | All Maps | STV","players":null},{"server_id":309,"name":"Uncletopia | Frankfurt | 4 | All Maps","name_short":"frk-4","host":"frk-1.de.uncletopia.com","port":27045,"enabled":true,"region":"eu","cc":"de","latitude":50.110924,"longitude":8.682127,"reserved":0,"last_update":"0001-01-01T00:00:00Z","name_a2s":"Uncletopia | Frankfurt | 4 | All Maps","protocol":17,"map":"koth_highpass","folder":"tf","game":"Team Fortress","app_id":440,"player_count":0,"max_players":24,"Bots":0,"server_type":"Dedicated","server_os":"Linux","password":true,"vac":true,"version":"7961495","steam_id":85568392924504275,"keywords":["cp","nocrits","nodmgspread","uncletopia"],"game_id":440,"stv_port":27046,"stv_name":"Uncletopia | Frankfurt | 4 | All Maps | STV","players":null},{"server_id":310,"name":"Uncletopia | Frankfurt | 5 | All Maps","name_short":"frk-5","host":"frk-1.de.uncletopia.com","port":27055,"enabled":true,"region":"eu","cc":"de","latitude":50.110924,"longitude":8.682127,"reserved":0,"last_update":"0001-01-01T00:00:00Z","name_a2s":"Uncletopia | Frankfurt | 5 | All Maps","protocol":17,"map":"pl_badwater","folder":"tf","game":"Team Fortress","app_id":440,"player_count":0,"max_players":24,"Bots":0,"server_type":"Dedicated","server_os":"Linux","password":true,"vac":true,"version":"7961495","steam_id":85568392924504277,"keywords":["nocrits","nodmgspread","payload","uncletopia"],"game_id":440,"stv_port":27056,"stv_name":"Uncletopia | Frankfurt | 5 | All Maps | STV","players":null},{"server_id":311,"name":"Uncletopia | Frankfurt | 6 | All Maps","name_short":"frk-6","host":"frk-1.de.uncletopia.com","port":27065,"enabled":true,"region":"eu","cc":"de","latitude":50.110924,"longitude":8.682127,"reserved":0,"last_update":"0001-01-01T00:00:00Z","name_a2s":"Uncletopia | Frankfurt | 6 | All Maps","protocol":17,"map":"cp_altitude","folder":"tf","game":"Team Fortress","app_id":440,"player_count":0,"max_players":24,"Bots":0,"server_type":"Dedicated","server_os":"Linux","password":true,"vac":true,"version":"7961495","steam_id":85568392924504278,"keywords":["cp","nocrits","nodmgspread","uncletopia"],"game_id":440,"stv_port":27066,"stv_name":"Uncletopia | Frankfurt | 6 | All Maps | STV","players":null},{"server_id":23,"name":"Uncletopia | Frankfurt | 7 | Stopwatch","name_short":"frk-7","host":"frk-1.de.uncletopia.com","port":27075,"enabled":true,"region":"eu","cc":"de","latitude":50.110924,"longitude":8.682127,"reserved":0,"last_update":"0001-01-01T00:00:00Z","name_a2s":"Uncletopia | Frankfurt | 7 | Stopwatch","protocol":17,"map":"pl_frontier_final","folder":"tf","game":"Team Fortress","app_id":440,"player_count":0,"max_players":24,"Bots":0,"server_type":"Dedicated","server_os":"Linux","password":true,"vac":true,"version":"7961495","steam_id":85568392924742827,"keywords":["nocrits","nodmgspread","payload","uncletopia"],"game_id":440,"stv_port":27076,"stv_name":"Uncletopia | Frankfurt | 7 | Stopwatch | STV","players":null},{"server_id":24,"name":"Uncletopia | Frankfurt | 8 | Community","name_short":"frk-8","host":"frk-1.de.uncletopia.com","port":27085,"enabled":true,"region":"eu","cc":"de","latitude":50.110924,"longitude":8.682127,"reserved":0,"last_update":"0001-01-01T00:00:00Z","name_a2s":"Uncletopia | Frankfurt | 8 | Community","protocol":17,"map":"cp_mountainlab","folder":"tf","game":"Team Fortress","app_id":440,"player_count":0,"max_players":24,"Bots":0,"server_type":"Dedicated","server_os":"Linux","password":true,"vac":true,"version":"7961495","steam_id":85568392924742828,"keywords":["cp","nocrits","nodmgspread","uncletopia"],"game_id":440,"stv_port":27086,"stv_name":"Uncletopia | Frankfurt | 8 | Community | STV","players":null},{"server_id":202,"name":"Uncletopia | Hong Kong | 1 | All Maps","name_short":"hgk-1","host":"hgk-1.hk.uncletopia.com","port":27015,"enabled":true,"region":"asia","cc":"hk","latitude":22.302711,"longitude":114.177216,"reserved":0,"last_update":"0001-01-01T00:00:00Z","name_a2s":"Uncletopia | Hong Kong | 1 | All Maps","protocol":17,"map":"pl_borneo","folder":"tf","game":"Team Fortress","app_id":440,"player_count":24,"max_players":24,"Bots":0,"server_type":"Dedicated","server_os":"Linux","password":true,"vac":true,"version":"7961495","steam_id":85568392924494504,"keywords":["nocrits","nodmgspread","payload","uncletopia"],"game_id":440,"stv_port":27016,"stv_name":"Uncletopia | Hong Kong | 1 | All Maps | STV","players":[{"user_id":109,"name":"Dr. Gregory House","steam_id":76561198813103989,"connected_time":2924000000000,"state":"active","ping":77},{"user_id":126,"name":"Telekhine","steam_id":76561198387120618,"connected_time":947000000000,"state":"active","ping":62},{"user_id":110,"name":"JayH ^-^","steam_id":76561198362974421,"connected_time":2916000000000,"state":"active","ping":96},{"user_id":71,"name":"Sheena","steam_id":76561198412391539,"connected_time":7879000000000,"state":"active","ping":77},{"user_id":36,"name":"ArcticDolphin","steam_id":76561198203626319,"connected_time":11778000000000,"state":"active","ping":125},{"user_id":124,"name":"kiyomi","steam_id":76561198240627872,"connected_time":1162000000000,"state":"active","ping":47},{"user_id":118,"name":"ÍπÄÍ¥ëÎßå","steam_id":76561198295279503,"connected_time":2268000000000,"state":"active","ping":102},{"user_id":80,"name":"noob pyro of all time","steam_id":76561198074339034,"connected_time":6408000000000,"state":"active","ping":77},{"user_id":100,"name":"cau be thieu nang","steam_id":76561199273435519,"connected_time":3844000000000,"state":"active","ping":67},{"user_id":86,"name":"g-host","steam_id":76561198298740090,"connected_time":5107000000000,"state":"active","ping":97},{"user_id":78,"name":"doze","steam_id":76561198318292720,"connected_time":6620000000000,"state":"active","ping":126},{"user_id":131,"name":"real","steam_id":76561199044555397,"connected_time":233000000000,"state":"active","ping":98},{"user_id":123,"name":"peanut butter jelly","steam_id":76561199216326337,"connected_time":1169000000000,"state":"active","ping":103},{"user_id":99,"name":"P","steam_id":76561198304514505,"connected_time":4007000000000,"state":"active","ping":75},{"user_id":44,"name":"villy","steam_id":76561198169263597,"connected_time":10659000000000,"state":"active","ping":39},{"user_id":119,"name":"i am a F2P and my aim is shit","steam_id":76561199475974790,"connected_time":2090000000000,"state":"active","ping":82},{"user_id":103,"name":"xXxSheesh123ProGamerxXx","steam_id":76561198835368750,"connected_time":3601000000000,"state":"active","ping":72},{"user_id":72,"name":"3wfFbdrjEze5d2G","steam_id":76561198435900451,"connected_time":7878000000000,"state":"active","ping":108},{"user_id":94,"name":"beaver the domestic terrorist","steam_id":76561199219484527,"connected_time":4749000000000,"state":"active","ping":117},{"user_id":73,"name":"v1.","steam_id":76561198037571054,"connected_time":7766000000000,"state":"active","ping":45},{"user_id":130,"name":"‚ô°Himiko X Kokichi‚ô°","steam_id":76561199118887297,"connected_time":902000000000,"state":"active","ping":86},{"user_id":91,"name":"Mac09","steam_id":76561198934873063,"connected_time":4917000000000,"state":"active","ping":76},{"user_id":121,"name":"Spy CrŒªb F2P","steam_id":76561199090200486,"connected_time":1389000000000,"state":"active","ping":63},{"user_id":125,"name":"RedBee (Femboy Nurse Èõô)","steam_id":76561198976736971,"connected_time":1157000000000,"state":"active","ping":47}]},{"server_id":1,"name":"Uncletopia | Los Angeles | 1 | All Maps","name_short":"lax-1","host":"lax-1.us.uncletopia.com","port":27015,"enabled":true,"region":"us-west","cc":"us","latitude":33.94279,"longitude":-118.41004,"reserved":0,"last_update":"0001-01-01T00:00:00Z","name_a2s":"Uncletopia | Los Angeles | 1 | All Maps","protocol":17,"map":"cp_dustbowl","folder":"tf","game":"Team Fortress","app_id":440,"player_count":0,"max_players":24,"Bots":0,"server_type":"Dedicated","server_os":"Linux","password":true,"vac":true,"version":"7961495","steam_id":85568392924469991,"keywords":["cp","nocrits","nodmgspread","uncletopia"],"game_id":440,"stv_port":27016,"stv_name":"Uncletopia | Los Angeles | 1 | All Maps | STV","players":null},{"server_id":112,"name":"Uncletopia | Los Angeles | 2 | All Maps","name_short":"lax-2","host":"lax-1.us.uncletopia.com","port":27025,"enabled":true,"region":"us-west","cc":"us","latitude":33.94279,"longitude":-118.41004,"reserved":0,"last_update":"0001-01-01T00:00:00Z","name_a2s":"Uncletopia | Los Angeles | 2 | All Maps","protocol":17,"map":"cp_process_final","folder":"tf","game":"Team Fortress","app_id":440,"player_count":0,"max_players":24,"Bots":0,"server_type":"Dedicated","server_os":"Linux","password":true,"vac":true,"version":"7961495","steam_id":85568392924469992,"keywords":["cp","nocrits","nodmgspread","uncletopia"],"game_id":440,"stv_port":27026,"stv_name":"Uncletopia | Los Angeles | 2 | All Maps | STV","players":null},{"server_id":324,"name":"Uncletopia | Los Angeles | 3 | All Maps","name_short":"lax-3","host":"lax-1.us.uncletopia.com","port":27035,"enabled":true,"region":"us-west","cc":"us","latitude":33.94279,"longitude":-118.41004,"reserved":0,"last_update":"0001-01-01T00:00:00Z","name_a2s":"Uncletopia | Los Angeles | 3 | All Maps","protocol":17,"map":"pl_borneo","folder":"tf","game":"Team Fortress","app_id":440,"player_count":24,"max_players":24,"Bots":0,"server_type":"Dedicated","server_os":"Linux","password":true,"vac":true,"version":"7961495","steam_id":85568392924510198,"keywords":["nocrits","nodmgspread","payload","uncletopia"],"game_id":440,"stv_port":27036,"stv_name":"Uncletopia | Los Angeles | 3 | All Maps | STV","players":[{"user_id":396,"name":"dewey","steam_id":76561198132791511,"connected_time":553000000000,"state":"active","ping":57},{"user_id":374,"name":"EclipseHellhound","steam_id":76561199192649470,"connected_time":1889000000000,"state":"active","ping":59},{"user_id":384,"name":"bcizzo","steam_id":76561197994399953,"connected_time":1657000000000,"state":"active","ping":65},{"user_id":398,"name":"waggyaggy (it/she)","steam_id":76561197998241407,"connected_time":542000000000,"state":"active","ping":49},{"user_id":353,"name":"FlexTape","steam_id":76561198871834867,"connected_time":3465000000000,"state":"active","ping":72},{"user_id":368,"name":"Captain Heavy","steam_id":76561198050553351,"connected_time":2497000000000,"state":"active","ping":54},{"user_id":387,"name":"TheTroller1Billion","steam_id":76561198328017774,"connected_time":1520000000000,"state":"active","ping":79},{"user_id":402,"name":"LeSperm James","steam_id":76561198144909435,"connected_time":249000000000,"state":"active","ping":53},{"user_id":397,"name":"jams","steam_id":76561198131701290,"connected_time":546000000000,"state":"active","ping":45},{"user_id":386,"name":"HopeTheNeko","steam_id":76561199159285465,"connected_time":1557000000000,"state":"active","ping":61},{"user_id":399,"name":"Low N' Brow","steam_id":76561198167127580,"connected_time":535000000000,"state":"active","ping":56},{"user_id":347,"name":"Noire","steam_id":76561198149370109,"connected_time":3598000000000,"state":"active","ping":87},{"user_id":376,"name":"Under an Unquiet Skull","steam_id":76561198164782653,"connected_time":1871000000000,"state":"active","ping":111},{"user_id":388,"name":"eBay","steam_id":76561198061214569,"connected_time":1454000000000,"state":"active","ping":98},{"user_id":381,"name":"social distance warrior","steam_id":76561198128992994,"connected_time":1813000000000,"state":"active","ping":73},{"user_id":403,"name":"T√ºCold","steam_id":76561198111278197,"connected_time":1000000000,"state":"spawning","ping":46},{"user_id":351,"name":"rattyrat","steam_id":76561198233994900,"connected_time":3534000000000,"state":"active","ping":42},{"user_id":321,"name":"Clagger","steam_id":76561198066701092,"connected_time":5749000000000,"state":"active","ping":72},{"user_id":360,"name":"CheeseCake488","steam_id":76561199407617942,"connected_time":3190000000000,"state":"active","ping":108},{"user_id":377,"name":"gerg","steam_id":76561197997127387,"connected_time":1868000000000,"state":"active","ping":59},{"user_id":359,"name":"roach :3","steam_id":76561198354811369,"connected_time":3226000000000,"state":"active","ping":45},{"user_id":400,"name":"TrueBoredom","steam_id":76561198027021364,"connected_time":526000000000,"state":"active","ping":59},{"user_id":393,"name":"Mocha Josie","steam_id":76561198066452726,"connected_time":1145000000000,"state":"active","ping":88},{"user_id":361,"name":"Ian","steam_id":76561198159334435,"connected_time":3166000000000,"state":"active","ping":165}]},{"server_id":25,"name":"Uncletopia | Los Angeles | 4 | Stopwatch","name_short":"lax-4","host":"lax-1.us.uncletopia.com","port":27045,"enabled":true,"region":"us-west","cc":"us","latitude":33.94279,"longitude":-118.41004,"reserved":0,"last_update":"0001-01-01T00:00:00Z","name_a2s":"Uncletopia | Los Angeles | 4 | Stopwatch","protocol":17,"map":"pl_barnblitz","folder":"tf","game":"Team Fortress","app_id":440,"player_count":0,"max_players":24,"Bots":0,"server_type":"Dedicated","server_os":"Linux","password":true,"vac":true,"version":"7961495","steam_id":85568392924510199,"keywords":["nocrits","nodmgspread","payload","uncletopia"],"game_id":440,"stv_port":27046,"stv_name":"Uncletopia | Los Angeles | 4 | Stopwatch | STV","players":null},{"server_id":11,"name":"Uncletopia | London | 1 | All Maps","name_short":"lon-1","host":"lon-1.uk.uncletopia.com","port":27015,"enabled":true,"region":"eu","cc":"gb","latitude":51.509865,"longitude":-0.118092,"reserved":0,"last_update":"0001-01-01T00:00:00Z","name_a2s":"Uncletopia | London | 1 | All Maps","protocol":17,"map":"koth_highpass","folder":"tf","game":"Team Fortress","app_id":440,"player_count":0,"max_players":24,"Bots":0,"server_type":"Dedicated","server_os":"Linux","password":true,"vac":true,"version":"7961495","steam_id":85568392924367362,"keywords":["cp","nocrits","nodmgspread","uncletopia"],"game_id":440,"stv_port":27016,"stv_name":"Uncletopia | London | 1 | All Maps | STV","players":null},{"server_id":114,"name":"Uncletopia | London | 2 | All Maps","name_short":"lon-2","host":"lon-1.uk.uncletopia.com","port":27025,"enabled":true,"region":"eu","cc":"gb","latitude":51.509865,"longitude":-0.118092,"reserved":0,"last_update":"0001-01-01T00:00:00Z","name_a2s":"Uncletopia | London | 2 | All Maps","protocol":17,"map":"koth_lakeside_final","folder":"tf","game":"Team Fortress","app_id":440,"player_count":0,"max_players":24,"Bots":0,"server_type":"Dedicated","server_os":"Linux","password":true,"vac":true,"version":"7961495","steam_id":85568392924470941,"keywords":["cp","nocrits","nodmgspread","uncletopia"],"game_id":440,"stv_port":27026,"stv_name":"Uncletopia | London | 2 | All Maps | STV","players":null},{"server_id":320,"name":"Uncletopia | London | 3 | All Maps","name_short":"lon-3","host":"lon-1.uk.uncletopia.com","port":27035,"enabled":true,"region":"eu","cc":"gb","latitude":51.509865,"longitude":-0.118092,"reserved":0,"last_update":"0001-01-01T00:00:00Z","name_a2s":"Uncletopia | London | 3 | All Maps","protocol":17,"map":"koth_lakeside_final","folder":"tf","game":"Team Fortress","app_id":440,"player_count":0,"max_players":24,"Bots":0,"server_type":"Dedicated","server_os":"Linux","password":true,"vac":true,"version":"7961495","steam_id":85568392924510192,"keywords":["cp","nocrits","nodmgspread","uncletopia"],"game_id":440,"stv_port":27036,"stv_name":"Uncletopia | London | 3 | All Maps | STV","players":null},{"server_id":321,"name":"Uncletopia | London | 4 | All Maps","name_short":"lon-4","host":"lon-1.uk.uncletopia.com","port":27045,"enabled":true,"region":"eu","cc":"gb","latitude":51.509865,"longitude":-0.118092,"reserved":0,"last_update":"0001-01-01T00:00:00Z","name_a2s":"Uncletopia | London | 4 | All Maps","protocol":17,"map":"koth_cascade","folder":"tf","game":"Team Fortress","app_id":440,"player_count":0,"max_players":24,"Bots":0,"server_type":"Dedicated","server_os":"Linux","password":true,"vac":true,"version":"7961495","steam_id":85568392924510193,"keywords":["cp","nocrits","nodmgspread","uncletopia"],"game_id":440,"stv_port":27046,"stv_name":"Uncletopia | London | 4 | All Maps | STV","players":null},{"server_id":21,"name":"Uncletopia | London | 5 | All Maps","name_short":"lon-5","host":"lon-1.uk.uncletopia.com","port":27055,"enabled":true,"region":"eu","cc":"gb","latitude":51.509865,"longitude":-0.118092,"reserved":0,"last_update":"0001-01-01T00:00:00Z","name_a2s":"Uncletopia | London | 5 | All Maps","protocol":17,"map":"koth_lakeside_final","folder":"tf","game":"Team Fortress","app_id":440,"player_count":0,"max_players":24,"Bots":0,"server_type":"Dedicated","server_os":"Linux","password":true,"vac":true,"version":"7961495","steam_id":85568392924742829,"keywords":["cp","nocrits","nodmgspread","uncletopia"],"game_id":440,"stv_port":27056,"stv_name":"Uncletopia | London | 5 | All Maps | STV","players":null},{"server_id":22,"name":"Uncletopia | London | 6 | All Maps","name_short":"lon-6","host":"lon-1.uk.uncletopia.com","port":27065,"enabled":true,"region":"eu","cc":"gb","latitude":51.509865,"longitude":-0.118092,"reserved":0,"last_update":"0001-01-01T00:00:00Z","name_a2s":"Uncletopia | London | 6 | All Maps","protocol":17,"map":"cp_dustbowl","folder":"tf","game":"Team Fortress","app_id":440,"player_count":0,"max_players":24,"Bots":0,"server_type":"Dedicated","server_os":"Linux","password":true,"vac":true,"version":"7961495","steam_id":85568392924742830,"keywords":["cp","nocrits","nodmgspread","uncletopia"],"game_id":440,"stv_port":27066,"stv_name":"Uncletopia | London | 6 | All Maps | STV","players":null},{"server_id":40,"name":"Uncletopia | London | 7 | Stopwatch","name_short":"lon-7","host":"lon-1.uk.uncletopia.com","port":27075,"enabled":true,"region":"eu","cc":"gb","latitude":51.509865,"longitude":-0.118092,"reserved":0,"last_update":"0001-01-01T00:00:00Z","name_a2s":"Uncletopia | London | 7 | Stopwatch","protocol":17,"map":"koth_lakeside_final","folder":"tf","game":"Team Fortress","app_id":440,"player_count":0,"max_players":24,"Bots":0,"server_type":"Dedicated","server_os":"Linux","password":true,"vac":true,"version":"7961495","steam_id":85568392924964314,"keywords":["cp","nocrits","nodmgspread","uncletopia"],"game_id":440,"stv_port":27076,"stv_name":"Uncletopia | London | 7 | Stopwatch | STV","players":null},{"server_id":41,"name":"Uncletopia | London | 8 | Community","name_short":"lon-8","host":"lon-1.uk.uncletopia.com","port":27085,"enabled":true,"region":"eu","cc":"gb","latitude":51.509865,"longitude":-0.118092,"reserved":0,"last_update":"0001-01-01T00:00:00Z","name_a2s":"Uncletopia | London | 8 | Community","protocol":17,"map":"cp_snakewater_final1","folder":"tf","game":"Team Fortress","app_id":440,"player_count":0,"max_players":24,"Bots":0,"server_type":"Dedicated","server_os":"Linux","password":true,"vac":true,"version":"7961495","steam_id":85568392924964315,"keywords":["cp","nocrits","nodmgspread","uncletopia"],"game_id":440,"stv_port":27086,"stv_name":"Uncletopia | London | 8 | Community | STV","players":null},{"server_id":300,"name":"Uncletopia | Montr√©al | 1 | One Thousand Uncles","name_short":"mtl-1","host":"mtl-1.ca.uncletopia.com","port":27015,"enabled":true,"region":"us-east","cc":"ca","latitude":45.50889,"longitude":-73.56167,"reserved":0,"last_update":"0001-01-01T00:00:00Z","name_a2s":"","protocol":0,"map":"","folder":"","game":"","app_id":0,"player_count":0,"max_players":0,"Bots":0,"server_type":"","server_os":"","password":false,"vac":false,"version":"","steam_id":0,"keywords":null,"game_id":0,"stv_port":0,"stv_name":"","players":null},{"server_id":301,"name":"Uncletopia | Montr√©al | 2 | One Thousand Uncles","name_short":"mtl-2","host":"mtl-1.ca.uncletopia.com","port":27025,"enabled":true,"region":"us-east","cc":"ca","latitude":45.50889,"longitude":-73.56167,"reserved":0,"last_update":"0001-01-01T00:00:00Z","name_a2s":"","protocol":0,"map":"","folder":"","game":"","app_id":0,"player_count":0,"max_players":0,"Bots":0,"server_type":"","server_os":"","password":false,"vac":false,"version":"","steam_id":0,"keywords":null,"game_id":0,"stv_port":0,"stv_name":"","players":null},{"server_id":302,"name":"Uncletopia | Montr√©al | 3 | One Thousand Uncles","name_short":"mtl-3","host":"mtl-1.ca.uncletopia.com","port":27035,"enabled":true,"region":"us-east","cc":"ca","latitude":45.50889,"longitude":-73.56167,"reserved":0,"last_update":"0001-01-01T00:00:00Z","name_a2s":"","protocol":0,"map":"","folder":"","game":"","app_id":0,"player_count":0,"max_players":0,"Bots":0,"server_type":"","server_os":"","password":false,"vac":false,"version":"","steam_id":0,"keywords":null,"game_id":0,"stv_port":0,"stv_name":"","players":null},{"server_id":13,"name":"Uncletopia | New York City | 1 | All Maps","name_short":"nyc-1","host":"nyc-1.us.uncletopia.com","port":27015,"enabled":true,"region":"us-east","cc":"us","latitude":40.73061,"longitude":-73.93524,"reserved":0,"last_update":"0001-01-01T00:00:00Z","name_a2s":"Uncletopia | New York City | 1 | All Maps","protocol":17,"map":"cp_process_final","folder":"tf","game":"Team Fortress","app_id":440,"player_count":0,"max_players":24,"Bots":0,"server_type":"Dedicated","server_os":"Linux","password":true,"vac":true,"version":"7961495","steam_id":85568392924469993,"keywords":["cp","nocrits","nodmgspread","uncletopia"],"game_id":440,"stv_port":27016,"stv_name":"Uncletopia | New York City | 1 | All Maps | STV","players":null},{"server_id":14,"name":"Uncletopia | New York City | 2 | All Maps","name_short":"nyc-2","host":"nyc-1.us.uncletopia.com","port":27025,"enabled":true,"region":"us-east","cc":"us","latitude":40.73061,"longitude":-73.93524,"reserved":0,"last_update":"0001-01-01T00:00:00Z","name_a2s":"Uncletopia | New York City | 2 | All Maps","protocol":17,"map":"pl_badwater","folder":"tf","game":"Team Fortress","app_id":440,"player_count":23,"max_players":24,"Bots":0,"server_type":"Dedicated","server_os":"Linux","password":true,"vac":true,"version":"7961495","steam_id":85568392924469994,"keywords":["nocrits","nodmgspread","payload","uncletopia"],"game_id":440,"stv_port":27026,"stv_name":"Uncletopia | New York City | 2 | All Maps | STV","players":[{"user_id":766,"name":"Zesty Zucchini Ziti","steam_id":76561198092494136,"connected_time":933000000000,"state":"active","ping":75},{"user_id":777,"name":"night.s","steam_id":76561198326287823,"connected_time":258000000000,"state":"active","ping":150},{"user_id":736,"name":"Evan","steam_id":76561198081165364,"connected_time":3405000000000,"state":"active","ping":55},{"user_id":773,"name":"Magic1L","steam_id":76561198831787182,"connected_time":624000000000,"state":"active","ping":145},{"user_id":775,"name":"syruptology","steam_id":76561199435086194,"connected_time":507000000000,"state":"active","ping":84},{"user_id":754,"name":"THEALLSEEINGCAKE","steam_id":76561199251417876,"connected_time":1592000000000,"state":"active","ping":165},{"user_id":779,"name":"chill stoner guy w/ cool storie","steam_id":76561198120973162,"connected_time":210000000000,"state":"active","ping":73},{"user_id":750,"name":"Brawns","steam_id":76561198045190199,"connected_time":2206000000000,"state":"active","ping":61},{"user_id":763,"name":"the meat man","steam_id":76561198037921140,"connected_time":1092000000000,"state":"active","ping":105},{"user_id":764,"name":"brian eno","steam_id":76561198109901138,"connected_time":1014000000000,"state":"active","ping":55},{"user_id":778,"name":"mothra","steam_id":76561198083063005,"connected_time":229000000000,"state":"active","ping":106},{"user_id":780,"name":"Hopdon The Magic Bunny","steam_id":76561198051616613,"connected_time":156000000000,"state":"active","ping":91},{"user_id":771,"name":"Bheem","steam_id":76561198170453459,"connected_time":866000000000,"state":"active","ping":104},{"user_id":781,"name":"sheeesh","steam_id":76561198038080028,"connected_time":126000000000,"state":"active","ping":120},{"user_id":726,"name":"sloth (i have gay)","steam_id":76561198047098172,"connected_time":4233000000000,"state":"active","ping":61},{"user_id":782,"name":"Stoop","steam_id":76561198012111621,"connected_time":90000000000,"state":"active","ping":59},{"user_id":774,"name":"Ariel","steam_id":76561199072335323,"connected_time":601000000000,"state":"active","ping":119},{"user_id":776,"name":"capt","steam_id":76561198396814154,"connected_time":278000000000,"state":"active","ping":130},{"user_id":756,"name":"Walver","steam_id":76561199173737101,"connected_time":1590000000000,"state":"active","ping":168},{"user_id":748,"name":"Hamis","steam_id":76561199007466970,"connected_time":2647000000000,"state":"active","ping":136},{"user_id":761,"name":"Female Gamer","steam_id":76561199366482682,"connected_time":1190000000000,"state":"active","ping":129},{"user_id":784,"name":"RoseHeart","steam_id":76561198041024002,"connected_time":58000000000,"state":"active","ping":115},{"user_id":785,"name":"Sly cooper","steam_id":76561198242108868,"connected_time":43000000000,"state":"active","ping":68}]},{"server_id":15,"name":"Uncletopia | New York City | 3 | Stopwatch","name_short":"nyc-3","host":"nyc-1.us.uncletopia.com","port":27035,"enabled":true,"region":"us-east","cc":"us","latitude":40.73061,"longitude":-73.93524,"reserved":0,"last_update":"0001-01-01T00:00:00Z","name_a2s":"Uncletopia | New York City | 3 | Stopwatch","protocol":17,"map":"workshop/koth_ashville_final.ugc2130459942","folder":"tf","game":"Team Fortress","app_id":440,"player_count":0,"max_players":24,"Bots":0,"server_type":"Dedicated","server_os":"Linux","password":true,"vac":true,"version":"7961495","steam_id":85568392924742820,"keywords":["cp","nocrits","nodmgspread","uncletopia"],"game_id":440,"stv_port":27036,"stv_name":"Uncletopia | New York City | 3 | Stopwatch | STV","players":null},{"server_id":16,"name":"Uncletopia | New York City | 4 | Community","name_short":"nyc-4","host":"nyc-1.us.uncletopia.com","port":27045,"enabled":true,"region":"us-east","cc":"us","latitude":40.73061,"longitude":-73.93524,"reserved":0,"last_update":"0001-01-01T00:00:00Z","name_a2s":"Uncletopia | New York City | 4 | Community","protocol":17,"map":"workshop/pl_shoreleave_rc2.ugc1238849347","folder":"tf","game":"Team Fortress","app_id":440,"player_count":0,"max_players":24,"Bots":0,"server_type":"Dedicated","server_os":"Linux","password":true,"vac":true,"version":"7961495","steam_id":85568392924742821,"keywords":["nocrits","nodmgspread","payload","uncletopia"],"game_id":440,"stv_port":27046,"stv_name":"Uncletopia | New York City | 4 | Community | STV","players":null},{"server_id":142,"name":"Uncletopia | S√£o Paulo | 1 | All Maps","name_short":"sao-1","host":"sao-1.br.uncletopia.com","port":27015,"enabled":true,"region":"sa","cc":"br","latitude":-23.533773,"longitude":-46.62529,"reserved":0,"last_update":"0001-01-01T00:00:00Z","name_a2s":"Uncletopia | S√£o Paulo | 1 | All Maps","protocol":17,"map":"koth_cascade","folder":"tf","game":"Team Fortress","app_id":440,"player_count":0,"max_players":24,"Bots":0,"server_type":"Dedicated","server_os":"Linux","password":true,"vac":true,"version":"7961495","steam_id":85568392924469996,"keywords":["cp","nocrits","nodmgspread","uncletopia"],"game_id":440,"stv_port":27016,"stv_name":"Uncletopia | S√£o Paulo | 1 | All Maps | STV","players":null},{"server_id":143,"name":"Uncletopia | S√£o Paulo | 2 | Community","name_short":"sao-2","host":"sao-2.br.uncletopia.com","port":27015,"enabled":true,"region":"sa","cc":"br","latitude":-23.533773,"longitude":-46.62529,"reserved":0,"last_update":"0001-01-01T00:00:00Z","name_a2s":"Uncletopia | S√£o Paulo | 2 | Community","protocol":17,"map":"workshop/koth_synthetic_rc6a.ugc1549817316","folder":"tf","game":"Team Fortress","app_id":440,"player_count":0,"max_players":24,"Bots":0,"server_type":"Dedicated","server_os":"Linux","password":true,"vac":true,"version":"7961495","steam_id":85568392924485349,"keywords":["cp","nocrits","nodmgspread","uncletopia"],"game_id":440,"stv_port":27016,"stv_name":"Uncletopia | S√£o Paulo | 2 | Community | STV","players":null},{"server_id":7,"name":"Uncletopia | Seattle | 1 | All Maps","name_short":"sea-1","host":"sea-1.us.uncletopia.com","port":27015,"enabled":true,"region":"us-west","cc":"us","latitude":47.608013,"longitude":-122.33517,"reserved":0,"last_update":"0001-01-01T00:00:00Z","name_a2s":"Uncletopia | Seattle | 1 | All Maps","protocol":17,"map":"pl_upward","folder":"tf","game":"Team Fortress","app_id":440,"player_count":24,"max_players":24,"Bots":0,"server_type":"Dedicated","server_os":"Linux","password":true,"vac":true,"version":"7961495","steam_id":85568392924469997,"keywords":["nocrits","nodmgspread","payload","uncletopia"],"game_id":440,"stv_port":27016,"stv_name":"Uncletopia | Seattle | 1 | All Maps | STV","players":[{"user_id":656,"name":"crouching tiger heavy","steam_id":76561198121767390,"connected_time":1530000000000,"state":"active","ping":47},{"user_id":645,"name":"Bcuz","steam_id":76561197981318027,"connected_time":2326000000000,"state":"active","ping":83},{"user_id":664,"name":"waffle","steam_id":76561198077799844,"connected_time":1224000000000,"state":"active","ping":80},{"user_id":650,"name":"Mr8bittripper","steam_id":76561198133894229,"connected_time":1789000000000,"state":"active","ping":42},{"user_id":673,"name":"[TrC] Nosy","steam_id":76561197978859310,"connected_time":600000000000,"state":"active","ping":58},{"user_id":597,"name":"Sweets","steam_id":76561198998446307,"connected_time":8880000000000,"state":"active","ping":66},{"user_id":653,"name":"RainboomCrash","steam_id":76561198065612273,"connected_time":1696000000000,"state":"active","ping":51},{"user_id":651,"name":"Shazzy","steam_id":76561198145460523,"connected_time":1768000000000,"state":"active","ping":46},{"user_id":674,"name":"hazel","steam_id":76561198037292232,"connected_time":551000000000,"state":"active","ping":121},{"user_id":665,"name":"Stev the Hypergamous Pebble","steam_id":76561197999442625,"connected_time":1208000000000,"state":"active","ping":53},{"user_id":658,"name":"rat gets the cheese","steam_id":76561198031234032,"connected_time":1489000000000,"state":"active","ping":108},{"user_id":663,"name":"zee","steam_id":76561198148876424,"connected_time":1328000000000,"state":"active","ping":52},{"user_id":638,"name":"trackpad gaming | f2p","steam_id":76561198840414371,"connected_time":3051000000000,"state":"active","ping":47},{"user_id":640,"name":"A F2P With Hats","steam_id":76561198171497882,"connected_time":2969000000000,"state":"active","ping":74},{"user_id":601,"name":"Gm_Sweet","steam_id":76561199445091548,"connected_time":7658000000000,"state":"active","ping":59},{"user_id":660,"name":"‚ô° Cursed ‚ô°","steam_id":76561199161458959,"connected_time":1387000000000,"state":"active","ping":122},{"user_id":661,"name":"Bolbi","steam_id":76561198051811597,"connected_time":1385000000000,"state":"active","ping":77},{"user_id":647,"name":"Peppy","steam_id":76561198866629645,"connected_time":2321000000000,"state":"active","ping":63},{"user_id":668,"name":"Starpillow ‚ô°","steam_id":76561198095034817,"connected_time":769000000000,"state":"active","ping":55},{"user_id":675,"name":"[TrC] Dackstrus","steam_id":76561197973518509,"connected_time":345000000000,"state":"active","ping":58},{"user_id":649,"name":"Hawksgamer","steam_id":76561198152405941,"connected_time":1890000000000,"state":"active","ping":41},{"user_id":632,"name":"PopcornBucketGames","steam_id":76561199089562026,"connected_time":3918000000000,"state":"active","ping":43},{"user_id":667,"name":"Keamy","steam_id":76561199471434875,"connected_time":1014000000000,"state":"active","ping":44},{"user_id":672,"name":"2 Point Tom","steam_id":76561198087617008,"connected_time":729000000000,"state":"active","ping":50}]},{"server_id":119,"name":"Uncletopia | Seattle | 2 | All Maps","name_short":"sea-2","host":"sea-1.us.uncletopia.com","port":27025,"enabled":true,"region":"us-west","cc":"us","latitude":47.608013,"longitude":-122.33517,"reserved":0,"last_update":"0001-01-01T00:00:00Z","name_a2s":"Uncletopia | Seattle | 2 | All Maps","protocol":17,"map":"pl_barnblitz","folder":"tf","game":"Team Fortress","app_id":440,"player_count":24,"max_players":24,"Bots":0,"server_type":"Dedicated","server_os":"Linux","password":true,"vac":true,"version":"7961495","steam_id":85568392924469998,"keywords":["nocrits","nodmgspread","payload","uncletopia"],"game_id":440,"stv_port":27026,"stv_name":"Uncletopia | Seattle | 2 | All Maps | STV","players":[{"user_id":224,"name":"sudoku_fiend","steam_id":76561198152029104,"connected_time":3124000000000,"state":"active","ping":74},{"user_id":260,"name":"InternetMachine","steam_id":76561198131821684,"connected_time":1420000000000,"state":"active","ping":84},{"user_id":264,"name":"YOUNG ROUGH","steam_id":76561198077268502,"connected_time":1245000000000,"state":"active","ping":85},{"user_id":263,"name":"BoneHeadTRex","steam_id":76561199438411250,"connected_time":1295000000000,"state":"active","ping":118},{"user_id":226,"name":"top 10 sidewalks","steam_id":76561198844273999,"connected_time":3090000000000,"state":"active","ping":44},{"user_id":247,"name":"Lane","steam_id":76561197965828506,"connected_time":1753000000000,"state":"active","ping":92},{"user_id":266,"name":"FunTimeDaisy01","steam_id":76561198448258755,"connected_time":1170000000000,"state":"active","ping":128},{"user_id":231,"name":"Petrivus","steam_id":76561198202152453,"connected_time":2851000000000,"state":"active","ping":49},{"user_id":265,"name":"Nina","steam_id":76561198875007138,"connected_time":1240000000000,"state":"active","ping":44},{"user_id":206,"name":"ma≈Çiƒô","steam_id":76561198337705174,"connected_time":4527000000000,"state":"active","ping":75},{"user_id":182,"name":"BlazedBunny","steam_id":76561198243610560,"connected_time":5997000000000,"state":"active","ping":59},{"user_id":223,"name":"chocky","steam_id":76561198057491296,"connected_time":3144000000000,"state":"active","ping":47},{"user_id":272,"name":"Copy","steam_id":76561198025031590,"connected_time":630000000000,"state":"active","ping":48},{"user_id":232,"name":"Tech Deck","steam_id":76561199070437675,"connected_time":2846000000000,"state":"active","ping":73},{"user_id":250,"name":"Artic_Ryuu","steam_id":76561198182194918,"connected_time":1667000000000,"state":"active","ping":73},{"user_id":269,"name":"delight","steam_id":76561197980280272,"connected_time":839000000000,"state":"active","ping":46},{"user_id":251,"name":"Thequirka","steam_id":76561198968058652,"connected_time":1635000000000,"state":"active","ping":41},{"user_id":275,"name":"rorywashere /·ê† - Àï -„Éû ‚≥ä","steam_id":76561198065825165,"connected_time":168000000000,"state":"active","ping":112},{"user_id":219,"name":"jadene11","steam_id":76561199369221113,"connected_time":3474000000000,"state":"active","ping":74},{"user_id":276,"name":"Drapph","steam_id":76561199384213314,"connected_time":148000000000,"state":"active","ping":102},{"user_id":256,"name":"chow yun-slim","steam_id":76561198065752486,"connected_time":1592000000000,"state":"active","ping":78},{"user_id":273,"name":"ARMPIT FETISHIST","steam_id":76561199008452637,"connected_time":559000000000,"state":"active","ping":44},{"user_id":270,"name":"Facepalm","steam_id":76561198001935226,"connected_time":834000000000,"state":"active","ping":64},{"user_id":274,"name":"jorts","steam_id":76561199041179985,"connected_time":461000000000,"state":"active","ping":51}]},{"server_id":406,"name":"Uncletopia | Seattle | 3 | Stopwatch","name_short":"sea-3","host":"sea-1.us.uncletopia.com","port":27035,"enabled":true,"region":"us-west","cc":"us","latitude":47.608013,"longitude":-122.33517,"reserved":0,"last_update":"0001-01-01T00:00:00Z","name_a2s":"Uncletopia | Seattle | 3 | Stopwatch","protocol":17,"map":"workshop/koth_bagel_rc6.ugc2514036946","folder":"tf","game":"Team Fortress","app_id":440,"player_count":0,"max_players":24,"Bots":0,"server_type":"Dedicated","server_os":"Linux","password":true,"vac":true,"version":"7961495","steam_id":85568392924515217,"keywords":["cp","nocrits","nodmgspread","uncletopia"],"game_id":440,"stv_port":27036,"stv_name":"Uncletopia | Seattle | 3 | Stopwatch | STV","players":null},{"server_id":17,"name":"Uncletopia | San Francisco | 1 | All Maps","name_short":"sfo-1","host":"sfo-1.us.uncletopia.com","port":27015,"enabled":true,"region":"us-west","cc":"us","latitude":37.77397,"longitude":-122.4313,"reserved":0,"last_update":"0001-01-01T00:00:00Z","name_a2s":"Uncletopia | San Francisco | 1 | All Maps","protocol":17,"map":"cp_altitude","folder":"tf","game":"Team Fortress","app_id":440,"player_count":24,"max_players":24,"Bots":0,"server_type":"Dedicated","server_os":"Linux","password":true,"vac":true,"version":"7961495","steam_id":85568392924469999,"keywords":["cp","nocrits","nodmgspread","uncletopia"],"game_id":440,"stv_port":27016,"stv_name":"Uncletopia | San Francisco | 1 | All Maps | STV","players":[{"user_id":146,"name":"johnny","steam_id":76561198050225055,"connected_time":1429000000000,"state":"active","ping":57},{"user_id":129,"name":"WillowWisp","steam_id":76561198049104842,"connected_time":3217000000000,"state":"active","ping":69},{"user_id":155,"name":"Seriously Bruh","steam_id":76561198070408485,"connected_time":504000000000,"state":"active","ping":61},{"user_id":123,"name":"Lunarthrope","steam_id":76561198292132147,"connected_time":3435000000000,"state":"active","ping":67},{"user_id":156,"name":"SmallErection","steam_id":76561198071770147,"connected_time":502000000000,"state":"active","ping":81},{"user_id":128,"name":"Cackling Executed","steam_id":76561198068681658,"connected_time":3290000000000,"state":"active","ping":72},{"user_id":157,"name":"Gojira19","steam_id":76561198206384351,"connected_time":492000000000,"state":"active","ping":97},{"user_id":158,"name":"the pizza","steam_id":76561198221331476,"connected_time":480000000000,"state":"active","ping":31},{"user_id":137,"name":"UnkownGamerLOL","steam_id":76561198225902368,"connected_time":2065000000000,"state":"active","ping":102},{"user_id":132,"name":"Kiril","steam_id":76561198051433762,"connected_time":2713000000000,"state":"active","ping":115},{"user_id":154,"name":"Nokemacuh ‚ç®","steam_id":76561198043167758,"connected_time":631000000000,"state":"active","ping":65},{"user_id":159,"name":"God Wizard Gonzo","steam_id":76561198102651324,"connected_time":431000000000,"state":"active","ping":50},{"user_id":167,"name":"M4 Sherman","steam_id":76561198011096132,"connected_time":88000000000,"state":"active","ping":48},{"user_id":103,"name":"paypur -rng","steam_id":76561198214370515,"connected_time":4380000000000,"state":"active","ping":59},{"user_id":161,"name":"s-dog","steam_id":76561198065339248,"connected_time":394000000000,"state":"active","ping":44},{"user_id":136,"name":"Chumster","steam_id":76561199120624891,"connected_time":2206000000000,"state":"active","ping":92},{"user_id":166,"name":"lamb cutlet","steam_id":76561199063557758,"connected_time":238000000000,"state":"active","ping":101},{"user_id":163,"name":"Pound","steam_id":76561198046727292,"connected_time":333000000000,"state":"active","ping":113},{"user_id":164,"name":"goopgrabber","steam_id":76561199029951083,"connected_time":333000000000,"state":"active","ping":45},{"user_id":141,"name":"Bus!","steam_id":76561199082304859,"connected_time":1966000000000,"state":"active","ping":81},{"user_id":150,"name":"Antzen","steam_id":76561198041343470,"connected_time":936000000000,"state":"active","ping":60},{"user_id":165,"name":"array","steam_id":76561198280409646,"connected_time":308000000000,"state":"active","ping":47},{"user_id":127,"name":"dandan","steam_id":76561198076487085,"connected_time":3306000000000,"state":"active","ping":59}]},{"server_id":18,"name":"Uncletopia | San Francisco | 2 | All Maps","name_short":"sfo-2","host":"sfo-1.us.uncletopia.com","port":27025,"enabled":true,"region":"us-west","cc":"us","latitude":37.77397,"longitude":-122.4313,"reserved":0,"last_update":"0001-01-01T00:00:00Z","name_a2s":"Uncletopia | San Francisco | 2 | All Maps","protocol":17,"map":"pl_upward","folder":"tf","game":"Team Fortress","app_id":440,"player_count":0,"max_players":24,"Bots":0,"server_type":"Dedicated","server_os":"Linux","password":true,"vac":true,"version":"7961495","steam_id":85568392924470000,"keywords":["nocrits","nodmgspread","payload","uncletopia"],"game_id":440,"stv_port":27026,"stv_name":"Uncletopia | San Francisco | 2 | All Maps | STV","players":null},{"server_id":19,"name":"Uncletopia | San Francisco | 3 | Stopwatch","name_short":"sfo-3","host":"sfo-1.us.uncletopia.com","port":27035,"enabled":true,"region":"us-west","cc":"us","latitude":37.77397,"longitude":-122.4313,"reserved":0,"last_update":"0001-01-01T00:00:00Z","name_a2s":"Uncletopia | San Francisco | 3 | Stopwatch","protocol":17,"map":"workshop/koth_product_final.ugc454272353","folder":"tf","game":"Team Fortress","app_id":440,"player_count":0,"max_players":24,"Bots":0,"server_type":"Dedicated","server_os":"Linux","password":true,"vac":true,"version":"7961495","steam_id":85568392924742824,"keywords":["cp","nocrits","nodmgspread","uncletopia"],"game_id":440,"stv_port":27036,"stv_name":"Uncletopia | San Francisco | 3 | Stopwatch | STV","players":null},{"server_id":20,"name":"Uncletopia | San Francisco | 4 | Community","name_short":"sfo-4","host":"sfo-1.us.uncletopia.com","port":27045,"enabled":true,"region":"us-west","cc":"us","latitude":37.77397,"longitude":-122.4313,"reserved":0,"last_update":"0001-01-01T00:00:00Z","name_a2s":"Uncletopia | San Francisco | 4 | Community","protocol":17,"map":"workshop/cp_logjam_rc12.ugc454812035","folder":"tf","game":"Team Fortress","app_id":440,"player_count":0,"max_players":24,"Bots":0,"server_type":"Dedicated","server_os":"Linux","password":true,"vac":true,"version":"7961495","steam_id":85568392924742826,"keywords":["cp","nocrits","nodmgspread","uncletopia"],"game_id":440,"stv_port":27046,"stv_name":"Uncletopia | San Francisco | 4 | Community | STV","players":null},{"server_id":141,"name":"Uncletopia | Sydney | 1 | All Maps","name_short":"syd-1","host":"syd-1.au.uncletopia.com","port":27015,"enabled":true,"region":"au","cc":"au","latitude":-33.865143,"longitude":151.2099,"reserved":0,"last_update":"0001-01-01T00:00:00Z","name_a2s":"Uncletopia | Sydney | 1 | All Maps","protocol":17,"map":"koth_viaduct","folder":"tf","game":"Team Fortress","app_id":440,"player_count":1,"max_players":24,"Bots":0,"server_type":"Dedicated","server_os":"Linux","password":true,"vac":true,"version":"7961495","steam_id":85568392924470001,"keywords":["cp","nocrits","nodmgspread","uncletopia"],"game_id":440,"stv_port":27016,"stv_name":"Uncletopia | Sydney | 1 | All Maps | STV","players":[{"user_id":9,"name":"Soap Viper","steam_id":76561198073909715,"connected_time":146000000000,"state":"active","ping":44}]},{"server_id":123,"name":"Uncletopia | Sydney | 2 | All Maps","name_short":"syd-2","host":"syd-1.au.uncletopia.com","port":27025,"enabled":true,"region":"au","cc":"au","latitude":-33.865143,"longitude":151.2099,"reserved":0,"last_update":"0001-01-01T00:00:00Z","name_a2s":"Uncletopia | Sydney | 2 | All Maps","protocol":17,"map":"cp_altitude","folder":"tf","game":"Team Fortress","app_id":440,"player_count":0,"max_players":24,"Bots":0,"server_type":"Dedicated","server_os":"Linux","password":true,"vac":true,"version":"7961495","steam_id":85568392924470002,"keywords":["cp","nocrits","nodmgspread","uncletopia"],"game_id":440,"stv_port":27026,"stv_name":"Uncletopia | Sydney | 2 | All Maps | STV","players":null},{"server_id":395,"name":"Uncletopia | Sydney | 3 | All Maps","name_short":"syd-3","host":"syd-1.au.uncletopia.com","port":27035,"enabled":true,"region":"au","cc":"au","latitude":-33.865143,"longitude":151.2099,"reserved":0,"last_update":"0001-01-01T00:00:00Z","name_a2s":"Uncletopia | Sydney | 3 | All Maps","protocol":17,"map":"pl_frontier_final","folder":"tf","game":"Team Fortress","app_id":440,"player_count":0,"max_players":24,"Bots":0,"server_type":"Dedicated","server_os":"Linux","password":true,"vac":true,"version":"7961495","steam_id":85568392925194467,"keywords":["nocrits","nodmgspread","payload","uncletopia"],"game_id":440,"stv_port":27036,"stv_name":"Uncletopia | Sydney | 3 | All Maps | STV","players":null},{"server_id":396,"name":"Uncletopia | Sydney | 4 | All Maps","name_short":"syd-4","host":"syd-1.au.uncletopia.com","port":27045,"enabled":true,"region":"au","cc":"au","latitude":-33.865143,"longitude":151.2099,"reserved":0,"last_update":"0001-01-01T00:00:00Z","name_a2s":"Uncletopia | Sydney | 4 | All Maps","protocol":17,"map":"cp_process_final","folder":"tf","game":"Team Fortress","app_id":440,"player_count":0,"max_players":24,"Bots":0,"server_type":"Dedicated","server_os":"Linux","password":true,"vac":true,"version":"7961495","steam_id":85568392925397958,"keywords":["cp","nocrits","nodmgspread","uncletopia"],"game_id":440,"stv_port":27046,"stv_name":"Uncletopia | Sydney | 4 | All Maps | STV","players":null},{"server_id":58,"name":"Uncletopia | Sydney | 5 | Stopwatch","name_short":"syd-5","host":"syd-1.au.uncletopia.com","port":27055,"enabled":true,"region":"au","cc":"au","latitude":-33.865143,"longitude":151.2099,"reserved":0,"last_update":"0001-01-01T00:00:00Z","name_a2s":"Uncletopia | Sydney | 5 | Stopwatch","protocol":17,"map":"pl_frontier_final","folder":"tf","game":"Team Fortress","app_id":440,"player_count":0,"max_players":24,"Bots":0,"server_type":"Dedicated","server_os":"Linux","password":true,"vac":true,"version":"7961495","steam_id":85568392925397959,"keywords":["nocrits","nodmgspread","payload","uncletopia"],"game_id":440,"stv_port":27056,"stv_name":"Uncletopia | Sydney | 5 | Stopwatch | STV","players":null},{"server_id":59,"name":"Uncletopia | Sydney | 6 | Community","name_short":"syd-6","host":"syd-1.au.uncletopia.com","port":27065,"enabled":true,"region":"au","cc":"au","latitude":-33.865143,"longitude":151.2099,"reserved":0,"last_update":"0001-01-01T00:00:00Z","name_a2s":"Uncletopia | Sydney | 6 | Community","protocol":17,"map":"cp_sunshine","folder":"tf","game":"Team Fortress","app_id":440,"player_count":0,"max_players":24,"Bots":0,"server_type":"Dedicated","server_os":"Linux","password":true,"vac":true,"version":"7961495","steam_id":85568392925397960,"keywords":["cp","nocrits","nodmgspread","uncletopia"],"game_id":440,"stv_port":27066,"stv_name":"Uncletopia | Sydney | 6 | Community | STV","players":null},{"server_id":49,"name":"Uncletopia | Warsaw | 1 | One Thousand Uncles","name_short":"waw-1","host":"waw-1.pl.uncletopia.com","port":27015,"enabled":true,"region":"eu","cc":"pl","latitude":52.2297,"longitude":21.017532,"reserved":0,"last_update":"0001-01-01T00:00:00Z","name_a2s":"Uncletopia | Warsaw | 1 | One Thousand Uncles","protocol":17,"map":"cp_egypt_final","folder":"tf","game":"Team Fortress","app_id":440,"player_count":0,"max_players":32,"Bots":0,"server_type":"Dedicated","server_os":"Linux","password":true,"vac":true,"version":"7961495","steam_id":85568392925397850,"keywords":["alltalk","cp","danepve","increased_maxplayers","nocrits","norespawntime","uncletopia"],"game_id":440,"stv_port":0,"stv_name":"","players":null},{"server_id":50,"name":"Uncletopia | Warsaw | 2 | One Thousand Uncles","name_short":"waw-2","host":"waw-1.pl.uncletopia.com","port":27025,"enabled":true,"region":"eu","cc":"pl","latitude":52.2297,"longitude":21.017532,"reserved":0,"last_update":"0001-01-01T00:00:00Z","name_a2s":"Uncletopia | Warsaw | 2 | One Thousand Uncles","protocol":17,"map":"pl_goldrush","folder":"tf","game":"Team Fortress","app_id":440,"player_count":0,"max_players":32,"Bots":0,"server_type":"Dedicated","server_os":"Linux","password":true,"vac":true,"version":"7961495","steam_id":85568392925397851,"keywords":["alltalk","danepve","increased_maxplayers","nocrits","norespawntime","payload","uncletopia"],"game_id":440,"stv_port":0,"stv_name":"","players":null},{"server_id":51,"name":"Uncletopia | Warsaw | 3 | All Maps","name_short":"waw-3","host":"waw-1.pl.uncletopia.com","port":27035,"enabled":true,"region":"eu","cc":"pl","latitude":52.2297,"longitude":21.017532,"reserved":0,"last_update":"0001-01-01T00:00:00Z","name_a2s":"Uncletopia | Warsaw | 3 | All Maps","protocol":17,"map":"plr_pipeline","folder":"tf","game":"Team Fortress","app_id":440,"player_count":0,"max_players":24,"Bots":0,"server_type":"Dedicated","server_os":"Linux","password":true,"vac":true,"version":"7961495","steam_id":85568392925397852,"keywords":["nocrits","nodmgspread","payload","uncletopia"],"game_id":440,"stv_port":27036,"stv_name":"Uncletopia | Warsaw | 3 | All Maps | STV","players":null},{"server_id":52,"name":"Uncletopia | Warsaw | 4 | All Maps","name_short":"waw-4","host":"waw-1.pl.uncletopia.com","port":27045,"enabled":true,"region":"eu","cc":"pl","latitude":52.2297,"longitude":21.017532,"reserved":0,"last_update":"0001-01-01T00:00:00Z","name_a2s":"Uncletopia | Warsaw | 4 | All Maps","protocol":17,"map":"cp_coldfront","folder":"tf","game":"Team Fortress","app_id":440,"player_count":0,"max_players":24,"Bots":0,"server_type":"Dedicated","server_os":"Linux","password":true,"vac":true,"version":"7961495","steam_id":85568392925397853,"keywords":["cp","nocrits","nodmgspread","uncletopia"],"game_id":440,"stv_port":27046,"stv_name":"Uncletopia | Warsaw | 4 | All Maps | STV","players":null},{"server_id":53,"name":"Uncletopia | Warsaw | 5 | Stopwatch","name_short":"waw-5","host":"waw-1.pl.uncletopia.com","port":27055,"enabled":true,"region":"eu","cc":"pl","latitude":52.2297,"longitude":21.017532,"reserved":0,"last_update":"0001-01-01T00:00:00Z","name_a2s":"Uncletopia | Warsaw | 5 | Stopwatch","protocol":17,"map":"workshop/koth_bagel_rc6.ugc2514036946","folder":"tf","game":"Team Fortress","app_id":440,"player_count":0,"max_players":24,"Bots":0,"server_type":"Dedicated","server_os":"Linux","password":true,"vac":true,"version":"7961495","steam_id":85568392925397854,"keywords":["cp","nocrits","nodmgspread","uncletopia"],"game_id":440,"stv_port":27056,"stv_name":"Uncletopia | Warsaw | 5 | Stopwatch | STV","players":null},{"server_id":54,"name":"Uncletopia | Warsaw | 6 | Community","name_short":"waw-6","host":"waw-1.pl.uncletopia.com","port":27065,"enabled":true,"region":"eu","cc":"pl","latitude":52.2297,"longitude":21.017532,"reserved":0,"last_update":"0001-01-01T00:00:00Z","name_a2s":"Uncletopia | Warsaw | 6 | Community","protocol":17,"map":"workshop/pl_badwater_pro_v12.ugc2142942074","folder":"tf","game":"Team Fortress","app_id":440,"player_count":0,"max_players":24,"Bots":0,"server_type":"Dedicated","server_os":"Linux","password":true,"vac":true,"version":"7961495","steam_id":85568392925397856,"keywords":["nocrits","nodmgspread","payload","uncletopia"],"game_id":440,"stv_port":27066,"stv_name":"Uncletopia | Warsaw | 6 | Community | STV","players":null}]}