{"status":true,"message":"","result":[{"server_id":9,"name":"Uncletopia | Atlanta | 1 | All Maps","name_short":"atl-1","host":"atl-1.us.uncletopia.com","port":27015,"enabled":true,"region":"us-east","cc":"us","latitude":33.753746,"longitude":-84.38633,"reserved":0,"last_update":"0001-01-01T00:00:00Z","name_a2s":"Uncletopia | Atlanta | 1 | All Maps","protocol":17,"map":"koth_cascade","folder":"tf","game":"Team Fortress","app_id":440,"player_count":0,"max_players":24,"Bots":0,"server_type":"Dedicated","server_os":"Linux","password":true,"vac":true,"version":"7757534","steam_id":85568392924469982,"keywords":["cp","nocrits","nodmgspread","uncletopia"],"game_id":440,"stv_port":27016,"stv_name":"Uncletopia | Atlanta | 1 | All Maps | STV","players":null},{"server_id":400,"name":"Uncletopia | Atlanta | 3 | Stopwatch Beta","name_short":"atl-3","host":"atl-1.us.uncletopia.com","port":27035,"enabled":true,"region":"us-east","cc":"us","latitude":33.753746,"longitude":-84.38633,"reserved":0,"last_update":"0001-01-01T00:00:00Z","name_a2s":"Uncletopia | Atlanta | 3 | Stopwatch Beta","protocol":17,"map":"pl_upward","folder":"tf","game":"Team Fortress","app_id":440,"player_count":0,"max_players":24,"Bots":0,"server_type":"Dedicated","server_os":"Linux","password":true,"vac":true,"version":"7757534","steam_id":85568392924515187,"keywords":["nocrits","nodmgspread","payload","uncletopia"],"game_id":440,"stv_port":27036,"stv_name":"Uncletopia | Atlanta | 3 | Stopwatch Beta | STV","players":null},{"server_id":401,"name":"Uncletopia | Atlanta | 4 | No Payload","name_short":"atl-4","host":"atl-1.us.uncletopia.com","port":27045,"enabled":true,"region":"us-east","cc":"us","latitude":33.753746,"longitude":-84.38633,"reserved":0,"last_update":"0001-01-01T00:00:00Z","name_a2s":"Uncletopia | Atlanta | 4 | No Payload","protocol":17,"map":"pl_pier","folder":"tf","game":"Team Fortress","app_id":440,"player_count":0,"max_players":24,"Bots":0,"server_type":"Dedicated","server_os":"Linux","password":true,"vac":true,"version":"7723704","steam_id":85568392924515188,"keywords":["nocrits","nodmgspread","payload","uncletopia"],"game_id":440,"stv_port":27046,"stv_name":"Uncletopia | Atlanta | 4 | No Payload | STV","players":null},{"server_id":2,"name":"Uncletopia | Chicago | 1 | All Maps","name_short":"chi-1","host":"chi-1.us.uncletopia.com","port":27015,"enabled":true,"region":"us-central","cc":"us","latitude":41.881832,"longitude":-87.62318,"reserved":0,"last_update":"0001-01-01T00:00:00Z","name_a2s":"Uncletopia | Chicago | 1 | All Maps","protocol":17,"map":"pl_upward","folder":"tf","game":"Team Fortress","app_id":440,"player_count":24,"max_players":24,"Bots":0,"server_type":"Dedicated","server_os":"Linux","password":true,"vac":true,"version":"7757534","steam_id":85568392924469984,"keywords":["nocrits","nodmgspread","payload","uncletopia"],"game_id":440,"stv_port":27016,"stv_name":"Uncletopia | Chicago | 1 | All Maps | STV","players":[{"user_id":17,"name":"capybara","steam_id":76561198798828328,"connected_time":7324000000000,"state":"active","ping":46},{"user_id":89,"name":"deech","steam_id":76561198066429444,"connected_time":2196000000000,"state":"active","ping":65},{"user_id":109,"name":"Fl4mingo","steam_id":76561198025601344,"connected_time":794000000000,"state":"active","ping":54},{"user_id":23,"name":"morbissey","steam_id":76561198072592880,"connected_time":6629000000000,"state":"active","ping":35},{"user_id":110,"name":"Staff Sergeant Asshat","steam_id":76561198872026267,"connected_time":461000000000,"state":"active","ping":60},{"user_id":56,"name":"BlackCity","steam_id":76561198404495042,"connected_time":5338000000000,"state":"active","ping":61},{"user_id":70,"name":"DuckKey","steam_id":76561198904477889,"connected_time":3558000000000,"state":"active","ping":57},{"user_id":90,"name":"[El Fail] MR.BadassMCLee","steam_id":76561198043787818,"connected_time":2193000000000,"state":"active","ping":117},{"user_id":111,"name":"MEDIC is SANDVICH","steam_id":76561198068216781,"connected_time":446000000000,"state":"active","ping":80},{"user_id":103,"name":"Luucyf3r","steam_id":76561198141820085,"connected_time":1097000000000,"state":"active","ping":75},{"user_id":68,"name":"YungKeet","steam_id":76561198293854963,"connected_time":4221000000000,"state":"active","ping":84},{"user_id":87,"name":"dan","steam_id":76561198061589465,"connected_time":2284000000000,"state":"active","ping":60},{"user_id":80,"name":"catboy phroliax","steam_id":76561198207075529,"connected_time":2789000000000,"state":"active","ping":102},{"user_id":67,"name":"Quansen","steam_id":76561198151594550,"connected_time":4324000000000,"state":"active","ping":59},{"user_id":114,"name":"Menlymen","steam_id":76561198046508051,"connected_time":258000000000,"state":"active","ping":70},{"user_id":112,"name":"Shame","steam_id":76561198100490994,"connected_time":414000000000,"state":"active","ping":75},{"user_id":101,"name":"Rein","steam_id":76561198300340427,"connected_time":1101000000000,"state":"active","ping":66},{"user_id":86,"name":"fresco","steam_id":76561199101199477,"connected_time":2290000000000,"state":"active","ping":60},{"user_id":97,"name":"SsaucySam","steam_id":76561198362539268,"connected_time":1383000000000,"state":"active","ping":87},{"user_id":106,"name":"Goosher","steam_id":76561198052121130,"connected_time":825000000000,"state":"active","ping":69},{"user_id":108,"name":"dbelow_","steam_id":76561198056148853,"connected_time":810000000000,"state":"active","ping":62},{"user_id":88,"name":"B45Guy","steam_id":76561198117290531,"connected_time":2271000000000,"state":"active","ping":65},{"user_id":71,"name":"Zamich","steam_id":76561198087033116,"connected_time":3475000000000,"state":"active","ping":72},{"user_id":72,"name":"blob","steam_id":76561198122375328,"connected_time":3475000000000,"state":"active","ping":67}]},{"server_id":106,"name":"Uncletopia | Chicago | 2 | All Maps","name_short":"chi-2","host":"chi-1.us.uncletopia.com","port":27025,"enabled":true,"region":"us-central","cc":"us","latitude":41.881832,"longitude":-87.62318,"reserved":0,"last_update":"0001-01-01T00:00:00Z","name_a2s":"Uncletopia | Chicago | 2 | All Maps","protocol":17,"map":"pl_thundermountain","folder":"tf","game":"Team Fortress","app_id":440,"player_count":20,"max_players":24,"Bots":0,"server_type":"Dedicated","server_os":"Linux","password":true,"vac":true,"version":"7757534","steam_id":85568392924469985,"keywords":["nocrits","nodmgspread","payload","uncletopia"],"game_id":440,"stv_port":27026,"stv_name":"Uncletopia | Chicago | 2 | All Maps | STV","players":[{"user_id":189,"name":"Rex","steam_id":76561198138365053,"connected_time":45000000000,"state":"active","ping":124},{"user_id":181,"name":"Tibbs","steam_id":76561198381085658,"connected_time":224000000000,"state":"active","ping":66},{"user_id":170,"name":"jrdoran","steam_id":76561197984753094,"connected_time":709000000000,"state":"active","ping":54},{"user_id":182,"name":"dr peppah chug!","steam_id":76561198068835693,"connected_time":211000000000,"state":"active","ping":92},{"user_id":175,"name":"Jujitsu82","steam_id":76561198445522556,"connected_time":371000000000,"state":"active","ping":83},{"user_id":179,"name":"Doggo","steam_id":76561198973038585,"connected_time":330000000000,"state":"active","ping":84},{"user_id":186,"name":"♥ bug eater ♥","steam_id":76561198291044316,"connected_time":122000000000,"state":"active","ping":77},{"user_id":168,"name":"Critscare","steam_id":76561198087712508,"connected_time":1171000000000,"state":"active","ping":40},{"user_id":188,"name":"squaggles!","steam_id":76561197994995011,"connected_time":72000000000,"state":"active","ping":55},{"user_id":183,"name":"Le","steam_id":76561198817754233,"connected_time":181000000000,"state":"active","ping":80},{"user_id":173,"name":"Underscore","steam_id":76561198374209415,"connected_time":528000000000,"state":"active","ping":54},{"user_id":148,"name":"crunchy obama","steam_id":76561198044485217,"connected_time":3315000000000,"state":"active","ping":107},{"user_id":190,"name":"Perry the Platypus #savetf2","steam_id":76561198273045773,"connected_time":26000000000,"state":"active","ping":102},{"user_id":83,"name":"Ojen","steam_id":76561197998414482,"connected_time":8954000000000,"state":"active","ping":75},{"user_id":191,"name":"Ranch Style Beans","steam_id":76561198126791566,"connected_time":10000000000,"state":"spawning","ping":88},{"user_id":174,"name":"pim","steam_id":76561198095163441,"connected_time":516000000000,"state":"active","ping":65},{"user_id":117,"name":"Eden","steam_id":76561198075587475,"connected_time":6172000000000,"state":"active","ping":45},{"user_id":184,"name":"Karrot","steam_id":76561198058970903,"connected_time":178000000000,"state":"active","ping":65},{"user_id":150,"name":"Biogrease","steam_id":76561198215945072,"connected_time":3267000000000,"state":"active","ping":114},{"user_id":152,"name":"Menace to Sobriety","steam_id":76561198245103000,"connected_time":3223000000000,"state":"active","ping":74}]},{"server_id":402,"name":"Uncletopia | Chicago | 3 | All Maps","name_short":"chi-3","host":"chi-1.us.uncletopia.com","port":27035,"enabled":true,"region":"us-central","cc":"us","latitude":41.881832,"longitude":-87.62318,"reserved":0,"last_update":"0001-01-01T00:00:00Z","name_a2s":"Uncletopia | Chicago | 3 | All Maps","protocol":17,"map":"koth_badlands","folder":"tf","game":"Team Fortress","app_id":440,"player_count":0,"max_players":24,"Bots":0,"server_type":"Dedicated","server_os":"Linux","password":true,"vac":true,"version":"7757534","steam_id":85568392924515191,"keywords":["cp","nocrits","nodmgspread","uncletopia"],"game_id":440,"stv_port":27036,"stv_name":"Uncletopia | Chicago | 3 | All Maps | STV","players":null},{"server_id":403,"name":"Uncletopia | Chicago | 4 | All Maps","name_short":"chi-4","host":"chi-1.us.uncletopia.com","port":27045,"enabled":true,"region":"us-central","cc":"us","latitude":41.881832,"longitude":-87.62318,"reserved":0,"last_update":"0001-01-01T00:00:00Z","name_a2s":"Uncletopia | Chicago | 4 | All Maps","protocol":17,"map":"koth_cascade","folder":"tf","game":"Team Fortress","app_id":440,"player_count":0,"max_players":24,"Bots":0,"server_type":"Dedicated","server_os":"Linux","password":true,"vac":true,"version":"7757534","steam_id":85568392924515193,"keywords":["cp","nocrits","nodmgspread","uncletopia"],"game_id":440,"stv_port":27046,"stv_name":"Uncletopia | Chicago | 4 | All Maps | STV","players":null},{"server_id":36,"name":"Uncletopia | Chicago | 5 | All Maps","name_short":"chi-5","host":"chi-2.us.uncletopia.com","port":27015,"enabled":true,"region":"us-central","cc":"us","latitude":41.881832,"longitude":-87.62318,"reserved":0,"last_update":"0001-01-01T00:00:00Z","name_a2s":"Uncletopia | Chicago | 5 | All Maps","protocol":17,"map":"pl_pier","folder":"tf","game":"Team Fortress","app_id":440,"player_count":24,"max_players":24,"Bots":0,"server_type":"Dedicated","server_os":"Linux","password":true,"vac":true,"version":"7757534","steam_id":85568392924866362,"keywords":["nocrits","nodmgspread","payload","uncletopia"],"game_id":440,"stv_port":27016,"stv_name":"Uncletopia | Chicago | 5 | All Maps | STV","players":[{"user_id":144,"name":"ZBaldTop","steam_id":76561199396318132,"connected_time":1133000000000,"state":"active","ping":48},{"user_id":129,"name":"mvmnooob","steam_id":76561198041880486,"connected_time":2668000000000,"state":"active","ping":60},{"user_id":148,"name":"Toygar","steam_id":76561198023679830,"connected_time":922000000000,"state":"active","ping":54},{"user_id":152,"name":"c.atto","steam_id":76561198202448753,"connected_time":750000000000,"state":"active","ping":151},{"user_id":126,"name":"SomeScuffedKid","steam_id":76561198086113234,"connected_time":2747000000000,"state":"active","ping":68},{"user_id":154,"name":"Female Gamer","steam_id":76561199366482682,"connected_time":729000000000,"state":"active","ping":111},{"user_id":112,"name":"nvm_","steam_id":76561198843128678,"connected_time":4117000000000,"state":"active","ping":48},{"user_id":135,"name":"PrinceGrotle","steam_id":76561198206131603,"connected_time":2112000000000,"state":"active","ping":79},{"user_id":157,"name":"judesro","steam_id":76561198352244888,"connected_time":418000000000,"state":"active","ping":70},{"user_id":85,"name":"debin","steam_id":76561198070711217,"connected_time":6521000000000,"state":"active","ping":52},{"user_id":155,"name":"comet sooicidy","steam_id":76561198025173479,"connected_time":700000000000,"state":"active","ping":102},{"user_id":97,"name":"TÖZI","steam_id":76561198045268695,"connected_time":4955000000000,"state":"active","ping":65},{"user_id":79,"name":"fruity","steam_id":76561198855810297,"connected_time":6758000000000,"state":"active","ping":85},{"user_id":99,"name":"Sunvaar","steam_id":76561198852679851,"connected_time":4788000000000,"state":"active","ping":69},{"user_id":159,"name":"Fluffeline","steam_id":76561198352909489,"connected_time":56000000000,"state":"active","ping":140},{"user_id":145,"name":"lost in the sauce","steam_id":76561199043827112,"connected_time":1122000000000,"state":"active","ping":69},{"user_id":151,"name":"137mph","steam_id":76561199012802250,"connected_time":784000000000,"state":"active","ping":100},{"user_id":156,"name":"Chuburn","steam_id":76561199078803862,"connected_time":644000000000,"state":"active","ping":76},{"user_id":158,"name":"JekeThe3rd","steam_id":76561198190156546,"connected_time":361000000000,"state":"active","ping":67},{"user_id":131,"name":"green bean","steam_id":76561198113099204,"connected_time":2647000000000,"state":"active","ping":83},{"user_id":153,"name":"CeigeBirb","steam_id":76561198068538473,"connected_time":738000000000,"state":"active","ping":76},{"user_id":134,"name":"three three","steam_id":76561198177354155,"connected_time":2143000000000,"state":"active","ping":55},{"user_id":87,"name":"Atlas","steam_id":76561198127975050,"connected_time":6299000000000,"state":"active","ping":66},{"user_id":111,"name":"ayr","steam_id":76561198083640961,"connected_time":4204000000000,"state":"active","ping":70}]},{"server_id":37,"name":"Uncletopia | Chicago | 6 | All Maps","name_short":"chi-6","host":"chi-2.us.uncletopia.com","port":27025,"enabled":true,"region":"us-central","cc":"us","latitude":41.881832,"longitude":-87.62318,"reserved":0,"last_update":"0001-01-01T00:00:00Z","name_a2s":"Uncletopia | Chicago | 6 | All Maps","protocol":17,"map":"cp_sunshine","folder":"tf","game":"Team Fortress","app_id":440,"player_count":23,"max_players":24,"Bots":0,"server_type":"Dedicated","server_os":"Linux","password":true,"vac":true,"version":"7757534","steam_id":85568392924866363,"keywords":["cp","nocrits","nodmgspread","uncletopia"],"game_id":440,"stv_port":27026,"stv_name":"Uncletopia | Chicago | 6 | All Maps | STV","players":[{"user_id":11,"name":"dicksnip","steam_id":76561198356515396,"connected_time":4043000000000,"state":"active","ping":88},{"user_id":58,"name":"Bobbn","steam_id":76561198876124683,"connected_time":992000000000,"state":"active","ping":69},{"user_id":14,"name":"The man who sold 2Fort","steam_id":76561199100003132,"connected_time":3442000000000,"state":"active","ping":151},{"user_id":56,"name":"FROYO domando","steam_id":76561199150367705,"connected_time":1023000000000,"state":"active","ping":86},{"user_id":69,"name":"totally not a pile of beans","steam_id":76561198119851931,"connected_time":48000000000,"state":"active","ping":82},{"user_id":18,"name":"volta","steam_id":76561199214283884,"connected_time":2988000000000,"state":"active","ping":101},{"user_id":57,"name":"frank","steam_id":76561198045436159,"connected_time":1009000000000,"state":"active","ping":79},{"user_id":21,"name":"Epicsans24","steam_id":76561199113260090,"connected_time":2627000000000,"state":"active","ping":70},{"user_id":32,"name":"[TSG] Turner's Chocolate Milk","steam_id":76561198058963288,"connected_time":2390000000000,"state":"active","ping":67},{"user_id":59,"name":"Dipping_Eggs","steam_id":76561198354606995,"connected_time":989000000000,"state":"active","ping":87},{"user_id":24,"name":"Pixeled","steam_id":76561198088917077,"connected_time":2552000000000,"state":"active","ping":92},{"user_id":26,"name":"Dr. Faust","steam_id":76561199132607207,"connected_time":2441000000000,"state":"active","ping":72},{"user_id":27,"name":"Thaberii","steam_id":76561198275818707,"connected_time":2434000000000,"state":"active","ping":107},{"user_id":60,"name":"ᕕ( ᐛ )ᕗ","steam_id":76561198110033681,"connected_time":977000000000,"state":"active","ping":58},{"user_id":49,"name":"Xeno","steam_id":76561198089138085,"connected_time":1693000000000,"state":"active","ping":109},{"user_id":30,"name":"Jack from Jack in The Box","steam_id":76561199083594971,"connected_time":2418000000000,"state":"active","ping":90},{"user_id":68,"name":"Queersy","steam_id":76561198022426298,"connected_time":272000000000,"state":"active","ping":68},{"user_id":65,"name":"neet","steam_id":76561197968115168,"connected_time":559000000000,"state":"active","ping":59},{"user_id":53,"name":"Kaypo","steam_id":76561198262420097,"connected_time":1064000000000,"state":"active","ping":62},{"user_id":66,"name":"WitheringLeo","steam_id":76561198046722918,"connected_time":543000000000,"state":"active","ping":80},{"user_id":36,"name":"Winter the Witchie","steam_id":76561198151971178,"connected_time":2380000000000,"state":"active","ping":56},{"user_id":37,"name":"CBTgaeming","steam_id":76561199089290128,"connected_time":2367000000000,"state":"active","ping":141},{"user_id":62,"name":"garfield","steam_id":76561198114119308,"connected_time":961000000000,"state":"active","ping":71}]},{"server_id":38,"name":"Uncletopia | Chicago | 7 | Stopwatch Beta","name_short":"chi-7","host":"chi-2.us.uncletopia.com","port":27035,"enabled":true,"region":"us-central","cc":"us","latitude":41.881832,"longitude":-87.62318,"reserved":0,"last_update":"0001-01-01T00:00:00Z","name_a2s":"Uncletopia | Chicago | 7 | Stopwatch Beta","protocol":17,"map":"cp_sunshine","folder":"tf","game":"Team Fortress","app_id":440,"player_count":0,"max_players":24,"Bots":0,"server_type":"Dedicated","server_os":"Linux","password":true,"vac":true,"version":"7757534","steam_id":85568392924866364,"keywords":["cp","nocrits","nodmgspread","uncletopia"],"game_id":440,"stv_port":27036,"stv_name":"Uncletopia | Chicago | 7 | Stopwatch Beta | STV","players":null},{"server_id":39,"name":"Uncletopia | Chicago | 8 | Community","name_short":"chi-8","host":"chi-2.us.uncletopia.com","port":27045,"enabled":true,"region":"us-central","cc":"us","latitude":41.881832,"longitude":-87.62318,"reserved":0,"last_update":"0001-01-01T00:00:00Z","name_a2s":"Uncletopia | Chicago | 8 | Community","protocol":17,"map":"pl_pier","folder":"tf","game":"Team Fortress","app_id":440,"player_count":0,"max_players":24,"Bots":0,"server_type":"Dedicated","server_os":"Linux","password":true,"vac":true,"version":"7757534","steam_id":85568392924866365,"keywords":["nocrits","nodmgspread","payload","uncletopia"],"game_id":440,"stv_port":27046,"stv_name":"Uncletopia | Chicago | 8 | Community | STV","players":null},{"server_id":8,"name":"Uncletopia | Dallas | 1 | All Maps","name_short":"dal-1","host":"dal-1.us.uncletopia.com","port":27015,"enabled":true,"region":"us-central","cc":"us","latitude":32.779167,"longitude":-96.80889,"reserved":0,"last_update":"0001-01-01T00:00:00Z","name_a2s":"Uncletopia | Dallas | 1 | All Maps","protocol":17,"map":"pl_borneo","folder":"tf","game":"Team Fortress","app_id":440,"player_count":25,"max_players":24,"Bots":0,"server_type":"Dedicated","server_os":"Linux","password":true,"vac":true,"version":"7757534","steam_id":85568392924469986,"keywords":["nocrits","nodmgspread","payload","uncletopia"],"game_id":440,"stv_port":27016,"stv_name":"Uncletopia | Dallas | 1 | All Maps | STV","players":[{"user_id":122,"name":"The Horselords and Animal Gods","steam_id":76561197975094050,"connected_time":2197000000000,"state":"active","ping":83},{"user_id":124,"name":"Biznickel","steam_id":76561199422511230,"connected_time":1986000000000,"state":"active","ping":90},{"user_id":133,"name":"Sticky","steam_id":76561198031581547,"connected_time":1753000000000,"state":"active","ping":69},{"user_id":144,"name":"Chuckled","steam_id":76561198217425919,"connected_time":264000000000,"state":"active","ping":82},{"user_id":148,"name":"Rat Art","steam_id":76561198313984487,"connected_time":248000000000,"state":"active","ping":85},{"user_id":109,"name":"Drive-By-Fish-Guy","steam_id":76561198105513652,"connected_time":3249000000000,"state":"active","ping":95},{"user_id":136,"name":"Luna","steam_id":76561198075944196,"connected_time":761000000000,"state":"active","ping":66},{"user_id":146,"name":"Fishstall","steam_id":76561198038126034,"connected_time":263000000000,"state":"active","ping":65},{"user_id":162,"name":"saul goodman","steam_id":76561199165336576,"connected_time":60000000000,"state":"spawning","ping":67},{"user_id":145,"name":"s p a c e k a t","steam_id":76561198066852209,"connected_time":264000000000,"state":"active","ping":54},{"user_id":128,"name":"Broadsword","steam_id":76561198011160411,"connected_time":1954000000000,"state":"active","ping":84},{"user_id":81,"name":"Hooray!","steam_id":76561198136487957,"connected_time":5550000000000,"state":"active","ping":62},{"user_id":137,"name":"Rat Smacker","steam_id":76561199090197628,"connected_time":629000000000,"state":"active","ping":60},{"user_id":142,"name":"Anon","steam_id":76561198109740776,"connected_time":275000000000,"state":"active","ping":93},{"user_id":147,"name":"[LINUX] Konunkier","steam_id":76561198093538786,"connected_time":262000000000,"state":"active","ping":49},{"user_id":130,"name":"Quaker Oats","steam_id":76561197992800293,"connected_time":1941000000000,"state":"active","ping":84},{"user_id":131,"name":"Pancreas Enjoyer","steam_id":76561199438598904,"connected_time":1937000000000,"state":"active","ping":111},{"user_id":161,"name":"FiddyFoMike","steam_id":76561198057072581,"connected_time":85000000000,"state":"active","ping":84},{"user_id":118,"name":"JJDrowsy","steam_id":76561198274501963,"connected_time":2344000000000,"state":"active","ping":64},{"user_id":132,"name":"drifter","steam_id":76561197998271149,"connected_time":1895000000000,"state":"active","ping":164},{"user_id":150,"name":"Big Yoshi","steam_id":76561199160576376,"connected_time":240000000000,"state":"active","ping":104},{"user_id":123,"name":"Krissy14","steam_id":76561198841508041,"connected_time":2013000000000,"state":"active","ping":149},{"user_id":107,"name":"RtfmDude","steam_id":76561198347025549,"connected_time":3469000000000,"state":"active","ping":129},{"user_id":119,"name":"trash beast","steam_id":76561198015792736,"connected_time":2343000000000,"state":"active","ping":82},{"user_id":140,"name":"FG7","steam_id":76561198381197197,"connected_time":528000000000,"state":"active","ping":105}]},{"server_id":108,"name":"Uncletopia | Dallas | 2 | All Maps","name_short":"dal-2","host":"dal-1.us.uncletopia.com","port":27025,"enabled":true,"region":"us-central","cc":"us","latitude":32.779167,"longitude":-96.80889,"reserved":0,"last_update":"0001-01-01T00:00:00Z","name_a2s":"Uncletopia | Dallas | 2 | All Maps","protocol":17,"map":"koth_highpass","folder":"tf","game":"Team Fortress","app_id":440,"player_count":0,"max_players":24,"Bots":0,"server_type":"Dedicated","server_os":"Linux","password":true,"vac":true,"version":"7757534","steam_id":85568392924469988,"keywords":["cp","nocrits","nodmgspread","uncletopia"],"game_id":440,"stv_port":27026,"stv_name":"Uncletopia | Dallas | 2 | All Maps | STV","players":null},{"server_id":5,"name":"Uncletopia | Frankfurt | 1 | All Maps","name_short":"frk-1","host":"frk-1.de.uncletopia.com","port":27015,"enabled":true,"region":"eu","cc":"de","latitude":50.110924,"longitude":8.682127,"reserved":0,"last_update":"0001-01-01T00:00:00Z","name_a2s":"Uncletopia | Frankfurt | 1 | All Maps","protocol":17,"map":"pl_swiftwater_final1","folder":"tf","game":"Team Fortress","app_id":440,"player_count":24,"max_players":24,"Bots":0,"server_type":"Dedicated","server_os":"Linux","password":true,"vac":true,"version":"7757534","steam_id":85568392924469989,"keywords":["nocrits","nodmgspread","payload","uncletopia"],"game_id":440,"stv_port":27016,"stv_name":"Uncletopia | Frankfurt | 1 | All Maps | STV","players":[{"user_id":366,"name":"Dooble donk man look at me donk","steam_id":76561198225523596,"connected_time":336000000000,"state":"active","ping":64},{"user_id":347,"name":"remove xenia","steam_id":76561199433578516,"connected_time":2003000000000,"state":"active","ping":78},{"user_id":343,"name":"Rob Rotten","steam_id":76561198170543542,"connected_time":2338000000000,"state":"active","ping":162},{"user_id":369,"name":"LarsInABox","steam_id":76561198028329262,"connected_time":305000000000,"state":"active","ping":72},{"user_id":314,"name":"siarczan (VI) miedzi (II)","steam_id":76561198327848460,"connected_time":3571000000000,"state":"active","ping":64},{"user_id":323,"name":"akakez","steam_id":76561198095432821,"connected_time":3157000000000,"state":"active","ping":117},{"user_id":308,"name":"tallen","steam_id":76561198061708595,"connected_time":3770000000000,"state":"active","ping":83},{"user_id":329,"name":"20BB Raxor","steam_id":76561198239927434,"connected_time":2929000000000,"state":"active","ping":82},{"user_id":270,"name":"Aimer","steam_id":76561198005935655,"connected_time":7279000000000,"state":"active","ping":113},{"user_id":373,"name":"|20BB)\u003eMach","steam_id":76561198952487564,"connected_time":223000000000,"state":"active","ping":77},{"user_id":344,"name":"xenia","steam_id":76561198062107879,"connected_time":2321000000000,"state":"active","ping":80},{"user_id":207,"name":"LasagnaLarry22","steam_id":76561198089478290,"connected_time":11902000000000,"state":"active","ping":52},{"user_id":310,"name":"lyudmilakh","steam_id":76561198362779878,"connected_time":3764000000000,"state":"active","ping":85},{"user_id":362,"name":"Pestdoktor","steam_id":76561198058159271,"connected_time":849000000000,"state":"active","ping":67},{"user_id":332,"name":"Crimea a bridge","steam_id":76561198030898371,"connected_time":2882000000000,"state":"active","ping":81},{"user_id":375,"name":"fiend","steam_id":76561198067942125,"connected_time":181000000000,"state":"active","ping":65},{"user_id":353,"name":"XeniasPimp","steam_id":76561198126398022,"connected_time":1313000000000,"state":"active","ping":75},{"user_id":372,"name":"degrade me goth mommy","steam_id":76561198075539799,"connected_time":284000000000,"state":"active","ping":60},{"user_id":368,"name":"ghost","steam_id":76561198189940229,"connected_time":324000000000,"state":"active","ping":54},{"user_id":364,"name":"The Fellow Feller","steam_id":76561198188864306,"connected_time":830000000000,"state":"active","ping":68},{"user_id":345,"name":"man juice","steam_id":76561198126524735,"connected_time":2306000000000,"state":"active","ping":72},{"user_id":348,"name":"Esculd ⎝('◁')⎠","steam_id":76561198043948445,"connected_time":1989000000000,"state":"active","ping":79},{"user_id":112,"name":"Fat Pigeon","steam_id":76561198817940142,"connected_time":20552000000000,"state":"active","ping":59},{"user_id":346,"name":"ralek","steam_id":76561198337027746,"connected_time":2264000000000,"state":"active","ping":97}]},{"server_id":110,"name":"Uncletopia | Frankfurt | 2 | All Maps","name_short":"frk-2","host":"frk-1.de.uncletopia.com","port":27025,"enabled":true,"region":"eu","cc":"de","latitude":50.110924,"longitude":8.682127,"reserved":0,"last_update":"0001-01-01T00:00:00Z","name_a2s":"Uncletopia | Frankfurt | 2 | All Maps","protocol":17,"map":"cp_dustbowl","folder":"tf","game":"Team Fortress","app_id":440,"player_count":24,"max_players":24,"Bots":0,"server_type":"Dedicated","server_os":"Linux","password":true,"vac":true,"version":"7757534","steam_id":85568392924469990,"keywords":["cp","nocrits","nodmgspread","uncletopia"],"game_id":440,"stv_port":27026,"stv_name":"Uncletopia | Frankfurt | 2 | All Maps | STV","players":[{"user_id":208,"name":"Gordon Birdman","steam_id":76561198013382324,"connected_time":4622000000000,"state":"active","ping":75},{"user_id":261,"name":"Hagi","steam_id":76561198011192902,"connected_time":358000000000,"state":"active","ping":104},{"user_id":249,"name":"Wiwern","steam_id":76561198114641930,"connected_time":839000000000,"state":"active","ping":87},{"user_id":247,"name":"lolp.","steam_id":76561199197101468,"connected_time":839000000000,"state":"active","ping":98},{"user_id":260,"name":"KingVoker","steam_id":76561198039602539,"connected_time":361000000000,"state":"active","ping":74},{"user_id":234,"name":"Čamuga⚜","steam_id":76561198324252599,"connected_time":2396000000000,"state":"active","ping":79},{"user_id":248,"name":"Dolcelatte","steam_id":76561198038501770,"connected_time":839000000000,"state":"active","ping":59},{"user_id":220,"name":"Super Noob","steam_id":76561199179611350,"connected_time":3386000000000,"state":"active","ping":181},{"user_id":201,"name":"cockwater","steam_id":76561198209101861,"connected_time":5119000000000,"state":"active","ping":71},{"user_id":237,"name":"r0la","steam_id":76561198128315340,"connected_time":1774000000000,"state":"active","ping":80},{"user_id":243,"name":"foo","steam_id":76561198042000263,"connected_time":1581000000000,"state":"active","ping":80},{"user_id":259,"name":"Ricky LaFleur","steam_id":76561198212565176,"connected_time":400000000000,"state":"active","ping":72},{"user_id":207,"name":"L.A. Palm Tree","steam_id":76561199289526521,"connected_time":4626000000000,"state":"active","ping":81},{"user_id":250,"name":"Brick Top","steam_id":76561198035586064,"connected_time":837000000000,"state":"active","ping":73},{"user_id":252,"name":"Mr.O #deletesniper","steam_id":76561198039567498,"connected_time":812000000000,"state":"active","ping":59},{"user_id":196,"name":"Nameless_Mann","steam_id":76561198015543601,"connected_time":5360000000000,"state":"active","ping":77},{"user_id":206,"name":"Sacrishee","steam_id":76561198169853697,"connected_time":4778000000000,"state":"active","ping":58},{"user_id":254,"name":"Kernewëk","steam_id":76561198271772640,"connected_time":797000000000,"state":"active","ping":51},{"user_id":235,"name":"better call selo","steam_id":76561198976793469,"connected_time":1806000000000,"state":"active","ping":98},{"user_id":265,"name":"goexo","steam_id":76561198112421389,"connected_time":195000000000,"state":"active","ping":64},{"user_id":264,"name":"tvoja debela mama","steam_id":76561198826665324,"connected_time":254000000000,"state":"active","ping":71},{"user_id":266,"name":"Jouppi","steam_id":76561198063725468,"connected_time":33000000000,"state":"active","ping":91},{"user_id":170,"name":"gorp enyojer","steam_id":76561198044293799,"connected_time":7595000000000,"state":"active","ping":70},{"user_id":241,"name":"țigan manglitor","steam_id":76561198175433731,"connected_time":1743000000000,"state":"active","ping":70}]},{"server_id":308,"name":"Uncletopia | Frankfurt | 3 | All Maps","name_short":"frk-3","host":"frk-1.de.uncletopia.com","port":27035,"enabled":true,"region":"eu","cc":"de","latitude":50.110924,"longitude":8.682127,"reserved":0,"last_update":"0001-01-01T00:00:00Z","name_a2s":"Uncletopia | Frankfurt | 3 | All Maps","protocol":17,"map":"koth_highpass","folder":"tf","game":"Team Fortress","app_id":440,"player_count":24,"max_players":24,"Bots":0,"server_type":"Dedicated","server_os":"Linux","password":true,"vac":true,"version":"7757534","steam_id":85568392924504274,"keywords":["cp","nocrits","nodmgspread","uncletopia"],"game_id":440,"stv_port":27036,"stv_name":"Uncletopia | Frankfurt | 3 | All Maps | STV","players":[{"user_id":420,"name":"gRocc0","steam_id":76561198283840637,"connected_time":2286000000000,"state":"active","ping":101},{"user_id":448,"name":"tob:ias","steam_id":76561198832146626,"connected_time":49000000000,"state":"active","ping":44},{"user_id":449,"name":"aimee","steam_id":76561198834309212,"connected_time":45000000000,"state":"active","ping":143},{"user_id":434,"name":"PartyPooper","steam_id":76561198010119627,"connected_time":778000000000,"state":"active","ping":52},{"user_id":451,"name":"Caerot","steam_id":76561198839000676,"connected_time":10000000000,"state":"spawning","ping":77},{"user_id":401,"name":"karvla","steam_id":76561197991453444,"connected_time":4030000000000,"state":"active","ping":68},{"user_id":440,"name":"Bosnian Ketamine Mafia","steam_id":76561198163571788,"connected_time":449000000000,"state":"active","ping":90},{"user_id":429,"name":"leadsquid","steam_id":76561198071544109,"connected_time":1984000000000,"state":"active","ping":131},{"user_id":445,"name":"BOZZO","steam_id":76561198044210844,"connected_time":170000000000,"state":"active","ping":68},{"user_id":422,"name":"Talking Balaclava","steam_id":76561198308076832,"connected_time":2284000000000,"state":"active","ping":96},{"user_id":441,"name":"risco1bolota","steam_id":76561198323074603,"connected_time":374000000000,"state":"active","ping":83},{"user_id":446,"name":"benny profane","steam_id":76561198123238801,"connected_time":144000000000,"state":"active","ping":70},{"user_id":414,"name":"árvíztűrő tükörfúrógép","steam_id":76561198296643061,"connected_time":2812000000000,"state":"active","ping":58},{"user_id":402,"name":"eeeeee","steam_id":76561198427092596,"connected_time":3710000000000,"state":"active","ping":123},{"user_id":268,"name":"vroom doom","steam_id":76561198192671475,"connected_time":14822000000000,"state":"active","ping":57},{"user_id":407,"name":"Ravshan","steam_id":76561198380938702,"connected_time":3222000000000,"state":"active","ping":69},{"user_id":380,"name":"Ape","steam_id":76561198322703872,"connected_time":5945000000000,"state":"active","ping":55},{"user_id":431,"name":"LL66","steam_id":76561198269997109,"connected_time":1732000000000,"state":"active","ping":77},{"user_id":424,"name":"Pineapple Okanつ ◕_◕ ༽\ufffd\ufffd","steam_id":76561198069199449,"connected_time":2282000000000,"state":"active","ping":98},{"user_id":447,"name":"supermariogrows","steam_id":76561198200238915,"connected_time":141000000000,"state":"active","ping":59},{"user_id":450,"name":"OmR","steam_id":76561198015792609,"connected_time":28000000000,"state":"active","ping":63},{"user_id":384,"name":"Sleetler","steam_id":76561198021646640,"connected_time":5501000000000,"state":"active","ping":62},{"user_id":436,"name":"I'm not your brah","steam_id":76561198873306107,"connected_time":765000000000,"state":"active","ping":50},{"user_id":444,"name":"mosnter","steam_id":76561198053394831,"connected_time":236000000000,"state":"active","ping":67}]},{"server_id":309,"name":"Uncletopia | Frankfurt | 4 | All Maps","name_short":"frk-4","host":"frk-1.de.uncletopia.com","port":27045,"enabled":true,"region":"eu","cc":"de","latitude":50.110924,"longitude":8.682127,"reserved":0,"last_update":"0001-01-01T00:00:00Z","name_a2s":"Uncletopia | Frankfurt | 4 | All Maps","protocol":17,"map":"cp_process_final","folder":"tf","game":"Team Fortress","app_id":440,"player_count":24,"max_players":24,"Bots":0,"server_type":"Dedicated","server_os":"Linux","password":true,"vac":true,"version":"7757534","steam_id":85568392924504275,"keywords":["cp","nocrits","nodmgspread","uncletopia"],"game_id":440,"stv_port":27046,"stv_name":"Uncletopia | Frankfurt | 4 | All Maps | STV","players":[{"user_id":284,"name":"PWizard","steam_id":76561198026458489,"connected_time":980000000000,"state":"active","ping":70},{"user_id":265,"name":"clouds","steam_id":76561198111134021,"connected_time":2160000000000,"state":"active","ping":72},{"user_id":299,"name":"htraB","steam_id":76561198043122677,"connected_time":432000000000,"state":"active","ping":56},{"user_id":297,"name":"soopeli","steam_id":76561198003350251,"connected_time":496000000000,"state":"active","ping":61},{"user_id":294,"name":"kovat ajat","steam_id":76561198037672220,"connected_time":562000000000,"state":"active","ping":73},{"user_id":274,"name":"Wedgeridoo","steam_id":76561198082813907,"connected_time":1602000000000,"state":"active","ping":82},{"user_id":282,"name":"MtnDew","steam_id":76561199100059743,"connected_time":1377000000000,"state":"active","ping":132},{"user_id":193,"name":"...jla","steam_id":76561198052435481,"connected_time":6217000000000,"state":"active","ping":53},{"user_id":152,"name":"Раскур","steam_id":76561199467678674,"connected_time":9371000000000,"state":"active","ping":114},{"user_id":276,"name":"impulse 101","steam_id":76561198210709281,"connected_time":1571000000000,"state":"active","ping":66},{"user_id":256,"name":"Ganix","steam_id":76561199058610171,"connected_time":2754000000000,"state":"active","ping":152},{"user_id":257,"name":"Florua","steam_id":76561198182297846,"connected_time":2743000000000,"state":"active","ping":54},{"user_id":277,"name":"Tywhip","steam_id":76561199207545191,"connected_time":1559000000000,"state":"active","ping":61},{"user_id":278,"name":"Sloppy Blowjob Devil","steam_id":76561198259924721,"connected_time":1557000000000,"state":"active","ping":80},{"user_id":269,"name":"Bagels","steam_id":76561198389646406,"connected_time":2020000000000,"state":"active","ping":69},{"user_id":300,"name":"USBug999","steam_id":76561199174677820,"connected_time":377000000000,"state":"active","ping":132},{"user_id":249,"name":"Kakograf","steam_id":76561198148375639,"connected_time":2924000000000,"state":"active","ping":90},{"user_id":252,"name":"ricorno","steam_id":76561199441603388,"connected_time":2801000000000,"state":"active","ping":89},{"user_id":280,"name":"Esso Vew","steam_id":76561198288776967,"connected_time":1554000000000,"state":"active","ping":79},{"user_id":301,"name":"akela","steam_id":76561198122010232,"connected_time":247000000000,"state":"active","ping":118},{"user_id":263,"name":"Plop_","steam_id":76561198112567921,"connected_time":2360000000000,"state":"active","ping":50},{"user_id":268,"name":"vladixxk","steam_id":76561198273199378,"connected_time":2057000000000,"state":"active","ping":70},{"user_id":272,"name":"frosty","steam_id":76561198094560834,"connected_time":1718000000000,"state":"active","ping":67},{"user_id":289,"name":"ARandomAustrian","steam_id":76561199208542398,"connected_time":630000000000,"state":"active","ping":164}]},{"server_id":310,"name":"Uncletopia | Frankfurt | 5 | All Maps","name_short":"frk-5","host":"frk-1.de.uncletopia.com","port":27055,"enabled":true,"region":"eu","cc":"de","latitude":50.110924,"longitude":8.682127,"reserved":0,"last_update":"0001-01-01T00:00:00Z","name_a2s":"Uncletopia | Frankfurt | 5 | All Maps","protocol":17,"map":"koth_lakeside_final","folder":"tf","game":"Team Fortress","app_id":440,"player_count":23,"max_players":24,"Bots":0,"server_type":"Dedicated","server_os":"Linux","password":true,"vac":true,"version":"7757534","steam_id":85568392924504277,"keywords":["cp","nocrits","nodmgspread","uncletopia"],"game_id":440,"stv_port":27056,"stv_name":"Uncletopia | Frankfurt | 5 | All Maps | STV","players":[{"user_id":419,"name":"skywalkerr2012","steam_id":76561198255623584,"connected_time":1811000000000,"state":"active","ping":78},{"user_id":441,"name":"radu.rota2","steam_id":76561198929386604,"connected_time":1033000000000,"state":"active","ping":86},{"user_id":448,"name":"βoᵑiάՇζ","steam_id":76561198232414008,"connected_time":705000000000,"state":"active","ping":79},{"user_id":389,"name":"The☆Cops","steam_id":76561198146358073,"connected_time":3068000000000,"state":"active","ping":94},{"user_id":429,"name":"101 000 tuns of democracy","steam_id":76561198218257120,"connected_time":1506000000000,"state":"active","ping":66},{"user_id":438,"name":"EZPK","steam_id":76561197987474355,"connected_time":1290000000000,"state":"active","ping":69},{"user_id":446,"name":"Michał","steam_id":76561198320346362,"connected_time":817000000000,"state":"active","ping":60},{"user_id":437,"name":"PH4NTOMtry","steam_id":76561198979390263,"connected_time":1303000000000,"state":"active","ping":86},{"user_id":397,"name":"Mazanec","steam_id":76561198965590155,"connected_time":2646000000000,"state":"active","ping":56},{"user_id":453,"name":"Noah May","steam_id":76561198411732527,"connected_time":241000000000,"state":"active","ping":54},{"user_id":450,"name":"Lukas","steam_id":76561198009118452,"connected_time":480000000000,"state":"active","ping":56},{"user_id":425,"name":"Carrot Arc","steam_id":76561198164957006,"connected_time":1699000000000,"state":"active","ping":96},{"user_id":414,"name":"ViktorYoshi","steam_id":76561199157555246,"connected_time":2014000000000,"state":"active","ping":48},{"user_id":433,"name":"Cliff Barnes","steam_id":76561198032213783,"connected_time":1468000000000,"state":"active","ping":70},{"user_id":454,"name":"AWJ ˆ-ˆ","steam_id":76561198053628243,"connected_time":225000000000,"state":"active","ping":57},{"user_id":447,"name":"frederik","steam_id":76561198107605938,"connected_time":768000000000,"state":"active","ping":88},{"user_id":381,"name":"nidhalmbarkihere","steam_id":76561199252399754,"connected_time":3614000000000,"state":"active","ping":124},{"user_id":445,"name":".bRdyyy","steam_id":76561198057256978,"connected_time":902000000000,"state":"active","ping":45},{"user_id":440,"name":"Fizzy","steam_id":76561198929807785,"connected_time":1081000000000,"state":"active","ping":58},{"user_id":444,"name":"Jeans Plus","steam_id":76561198052125103,"connected_time":927000000000,"state":"active","ping":69},{"user_id":451,"name":"Vitun Jonne","steam_id":76561198401737380,"connected_time":458000000000,"state":"active","ping":60},{"user_id":409,"name":"New","steam_id":76561198402195911,"connected_time":2386000000000,"state":"active","ping":114},{"user_id":428,"name":"vitekk","steam_id":76561199008374950,"connected_time":1656000000000,"state":"active","ping":75}]},{"server_id":311,"name":"Uncletopia | Frankfurt | 6 | All Maps","name_short":"frk-6","host":"frk-1.de.uncletopia.com","port":27065,"enabled":true,"region":"eu","cc":"de","latitude":50.110924,"longitude":8.682127,"reserved":0,"last_update":"0001-01-01T00:00:00Z","name_a2s":"Uncletopia | Frankfurt | 6 | All Maps","protocol":17,"map":"pl_badwater","folder":"tf","game":"Team Fortress","app_id":440,"player_count":19,"max_players":24,"Bots":0,"server_type":"Dedicated","server_os":"Linux","password":true,"vac":true,"version":"7757534","steam_id":85568392924504278,"keywords":["nocrits","nodmgspread","payload","uncletopia"],"game_id":440,"stv_port":27066,"stv_name":"Uncletopia | Frankfurt | 6 | All Maps | STV","players":[{"user_id":119,"name":"Syll","steam_id":76561198040736202,"connected_time":5777000000000,"state":"spawning","ping":89},{"user_id":175,"name":"DrunkHungarian","steam_id":76561198853346540,"connected_time":789000000000,"state":"spawning","ping":62},{"user_id":177,"name":"LOL fax (naah) lil bro (venom)","steam_id":76561197996468677,"connected_time":408000000000,"state":"spawning","ping":62},{"user_id":171,"name":"jt7","steam_id":76561198073655162,"connected_time":1644000000000,"state":"spawning","ping":38},{"user_id":180,"name":"zero2nine1","steam_id":76561199181821179,"connected_time":6000000000,"state":"spawning","ping":68},{"user_id":104,"name":"sleep","steam_id":76561198034882276,"connected_time":7897000000000,"state":"spawning","ping":208},{"user_id":172,"name":"clean carp","steam_id":76561198127053294,"connected_time":1532000000000,"state":"spawning","ping":62},{"user_id":166,"name":"marcus","steam_id":76561198053429589,"connected_time":2453000000000,"state":"spawning","ping":61},{"user_id":159,"name":"тукку ирма","steam_id":76561197998715016,"connected_time":3224000000000,"state":"spawning","ping":44},{"user_id":75,"name":":)","steam_id":76561198039964082,"connected_time":9373000000000,"state":"spawning","ping":73},{"user_id":87,"name":"0xDEADBEEF","steam_id":76561199075416111,"connected_time":8770000000000,"state":"spawning","ping":98},{"user_id":176,"name":"ChickyCoop","steam_id":76561199072983488,"connected_time":625000000000,"state":"spawning","ping":71},{"user_id":173,"name":"P00tis","steam_id":76561199121999261,"connected_time":1532000000000,"state":"spawning","ping":87},{"user_id":169,"name":"Control Panel","steam_id":76561198154677956,"connected_time":1853000000000,"state":"spawning","ping":70},{"user_id":158,"name":"Pabs :D","steam_id":76561198000016962,"connected_time":3317000000000,"state":"spawning","ping":49},{"user_id":127,"name":"Gnarville","steam_id":76561198006373329,"connected_time":5183000000000,"state":"spawning","ping":47},{"user_id":157,"name":"Miton","steam_id":76561197970323209,"connected_time":3413000000000,"state":"spawning","ping":79},{"user_id":179,"name":"zasvicuful","steam_id":76561198186803294,"connected_time":148000000000,"state":"spawning","ping":52},{"user_id":168,"name":"James","steam_id":76561198138558005,"connected_time":2088000000000,"state":"spawning","ping":49}]},{"server_id":23,"name":"Uncletopia | Frankfurt | 7 | Stopwatch Beta","name_short":"frk-7","host":"frk-1.de.uncletopia.com","port":27075,"enabled":true,"region":"eu","cc":"de","latitude":50.110924,"longitude":8.682127,"reserved":0,"last_update":"0001-01-01T00:00:00Z","name_a2s":"Uncletopia | Frankfurt | 7 | Stopwatch Beta","protocol":17,"map":"cp_snakewater_final1","folder":"tf","game":"Team Fortress","app_id":440,"player_count":2,"max_players":24,"Bots":0,"server_type":"Dedicated","server_os":"Linux","password":true,"vac":true,"version":"7757534","steam_id":85568392924742827,"keywords":["cp","nocrits","nodmgspread","uncletopia"],"game_id":440,"stv_port":27076,"stv_name":"Uncletopia | Frankfurt | 7 | Stopwatch Beta | STV","players":[{"user_id":25,"name":"marko","steam_id":76561198274165935,"connected_time":143000000000,"state":"spawning","ping":99},{"user_id":26,"name":"Buenos Días!","steam_id":76561198417999443,"connected_time":139000000000,"state":"spawning","ping":95}]},{"server_id":24,"name":"Uncletopia | Frankfurt | 8 | Community","name_short":"frk-8","host":"frk-1.de.uncletopia.com","port":27085,"enabled":true,"region":"eu","cc":"de","latitude":50.110924,"longitude":8.682127,"reserved":0,"last_update":"0001-01-01T00:00:00Z","name_a2s":"Uncletopia | Frankfurt | 8 | Community","protocol":17,"map":"workshop/koth_ashville_final.ugc2130459942","folder":"tf","game":"Team Fortress","app_id":440,"player_count":0,"max_players":24,"Bots":0,"server_type":"Dedicated","server_os":"Linux","password":true,"vac":true,"version":"7757534","steam_id":85568392924742828,"keywords":["cp","nocrits","nodmgspread","uncletopia"],"game_id":440,"stv_port":27086,"stv_name":"Uncletopia | Frankfurt | 8 | Community | STV","players":null},{"server_id":202,"name":"Uncletopia | Hong Kong | 1 | All Maps","name_short":"hgk-1","host":"hgk-1.hk.uncletopia.com","port":27015,"enabled":true,"region":"asia","cc":"hk","latitude":22.302711,"longitude":114.177216,"reserved":0,"last_update":"0001-01-01T00:00:00Z","name_a2s":"Uncletopia | Hong Kong | 1 | All Maps","protocol":17,"map":"koth_viaduct","folder":"tf","game":"Team Fortress","app_id":440,"player_count":0,"max_players":24,"Bots":0,"server_type":"Dedicated","server_os":"Linux","password":true,"vac":true,"version":"7757534","steam_id":85568392924494504,"keywords":["cp","nocrits","nodmgspread","uncletopia"],"game_id":440,"stv_port":27016,"stv_name":"Uncletopia | Hong Kong | 1 | All Maps | STV","players":null},{"server_id":1,"name":"Uncletopia | Los Angeles | 1 | All Maps","name_short":"lax-1","host":"lax-1.us.uncletopia.com","port":27015,"enabled":true,"region":"us-west","cc":"us","latitude":33.94279,"longitude":-118.41004,"reserved":0,"last_update":"0001-01-01T00:00:00Z","name_a2s":"Uncletopia | Los Angeles | 1 | All Maps","protocol":17,"map":"pl_snowycoast","folder":"tf","game":"Team Fortress","app_id":440,"player_count":24,"max_players":24,"Bots":0,"server_type":"Dedicated","server_os":"Linux","password":true,"vac":true,"version":"7757534","steam_id":85568392924469991,"keywords":["nocrits","nodmgspread","payload","uncletopia"],"game_id":440,"stv_port":27016,"stv_name":"Uncletopia | Los Angeles | 1 | All Maps | STV","players":[{"user_id":40,"name":"ED","steam_id":76561198441715445,"connected_time":307000000000,"state":"active","ping":133},{"user_id":43,"name":"Kzjytsugn","steam_id":76561198130241974,"connected_time":192000000000,"state":"active","ping":75},{"user_id":31,"name":"Bluedemon","steam_id":76561199212058684,"connected_time":513000000000,"state":"active","ping":54},{"user_id":32,"name":"kn0n1894","steam_id":76561198249172818,"connected_time":506000000000,"state":"active","ping":96},{"user_id":11,"name":"a grade 9 fixer","steam_id":76561198116908911,"connected_time":1486000000000,"state":"active","ping":120},{"user_id":18,"name":"a grade 6 fixer","steam_id":76561198132031026,"connected_time":1242000000000,"state":"active","ping":111},{"user_id":14,"name":"u/unhinged_person","steam_id":76561198085839920,"connected_time":1446000000000,"state":"active","ping":129},{"user_id":15,"name":"Goblin64","steam_id":76561198969156830,"connected_time":1431000000000,"state":"active","ping":78},{"user_id":16,"name":"Sauce Hut","steam_id":76561198151922248,"connected_time":1354000000000,"state":"active","ping":118},{"user_id":21,"name":"Beta Chimp Regicide Collab","steam_id":76561198011675372,"connected_time":1031000000000,"state":"active","ping":84},{"user_id":36,"name":"Lucasrio","steam_id":76561198880962360,"connected_time":402000000000,"state":"active","ping":149},{"user_id":20,"name":"Danielneitor555","steam_id":76561199003205711,"connected_time":1051000000000,"state":"active","ping":113},{"user_id":22,"name":"Alabit","steam_id":76561198065578560,"connected_time":1027000000000,"state":"active","ping":76},{"user_id":23,"name":"Interrobang","steam_id":76561198385044529,"connected_time":989000000000,"state":"active","ping":97},{"user_id":26,"name":"xxxDABGODxxx","steam_id":76561199061979040,"connected_time":682000000000,"state":"active","ping":85},{"user_id":34,"name":"Double Noodle Soup","steam_id":76561198376978394,"connected_time":473000000000,"state":"active","ping":125},{"user_id":27,"name":"Polygunner","steam_id":76561199165741650,"connected_time":639000000000,"state":"active","ping":119},{"user_id":28,"name":"suters05","steam_id":76561198076932174,"connected_time":614000000000,"state":"active","ping":147},{"user_id":35,"name":"ADHDking","steam_id":76561198116099017,"connected_time":457000000000,"state":"active","ping":90},{"user_id":44,"name":"Ashes!","steam_id":76561197998475441,"connected_time":43000000000,"state":"active","ping":118},{"user_id":38,"name":"Lunchboxx","steam_id":76561198079735916,"connected_time":365000000000,"state":"active","ping":108},{"user_id":39,"name":"Landlord","steam_id":76561198987913057,"connected_time":350000000000,"state":"active","ping":61},{"user_id":41,"name":"1940's Softdrink","steam_id":76561198060955244,"connected_time":286000000000,"state":"active","ping":105},{"user_id":42,"name":"Maid 'n' China","steam_id":76561198423392976,"connected_time":242000000000,"state":"active","ping":58}]},{"server_id":112,"name":"Uncletopia | Los Angeles | 2 | All Maps","name_short":"lax-2","host":"lax-1.us.uncletopia.com","port":27025,"enabled":true,"region":"us-west","cc":"us","latitude":33.94279,"longitude":-118.41004,"reserved":0,"last_update":"0001-01-01T00:00:00Z","name_a2s":"Uncletopia | Los Angeles | 2 | All Maps","protocol":17,"map":"cp_mountainlab","folder":"tf","game":"Team Fortress","app_id":440,"player_count":0,"max_players":24,"Bots":0,"server_type":"Dedicated","server_os":"Linux","password":true,"vac":true,"version":"7757534","steam_id":85568392924469992,"keywords":["cp","nocrits","nodmgspread","uncletopia"],"game_id":440,"stv_port":27026,"stv_name":"Uncletopia | Los Angeles | 2 | All Maps | STV","players":null},{"server_id":324,"name":"Uncletopia | Los Angeles | 3 | All Maps","name_short":"lax-3","host":"lax-1.us.uncletopia.com","port":27035,"enabled":true,"region":"us-west","cc":"us","latitude":33.94279,"longitude":-118.41004,"reserved":0,"last_update":"0001-01-01T00:00:00Z","name_a2s":"Uncletopia | Los Angeles | 3 | All Maps","protocol":17,"map":"cp_mountainlab","folder":"tf","game":"Team Fortress","app_id":440,"player_count":0,"max_players":24,"Bots":0,"server_type":"Dedicated","server_os":"Linux","password":true,"vac":true,"version":"7757534","steam_id":85568392924510198,"keywords":["cp","nocrits","nodmgspread","uncletopia"],"game_id":440,"stv_port":27036,"stv_name":"Uncletopia | Los Angeles | 3 | All Maps | STV","players":null},{"server_id":25,"name":"Uncletopia | Los Angeles | 4 | Stopwatch Beta","name_short":"lax-4","host":"lax-1.us.uncletopia.com","port":27045,"enabled":true,"region":"us-west","cc":"us","latitude":33.94279,"longitude":-118.41004,"reserved":0,"last_update":"0001-01-01T00:00:00Z","name_a2s":"Uncletopia | Los Angeles | 4 | Stopwatch Beta","protocol":17,"map":"koth_viaduct","folder":"tf","game":"Team Fortress","app_id":440,"player_count":0,"max_players":24,"Bots":0,"server_type":"Dedicated","server_os":"Linux","password":true,"vac":true,"version":"7757534","steam_id":85568392924510199,"keywords":["cp","nocrits","nodmgspread","uncletopia"],"game_id":440,"stv_port":27046,"stv_name":"Uncletopia | Los Angeles | 4 | Stopwatch Beta | STV","players":null},{"server_id":11,"name":"Uncletopia | London | 1 | All Maps","name_short":"lon-1","host":"lon-1.uk.uncletopia.com","port":27015,"enabled":true,"region":"eu","cc":"gb","latitude":51.509865,"longitude":-0.118092,"reserved":0,"last_update":"0001-01-01T00:00:00Z","name_a2s":"Uncletopia | London | 1 | All Maps","protocol":17,"map":"ctf_2fort","folder":"tf","game":"Team Fortress","app_id":440,"player_count":24,"max_players":24,"Bots":0,"server_type":"Dedicated","server_os":"Linux","password":true,"vac":true,"version":"7757534","steam_id":85568392924367362,"keywords":["ctf","nocrits","nodmgspread","uncletopia"],"game_id":440,"stv_port":27016,"stv_name":"Uncletopia | London | 1 | All Maps | STV","players":[{"user_id":625,"name":"finfinfin603","steam_id":76561199466781643,"connected_time":601000000000,"state":"active","ping":72},{"user_id":628,"name":"Magica","steam_id":76561198965200359,"connected_time":497000000000,"state":"active","ping":65},{"user_id":632,"name":"Ptahotep","steam_id":76561198008708645,"connected_time":316000000000,"state":"active","ping":55},{"user_id":624,"name":"JOHN GAMING (based)","steam_id":76561199085822219,"connected_time":642000000000,"state":"active","ping":85},{"user_id":606,"name":"fear the old blood","steam_id":76561199026097466,"connected_time":1013000000000,"state":"active","ping":75},{"user_id":617,"name":"CEO of Pen Island","steam_id":76561198037212191,"connected_time":819000000000,"state":"active","ping":63},{"user_id":610,"name":"Amoru","steam_id":76561198798161817,"connected_time":954000000000,"state":"active","ping":81},{"user_id":582,"name":"Whyx","steam_id":76561198064909404,"connected_time":2499000000000,"state":"active","ping":63},{"user_id":603,"name":"Hermitcrack","steam_id":76561198149216441,"connected_time":1302000000000,"state":"active","ping":75},{"user_id":612,"name":"⛧ AlphaSatanOmega ⛧","steam_id":76561198035125511,"connected_time":945000000000,"state":"active","ping":139},{"user_id":620,"name":"Vitamin Weee","steam_id":76561199183937747,"connected_time":737000000000,"state":"active","ping":89},{"user_id":568,"name":"king251311","steam_id":76561199063310889,"connected_time":3659000000000,"state":"active","ping":84},{"user_id":605,"name":"Celtins","steam_id":76561198839837475,"connected_time":1193000000000,"state":"active","ping":55},{"user_id":593,"name":"Vincere aut mori.","steam_id":76561198170994682,"connected_time":2145000000000,"state":"active","ping":95},{"user_id":614,"name":"cof","steam_id":76561199128417805,"connected_time":914000000000,"state":"active","ping":56},{"user_id":621,"name":"Uncle Terry","steam_id":76561198396415736,"connected_time":721000000000,"state":"active","ping":52},{"user_id":534,"name":"Suspicious Cabin","steam_id":76561198083261198,"connected_time":7188000000000,"state":"active","ping":50},{"user_id":629,"name":"Warrez the Emu","steam_id":76561198080840887,"connected_time":463000000000,"state":"active","ping":68},{"user_id":623,"name":"linnisty","steam_id":76561198356234161,"connected_time":693000000000,"state":"active","ping":73},{"user_id":583,"name":"Pranked Pulsive","steam_id":76561198074604626,"connected_time":2207000000000,"state":"active","ping":69},{"user_id":616,"name":"Medieval Doktor","steam_id":76561198075373362,"connected_time":912000000000,"state":"active","ping":42},{"user_id":576,"name":"Favi","steam_id":76561198013236935,"connected_time":3503000000000,"state":"active","ping":77},{"user_id":589,"name":"Art The Clown Surprise Gun","steam_id":76561198133538209,"connected_time":2176000000000,"state":"active","ping":45},{"user_id":634,"name":"bimgus","steam_id":76561198208045069,"connected_time":157000000000,"state":"active","ping":51}]},{"server_id":114,"name":"Uncletopia | London | 2 | All Maps","name_short":"lon-2","host":"lon-1.uk.uncletopia.com","port":27025,"enabled":true,"region":"eu","cc":"gb","latitude":51.509865,"longitude":-0.118092,"reserved":0,"last_update":"0001-01-01T00:00:00Z","name_a2s":"Uncletopia | London | 2 | All Maps","protocol":17,"map":"pl_badwater","folder":"tf","game":"Team Fortress","app_id":440,"player_count":25,"max_players":24,"Bots":0,"server_type":"Dedicated","server_os":"Linux","password":true,"vac":true,"version":"7757534","steam_id":85568392924470941,"keywords":["nocrits","nodmgspread","payload","uncletopia"],"game_id":440,"stv_port":27026,"stv_name":"Uncletopia | London | 2 | All Maps | STV","players":[{"user_id":509,"name":"Vsevers","steam_id":76561198984861515,"connected_time":157000000000,"state":"active","ping":97},{"user_id":510,"name":"Palex","steam_id":76561198093219465,"connected_time":121000000000,"state":"active","ping":44},{"user_id":474,"name":"テイルス","steam_id":76561198022403271,"connected_time":2799000000000,"state":"active","ping":45},{"user_id":511,"name":"scarecrowshelper","steam_id":76561198072260553,"connected_time":114000000000,"state":"active","ping":57},{"user_id":468,"name":"Johnny Cockroach","steam_id":76561198049648277,"connected_time":3747000000000,"state":"active","ping":97},{"user_id":501,"name":"- 84n4n3n8r07 -","steam_id":76561198047887705,"connected_time":1265000000000,"state":"active","ping":60},{"user_id":496,"name":"waffle","steam_id":76561198800573494,"connected_time":1667000000000,"state":"active","ping":100},{"user_id":512,"name":"sriracha..","steam_id":76561198005560221,"connected_time":113000000000,"state":"active","ping":106},{"user_id":513,"name":"Superiumentarius","steam_id":76561198081642249,"connected_time":92000000000,"state":"active","ping":60},{"user_id":490,"name":"benibachi","steam_id":76561198190816499,"connected_time":1783000000000,"state":"active","ping":95},{"user_id":514,"name":"Qatuk","steam_id":76561198857696199,"connected_time":74000000000,"state":"active","ping":72},{"user_id":470,"name":"русорез","steam_id":76561198113126186,"connected_time":3149000000000,"state":"active","ping":101},{"user_id":515,"name":"adriankurek","steam_id":76561199349026873,"connected_time":61000000000,"state":"active","ping":71},{"user_id":516,"name":"MarabouPatriot","steam_id":76561199379925207,"connected_time":57000000000,"state":"active","ping":59},{"user_id":495,"name":"Runkletookle","steam_id":76561198158321127,"connected_time":1701000000000,"state":"active","ping":135},{"user_id":503,"name":"Milk","steam_id":76561198125876588,"connected_time":452000000000,"state":"active","ping":41},{"user_id":493,"name":"Spoingus","steam_id":76561198161402859,"connected_time":1714000000000,"state":"active","ping":72},{"user_id":517,"name":"skilltissues","steam_id":76561198025828664,"connected_time":31000000000,"state":"active","ping":74},{"user_id":484,"name":"Bronze Age GRINDSET","steam_id":76561198859118263,"connected_time":2589000000000,"state":"active","ping":133},{"user_id":502,"name":"Mr Prince","steam_id":76561199006591691,"connected_time":641000000000,"state":"active","ping":58},{"user_id":518,"name":"Vikep'S","steam_id":76561199002274689,"connected_time":24000000000,"state":"spawning","ping":109},{"user_id":494,"name":"The Blues Brother","steam_id":76561198043935491,"connected_time":1714000000000,"state":"active","ping":114},{"user_id":523,"name":"Dark_Wolf","steam_id":76561199192914992,"connected_time":0,"state":"spawning","ping":65},{"user_id":521,"name":"Cosmetic brain","steam_id":76561198055936410,"connected_time":16000000000,"state":"active","ping":75},{"user_id":522,"name":"roggzerz","steam_id":76561198056170459,"connected_time":16000000000,"state":"active","ping":62}]},{"server_id":320,"name":"Uncletopia | London | 3 | All Maps","name_short":"lon-3","host":"lon-1.uk.uncletopia.com","port":27035,"enabled":true,"region":"eu","cc":"gb","latitude":51.509865,"longitude":-0.118092,"reserved":0,"last_update":"0001-01-01T00:00:00Z","name_a2s":"Uncletopia | London | 3 | All Maps","protocol":17,"map":"pl_badwater","folder":"tf","game":"Team Fortress","app_id":440,"player_count":24,"max_players":24,"Bots":0,"server_type":"Dedicated","server_os":"Linux","password":true,"vac":true,"version":"7757534","steam_id":85568392924510192,"keywords":["nocrits","nodmgspread","payload","uncletopia"],"game_id":440,"stv_port":27036,"stv_name":"Uncletopia | London | 3 | All Maps | STV","players":[{"user_id":946,"name":"Gforcez","steam_id":76561197988201371,"connected_time":891000000000,"state":"active","ping":70},{"user_id":928,"name":"HEAGO","steam_id":76561198082632365,"connected_time":1883000000000,"state":"active","ping":59},{"user_id":922,"name":"onku","steam_id":76561199230709660,"connected_time":1933000000000,"state":"active","ping":60},{"user_id":826,"name":"Futa Lover","steam_id":76561198056775795,"connected_time":6352000000000,"state":"active","ping":149},{"user_id":938,"name":"abigail","steam_id":76561198132932617,"connected_time":1355000000000,"state":"active","ping":51},{"user_id":850,"name":"иван","steam_id":76561198072730591,"connected_time":4909000000000,"state":"active","ping":62},{"user_id":945,"name":"Silky","steam_id":76561198141776731,"connected_time":982000000000,"state":"active","ping":123},{"user_id":847,"name":"Célério","steam_id":76561198088253576,"connected_time":5193000000000,"state":"active","ping":44},{"user_id":944,"name":"RIFT","steam_id":76561198991622379,"connected_time":1260000000000,"state":"active","ping":44},{"user_id":948,"name":"Man of Testicular Proportions","steam_id":76561198055949151,"connected_time":877000000000,"state":"active","ping":45},{"user_id":952,"name":"miro","steam_id":76561198196357213,"connected_time":650000000000,"state":"active","ping":89},{"user_id":881,"name":"tactical783","steam_id":76561199051688560,"connected_time":4013000000000,"state":"active","ping":74},{"user_id":933,"name":"stonebum","steam_id":76561198057004606,"connected_time":1620000000000,"state":"active","ping":59},{"user_id":956,"name":"Koli","steam_id":76561197992428783,"connected_time":326000000000,"state":"active","ping":59},{"user_id":924,"name":"Hydro","steam_id":76561199081791855,"connected_time":1926000000000,"state":"active","ping":113},{"user_id":951,"name":"Axio","steam_id":76561198046826031,"connected_time":672000000000,"state":"active","ping":74},{"user_id":917,"name":"Certified Hood pybro (ua)","steam_id":76561198970562699,"connected_time":2382000000000,"state":"active","ping":52},{"user_id":954,"name":"Dimitri_612","steam_id":76561199223984137,"connected_time":606000000000,"state":"active","ping":59},{"user_id":925,"name":"Fart Sniffer","steam_id":76561198064513206,"connected_time":1910000000000,"state":"active","ping":57},{"user_id":957,"name":"I Find A Computer Indispensible","steam_id":76561198046152236,"connected_time":181000000000,"state":"active","ping":73},{"user_id":959,"name":"Bromoneto","steam_id":76561198876695014,"connected_time":110000000000,"state":"active","ping":93},{"user_id":876,"name":"Noob_with_source","steam_id":76561198870362103,"connected_time":4183000000000,"state":"active","ping":59},{"user_id":927,"name":"MEDiUM","steam_id":76561198112328561,"connected_time":1904000000000,"state":"active","ping":97},{"user_id":939,"name":"ебатель","steam_id":76561198220179531,"connected_time":1355000000000,"state":"active","ping":94}]},{"server_id":321,"name":"Uncletopia | London | 4 | All Maps","name_short":"lon-4","host":"lon-1.uk.uncletopia.com","port":27045,"enabled":true,"region":"eu","cc":"gb","latitude":51.509865,"longitude":-0.118092,"reserved":0,"last_update":"0001-01-01T00:00:00Z","name_a2s":"Uncletopia | London | 4 | All Maps","protocol":17,"map":"koth_suijin","folder":"tf","game":"Team Fortress","app_id":440,"player_count":23,"max_players":24,"Bots":0,"server_type":"Dedicated","server_os":"Linux","password":true,"vac":true,"version":"7757534","steam_id":85568392924510193,"keywords":["cp","nocrits","nodmgspread","uncletopia"],"game_id":440,"stv_port":27046,"stv_name":"Uncletopia | London | 4 | All Maps | STV","players":[{"user_id":366,"name":"TheBeardedM1G","steam_id":76561198040208946,"connected_time":943000000000,"state":"active","ping":45},{"user_id":357,"name":"Miczu555PL","steam_id":76561198058500895,"connected_time":1542000000000,"state":"active","ping":67},{"user_id":361,"name":"Bones","steam_id":76561198065081225,"connected_time":1408000000000,"state":"active","ping":43},{"user_id":298,"name":"Regan","steam_id":76561198100631086,"connected_time":6003000000000,"state":"active","ping":70},{"user_id":332,"name":"slifty","steam_id":76561198166682199,"connected_time":3826000000000,"state":"active","ping":57},{"user_id":376,"name":"Sploink","steam_id":76561198115504907,"connected_time":548000000000,"state":"active","ping":79},{"user_id":351,"name":"GARbageTrash","steam_id":76561199101269633,"connected_time":2001000000000,"state":"active","ping":90},{"user_id":367,"name":"Jonas Destark","steam_id":76561198030327441,"connected_time":938000000000,"state":"active","ping":65},{"user_id":379,"name":"blizz gamming","steam_id":76561198253692868,"connected_time":430000000000,"state":"active","ping":65},{"user_id":345,"name":"heatburn","steam_id":76561198019001992,"connected_time":2523000000000,"state":"active","ping":66},{"user_id":372,"name":"Joff-tchoff-tchoffo-tchoffo-tch","steam_id":76561198044167743,"connected_time":793000000000,"state":"active","ping":89},{"user_id":289,"name":"SuntanPikachu","steam_id":76561198121242476,"connected_time":6230000000000,"state":"active","ping":66},{"user_id":318,"name":"Feelin' Supersonic","steam_id":76561198005738407,"connected_time":4829000000000,"state":"active","ping":91},{"user_id":336,"name":"Cheshireycat","steam_id":76561198067204908,"connected_time":3213000000000,"state":"active","ping":58},{"user_id":380,"name":"degu","steam_id":76561198180823942,"connected_time":278000000000,"state":"active","ping":93},{"user_id":363,"name":"Benzo Fury","steam_id":76561198025259336,"connected_time":996000000000,"state":"active","ping":44},{"user_id":327,"name":"lucagonzales2012","steam_id":76561199102542822,"connected_time":4568000000000,"state":"active","ping":146},{"user_id":377,"name":"K.V. #RemoveRandomCrits","steam_id":76561197994832993,"connected_time":542000000000,"state":"active","ping":79},{"user_id":353,"name":"Lambda","steam_id":76561198108011349,"connected_time":1985000000000,"state":"active","ping":92},{"user_id":350,"name":"Silvan","steam_id":76561198415391988,"connected_time":2013000000000,"state":"active","ping":57},{"user_id":371,"name":"Bentley","steam_id":76561197978252169,"connected_time":866000000000,"state":"active","ping":62},{"user_id":360,"name":"Hound Jackal","steam_id":76561198378357559,"connected_time":1478000000000,"state":"active","ping":44},{"user_id":301,"name":"pizzaboob","steam_id":76561198097507847,"connected_time":5976000000000,"state":"active","ping":83}]},{"server_id":21,"name":"Uncletopia | London | 5 | All Maps","name_short":"lon-5","host":"lon-1.uk.uncletopia.com","port":27055,"enabled":true,"region":"eu","cc":"gb","latitude":51.509865,"longitude":-0.118092,"reserved":0,"last_update":"0001-01-01T00:00:00Z","name_a2s":"Uncletopia | London | 5 | All Maps","protocol":17,"map":"pl_pier","folder":"tf","game":"Team Fortress","app_id":440,"player_count":20,"max_players":24,"Bots":0,"server_type":"Dedicated","server_os":"Linux","password":true,"vac":true,"version":"7757534","steam_id":85568392924742829,"keywords":["nocrits","nodmgspread","payload","uncletopia"],"game_id":440,"stv_port":27056,"stv_name":"Uncletopia | London | 5 | All Maps | STV","players":[{"user_id":292,"name":"Insanitybomb","steam_id":76561198048707708,"connected_time":18000000000,"state":"connecting","ping":0},{"user_id":275,"name":"2Fort Samurai","steam_id":76561198064490192,"connected_time":680000000000,"state":"active","ping":51},{"user_id":227,"name":"crolee","steam_id":76561198865817316,"connected_time":3713000000000,"state":"active","ping":57},{"user_id":293,"name":"Fridge","steam_id":76561198071665589,"connected_time":7000000000,"state":"spawning","ping":103},{"user_id":273,"name":"makin' piss","steam_id":76561198052136478,"connected_time":699000000000,"state":"active","ping":60},{"user_id":279,"name":"Combat Wombat","steam_id":76561197994720068,"connected_time":623000000000,"state":"active","ping":56},{"user_id":221,"name":"Sigmar's Weakest Soldier","steam_id":76561198320506848,"connected_time":3761000000000,"state":"active","ping":43},{"user_id":226,"name":"azzy","steam_id":76561198061293740,"connected_time":3740000000000,"state":"active","ping":78},{"user_id":222,"name":"Hexagon","steam_id":76561198151205758,"connected_time":3760000000000,"state":"active","ping":60},{"user_id":286,"name":"Zombiemops","steam_id":76561198089881293,"connected_time":250000000000,"state":"active","ping":79},{"user_id":237,"name":"mishka.*","steam_id":76561198040003628,"connected_time":3138000000000,"state":"active","ping":77},{"user_id":266,"name":"Charliecoal","steam_id":76561198385252450,"connected_time":1399000000000,"state":"active","ping":59},{"user_id":223,"name":"nynon","steam_id":76561197998432126,"connected_time":3755000000000,"state":"active","ping":90},{"user_id":267,"name":"HoTTLInEr #PrioraLOVE","steam_id":76561198059170163,"connected_time":1389000000000,"state":"active","ping":130},{"user_id":274,"name":"jge","steam_id":76561198123186387,"connected_time":688000000000,"state":"active","ping":59},{"user_id":287,"name":"moser23","steam_id":76561197960543171,"connected_time":246000000000,"state":"active","ping":56},{"user_id":285,"name":"Ross","steam_id":76561198965967986,"connected_time":323000000000,"state":"active","ping":67},{"user_id":289,"name":"NotExactlyAName","steam_id":76561199131759230,"connected_time":130000000000,"state":"active","ping":84},{"user_id":281,"name":"Enforcer02","steam_id":76561197966045944,"connected_time":602000000000,"state":"active","ping":60},{"user_id":255,"name":"Mr.Cupcake","steam_id":76561198152711174,"connected_time":2099000000000,"state":"active","ping":78}]},{"server_id":22,"name":"Uncletopia | London | 6 | All Maps","name_short":"lon-6","host":"lon-1.uk.uncletopia.com","port":27065,"enabled":true,"region":"eu","cc":"gb","latitude":51.509865,"longitude":-0.118092,"reserved":0,"last_update":"0001-01-01T00:00:00Z","name_a2s":"Uncletopia | London | 6 | All Maps","protocol":17,"map":"cp_mountainlab","folder":"tf","game":"Team Fortress","app_id":440,"player_count":23,"max_players":24,"Bots":0,"server_type":"Dedicated","server_os":"Linux","password":true,"vac":true,"version":"7757534","steam_id":85568392924742830,"keywords":["cp","nocrits","nodmgspread","uncletopia"],"game_id":440,"stv_port":27066,"stv_name":"Uncletopia | London | 6 | All Maps | STV","players":[{"user_id":211,"name":"heavy sings (real)","steam_id":76561199023804405,"connected_time":197000000000,"state":"active","ping":63},{"user_id":197,"name":"Yos","steam_id":76561199056318258,"connected_time":835000000000,"state":"active","ping":93},{"user_id":203,"name":"Omsi","steam_id":76561198061668984,"connected_time":521000000000,"state":"active","ping":75},{"user_id":172,"name":"a sticky situation","steam_id":76561198011692496,"connected_time":1234000000000,"state":"active","ping":68},{"user_id":158,"name":"Phrog","steam_id":76561197994499500,"connected_time":2165000000000,"state":"active","ping":55},{"user_id":206,"name":"clems17","steam_id":76561199420685482,"connected_time":400000000000,"state":"active","ping":70},{"user_id":204,"name":"Goldstein","steam_id":76561197964153540,"connected_time":507000000000,"state":"active","ping":70},{"user_id":196,"name":"Hive","steam_id":76561198207343209,"connected_time":838000000000,"state":"active","ping":72},{"user_id":162,"name":"Lokinn","steam_id":76561198127117580,"connected_time":2136000000000,"state":"active","ping":73},{"user_id":191,"name":"sks ˄˅","steam_id":76561197996485230,"connected_time":977000000000,"state":"active","ping":82},{"user_id":210,"name":"Spamton G. Spamton","steam_id":76561199006979486,"connected_time":237000000000,"state":"active","ping":65},{"user_id":201,"name":"Francis","steam_id":76561198987134265,"connected_time":634000000000,"state":"active","ping":68},{"user_id":200,"name":"ToadBro","steam_id":76561199063015691,"connected_time":662000000000,"state":"active","ping":84},{"user_id":174,"name":"AlexTheBestWarrior","steam_id":76561198321974834,"connected_time":1219000000000,"state":"active","ping":87},{"user_id":212,"name":"MentleGen","steam_id":76561198061190210,"connected_time":177000000000,"state":"active","ping":42},{"user_id":208,"name":"Garfailed The Dumbass","steam_id":76561198979140645,"connected_time":303000000000,"state":"active","ping":54},{"user_id":183,"name":"john fortresstwo","steam_id":76561198202668788,"connected_time":1122000000000,"state":"active","ping":69},{"user_id":186,"name":"Acucutl","steam_id":76561198133867096,"connected_time":1086000000000,"state":"active","ping":77},{"user_id":177,"name":"AshieTheVixen","steam_id":76561199061018034,"connected_time":1209000000000,"state":"active","ping":80},{"user_id":178,"name":"original name","steam_id":76561199186288763,"connected_time":1208000000000,"state":"active","ping":174},{"user_id":179,"name":"etc","steam_id":76561197998394797,"connected_time":1207000000000,"state":"active","ping":50},{"user_id":189,"name":"SimonTheOverseer","steam_id":76561198957685588,"connected_time":1047000000000,"state":"active","ping":70},{"user_id":193,"name":"stars.","steam_id":76561198092355604,"connected_time":949000000000,"state":"active","ping":88}]},{"server_id":40,"name":"Uncletopia | London | 7 | No Payload","name_short":"lon-7","host":"lon-1.uk.uncletopia.com","port":27075,"enabled":true,"region":"eu","cc":"gb","latitude":51.509865,"longitude":-0.118092,"reserved":0,"last_update":"0001-01-01T00:00:00Z","name_a2s":"Uncletopia | London | 7 | No Payload","protocol":17,"map":"koth_cascade","folder":"tf","game":"Team Fortress","app_id":440,"player_count":24,"max_players":24,"Bots":0,"server_type":"Dedicated","server_os":"Linux","password":true,"vac":true,"version":"7757534","steam_id":85568392924964314,"keywords":["cp","nocrits","nodmgspread","uncletopia"],"game_id":440,"stv_port":27076,"stv_name":"Uncletopia | London | 7 | No Payload | STV","players":[{"user_id":101,"name":"Pinkchup","steam_id":76561198106802803,"connected_time":1824000000000,"state":"active","ping":86},{"user_id":86,"name":"fume.","steam_id":76561197960476801,"connected_time":2778000000000,"state":"active","ping":55},{"user_id":115,"name":"CommanderLex","steam_id":76561198123115529,"connected_time":863000000000,"state":"active","ping":65},{"user_id":118,"name":"Minigrim0","steam_id":76561198087819466,"connected_time":373000000000,"state":"active","ping":82},{"user_id":77,"name":"SnugTaro","steam_id":76561198207515803,"connected_time":3251000000000,"state":"active","ping":56},{"user_id":110,"name":"Magiccomplex","steam_id":76561199203555188,"connected_time":1129000000000,"state":"active","ping":53},{"user_id":106,"name":"Der Einzige Ⓐ","steam_id":76561198423518671,"connected_time":1461000000000,"state":"active","ping":92},{"user_id":119,"name":"Calanim","steam_id":76561198068163854,"connected_time":356000000000,"state":"active","ping":60},{"user_id":104,"name":"Haggabah,WhoPliesTheUmbralPath","steam_id":76561198846984399,"connected_time":1759000000000,"state":"active","ping":85},{"user_id":116,"name":"DarthPaul8181","steam_id":76561198373050455,"connected_time":777000000000,"state":"active","ping":58},{"user_id":108,"name":"фурримальчик","steam_id":76561199433913089,"connected_time":1378000000000,"state":"active","ping":102},{"user_id":96,"name":"dochris.2","steam_id":76561198026478625,"connected_time":1859000000000,"state":"active","ping":57},{"user_id":105,"name":"hondjo","steam_id":76561198119324108,"connected_time":1683000000000,"state":"active","ping":51},{"user_id":122,"name":"The IQ of 5 gay rats","steam_id":76561199078992435,"connected_time":214000000000,"state":"active","ping":45},{"user_id":93,"name":"okyriosy","steam_id":76561198043848122,"connected_time":2097000000000,"state":"active","ping":78},{"user_id":109,"name":"pizza time","steam_id":76561199015899793,"connected_time":1178000000000,"state":"active","ping":54},{"user_id":75,"name":"ronnie","steam_id":76561198377533237,"connected_time":3331000000000,"state":"active","ping":73},{"user_id":117,"name":"PilloF","steam_id":76561198088635943,"connected_time":528000000000,"state":"active","ping":79},{"user_id":121,"name":"GRcrafter","steam_id":76561198372186715,"connected_time":347000000000,"state":"active","ping":96},{"user_id":95,"name":"Minimi","steam_id":76561198873850443,"connected_time":1892000000000,"state":"active","ping":43},{"user_id":59,"name":"XavierSweet","steam_id":76561198091781913,"connected_time":4336000000000,"state":"active","ping":54},{"user_id":78,"name":"snIpey","steam_id":76561197988311311,"connected_time":3197000000000,"state":"active","ping":90},{"user_id":97,"name":"Telivan","steam_id":76561198026048940,"connected_time":1858000000000,"state":"active","ping":71},{"user_id":102,"name":"sareena","steam_id":76561198810194062,"connected_time":1809000000000,"state":"active","ping":69}]},{"server_id":41,"name":"Uncletopia | London | 8 | Community","name_short":"lon-8","host":"lon-1.uk.uncletopia.com","port":27085,"enabled":true,"region":"eu","cc":"gb","latitude":51.509865,"longitude":-0.118092,"reserved":0,"last_update":"0001-01-01T00:00:00Z","name_a2s":"Uncletopia | London | 8 | Community","protocol":17,"map":"workshop/koth_synthetic_rc6a.ugc1549817316","folder":"tf","game":"Team Fortress","app_id":440,"player_count":0,"max_players":24,"Bots":0,"server_type":"Dedicated","server_os":"Linux","password":true,"vac":true,"version":"7757534","steam_id":85568392924964315,"keywords":["cp","nocrits","nodmgspread","uncletopia"],"game_id":440,"stv_port":27086,"stv_name":"Uncletopia | London | 8 | Community | STV","players":null},{"server_id":300,"name":"Uncletopia | Montréal | 1 | All Maps","name_short":"mtl-1","host":"mtl-1.ca.uncletopia.com","port":27015,"enabled":true,"region":"us-east","cc":"ca","latitude":45.50889,"longitude":-73.56167,"reserved":0,"last_update":"0001-01-01T00:00:00Z","name_a2s":"Uncletopia | Montréal | 1 | All Maps","protocol":17,"map":"koth_viaduct","folder":"tf","game":"Team Fortress","app_id":440,"player_count":0,"max_players":24,"Bots":0,"server_type":"Dedicated","server_os":"Linux","password":true,"vac":true,"version":"7757534","steam_id":85568392924500087,"keywords":["cp","nocrits","nodmgspread","uncletopia"],"game_id":440,"stv_port":27016,"stv_name":"Uncletopia | Montréal | 1 | All Maps | STV","players":null},{"server_id":301,"name":"Uncletopia | Montréal | 2 | All Maps","name_short":"mtl-2","host":"mtl-1.ca.uncletopia.com","port":27025,"enabled":true,"region":"us-east","cc":"ca","latitude":45.50889,"longitude":-73.56167,"reserved":0,"last_update":"0001-01-01T00:00:00Z","name_a2s":"Uncletopia | Montréal | 2 | All Maps","protocol":17,"map":"pl_borneo","folder":"tf","game":"Team Fortress","app_id":440,"player_count":0,"max_players":24,"Bots":0,"server_type":"Dedicated","server_os":"Linux","password":true,"vac":true,"version":"7757534","steam_id":85568392924500088,"keywords":["nocrits","nodmgspread","payload","uncletopia"],"game_id":440,"stv_port":27026,"stv_name":"Uncletopia | Montréal | 2 | All Maps | STV","players":null},{"server_id":302,"name":"Uncletopia | Montréal | 3 | All Maps","name_short":"mtl-3","host":"mtl-1.ca.uncletopia.com","port":27035,"enabled":true,"region":"us-east","cc":"ca","latitude":45.50889,"longitude":-73.56167,"reserved":0,"last_update":"0001-01-01T00:00:00Z","name_a2s":"Uncletopia | Montréal | 3 | All Maps","protocol":17,"map":"cp_sunshine","folder":"tf","game":"Team Fortress","app_id":440,"player_count":0,"max_players":24,"Bots":0,"server_type":"Dedicated","server_os":"Linux","password":true,"vac":true,"version":"7757534","steam_id":85568392924500089,"keywords":["cp","nocrits","nodmgspread","uncletopia"],"game_id":440,"stv_port":27036,"stv_name":"Uncletopia | Montréal | 3 | All Maps | STV","players":null},{"server_id":303,"name":"Uncletopia | Montréal | 4 | No Payload","name_short":"mtl-4","host":"mtl-1.ca.uncletopia.com","port":27045,"enabled":true,"region":"us-east","cc":"ca","latitude":45.50889,"longitude":-73.56167,"reserved":0,"last_update":"0001-01-01T00:00:00Z","name_a2s":"Uncletopia | Montréal | 4 | No Payload","protocol":17,"map":"koth_lakeside_final","folder":"tf","game":"Team Fortress","app_id":440,"player_count":0,"max_players":24,"Bots":0,"server_type":"Dedicated","server_os":"Linux","password":true,"vac":true,"version":"7757534","steam_id":85568392924500090,"keywords":["cp","nocrits","nodmgspread","uncletopia"],"game_id":440,"stv_port":27046,"stv_name":"Uncletopia | Montréal | 4 | No Payload | STV","players":null},{"server_id":13,"name":"Uncletopia | New York City | 1 | All Maps","name_short":"nyc-1","host":"nyc-1.us.uncletopia.com","port":27015,"enabled":true,"region":"us-east","cc":"us","latitude":40.73061,"longitude":-73.93524,"reserved":0,"last_update":"0001-01-01T00:00:00Z","name_a2s":"Uncletopia | New York City | 1 | All Maps","protocol":17,"map":"pl_barnblitz","folder":"tf","game":"Team Fortress","app_id":440,"player_count":1,"max_players":24,"Bots":0,"server_type":"Dedicated","server_os":"Linux","password":true,"vac":true,"version":"7757534","steam_id":85568392924469993,"keywords":["nocrits","nodmgspread","payload","uncletopia"],"game_id":440,"stv_port":27016,"stv_name":"Uncletopia | New York City | 1 | All Maps | STV","players":[{"user_id":16,"name":"squaggles!","steam_id":76561197994995011,"connected_time":94000000000,"state":"connecting","ping":0}]},{"server_id":14,"name":"Uncletopia | New York City | 2 | All Maps","name_short":"nyc-2","host":"nyc-1.us.uncletopia.com","port":27025,"enabled":true,"region":"us-east","cc":"us","latitude":40.73061,"longitude":-73.93524,"reserved":0,"last_update":"0001-01-01T00:00:00Z","name_a2s":"Uncletopia | New York City | 2 | All Maps","protocol":17,"map":"pl_frontier_final","folder":"tf","game":"Team Fortress","app_id":440,"player_count":24,"max_players":24,"Bots":0,"server_type":"Dedicated","server_os":"Linux","password":true,"vac":true,"version":"7757534","steam_id":85568392924469994,"keywords":["nocrits","nodmgspread","payload","uncletopia"],"game_id":440,"stv_port":27026,"stv_name":"Uncletopia | New York City | 2 | All Maps | STV","players":[{"user_id":406,"name":"bikerkid207","steam_id":76561198390782783,"connected_time":4307000000000,"state":"active","ping":59},{"user_id":425,"name":"THRILLHO","steam_id":76561198371663047,"connected_time":2938000000000,"state":"active","ping":43},{"user_id":231,"name":"Convict Police Officers","steam_id":76561197993527275,"connected_time":9522000000000,"state":"active","ping":64},{"user_id":441,"name":"LittleJoeRambler","steam_id":76561198015890576,"connected_time":1333000000000,"state":"active","ping":79},{"user_id":440,"name":"MILF Gaming","steam_id":76561198155378170,"connected_time":1596000000000,"state":"active","ping":57},{"user_id":450,"name":"Salt","steam_id":76561199137060333,"connected_time":1248000000000,"state":"active","ping":84},{"user_id":395,"name":"Forge","steam_id":76561198042751067,"connected_time":5339000000000,"state":"active","ping":59},{"user_id":446,"name":"Waffle Wannabe","steam_id":76561198064510650,"connected_time":1293000000000,"state":"active","ping":37},{"user_id":452,"name":"Dexter","steam_id":76561198050149035,"connected_time":1072000000000,"state":"active","ping":51},{"user_id":422,"name":"jumbo shrimp","steam_id":76561199085931379,"connected_time":3128000000000,"state":"active","ping":75},{"user_id":433,"name":"koob","steam_id":76561198987464129,"connected_time":2727000000000,"state":"active","ping":54},{"user_id":445,"name":"KORF","steam_id":76561197981904410,"connected_time":1304000000000,"state":"active","ping":103},{"user_id":437,"name":"MurpAMurp","steam_id":76561198374437261,"connected_time":2300000000000,"state":"active","ping":71},{"user_id":451,"name":"Sheppy","steam_id":76561198295126940,"connected_time":1193000000000,"state":"active","ping":72},{"user_id":453,"name":"peniblor","steam_id":76561198307923786,"connected_time":273000000000,"state":"active","ping":118},{"user_id":416,"name":"kwout","steam_id":76561197997139225,"connected_time":3537000000000,"state":"active","ping":56},{"user_id":439,"name":"Spirit","steam_id":76561199069322627,"connected_time":2003000000000,"state":"active","ping":60},{"user_id":456,"name":"marcus tillius","steam_id":76561197982832274,"connected_time":37000000000,"state":"active","ping":56},{"user_id":424,"name":"toastman","steam_id":76561198207073088,"connected_time":2972000000000,"state":"active","ping":89},{"user_id":302,"name":"FUSION","steam_id":76561197972659738,"connected_time":7935000000000,"state":"active","ping":33},{"user_id":202,"name":"Sodemo","steam_id":76561198074987146,"connected_time":10171000000000,"state":"active","ping":71},{"user_id":435,"name":"leonardo doujinshi","steam_id":76561198025810326,"connected_time":2661000000000,"state":"active","ping":73},{"user_id":386,"name":"Amogus The Sussy Baka ඞ","steam_id":76561198008577961,"connected_time":5662000000000,"state":"active","ping":58},{"user_id":455,"name":"Sour Idiot","steam_id":76561198138185255,"connected_time":124000000000,"state":"active","ping":106}]},{"server_id":15,"name":"Uncletopia | New York City | 3 | Stopwatch Beta","name_short":"nyc-3","host":"nyc-1.us.uncletopia.com","port":27035,"enabled":true,"region":"us-east","cc":"us","latitude":40.73061,"longitude":-73.93524,"reserved":0,"last_update":"0001-01-01T00:00:00Z","name_a2s":"Uncletopia | New York City | 3 | Stopwatch Beta","protocol":17,"map":"koth_lakeside_final","folder":"tf","game":"Team Fortress","app_id":440,"player_count":0,"max_players":24,"Bots":0,"server_type":"Dedicated","server_os":"Linux","password":true,"vac":true,"version":"7757534","steam_id":85568392924742820,"keywords":["cp","nocrits","nodmgspread","uncletopia"],"game_id":440,"stv_port":27036,"stv_name":"Uncletopia | New York City | 3 | Stopwatch Beta | STV","players":null},{"server_id":16,"name":"Uncletopia | New York City | 4 | Community","name_short":"nyc-4","host":"nyc-1.us.uncletopia.com","port":27045,"enabled":true,"region":"us-east","cc":"us","latitude":40.73061,"longitude":-73.93524,"reserved":0,"last_update":"0001-01-01T00:00:00Z","name_a2s":"Uncletopia | New York City | 4 | Community","protocol":17,"map":"workshop/koth_ashville_final.ugc2130459942","folder":"tf","game":"Team Fortress","app_id":440,"player_count":22,"max_players":24,"Bots":0,"server_type":"Dedicated","server_os":"Linux","password":true,"vac":true,"version":"7757534","steam_id":85568392924742821,"keywords":["cp","nocrits","nodmgspread","uncletopia"],"game_id":440,"stv_port":27046,"stv_name":"Uncletopia | New York City | 4 | Community | STV","players":[{"user_id":148,"name":"the grungler!","steam_id":76561198058485742,"connected_time":121000000000,"state":"active","ping":55},{"user_id":139,"name":"gentle_dentist","steam_id":76561199061329544,"connected_time":575000000000,"state":"active","ping":44},{"user_id":126,"name":"DOMINOS","steam_id":76561198334591211,"connected_time":1335000000000,"state":"active","ping":151},{"user_id":128,"name":"jliu","steam_id":76561198052172341,"connected_time":1121000000000,"state":"active","ping":61},{"user_id":149,"name":"guac","steam_id":76561198025481672,"connected_time":87000000000,"state":"active","ping":52},{"user_id":45,"name":"The Prankster™","steam_id":76561199123285878,"connected_time":6267000000000,"state":"active","ping":74},{"user_id":111,"name":"４０ ＦＰＳ","steam_id":76561198272394965,"connected_time":1886000000000,"state":"active","ping":134},{"user_id":83,"name":"300 Gigafarts","steam_id":76561198080169497,"connected_time":3992000000000,"state":"active","ping":60},{"user_id":143,"name":"Sayyed Sneed","steam_id":76561198025766161,"connected_time":347000000000,"state":"active","ping":78},{"user_id":144,"name":"Shia","steam_id":76561198057900522,"connected_time":326000000000,"state":"active","ping":88},{"user_id":133,"name":"floppy muppet","steam_id":76561198003076261,"connected_time":1030000000000,"state":"active","ping":89},{"user_id":122,"name":"abolish the federal reserve","steam_id":76561198047796437,"connected_time":1539000000000,"state":"active","ping":124},{"user_id":131,"name":"bycrist","steam_id":76561198250395366,"connected_time":1100000000000,"state":"active","ping":122},{"user_id":140,"name":"Apollo","steam_id":76561198110961007,"connected_time":572000000000,"state":"active","ping":55},{"user_id":132,"name":"deserted_code","steam_id":76561199111564998,"connected_time":1094000000000,"state":"active","ping":88},{"user_id":115,"name":"Astrocircuit","steam_id":76561198014437544,"connected_time":1805000000000,"state":"active","ping":47},{"user_id":151,"name":"energem beholder","steam_id":76561197998344127,"connected_time":35000000000,"state":"active","ping":80},{"user_id":116,"name":"BoyOHBoy","steam_id":76561198364754109,"connected_time":1804000000000,"state":"active","ping":74},{"user_id":150,"name":"Dark Gus","steam_id":76561198132364510,"connected_time":78000000000,"state":"active","ping":103},{"user_id":105,"name":"Wallace J","steam_id":76561198131397161,"connected_time":3013000000000,"state":"active","ping":41},{"user_id":147,"name":"THE REAL JIMMY NEUTRON","steam_id":76561198039909187,"connected_time":297000000000,"state":"active","ping":75},{"user_id":81,"name":"PigPig","steam_id":76561198068190834,"connected_time":4067000000000,"state":"active","ping":115}]},{"server_id":142,"name":"Uncletopia | São Paulo | 1 | All Maps","name_short":"sao-1","host":"sao-1.br.uncletopia.com","port":27015,"enabled":true,"region":"sa","cc":"br","latitude":-23.533773,"longitude":-46.62529,"reserved":0,"last_update":"0001-01-01T00:00:00Z","name_a2s":"Uncletopia | São Paulo | 1 | All Maps","protocol":17,"map":"pl_badwater","folder":"tf","game":"Team Fortress","app_id":440,"player_count":0,"max_players":24,"Bots":0,"server_type":"Dedicated","server_os":"Linux","password":true,"vac":true,"version":"7757534","steam_id":85568392924469996,"keywords":["nocrits","nodmgspread","payload","uncletopia"],"game_id":440,"stv_port":27016,"stv_name":"Uncletopia | São Paulo | 1 | All Maps | STV","players":null},{"server_id":143,"name":"Uncletopia | São Paulo | 2 | All Maps","name_short":"sao-2","host":"sao-2.br.uncletopia.com","port":27015,"enabled":true,"region":"sa","cc":"br","latitude":-23.533773,"longitude":-46.62529,"reserved":0,"last_update":"0001-01-01T00:00:00Z","name_a2s":"Uncletopia | São Paulo | 2 | All Maps","protocol":17,"map":"pl_pier","folder":"tf","game":"Team Fortress","app_id":440,"player_count":14,"max_players":24,"Bots":0,"server_type":"Dedicated","server_os":"Linux","password":true,"vac":true,"version":"7757534","steam_id":85568392924485349,"keywords":["nocrits","nodmgspread","payload","uncletopia"],"game_id":440,"stv_port":27016,"stv_name":"Uncletopia | São Paulo | 2 | All Maps | STV","players":[{"user_id":31,"name":"Sylvester","steam_id":76561199417175031,"connected_time":709000000000,"state":"active","ping":52},{"user_id":21,"name":"Duckman","steam_id":76561198256238125,"connected_time":1373000000000,"state":"active","ping":152},{"user_id":12,"name":"n.","steam_id":76561198963738808,"connected_time":3348000000000,"state":"active","ping":39},{"user_id":14,"name":"ARK","steam_id":76561198253139686,"connected_time":3069000000000,"state":"active","ping":85},{"user_id":32,"name":"Cleitinho","steam_id":76561198965712593,"connected_time":664000000000,"state":"active","ping":97},{"user_id":26,"name":"Mykael","steam_id":76561198339753639,"connected_time":818000000000,"state":"active","ping":85},{"user_id":24,"name":"Seby","steam_id":76561198141369181,"connected_time":1120000000000,"state":"active","ping":51},{"user_id":41,"name":"sonia metralha","steam_id":76561198983533099,"connected_time":221000000000,"state":"active","ping":45},{"user_id":42,"name":"Vror","steam_id":76561198124781832,"connected_time":169000000000,"state":"active","ping":103},{"user_id":29,"name":"Noxzzy11","steam_id":76561199446102309,"connected_time":740000000000,"state":"active","ping":87},{"user_id":34,"name":"Sanches","steam_id":76561198006932156,"connected_time":595000000000,"state":"active","ping":82},{"user_id":35,"name":"Derretimento Geral 2017","steam_id":76561198194300069,"connected_time":539000000000,"state":"active","ping":44},{"user_id":37,"name":"Just Digifam","steam_id":76561198392526091,"connected_time":480000000000,"state":"active","ping":93},{"user_id":40,"name":"즈","steam_id":76561198143438576,"connected_time":362000000000,"state":"active","ping":42}]},{"server_id":7,"name":"Uncletopia | Seattle | 1 | All Maps","name_short":"sea-1","host":"sea-1.us.uncletopia.com","port":27015,"enabled":true,"region":"us-west","cc":"us","latitude":47.608013,"longitude":-122.33517,"reserved":0,"last_update":"0001-01-01T00:00:00Z","name_a2s":"Uncletopia | Seattle | 1 | All Maps","protocol":17,"map":"pl_upward","folder":"tf","game":"Team Fortress","app_id":440,"player_count":25,"max_players":24,"Bots":0,"server_type":"Dedicated","server_os":"Linux","password":true,"vac":true,"version":"7757534","steam_id":85568392924469997,"keywords":["nocrits","nodmgspread","payload","uncletopia"],"game_id":440,"stv_port":27016,"stv_name":"Uncletopia | Seattle | 1 | All Maps | STV","players":[{"user_id":203,"name":"Dimple","steam_id":76561198980324190,"connected_time":1515000000000,"state":"active","ping":46},{"user_id":214,"name":"Kavatappi","steam_id":76561198107563660,"connected_time":302000000000,"state":"active","ping":99},{"user_id":191,"name":"Saulce","steam_id":76561198066142119,"connected_time":2791000000000,"state":"active","ping":85},{"user_id":178,"name":"LeRoy42","steam_id":76561198035591428,"connected_time":3712000000000,"state":"active","ping":125},{"user_id":198,"name":"Schnitz(Lost my Glasses)","steam_id":76561198265484253,"connected_time":1728000000000,"state":"active","ping":81},{"user_id":210,"name":"i ate a whole cow","steam_id":76561198997903598,"connected_time":560000000000,"state":"active","ping":71},{"user_id":212,"name":"Sonny","steam_id":76561198042243689,"connected_time":433000000000,"state":"active","ping":72},{"user_id":151,"name":"no vc no c","steam_id":76561197989503095,"connected_time":6242000000000,"state":"active","ping":160},{"user_id":207,"name":"squid game","steam_id":76561199248960166,"connected_time":929000000000,"state":"active","ping":38},{"user_id":194,"name":"dearender","steam_id":76561199427644498,"connected_time":2366000000000,"state":"active","ping":62},{"user_id":200,"name":"East","steam_id":76561197973050453,"connected_time":1707000000000,"state":"active","ping":39},{"user_id":182,"name":"TheMagicMrWaffle","steam_id":76561198104357256,"connected_time":3410000000000,"state":"active","ping":75},{"user_id":186,"name":"Spud","steam_id":76561198878000618,"connected_time":3237000000000,"state":"active","ping":72},{"user_id":206,"name":"Tyrone","steam_id":76561198189429665,"connected_time":1465000000000,"state":"active","ping":114},{"user_id":193,"name":"Julien","steam_id":76561199389584938,"connected_time":2465000000000,"state":"active","ping":39},{"user_id":120,"name":"skittle ducks jr.","steam_id":76561198309823950,"connected_time":9068000000000,"state":"active","ping":44},{"user_id":201,"name":"McSpazatron","steam_id":76561198955942148,"connected_time":1655000000000,"state":"active","ping":69},{"user_id":162,"name":"Muffim","steam_id":76561198056704533,"connected_time":5336000000000,"state":"active","ping":100},{"user_id":209,"name":"Flea103","steam_id":76561198085863864,"connected_time":614000000000,"state":"active","ping":96},{"user_id":197,"name":"Dauntless Duelist","steam_id":76561198025056018,"connected_time":2153000000000,"state":"active","ping":53},{"user_id":163,"name":"Awildrock","steam_id":76561198040401086,"connected_time":5324000000000,"state":"active","ping":113},{"user_id":133,"name":"Bagged Milk","steam_id":76561198814181124,"connected_time":8361000000000,"state":"active","ping":86},{"user_id":213,"name":"[chef] iron","steam_id":76561197970888616,"connected_time":410000000000,"state":"active","ping":69},{"user_id":166,"name":"AirMan121","steam_id":76561198042951349,"connected_time":4799000000000,"state":"active","ping":64},{"user_id":217,"name":"P33rky","steam_id":76561198958407881,"connected_time":24000000000,"state":"spawning","ping":94}]},{"server_id":119,"name":"Uncletopia | Seattle | 2 | All Maps","name_short":"sea-2","host":"sea-1.us.uncletopia.com","port":27025,"enabled":true,"region":"us-west","cc":"us","latitude":47.608013,"longitude":-122.33517,"reserved":0,"last_update":"0001-01-01T00:00:00Z","name_a2s":"Uncletopia | Seattle | 2 | All Maps","protocol":17,"map":"cp_dustbowl","folder":"tf","game":"Team Fortress","app_id":440,"player_count":2,"max_players":24,"Bots":0,"server_type":"Dedicated","server_os":"Linux","password":true,"vac":true,"version":"7757534","steam_id":85568392924469998,"keywords":["cp","nocrits","nodmgspread","uncletopia"],"game_id":440,"stv_port":27026,"stv_name":"Uncletopia | Seattle | 2 | All Maps | STV","players":[{"user_id":44,"name":"Birdman743","steam_id":76561198799636748,"connected_time":1323000000000,"state":"active","ping":50},{"user_id":46,"name":"LowLevelIdot","steam_id":76561199302370113,"connected_time":663000000000,"state":"active","ping":259}]},{"server_id":406,"name":"Uncletopia | Seattle | 3 | Stopwatch Beta","name_short":"sea-3","host":"sea-1.us.uncletopia.com","port":27035,"enabled":true,"region":"us-west","cc":"us","latitude":47.608013,"longitude":-122.33517,"reserved":0,"last_update":"0001-01-01T00:00:00Z","name_a2s":"Uncletopia | Seattle | 3 | Stopwatch Beta","protocol":17,"map":"cp_sunshine","folder":"tf","game":"Team Fortress","app_id":440,"player_count":0,"max_players":24,"Bots":0,"server_type":"Dedicated","server_os":"Linux","password":true,"vac":true,"version":"7757534","steam_id":85568392924515217,"keywords":["cp","nocrits","nodmgspread","uncletopia"],"game_id":440,"stv_port":27036,"stv_name":"Uncletopia | Seattle | 3 | Stopwatch Beta | STV","players":null},{"server_id":17,"name":"Uncletopia | San Francisco | 1 | All Maps","name_short":"sfo-1","host":"sfo-1.us.uncletopia.com","port":27015,"enabled":true,"region":"us-west","cc":"us","latitude":37.77397,"longitude":-122.4313,"reserved":0,"last_update":"0001-01-01T00:00:00Z","name_a2s":"Uncletopia | San Francisco | 1 | All Maps","protocol":17,"map":"cp_mountainlab","folder":"tf","game":"Team Fortress","app_id":440,"player_count":0,"max_players":24,"Bots":0,"server_type":"Dedicated","server_os":"Linux","password":true,"vac":true,"version":"7757534","steam_id":85568392924469999,"keywords":["cp","nocrits","nodmgspread","uncletopia"],"game_id":440,"stv_port":27016,"stv_name":"Uncletopia | San Francisco | 1 | All Maps | STV","players":null},{"server_id":18,"name":"Uncletopia | San Francisco | 2 | All Maps","name_short":"sfo-2","host":"sfo-1.us.uncletopia.com","port":27025,"enabled":true,"region":"us-west","cc":"us","latitude":37.77397,"longitude":-122.4313,"reserved":0,"last_update":"0001-01-01T00:00:00Z","name_a2s":"Uncletopia | San Francisco | 2 | All Maps","protocol":17,"map":"cp_mountainlab","folder":"tf","game":"Team Fortress","app_id":440,"player_count":0,"max_players":24,"Bots":0,"server_type":"Dedicated","server_os":"Linux","password":true,"vac":true,"version":"7757534","steam_id":85568392924470000,"keywords":["cp","nocrits","nodmgspread","uncletopia"],"game_id":440,"stv_port":27026,"stv_name":"Uncletopia | San Francisco | 2 | All Maps | STV","players":null},{"server_id":19,"name":"Uncletopia | San Francisco | 3 | Stopwatch Beta","name_short":"sfo-3","host":"sfo-1.us.uncletopia.com","port":27035,"enabled":true,"region":"us-west","cc":"us","latitude":37.77397,"longitude":-122.4313,"reserved":0,"last_update":"0001-01-01T00:00:00Z","name_a2s":"Uncletopia | San Francisco | 3 | Stopwatch Beta","protocol":17,"map":"koth_viaduct","folder":"tf","game":"Team Fortress","app_id":440,"player_count":0,"max_players":24,"Bots":0,"server_type":"Dedicated","server_os":"Linux","password":true,"vac":true,"version":"7757534","steam_id":85568392924742824,"keywords":["cp","nocrits","nodmgspread","uncletopia"],"game_id":440,"stv_port":27036,"stv_name":"Uncletopia | San Francisco | 3 | Stopwatch Beta | STV","players":null},{"server_id":20,"name":"Uncletopia | San Francisco | 4 | Community","name_short":"sfo-4","host":"sfo-1.us.uncletopia.com","port":27045,"enabled":true,"region":"us-west","cc":"us","latitude":37.77397,"longitude":-122.4313,"reserved":0,"last_update":"0001-01-01T00:00:00Z","name_a2s":"Uncletopia | San Francisco | 4 | Community","protocol":17,"map":"pl_borneo","folder":"tf","game":"Team Fortress","app_id":440,"player_count":0,"max_players":24,"Bots":0,"server_type":"Dedicated","server_os":"Linux","password":true,"vac":true,"version":"7757534","steam_id":85568392924742826,"keywords":["nocrits","nodmgspread","payload","uncletopia"],"game_id":440,"stv_port":27046,"stv_name":"Uncletopia | San Francisco | 4 | Community | STV","players":null},{"server_id":141,"name":"Uncletopia | Sydney | 1 | All Maps","name_short":"syd-1","host":"syd-1.au.uncletopia.com","port":27015,"enabled":true,"region":"au","cc":"au","latitude":-33.865143,"longitude":151.2099,"reserved":0,"last_update":"0001-01-01T00:00:00Z","name_a2s":"Uncletopia | Sydney | 1 | All Maps","protocol":17,"map":"plr_nightfall_final","folder":"tf","game":"Team Fortress","app_id":440,"player_count":0,"max_players":24,"Bots":0,"server_type":"Dedicated","server_os":"Linux","password":true,"vac":true,"version":"7757534","steam_id":85568392924470001,"keywords":["nocrits","nodmgspread","payload","uncletopia"],"game_id":440,"stv_port":27016,"stv_name":"Uncletopia | Sydney | 1 | All Maps | STV","players":null},{"server_id":123,"name":"Uncletopia | Sydney | 2 | All Maps","name_short":"syd-2","host":"syd-1.au.uncletopia.com","port":27025,"enabled":true,"region":"au","cc":"au","latitude":-33.865143,"longitude":151.2099,"reserved":0,"last_update":"0001-01-01T00:00:00Z","name_a2s":"Uncletopia | Sydney | 2 | All Maps","protocol":17,"map":"koth_highpass","folder":"tf","game":"Team Fortress","app_id":440,"player_count":0,"max_players":24,"Bots":0,"server_type":"Dedicated","server_os":"Linux","password":true,"vac":true,"version":"7757534","steam_id":85568392924470002,"keywords":["cp","nocrits","nodmgspread","uncletopia"],"game_id":440,"stv_port":27026,"stv_name":"Uncletopia | Sydney | 2 | All Maps | STV","players":null},{"server_id":395,"name":"Uncletopia | Sydney | 3 | All Maps","name_short":"syd-3","host":"syd-1.au.uncletopia.com","port":27035,"enabled":true,"region":"au","cc":"au","latitude":-33.865143,"longitude":151.2099,"reserved":0,"last_update":"0001-01-01T00:00:00Z","name_a2s":"Uncletopia | Sydney | 3 | All Maps","protocol":17,"map":"pl_badwater","folder":"tf","game":"Team Fortress","app_id":440,"player_count":0,"max_players":24,"Bots":0,"server_type":"Dedicated","server_os":"Linux","password":true,"vac":true,"version":"7757534","steam_id":85568392925194467,"keywords":["nocrits","nodmgspread","payload","uncletopia"],"game_id":440,"stv_port":27036,"stv_name":"Uncletopia | Sydney | 3 | All Maps | STV","players":null},{"server_id":396,"name":"Uncletopia | Sydney | 4 | All Maps","name_short":"syd-4","host":"syd-1.au.uncletopia.com","port":27045,"enabled":true,"region":"au","cc":"au","latitude":-33.865143,"longitude":151.2099,"reserved":0,"last_update":"0001-01-01T00:00:00Z","name_a2s":"Uncletopia | Sydney | 4 | All Maps","protocol":17,"map":"koth_viaduct","folder":"tf","game":"Team Fortress","app_id":440,"player_count":0,"max_players":24,"Bots":0,"server_type":"Dedicated","server_os":"Linux","password":true,"vac":true,"version":"7757534","steam_id":85568392925397958,"keywords":["cp","nocrits","nodmgspread","uncletopia"],"game_id":440,"stv_port":27046,"stv_name":"Uncletopia | Sydney | 4 | All Maps | STV","players":null},{"server_id":58,"name":"Uncletopia | Sydney | 5 | Stopwatch Beta","name_short":"syd-5","host":"syd-1.au.uncletopia.com","port":27055,"enabled":true,"region":"au","cc":"au","latitude":-33.865143,"longitude":151.2099,"reserved":0,"last_update":"0001-01-01T00:00:00Z","name_a2s":"Uncletopia | Sydney | 5 | Stopwatch Beta","protocol":17,"map":"pl_barnblitz","folder":"tf","game":"Team Fortress","app_id":440,"player_count":0,"max_players":24,"Bots":0,"server_type":"Dedicated","server_os":"Linux","password":true,"vac":true,"version":"7757534","steam_id":85568392925397959,"keywords":["nocrits","nodmgspread","payload","uncletopia"],"game_id":440,"stv_port":27056,"stv_name":"Uncletopia | Sydney | 5 | Stopwatch Beta | STV","players":null},{"server_id":59,"name":"Uncletopia | Sydney | 6 | Community","name_short":"syd-6","host":"syd-1.au.uncletopia.com","port":27065,"enabled":true,"region":"au","cc":"au","latitude":-33.865143,"longitude":151.2099,"reserved":0,"last_update":"0001-01-01T00:00:00Z","name_a2s":"Uncletopia | Sydney | 6 | Community","protocol":17,"map":"workshop/koth_ashville_final.ugc2130459942","folder":"tf","game":"Team Fortress","app_id":440,"player_count":0,"max_players":24,"Bots":0,"server_type":"Dedicated","server_os":"Linux","password":true,"vac":true,"version":"7757534","steam_id":85568392925397960,"keywords":["cp","nocrits","nodmgspread","uncletopia"],"game_id":440,"stv_port":27066,"stv_name":"Uncletopia | Sydney | 6 | Community | STV","players":null},{"server_id":49,"name":"Uncletopia | Warsaw | 1 | All Maps","name_short":"waw-1","host":"waw-1.pl.uncletopia.com","port":27015,"enabled":true,"region":"eu","cc":"pl","latitude":52.2297,"longitude":21.017532,"reserved":0,"last_update":"0001-01-01T00:00:00Z","name_a2s":"","protocol":0,"map":"","folder":"","game":"","app_id":0,"player_count":0,"max_players":0,"Bots":0,"server_type":"","server_os":"","password":false,"vac":false,"version":"","steam_id":0,"keywords":null,"game_id":0,"stv_port":0,"stv_name":"","players":null},{"server_id":50,"name":"Uncletopia | Warsaw | 2 | All Maps","name_short":"waw-2","host":"waw-1.pl.uncletopia.com","port":27025,"enabled":true,"region":"eu","cc":"pl","latitude":52.2297,"longitude":21.017532,"reserved":0,"last_update":"0001-01-01T00:00:00Z","name_a2s":"","protocol":0,"map":"","folder":"","game":"","app_id":0,"player_count":0,"max_players":0,"Bots":0,"server_type":"","server_os":"","password":false,"vac":false,"version":"","steam_id":0,"keywords":null,"game_id":0,"stv_port":0,"stv_name":"","players":null},{"server_id":51,"name":"Uncletopia | Warsaw | 3 | All Maps","name_short":"waw-3","host":"waw-1.pl.uncletopia.com","port":27035,"enabled":true,"region":"eu","cc":"pl","latitude":52.2297,"longitude":21.017532,"reserved":0,"last_update":"0001-01-01T00:00:00Z","name_a2s":"","protocol":0,"map":"","folder":"","game":"","app_id":0,"player_count":0,"max_players":0,"Bots":0,"server_type":"","server_os":"","password":false,"vac":false,"version":"","steam_id":0,"keywords":null,"game_id":0,"stv_port":0,"stv_name":"","players":null},{"server_id":52,"name":"Uncletopia | Warsaw | 4 | All Maps","name_short":"waw-4","host":"waw-1.pl.uncletopia.com","port":27045,"enabled":true,"region":"eu","cc":"pl","latitude":52.2297,"longitude":21.017532,"reserved":0,"last_update":"0001-01-01T00:00:00Z","name_a2s":"","protocol":0,"map":"","folder":"","game":"","app_id":0,"player_count":23,"max_players":0,"Bots":0,"server_type":"","server_os":"","password":false,"vac":false,"version":"","steam_id":0,"keywords":null,"game_id":0,"stv_port":0,"stv_name":"","players":[{"user_id":13,"name":"Belemonguin","steam_id":76561198084706411,"connected_time":2184000000000,"state":"active","ping":91},{"user_id":14,"name":"Captain Red","steam_id":76561198070754199,"connected_time":2095000000000,"state":"active","ping":112},{"user_id":39,"name":"LOBZIK","steam_id":76561198114830120,"connected_time":339000000000,"state":"active","ping":50},{"user_id":50,"name":"☞LaZe☜","steam_id":76561198202191400,"connected_time":30000000000,"state":"active","ping":78},{"user_id":41,"name":"David Random","steam_id":76561198144497918,"connected_time":277000000000,"state":"active","ping":98},{"user_id":25,"name":"GMsU | Acoul","steam_id":76561198229222992,"connected_time":956000000000,"state":"active","ping":62},{"user_id":26,"name":"Technic","steam_id":76561198128096130,"connected_time":948000000000,"state":"active","ping":71},{"user_id":28,"name":"GMsU | Rebikas","steam_id":76561198077053764,"connected_time":862000000000,"state":"active","ping":63},{"user_id":29,"name":"Homeless (Len)","steam_id":76561198111144783,"connected_time":723000000000,"state":"active","ping":91},{"user_id":30,"name":"Mumrikken","steam_id":76561198040030694,"connected_time":720000000000,"state":"active","ping":103},{"user_id":31,"name":"MEGOS","steam_id":76561198172740637,"connected_time":714000000000,"state":"active","ping":73},{"user_id":32,"name":"Filleman","steam_id":76561198159386946,"connected_time":708000000000,"state":"active","ping":76},{"user_id":34,"name":"GMsU | AuxiliusM","steam_id":76561198071903356,"connected_time":653000000000,"state":"active","ping":60},{"user_id":35,"name":"Guru","steam_id":76561198093853069,"connected_time":626000000000,"state":"active","ping":76},{"user_id":36,"name":"jenjams","steam_id":76561198055730829,"connected_time":479000000000,"state":"active","ping":94},{"user_id":37,"name":"Trasher","steam_id":76561199099638375,"connected_time":453000000000,"state":"active","ping":85},{"user_id":38,"name":"Regular Human","steam_id":76561198083228561,"connected_time":422000000000,"state":"active","ping":126},{"user_id":42,"name":"FiricelSolos123","steam_id":76561198901014065,"connected_time":260000000000,"state":"active","ping":87},{"user_id":45,"name":"Gyro Zeppeli","steam_id":76561198143600606,"connected_time":183000000000,"state":"active","ping":66},{"user_id":46,"name":"Fofenho","steam_id":76561198436817109,"connected_time":167000000000,"state":"active","ping":82},{"user_id":47,"name":"ganiak.kolia","steam_id":76561199416193224,"connected_time":114000000000,"state":"active","ping":56},{"user_id":48,"name":"doubletwist","steam_id":76561198062571317,"connected_time":93000000000,"state":"active","ping":105},{"user_id":49,"name":"Prison Mike","steam_id":76561198014221596,"connected_time":82000000000,"state":"active","ping":75}]},{"server_id":53,"name":"Uncletopia | Warsaw | 5 | Stopwatch Beta","name_short":"waw-5","host":"waw-1.pl.uncletopia.com","port":27055,"enabled":true,"region":"eu","cc":"pl","latitude":52.2297,"longitude":21.017532,"reserved":0,"last_update":"0001-01-01T00:00:00Z","name_a2s":"","protocol":0,"map":"","folder":"","game":"","app_id":0,"player_count":0,"max_players":0,"Bots":0,"server_type":"","server_os":"","password":false,"vac":false,"version":"","steam_id":0,"keywords":null,"game_id":0,"stv_port":0,"stv_name":"","players":null},{"server_id":54,"name":"Uncletopia | Warsaw | 6 | Community","name_short":"waw-6","host":"waw-1.pl.uncletopia.com","port":27065,"enabled":true,"region":"eu","cc":"pl","latitude":52.2297,"longitude":21.017532,"reserved":0,"last_update":"0001-01-01T00:00:00Z","name_a2s":"","protocol":0,"map":"","folder":"","game":"","app_id":0,"player_count":0,"max_players":0,"Bots":0,"server_type":"","server_os":"","password":false,"vac":false,"version":"","steam_id":0,"keywords":null,"game_id":0,"stv_port":0,"stv_name":"","players":null}]}