{"status":true,"message":"","result":[{"server_id":9,"name":"Uncletopia | Atlanta | 1 | All Maps","name_short":"atl-1","host":"atl-1.us.uncletopia.com","port":27015,"enabled":true,"region":"us-east","cc":"us","latitude":33.753746,"longitude":-84.38633,"reserved":0,"last_update":"0001-01-01T00:00:00Z","name_a2s":"Uncletopia | Atlanta | 1 | All Maps","protocol":17,"map":"pl_snowycoast","folder":"tf","game":"Team Fortress","app_id":440,"player_count":24,"max_players":24,"Bots":0,"server_type":"Dedicated","server_os":"Linux","password":true,"vac":true,"version":"7757534","steam_id":85568392924469982,"keywords":["nocrits","nodmgspread","payload","uncletopia"],"game_id":440,"stv_port":27016,"stv_name":"Uncletopia | Atlanta | 1 | All Maps | STV","players":[{"user_id":94,"name":"RED1 | vid_","steam_id":76561198065159053,"connected_time":1882000000000,"state":"active","ping":47},{"user_id":101,"name":"Towns","steam_id":76561198984662863,"connected_time":1409000000000,"state":"active","ping":60},{"user_id":34,"name":"miraakz420","steam_id":76561199013850154,"connected_time":7462000000000,"state":"active","ping":76},{"user_id":91,"name":"RED1 | p4ka","steam_id":76561198315291317,"connected_time":2428000000000,"state":"active","ping":69},{"user_id":96,"name":"BLU1 | chexo4","steam_id":76561198150532531,"connected_time":1604000000000,"state":"active","ping":55},{"user_id":9,"name":"Ashes!","steam_id":76561197998475441,"connected_time":7942000000000,"state":"active","ping":92},{"user_id":95,"name":"Maet","steam_id":76561198030208485,"connected_time":1753000000000,"state":"active","ping":93},{"user_id":35,"name":"RED1 | nomad","steam_id":76561197998740399,"connected_time":7450000000000,"state":"active","ping":72},{"user_id":73,"name":"Rockhead","steam_id":76561197995196535,"connected_time":4524000000000,"state":"active","ping":135},{"user_id":93,"name":"Oddball","steam_id":76561198040440984,"connected_time":2378000000000,"state":"active","ping":98},{"user_id":63,"name":"Cricket Girl!","steam_id":76561198838054669,"connected_time":5445000000000,"state":"active","ping":76},{"user_id":15,"name":"melancholy","steam_id":76561198024301465,"connected_time":7923000000000,"state":"active","ping":45},{"user_id":82,"name":"_Clean","steam_id":76561199095580664,"connected_time":3739000000000,"state":"active","ping":121},{"user_id":86,"name":"yumyum","steam_id":76561198150567198,"connected_time":2717000000000,"state":"active","ping":70},{"user_id":102,"name":"PROtagonist","steam_id":76561198120631837,"connected_time":808000000000,"state":"active","ping":75},{"user_id":70,"name":"Chirox","steam_id":76561198034516923,"connected_time":4899000000000,"state":"active","ping":69},{"user_id":20,"name":"RED1 | eish","steam_id":76561198089463603,"connected_time":7912000000000,"state":"active","ping":118},{"user_id":100,"name":"Weasel Smack","steam_id":76561198023116430,"connected_time":1460000000000,"state":"active","ping":87},{"user_id":88,"name":"Im High","steam_id":76561198049954886,"connected_time":2659000000000,"state":"active","ping":75},{"user_id":98,"name":"yomo","steam_id":76561198063175935,"connected_time":1586000000000,"state":"active","ping":62},{"user_id":79,"name":"hyuck","steam_id":76561198319990195,"connected_time":3750000000000,"state":"active","ping":79},{"user_id":68,"name":"dookie 4hunnid","steam_id":76561198097034115,"connected_time":5107000000000,"state":"active","ping":77},{"user_id":65,"name":"Moofins","steam_id":76561198050291949,"connected_time":5423000000000,"state":"active","ping":105},{"user_id":81,"name":"RED1 | Le4n!!!","steam_id":76561198045522596,"connected_time":3743000000000,"state":"active","ping":72}]},{"server_id":400,"name":"Uncletopia | Atlanta | 3 | Stopwatch Beta","name_short":"atl-3","host":"atl-1.us.uncletopia.com","port":27035,"enabled":true,"region":"us-east","cc":"us","latitude":33.753746,"longitude":-84.38633,"reserved":0,"last_update":"0001-01-01T00:00:00Z","name_a2s":"Uncletopia | Atlanta | 3 | Stopwatch Beta","protocol":17,"map":"koth_viaduct","folder":"tf","game":"Team Fortress","app_id":440,"player_count":19,"max_players":24,"Bots":0,"server_type":"Dedicated","server_os":"Linux","password":true,"vac":true,"version":"7757534","steam_id":85568392924515187,"keywords":["cp","nocrits","nodmgspread","uncletopia"],"game_id":440,"stv_port":27036,"stv_name":"Uncletopia | Atlanta | 3 | Stopwatch Beta | STV","players":[{"user_id":21,"name":"Couch Potato","steam_id":76561199076547896,"connected_time":890000000000,"state":"active","ping":125},{"user_id":22,"name":"potato","steam_id":76561198892852326,"connected_time":878000000000,"state":"active","ping":122},{"user_id":23,"name":"kid squid","steam_id":76561198167016289,"connected_time":854000000000,"state":"active","ping":68},{"user_id":12,"name":"Dreszerg","steam_id":76561198838757422,"connected_time":1448000000000,"state":"active","ping":79},{"user_id":11,"name":"Nolan (Femboy)","steam_id":76561198082534795,"connected_time":1474000000000,"state":"active","ping":81},{"user_id":40,"name":"JustAshley","steam_id":76561198059353161,"connected_time":10000000000,"state":"spawning","ping":45},{"user_id":15,"name":"FATAL ERROR SONIC","steam_id":76561199126531668,"connected_time":1090000000000,"state":"active","ping":103},{"user_id":31,"name":"ss5","steam_id":76561199371981560,"connected_time":381000000000,"state":"active","ping":55},{"user_id":17,"name":"The Winter Medic","steam_id":76561198197112922,"connected_time":1000000000000,"state":"active","ping":80},{"user_id":18,"name":"Silvercoat's Stargazer","steam_id":76561198399525329,"connected_time":996000000000,"state":"active","ping":77},{"user_id":19,"name":"uzr","steam_id":76561198799343084,"connected_time":983000000000,"state":"active","ping":112},{"user_id":41,"name":"Zizi","steam_id":76561198348814513,"connected_time":6000000000,"state":"spawning","ping":214},{"user_id":32,"name":"orangesuit1","steam_id":76561199020443017,"connected_time":375000000000,"state":"active","ping":115},{"user_id":35,"name":"motherfucker 2.0","steam_id":76561198141189209,"connected_time":235000000000,"state":"active","ping":57},{"user_id":36,"name":"SmellyKuk(GiveYourSharpDressers","steam_id":76561199104932706,"connected_time":224000000000,"state":"active","ping":128},{"user_id":37,"name":"Red","steam_id":76561198031865869,"connected_time":96000000000,"state":"active","ping":66},{"user_id":38,"name":"UNIT 220","steam_id":76561198042243497,"connected_time":84000000000,"state":"active","ping":79},{"user_id":39,"name":"evan_is_sauce","steam_id":76561199086802383,"connected_time":46000000000,"state":"active","ping":103},{"user_id":42,"name":"ItchyThunder111","steam_id":76561199149907692,"connected_time":0,"state":"spawning","ping":50}]},{"server_id":401,"name":"Uncletopia | Atlanta | 4 | No Payload","name_short":"atl-4","host":"atl-1.us.uncletopia.com","port":27045,"enabled":true,"region":"us-east","cc":"us","latitude":33.753746,"longitude":-84.38633,"reserved":0,"last_update":"0001-01-01T00:00:00Z","name_a2s":"Uncletopia | Atlanta | 4 | No Payload","protocol":17,"map":"pl_pier","folder":"tf","game":"Team Fortress","app_id":440,"player_count":0,"max_players":24,"Bots":0,"server_type":"Dedicated","server_os":"Linux","password":true,"vac":true,"version":"7723704","steam_id":85568392924515188,"keywords":["nocrits","nodmgspread","payload","uncletopia"],"game_id":440,"stv_port":27046,"stv_name":"Uncletopia | Atlanta | 4 | No Payload | STV","players":null},{"server_id":2,"name":"Uncletopia | Chicago | 1 | All Maps","name_short":"chi-1","host":"chi-1.us.uncletopia.com","port":27015,"enabled":true,"region":"us-central","cc":"us","latitude":41.881832,"longitude":-87.62318,"reserved":0,"last_update":"0001-01-01T00:00:00Z","name_a2s":"Uncletopia | Chicago | 1 | All Maps","protocol":17,"map":"pl_borneo","folder":"tf","game":"Team Fortress","app_id":440,"player_count":24,"max_players":24,"Bots":0,"server_type":"Dedicated","server_os":"Linux","password":true,"vac":true,"version":"7757534","steam_id":85568392924469984,"keywords":["nocrits","nodmgspread","payload","uncletopia"],"game_id":440,"stv_port":27016,"stv_name":"Uncletopia | Chicago | 1 | All Maps | STV","players":[{"user_id":99,"name":"Scrumfel Nutz","steam_id":76561198123286409,"connected_time":2524000000000,"state":"active","ping":100},{"user_id":98,"name":"SamFec","steam_id":76561198414538682,"connected_time":2580000000000,"state":"active","ping":117},{"user_id":107,"name":"TeeTree","steam_id":76561198862307874,"connected_time":1605000000000,"state":"active","ping":56},{"user_id":125,"name":"PunchGhost","steam_id":76561198041668043,"connected_time":605000000000,"state":"active","ping":73},{"user_id":78,"name":"Zigadox","steam_id":76561198079813479,"connected_time":3356000000000,"state":"active","ping":111},{"user_id":126,"name":"Iron","steam_id":76561198085746788,"connected_time":595000000000,"state":"active","ping":69},{"user_id":109,"name":"Morbius","steam_id":76561198387984694,"connected_time":1374000000000,"state":"active","ping":81},{"user_id":114,"name":"edwinbrood","steam_id":76561198044848769,"connected_time":1235000000000,"state":"active","ping":57},{"user_id":118,"name":"Kat","steam_id":76561198032533803,"connected_time":1073000000000,"state":"active","ping":66},{"user_id":95,"name":"Supr","steam_id":76561198093790672,"connected_time":2816000000000,"state":"active","ping":59},{"user_id":124,"name":"kikor8454","steam_id":76561199229716536,"connected_time":625000000000,"state":"active","ping":72},{"user_id":54,"name":"CorbanClyffe","steam_id":76561198154114994,"connected_time":4995000000000,"state":"active","ping":60},{"user_id":104,"name":"al","steam_id":76561198117181511,"connected_time":2239000000000,"state":"active","ping":65},{"user_id":138,"name":"Qball","steam_id":76561198179016466,"connected_time":18000000000,"state":"active","ping":59},{"user_id":77,"name":"Cupidmeh","steam_id":76561198138669654,"connected_time":3629000000000,"state":"active","ping":66},{"user_id":136,"name":"TheJuiceCrew","steam_id":76561198109073254,"connected_time":196000000000,"state":"active","ping":68},{"user_id":128,"name":"HeavyPyro","steam_id":76561198062542430,"connected_time":575000000000,"state":"active","ping":84},{"user_id":135,"name":"sebjzy","steam_id":76561198009959034,"connected_time":268000000000,"state":"active","ping":78},{"user_id":131,"name":"Gay Cannibal Enjoyer","steam_id":76561198273751425,"connected_time":509000000000,"state":"active","ping":75},{"user_id":117,"name":"Tele Co","steam_id":76561198041909269,"connected_time":1123000000000,"state":"active","ping":90},{"user_id":133,"name":"FiddyFoMike","steam_id":76561198057072581,"connected_time":420000000000,"state":"active","ping":92},{"user_id":42,"name":"Cubert","steam_id":76561198045494151,"connected_time":6160000000000,"state":"active","ping":93},{"user_id":122,"name":"Room_237","steam_id":76561199135081315,"connected_time":686000000000,"state":"active","ping":75},{"user_id":137,"name":"barker bill","steam_id":76561198018451994,"connected_time":154000000000,"state":"active","ping":87}]},{"server_id":106,"name":"Uncletopia | Chicago | 2 | All Maps","name_short":"chi-2","host":"chi-1.us.uncletopia.com","port":27025,"enabled":true,"region":"us-central","cc":"us","latitude":41.881832,"longitude":-87.62318,"reserved":0,"last_update":"0001-01-01T00:00:00Z","name_a2s":"Uncletopia | Chicago | 2 | All Maps","protocol":17,"map":"pl_swiftwater_final1","folder":"tf","game":"Team Fortress","app_id":440,"player_count":20,"max_players":24,"Bots":0,"server_type":"Dedicated","server_os":"Linux","password":true,"vac":true,"version":"7757534","steam_id":85568392924469985,"keywords":["nocrits","nodmgspread","payload","uncletopia"],"game_id":440,"stv_port":27026,"stv_name":"Uncletopia | Chicago | 2 | All Maps | STV","players":[{"user_id":134,"name":"i have music playing rn","steam_id":76561198367019006,"connected_time":1773000000000,"state":"connecting","ping":74},{"user_id":140,"name":"nhbiker","steam_id":76561198081277675,"connected_time":1420000000000,"state":"connecting","ping":67},{"user_id":159,"name":"Comicâ„¢","steam_id":76561198202229808,"connected_time":377000000000,"state":"connecting","ping":85},{"user_id":177,"name":"cat","steam_id":76561198370487545,"connected_time":27000000000,"state":"connecting","ping":90},{"user_id":175,"name":"Nicholas?","steam_id":76561198967851808,"connected_time":167000000000,"state":"connecting","ping":71},{"user_id":179,"name":"Kasane","steam_id":76561198209006780,"connected_time":2000000000,"state":"connecting","ping":137},{"user_id":109,"name":"Spazz","steam_id":76561198036167494,"connected_time":3469000000000,"state":"connecting","ping":54},{"user_id":166,"name":"mountain","steam_id":76561198078395002,"connected_time":284000000000,"state":"connecting","ping":66},{"user_id":176,"name":"The Galaxy gamer","steam_id":76561199129656313,"connected_time":151000000000,"state":"connecting","ping":75},{"user_id":167,"name":"Michael Morbius from \"Morbius\"","steam_id":76561198343024304,"connected_time":282000000000,"state":"connecting","ping":99},{"user_id":180,"name":"differentElk","steam_id":76561199167985720,"connected_time":2000000000,"state":"connecting","ping":118},{"user_id":116,"name":"*","steam_id":76561198173047169,"connected_time":2945000000000,"state":"connecting","ping":77},{"user_id":155,"name":"rise","steam_id":76561198979494052,"connected_time":440000000000,"state":"connecting","ping":122},{"user_id":143,"name":"CHIEF","steam_id":76561198011209422,"connected_time":1402000000000,"state":"connecting","ping":87},{"user_id":139,"name":"Ze_Ãœber_Nerd","steam_id":76561198091148675,"connected_time":1428000000000,"state":"connecting","ping":90},{"user_id":181,"name":"the zoo","steam_id":76561198013732450,"connected_time":1000000000,"state":"connecting","ping":143},{"user_id":152,"name":"Quantum Sauce","steam_id":76561198164034337,"connected_time":668000000000,"state":"connecting","ping":104},{"user_id":130,"name":"Dr. Dick","steam_id":76561198138011922,"connected_time":2133000000000,"state":"connecting","ping":90},{"user_id":163,"name":"Ryplz","steam_id":76561199134146903,"connected_time":322000000000,"state":"connecting","ping":129},{"user_id":138,"name":"kite","steam_id":76561198346516392,"connected_time":1574000000000,"state":"connecting","ping":76}]},{"server_id":402,"name":"Uncletopia | Chicago | 3 | All Maps","name_short":"chi-3","host":"chi-1.us.uncletopia.com","port":27035,"enabled":true,"region":"us-central","cc":"us","latitude":41.881832,"longitude":-87.62318,"reserved":0,"last_update":"0001-01-01T00:00:00Z","name_a2s":"Uncletopia | Chicago | 3 | All Maps","protocol":17,"map":"pl_barnblitz","folder":"tf","game":"Team Fortress","app_id":440,"player_count":24,"max_players":24,"Bots":0,"server_type":"Dedicated","server_os":"Linux","password":true,"vac":true,"version":"7757534","steam_id":85568392924515191,"keywords":["nocrits","nodmgspread","payload","uncletopia"],"game_id":440,"stv_port":27036,"stv_name":"Uncletopia | Chicago | 3 | All Maps | STV","players":[{"user_id":113,"name":"Gheeotine","steam_id":76561198010181698,"connected_time":1319000000000,"state":"active","ping":97},{"user_id":118,"name":"Tick","steam_id":76561198184161214,"connected_time":1180000000000,"state":"active","ping":41},{"user_id":121,"name":"GlitchGame","steam_id":76561198935134697,"connected_time":955000000000,"state":"active","ping":41},{"user_id":115,"name":"sax","steam_id":76561198094788852,"connected_time":1253000000000,"state":"active","ping":48},{"user_id":123,"name":"Anji's onlyfans","steam_id":76561198353160282,"connected_time":702000000000,"state":"active","ping":88},{"user_id":116,"name":"MillerWhite","steam_id":76561198076060357,"connected_time":1238000000000,"state":"active","ping":83},{"user_id":97,"name":"Xeno","steam_id":76561198120574708,"connected_time":3893000000000,"state":"active","ping":71},{"user_id":130,"name":"lu'kat","steam_id":76561198172454407,"connected_time":190000000000,"state":"active","ping":81},{"user_id":129,"name":"Lost CS player","steam_id":76561198892387723,"connected_time":203000000000,"state":"active","ping":77},{"user_id":80,"name":"Engie","steam_id":76561199168186553,"connected_time":4932000000000,"state":"active","ping":88},{"user_id":48,"name":"white ray","steam_id":76561198026664629,"connected_time":6808000000000,"state":"active","ping":59},{"user_id":54,"name":"ooBah!","steam_id":76561198133684216,"connected_time":6405000000000,"state":"active","ping":60},{"user_id":112,"name":"Kitt(eh) âˆ‘:3","steam_id":76561198110858518,"connected_time":1515000000000,"state":"active","ping":65},{"user_id":89,"name":"Jawkid","steam_id":76561198282122885,"connected_time":4767000000000,"state":"active","ping":101},{"user_id":122,"name":"silentpieceofbacon","steam_id":76561198869323351,"connected_time":850000000000,"state":"active","ping":72},{"user_id":91,"name":"Nic0","steam_id":76561198305690218,"connected_time":4312000000000,"state":"active","ping":67},{"user_id":126,"name":"REALLINUSJEWTIP.","steam_id":76561198056647983,"connected_time":663000000000,"state":"active","ping":75},{"user_id":108,"name":"Coupon","steam_id":76561198111947598,"connected_time":2440000000000,"state":"active","ping":91},{"user_id":127,"name":"paisano","steam_id":76561198065575472,"connected_time":657000000000,"state":"active","ping":62},{"user_id":105,"name":"Candy Sparkles","steam_id":76561198126871264,"connected_time":3508000000000,"state":"active","ping":88},{"user_id":128,"name":"emerge","steam_id":76561198186882891,"connected_time":655000000000,"state":"active","ping":63},{"user_id":111,"name":"pou123321","steam_id":76561198069211237,"connected_time":1947000000000,"state":"active","ping":84},{"user_id":109,"name":"Godmode","steam_id":76561198076240365,"connected_time":2118000000000,"state":"active","ping":62},{"user_id":85,"name":"Uncle Meat","steam_id":76561198012534850,"connected_time":4893000000000,"state":"active","ping":72}]},{"server_id":403,"name":"Uncletopia | Chicago | 4 | All Maps","name_short":"chi-4","host":"chi-1.us.uncletopia.com","port":27045,"enabled":true,"region":"us-central","cc":"us","latitude":41.881832,"longitude":-87.62318,"reserved":0,"last_update":"0001-01-01T00:00:00Z","name_a2s":"Uncletopia | Chicago | 4 | All Maps","protocol":17,"map":"cp_snakewater_final1","folder":"tf","game":"Team Fortress","app_id":440,"player_count":25,"max_players":24,"Bots":0,"server_type":"Dedicated","server_os":"Linux","password":true,"vac":true,"version":"7757534","steam_id":85568392924515193,"keywords":["cp","nocrits","nodmgspread","uncletopia"],"game_id":440,"stv_port":27046,"stv_name":"Uncletopia | Chicago | 4 | All Maps | STV","players":[{"user_id":113,"name":"RaddahRaddah","steam_id":76561198194462829,"connected_time":1826000000000,"state":"active","ping":54},{"user_id":137,"name":"DeviserDude","steam_id":76561198298631671,"connected_time":243000000000,"state":"connecting","ping":0},{"user_id":99,"name":"Diesel of Alrest","steam_id":76561198143450491,"connected_time":2662000000000,"state":"active","ping":64},{"user_id":79,"name":"St4pps","steam_id":76561198449842958,"connected_time":3782000000000,"state":"active","ping":76},{"user_id":121,"name":"Jet","steam_id":76561198098130891,"connected_time":910000000000,"state":"active","ping":64},{"user_id":93,"name":"cheese.","steam_id":76561198093688740,"connected_time":3162000000000,"state":"active","ping":75},{"user_id":129,"name":"PeopleOrderOurPatties","steam_id":76561198323144922,"connected_time":789000000000,"state":"active","ping":55},{"user_id":81,"name":"gasparmx","steam_id":76561197998611994,"connected_time":3720000000000,"state":"active","ping":111},{"user_id":68,"name":"scarybroccoli","steam_id":76561198296440084,"connected_time":4438000000000,"state":"active","ping":81},{"user_id":132,"name":"Mug Maniac","steam_id":76561198120866920,"connected_time":641000000000,"state":"active","ping":82},{"user_id":130,"name":"Animal Slices","steam_id":76561198137545511,"connected_time":716000000000,"state":"active","ping":103},{"user_id":86,"name":"dbelow_","steam_id":76561198056148853,"connected_time":3225000000000,"state":"active","ping":65},{"user_id":139,"name":"CringeEBoi","steam_id":76561198842278840,"connected_time":119000000000,"state":"active","ping":62},{"user_id":53,"name":"Vegerot","steam_id":76561197997843710,"connected_time":6053000000000,"state":"active","ping":60},{"user_id":95,"name":"gallowsCalibrator","steam_id":76561198076388445,"connected_time":2920000000000,"state":"active","ping":78},{"user_id":128,"name":"Queen Frau the Round","steam_id":76561197999942134,"connected_time":851000000000,"state":"active","ping":45},{"user_id":136,"name":"your pants long for my pee","steam_id":76561198326083509,"connected_time":471000000000,"state":"active","ping":78},{"user_id":118,"name":"Dealyo","steam_id":76561198282395338,"connected_time":1036000000000,"state":"active","ping":115},{"user_id":120,"name":"Dispenser (Twan)","steam_id":76561197991064908,"connected_time":921000000000,"state":"active","ping":60},{"user_id":71,"name":"Bagel","steam_id":76561198167747447,"connected_time":4418000000000,"state":"active","ping":83},{"user_id":133,"name":"Teddy \"The Bear\" Roosevelt","steam_id":76561198022397601,"connected_time":612000000000,"state":"active","ping":74},{"user_id":125,"name":"majorbobfunction","steam_id":76561198042464632,"connected_time":894000000000,"state":"active","ping":45},{"user_id":138,"name":"Ask Nicely For Heals","steam_id":76561198138478907,"connected_time":222000000000,"state":"active","ping":50},{"user_id":126,"name":"SkyesUnknown","steam_id":76561198437860421,"connected_time":891000000000,"state":"active","ping":69},{"user_id":112,"name":"pajaro","steam_id":76561198078731479,"connected_time":1999000000000,"state":"active","ping":46}]},{"server_id":36,"name":"Uncletopia | Chicago | 5 | All Maps","name_short":"chi-5","host":"chi-2.us.uncletopia.com","port":27015,"enabled":true,"region":"us-central","cc":"us","latitude":41.881832,"longitude":-87.62318,"reserved":0,"last_update":"0001-01-01T00:00:00Z","name_a2s":"Uncletopia | Chicago | 5 | All Maps","protocol":17,"map":"koth_highpass","folder":"tf","game":"Team Fortress","app_id":440,"player_count":24,"max_players":24,"Bots":0,"server_type":"Dedicated","server_os":"Linux","password":true,"vac":true,"version":"7757534","steam_id":85568392924866362,"keywords":["cp","nocrits","nodmgspread","uncletopia"],"game_id":440,"stv_port":27016,"stv_name":"Uncletopia | Chicago | 5 | All Maps | STV","players":[{"user_id":92,"name":"backflipping trans woman","steam_id":76561198100189571,"connected_time":1359000000000,"state":"active","ping":59},{"user_id":80,"name":"mcleesd","steam_id":76561198218870425,"connected_time":1678000000000,"state":"active","ping":59},{"user_id":65,"name":"illya","steam_id":76561198063099828,"connected_time":3647000000000,"state":"active","ping":46},{"user_id":84,"name":"Rifter","steam_id":76561198077430698,"connected_time":1460000000000,"state":"active","ping":63},{"user_id":85,"name":"hey beautiful!","steam_id":76561198224614084,"connected_time":1436000000000,"state":"active","ping":68},{"user_id":49,"name":"HollowMan","steam_id":76561198967266827,"connected_time":4388000000000,"state":"active","ping":90},{"user_id":68,"name":"Ejaculation Zach","steam_id":76561198203765200,"connected_time":3151000000000,"state":"active","ping":64},{"user_id":67,"name":"SKIN IS WHERE THE FLAVOR IS","steam_id":76561198115842661,"connected_time":3236000000000,"state":"active","ping":78},{"user_id":98,"name":"phx74golden","steam_id":76561199036201022,"connected_time":992000000000,"state":"active","ping":64},{"user_id":32,"name":"BeckBeck","steam_id":76561198316018749,"connected_time":4767000000000,"state":"active","ping":69},{"user_id":56,"name":"JustAskMeLater","steam_id":76561198196489829,"connected_time":4053000000000,"state":"active","ping":79},{"user_id":103,"name":"Wilhelmktx","steam_id":76561198158102295,"connected_time":294000000000,"state":"active","ping":54},{"user_id":86,"name":"Kratos","steam_id":76561199084344169,"connected_time":1433000000000,"state":"active","ping":58},{"user_id":30,"name":"Murgatroyd","steam_id":76561198077350331,"connected_time":4788000000000,"state":"active","ping":99},{"user_id":105,"name":"Connor","steam_id":76561198276500793,"connected_time":155000000000,"state":"active","ping":66},{"user_id":88,"name":"Gimrex","steam_id":76561198137232326,"connected_time":1385000000000,"state":"active","ping":84},{"user_id":97,"name":"Rex","steam_id":76561198138365053,"connected_time":1025000000000,"state":"active","ping":129},{"user_id":99,"name":"ecks","steam_id":76561197978114705,"connected_time":950000000000,"state":"active","ping":62},{"user_id":38,"name":"the_snoo_muffin","steam_id":76561198806184462,"connected_time":4693000000000,"state":"active","ping":80},{"user_id":104,"name":"All 24 PokÃ©mon movies at once","steam_id":76561198164738311,"connected_time":271000000000,"state":"active","ping":78},{"user_id":101,"name":"CrunchCisco","steam_id":76561199162724832,"connected_time":819000000000,"state":"active","ping":85},{"user_id":76,"name":"smuffy","steam_id":76561198091459506,"connected_time":2696000000000,"state":"active","ping":72},{"user_id":62,"name":"nnobi","steam_id":76561198878729277,"connected_time":3787000000000,"state":"active","ping":72},{"user_id":91,"name":"roman","steam_id":76561198170066797,"connected_time":1370000000000,"state":"active","ping":57}]},{"server_id":37,"name":"Uncletopia | Chicago | 6 | All Maps","name_short":"chi-6","host":"chi-2.us.uncletopia.com","port":27025,"enabled":true,"region":"us-central","cc":"us","latitude":41.881832,"longitude":-87.62318,"reserved":0,"last_update":"0001-01-01T00:00:00Z","name_a2s":"Uncletopia | Chicago | 6 | All Maps","protocol":17,"map":"cp_process_final","folder":"tf","game":"Team Fortress","app_id":440,"player_count":24,"max_players":24,"Bots":0,"server_type":"Dedicated","server_os":"Linux","password":true,"vac":true,"version":"7757534","steam_id":85568392924866363,"keywords":["cp","nocrits","nodmgspread","uncletopia"],"game_id":440,"stv_port":27026,"stv_name":"Uncletopia | Chicago | 6 | All Maps | STV","players":[{"user_id":41,"name":"Model of a Modern Major General","steam_id":76561198237304364,"connected_time":2810000000000,"state":"active","ping":106},{"user_id":63,"name":"minecraft","steam_id":76561198023595873,"connected_time":822000000000,"state":"active","ping":73},{"user_id":69,"name":"qiulongtao","steam_id":76561198977558717,"connected_time":540000000000,"state":"active","ping":83},{"user_id":53,"name":"Toaster","steam_id":76561198110748463,"connected_time":2401000000000,"state":"active","ping":59},{"user_id":72,"name":"OMG!!!!","steam_id":76561198069600113,"connected_time":117000000000,"state":"active","ping":67},{"user_id":65,"name":"Nerd Pacman Meme 10 Hours","steam_id":76561197979090955,"connected_time":755000000000,"state":"active","ping":90},{"user_id":48,"name":"Dzhoshua","steam_id":76561198071915251,"connected_time":2660000000000,"state":"active","ping":58},{"user_id":57,"name":"Dr. Nobotnik","steam_id":76561198357339092,"connected_time":1873000000000,"state":"active","ping":97},{"user_id":59,"name":"Wingz","steam_id":76561198135885865,"connected_time":1697000000000,"state":"active","ping":54},{"user_id":60,"name":"DeathByGinger","steam_id":76561198145825228,"connected_time":1671000000000,"state":"active","ping":67},{"user_id":30,"name":"g00bur","steam_id":76561197993622520,"connected_time":3148000000000,"state":"active","ping":70},{"user_id":58,"name":"Wwaz","steam_id":76561198000240092,"connected_time":1814000000000,"state":"active","ping":47},{"user_id":33,"name":"Zero","steam_id":76561199383267408,"connected_time":3026000000000,"state":"active","ping":82},{"user_id":55,"name":"Samsiel","steam_id":76561198094134951,"connected_time":2170000000000,"state":"active","ping":96},{"user_id":66,"name":"Don't Fuckle with Shuckle","steam_id":76561199020102367,"connected_time":744000000000,"state":"active","ping":84},{"user_id":62,"name":"bhop","steam_id":76561198064885639,"connected_time":1285000000000,"state":"active","ping":83},{"user_id":37,"name":"Beary Adorable","steam_id":76561198023815802,"connected_time":2881000000000,"state":"active","ping":104},{"user_id":67,"name":"malkshake, flattener","steam_id":76561198031977478,"connected_time":729000000000,"state":"active","ping":65},{"user_id":51,"name":"Bwizz245","steam_id":76561198151474774,"connected_time":2422000000000,"state":"active","ping":65},{"user_id":52,"name":"glue790","steam_id":76561199215798445,"connected_time":2415000000000,"state":"active","ping":61},{"user_id":70,"name":"craf","steam_id":76561198163535075,"connected_time":519000000000,"state":"active","ping":70},{"user_id":71,"name":"Totally not a Squid","steam_id":76561198072449738,"connected_time":322000000000,"state":"active","ping":57},{"user_id":68,"name":"geoff","steam_id":76561198038448355,"connected_time":700000000000,"state":"active","ping":45},{"user_id":47,"name":"Sulong","steam_id":76561198798244209,"connected_time":2663000000000,"state":"active","ping":75}]},{"server_id":38,"name":"Uncletopia | Chicago | 7 | Stopwatch Beta","name_short":"chi-7","host":"chi-2.us.uncletopia.com","port":27035,"enabled":true,"region":"us-central","cc":"us","latitude":41.881832,"longitude":-87.62318,"reserved":0,"last_update":"0001-01-01T00:00:00Z","name_a2s":"Uncletopia | Chicago | 7 | Stopwatch Beta","protocol":17,"map":"pl_upward","folder":"tf","game":"Team Fortress","app_id":440,"player_count":0,"max_players":24,"Bots":0,"server_type":"Dedicated","server_os":"Linux","password":true,"vac":true,"version":"7757534","steam_id":85568392924866364,"keywords":["nocrits","nodmgspread","payload","uncletopia"],"game_id":440,"stv_port":27036,"stv_name":"Uncletopia | Chicago | 7 | Stopwatch Beta | STV","players":null},{"server_id":39,"name":"Uncletopia | Chicago | 8 | Community","name_short":"chi-8","host":"chi-2.us.uncletopia.com","port":27045,"enabled":true,"region":"us-central","cc":"us","latitude":41.881832,"longitude":-87.62318,"reserved":0,"last_update":"0001-01-01T00:00:00Z","name_a2s":"Uncletopia | Chicago | 8 | Community","protocol":17,"map":"workshop/cp_croissant_final.ugc458840209","folder":"tf","game":"Team Fortress","app_id":440,"player_count":22,"max_players":24,"Bots":0,"server_type":"Dedicated","server_os":"Linux","password":true,"vac":true,"version":"7757534","steam_id":85568392924866365,"keywords":["cp","nocrits","nodmgspread","uncletopia"],"game_id":440,"stv_port":27046,"stv_name":"Uncletopia | Chicago | 8 | Community | STV","players":[{"user_id":199,"name":"Manly Emerald","steam_id":76561198245838476,"connected_time":50000000000,"state":"active","ping":60},{"user_id":200,"name":"â˜¼Barracudaâ˜¼","steam_id":76561198013022083,"connected_time":49000000000,"state":"active","ping":51},{"user_id":193,"name":"Salt","steam_id":76561198418001135,"connected_time":692000000000,"state":"active","ping":75},{"user_id":151,"name":"Godfinger","steam_id":76561198426346549,"connected_time":2730000000000,"state":"active","ping":62},{"user_id":122,"name":"Skullypoo","steam_id":76561198067912022,"connected_time":5350000000000,"state":"active","ping":69},{"user_id":170,"name":"Noble Arris","steam_id":76561198206046404,"connected_time":1589000000000,"state":"active","ping":69},{"user_id":201,"name":"harlowng","steam_id":76561198060542928,"connected_time":32000000000,"state":"active","ping":121},{"user_id":138,"name":"King Sans","steam_id":76561198294198517,"connected_time":4896000000000,"state":"active","ping":63},{"user_id":195,"name":"WitchyD","steam_id":76561197997130535,"connected_time":326000000000,"state":"active","ping":71},{"user_id":166,"name":"EmeraldCola","steam_id":76561198066663687,"connected_time":1752000000000,"state":"active","ping":80},{"user_id":171,"name":"SmilingGandalf","steam_id":76561198077038687,"connected_time":1564000000000,"state":"active","ping":163},{"user_id":153,"name":"DICK COCK","steam_id":76561197974363272,"connected_time":2725000000000,"state":"active","ping":85},{"user_id":196,"name":"Alex Jones","steam_id":76561198272738226,"connected_time":322000000000,"state":"active","ping":103},{"user_id":183,"name":"HaphazardHazel","steam_id":76561198316812693,"connected_time":1090000000000,"state":"active","ping":90},{"user_id":188,"name":"Small tiny feet","steam_id":76561199141538581,"connected_time":932000000000,"state":"active","ping":114},{"user_id":202,"name":"skidrow","steam_id":76561198036132808,"connected_time":26000000000,"state":"active","ping":63},{"user_id":203,"name":"Dieu-Sama","steam_id":76561198002075862,"connected_time":1000000000,"state":"spawning","ping":52},{"user_id":190,"name":"Chagalicious","steam_id":76561198044128240,"connected_time":850000000000,"state":"active","ping":78},{"user_id":198,"name":"groond","steam_id":76561198309426720,"connected_time":147000000000,"state":"active","ping":65},{"user_id":184,"name":"jellomart","steam_id":76561198803054485,"connected_time":1068000000000,"state":"active","ping":70},{"user_id":187,"name":"Scout from Team Fortress 2","steam_id":76561198865519822,"connected_time":957000000000,"state":"active","ping":71},{"user_id":181,"name":"shankwrs","steam_id":76561198397760811,"connected_time":1257000000000,"state":"active","ping":99}]},{"server_id":8,"name":"Uncletopia | Dallas | 1 | All Maps","name_short":"dal-1","host":"dal-1.us.uncletopia.com","port":27015,"enabled":true,"region":"us-central","cc":"us","latitude":32.779167,"longitude":-96.80889,"reserved":0,"last_update":"0001-01-01T00:00:00Z","name_a2s":"Uncletopia | Dallas | 1 | All Maps","protocol":17,"map":"ctf_turbine","folder":"tf","game":"Team Fortress","app_id":440,"player_count":24,"max_players":24,"Bots":0,"server_type":"Dedicated","server_os":"Linux","password":true,"vac":true,"version":"7757534","steam_id":85568392924469986,"keywords":["ctf","nocrits","nodmgspread","uncletopia"],"game_id":440,"stv_port":27016,"stv_name":"Uncletopia | Dallas | 1 | All Maps | STV","players":[{"user_id":90,"name":"Smeller","steam_id":76561198041767882,"connected_time":3992000000000,"state":"active","ping":59},{"user_id":133,"name":"Tomato","steam_id":76561197996472649,"connected_time":70000000000,"state":"active","ping":90},{"user_id":101,"name":"BOR XOR","steam_id":76561198063294776,"connected_time":2669000000000,"state":"active","ping":75},{"user_id":120,"name":"AngryGaming","steam_id":76561198171754386,"connected_time":376000000000,"state":"active","ping":69},{"user_id":132,"name":"gristle","steam_id":76561198046815360,"connected_time":103000000000,"state":"active","ping":75},{"user_id":127,"name":"Eliteplaster","steam_id":76561198846417774,"connected_time":244000000000,"state":"active","ping":56},{"user_id":9,"name":"Mina's Ninas","steam_id":76561198046502179,"connected_time":7884000000000,"state":"active","ping":70},{"user_id":88,"name":"tacofever","steam_id":76561198010966507,"connected_time":4091000000000,"state":"active","ping":76},{"user_id":121,"name":"Derply","steam_id":76561198871211642,"connected_time":360000000000,"state":"active","ping":81},{"user_id":91,"name":"Satori Komeiji","steam_id":76561198158211423,"connected_time":3992000000000,"state":"active","ping":79},{"user_id":123,"name":"Moshi Man","steam_id":76561198038249762,"connected_time":317000000000,"state":"active","ping":69},{"user_id":124,"name":"MonsterHunter","steam_id":76561198146118010,"connected_time":289000000000,"state":"active","ping":75},{"user_id":18,"name":"Deryn Sharp","steam_id":76561198047017346,"connected_time":7643000000000,"state":"active","ping":76},{"user_id":58,"name":"Fresh0c0","steam_id":76561198271933283,"connected_time":5548000000000,"state":"active","ping":88},{"user_id":117,"name":"Lepo","steam_id":76561198383509659,"connected_time":1203000000000,"state":"active","ping":99},{"user_id":125,"name":"gamer girl looking for a bf","steam_id":76561198279901162,"connected_time":274000000000,"state":"active","ping":91},{"user_id":22,"name":"miss pauling","steam_id":76561198342098304,"connected_time":7579000000000,"state":"active","ping":161},{"user_id":126,"name":"damiankiller1243","steam_id":76561198868885090,"connected_time":270000000000,"state":"active","ping":322},{"user_id":108,"name":"Black Mesa Scientist","steam_id":76561198064466577,"connected_time":2004000000000,"state":"active","ping":64},{"user_id":111,"name":"Nottawink","steam_id":76561198071248705,"connected_time":1784000000000,"state":"active","ping":164},{"user_id":128,"name":"LilithR","steam_id":76561199164255561,"connected_time":224000000000,"state":"active","ping":174},{"user_id":129,"name":"Zlavus","steam_id":76561198217652861,"connected_time":216000000000,"state":"active","ping":108},{"user_id":131,"name":"Numanis","steam_id":76561199229661082,"connected_time":113000000000,"state":"active","ping":84},{"user_id":70,"name":"floofy","steam_id":76561198389769098,"connected_time":5095000000000,"state":"active","ping":81}]},{"server_id":108,"name":"Uncletopia | Dallas | 2 | All Maps","name_short":"dal-2","host":"dal-1.us.uncletopia.com","port":27025,"enabled":true,"region":"us-central","cc":"us","latitude":32.779167,"longitude":-96.80889,"reserved":0,"last_update":"0001-01-01T00:00:00Z","name_a2s":"Uncletopia | Dallas | 2 | All Maps","protocol":17,"map":"koth_nucleus","folder":"tf","game":"Team Fortress","app_id":440,"player_count":24,"max_players":24,"Bots":0,"server_type":"Dedicated","server_os":"Linux","password":true,"vac":true,"version":"7757534","steam_id":85568392924469988,"keywords":["cp","nocrits","nodmgspread","uncletopia"],"game_id":440,"stv_port":27026,"stv_name":"Uncletopia | Dallas | 2 | All Maps | STV","players":[{"user_id":137,"name":"Every step of the way","steam_id":76561198010242117,"connected_time":472000000000,"state":"active","ping":97},{"user_id":115,"name":"Phoelamander","steam_id":76561198001462472,"connected_time":1247000000000,"state":"active","ping":70},{"user_id":101,"name":"Shmish","steam_id":76561197966078491,"connected_time":1857000000000,"state":"active","ping":99},{"user_id":138,"name":"Bandanadee#SaveTF2","steam_id":76561199014194373,"connected_time":406000000000,"state":"active","ping":101},{"user_id":122,"name":"Robust Bird","steam_id":76561199084361391,"connected_time":1024000000000,"state":"active","ping":119},{"user_id":109,"name":"Bubba Bass","steam_id":76561198026767327,"connected_time":1464000000000,"state":"active","ping":54},{"user_id":129,"name":"Astrocircuit","steam_id":76561198014437544,"connected_time":982000000000,"state":"active","ping":87},{"user_id":10,"name":"Lolxdloldx","steam_id":76561198136887125,"connected_time":7871000000000,"state":"active","ping":97},{"user_id":139,"name":"Captin_Ciyro","steam_id":76561198861899909,"connected_time":311000000000,"state":"active","ping":174},{"user_id":124,"name":"Largelad","steam_id":76561198024042970,"connected_time":1017000000000,"state":"active","ping":63},{"user_id":143,"name":"gamers aren't real","steam_id":76561198113748347,"connected_time":56000000000,"state":"active","ping":67},{"user_id":140,"name":"help","steam_id":76561198085206684,"connected_time":297000000000,"state":"active","ping":75},{"user_id":127,"name":"CLAYDUCK","steam_id":76561197995221829,"connected_time":1001000000000,"state":"active","ping":95},{"user_id":78,"name":"Coosnut","steam_id":76561198061106216,"connected_time":3524000000000,"state":"active","ping":55},{"user_id":128,"name":"Ultra Vegan Battle Gamer","steam_id":76561198082907729,"connected_time":989000000000,"state":"active","ping":58},{"user_id":135,"name":"Idiot on his Keyboard","steam_id":76561198217662787,"connected_time":749000000000,"state":"active","ping":107},{"user_id":103,"name":"*****setget","steam_id":76561198118824188,"connected_time":1778000000000,"state":"active","ping":121},{"user_id":113,"name":"Shortbane","steam_id":76561198247166584,"connected_time":1349000000000,"state":"active","ping":54},{"user_id":130,"name":"ðŸ’• Bussy Gaming ðŸ’•","steam_id":76561198983966907,"connected_time":945000000000,"state":"active","ping":75},{"user_id":141,"name":"The-Icy-Thief","steam_id":76561199233008584,"connected_time":233000000000,"state":"active","ping":107},{"user_id":132,"name":"watuh","steam_id":76561198089414077,"connected_time":898000000000,"state":"active","ping":88},{"user_id":118,"name":"JACOB","steam_id":76561198211874895,"connected_time":1173000000000,"state":"active","ping":98},{"user_id":134,"name":"plurmp","steam_id":76561198054698399,"connected_time":796000000000,"state":"active","ping":48},{"user_id":142,"name":"Lo-Pan","steam_id":76561198085670133,"connected_time":162000000000,"state":"active","ping":59}]},{"server_id":5,"name":"Uncletopia | Frankfurt | 1 | All Maps","name_short":"frk-1","host":"frk-1.de.uncletopia.com","port":27015,"enabled":true,"region":"eu","cc":"de","latitude":50.110924,"longitude":8.682127,"reserved":0,"last_update":"0001-01-01T00:00:00Z","name_a2s":"Uncletopia | Frankfurt | 1 | All Maps","protocol":17,"map":"pl_snowycoast","folder":"tf","game":"Team Fortress","app_id":440,"player_count":0,"max_players":24,"Bots":0,"server_type":"Dedicated","server_os":"Linux","password":true,"vac":true,"version":"7757534","steam_id":85568392924469989,"keywords":["nocrits","nodmgspread","payload","uncletopia"],"game_id":440,"stv_port":27016,"stv_name":"Uncletopia | Frankfurt | 1 | All Maps | STV","players":null},{"server_id":110,"name":"Uncletopia | Frankfurt | 2 | All Maps","name_short":"frk-2","host":"frk-1.de.uncletopia.com","port":27025,"enabled":true,"region":"eu","cc":"de","latitude":50.110924,"longitude":8.682127,"reserved":0,"last_update":"0001-01-01T00:00:00Z","name_a2s":"Uncletopia | Frankfurt | 2 | All Maps","protocol":17,"map":"pl_pier","folder":"tf","game":"Team Fortress","app_id":440,"player_count":0,"max_players":24,"Bots":0,"server_type":"Dedicated","server_os":"Linux","password":true,"vac":true,"version":"7757534","steam_id":85568392924469990,"keywords":["nocrits","nodmgspread","payload","uncletopia"],"game_id":440,"stv_port":27026,"stv_name":"Uncletopia | Frankfurt | 2 | All Maps | STV","players":null},{"server_id":308,"name":"Uncletopia | Frankfurt | 3 | All Maps","name_short":"frk-3","host":"frk-1.de.uncletopia.com","port":27035,"enabled":true,"region":"eu","cc":"de","latitude":50.110924,"longitude":8.682127,"reserved":0,"last_update":"0001-01-01T00:00:00Z","name_a2s":"Uncletopia | Frankfurt | 3 | All Maps","protocol":17,"map":"cp_sunshine","folder":"tf","game":"Team Fortress","app_id":440,"player_count":0,"max_players":24,"Bots":0,"server_type":"Dedicated","server_os":"Linux","password":true,"vac":true,"version":"7757534","steam_id":85568392924504274,"keywords":["cp","nocrits","nodmgspread","uncletopia"],"game_id":440,"stv_port":27036,"stv_name":"Uncletopia | Frankfurt | 3 | All Maps | STV","players":null},{"server_id":309,"name":"Uncletopia | Frankfurt | 4 | All Maps","name_short":"frk-4","host":"frk-1.de.uncletopia.com","port":27045,"enabled":true,"region":"eu","cc":"de","latitude":50.110924,"longitude":8.682127,"reserved":0,"last_update":"0001-01-01T00:00:00Z","name_a2s":"Uncletopia | Frankfurt | 4 | All Maps","protocol":17,"map":"pl_snowycoast","folder":"tf","game":"Team Fortress","app_id":440,"player_count":24,"max_players":24,"Bots":0,"server_type":"Dedicated","server_os":"Linux","password":true,"vac":true,"version":"7757534","steam_id":85568392924504275,"keywords":["nocrits","nodmgspread","payload","uncletopia"],"game_id":440,"stv_port":27046,"stv_name":"Uncletopia | Frankfurt | 4 | All Maps | STV","players":[{"user_id":99,"name":"Loud Pack","steam_id":76561198122181176,"connected_time":1711000000000,"state":"active","ping":46},{"user_id":92,"name":"Swivel_Blue","steam_id":76561198035642311,"connected_time":1880000000000,"state":"active","ping":104},{"user_id":93,"name":"Dr.Disrespect","steam_id":76561198043820228,"connected_time":1839000000000,"state":"active","ping":57},{"user_id":109,"name":"Arky ðŸ¦‘","steam_id":76561198027448234,"connected_time":825000000000,"state":"active","ping":76},{"user_id":95,"name":"GardenFungus","steam_id":76561198054894337,"connected_time":1746000000000,"state":"active","ping":65},{"user_id":112,"name":"mumbler","steam_id":76561197970641239,"connected_time":250000000000,"state":"active","ping":52},{"user_id":116,"name":"I do hate crime","steam_id":76561198102420849,"connected_time":46000000000,"state":"active","ping":60},{"user_id":97,"name":"E-ferret","steam_id":76561198394134715,"connected_time":1737000000000,"state":"active","ping":153},{"user_id":115,"name":"Peakey The Bard","steam_id":76561198196607831,"connected_time":209000000000,"state":"active","ping":66},{"user_id":98,"name":"Yelowchy","steam_id":76561198199416121,"connected_time":1716000000000,"state":"active","ping":63},{"user_id":104,"name":"Baspla","steam_id":76561198066260876,"connected_time":1555000000000,"state":"active","ping":54},{"user_id":88,"name":"Minigrim0","steam_id":76561198087819466,"connected_time":2632000000000,"state":"active","ping":81},{"user_id":87,"name":"Mr_Pulse_","steam_id":76561198095001602,"connected_time":2845000000000,"state":"active","ping":97},{"user_id":90,"name":"jeff","steam_id":76561198025815509,"connected_time":1995000000000,"state":"active","ping":58},{"user_id":17,"name":"Valfezant","steam_id":76561199063983797,"connected_time":7928000000000,"state":"active","ping":56},{"user_id":100,"name":"Burpman","steam_id":76561198022897937,"connected_time":1691000000000,"state":"active","ping":61},{"user_id":80,"name":"Silenzio","steam_id":76561199233979726,"connected_time":3571000000000,"state":"active","ping":78},{"user_id":21,"name":"darktheif54","steam_id":76561198043650119,"connected_time":7909000000000,"state":"active","ping":52},{"user_id":108,"name":"ActiWix","steam_id":76561198021813586,"connected_time":1108000000000,"state":"active","ping":46},{"user_id":105,"name":"Skyfox","steam_id":76561198036647535,"connected_time":1423000000000,"state":"active","ping":46},{"user_id":110,"name":"vuggie","steam_id":76561198042227249,"connected_time":805000000000,"state":"active","ping":58},{"user_id":111,"name":"bucket hat larry","steam_id":76561198136511793,"connected_time":398000000000,"state":"active","ping":60},{"user_id":82,"name":"Dr. Le Quack","steam_id":76561197995711176,"connected_time":3532000000000,"state":"active","ping":90},{"user_id":106,"name":"noire","steam_id":76561198426604784,"connected_time":1384000000000,"state":"active","ping":55}]},{"server_id":310,"name":"Uncletopia | Frankfurt | 5 | All Maps","name_short":"frk-5","host":"frk-1.de.uncletopia.com","port":27055,"enabled":true,"region":"eu","cc":"de","latitude":50.110924,"longitude":8.682127,"reserved":0,"last_update":"0001-01-01T00:00:00Z","name_a2s":"Uncletopia | Frankfurt | 5 | All Maps","protocol":17,"map":"koth_lakeside_final","folder":"tf","game":"Team Fortress","app_id":440,"player_count":11,"max_players":24,"Bots":0,"server_type":"Dedicated","server_os":"Linux","password":true,"vac":true,"version":"7757534","steam_id":85568392924504277,"keywords":["cp","nocrits","nodmgspread","uncletopia"],"game_id":440,"stv_port":27056,"stv_name":"Uncletopia | Frankfurt | 5 | All Maps | STV","players":[{"user_id":113,"name":"MrSylveonXD","steam_id":76561198405858228,"connected_time":1599000000000,"state":"active","ping":72},{"user_id":125,"name":"Sen4248","steam_id":76561198088573978,"connected_time":465000000000,"state":"active","ping":59},{"user_id":114,"name":"oof","steam_id":76561199066914939,"connected_time":1597000000000,"state":"active","ping":160},{"user_id":115,"name":"Sheeply","steam_id":76561199219016598,"connected_time":1589000000000,"state":"active","ping":132},{"user_id":126,"name":"brkc_love","steam_id":76561198090152271,"connected_time":417000000000,"state":"active","ping":47},{"user_id":129,"name":"Ocrim_R","steam_id":76561198050479516,"connected_time":252000000000,"state":"active","ping":45},{"user_id":128,"name":"Eleren","steam_id":76561198123361225,"connected_time":375000000000,"state":"active","ping":61},{"user_id":130,"name":"guyinatophat51","steam_id":76561198180230694,"connected_time":170000000000,"state":"active","ping":134},{"user_id":131,"name":"VasiaÂ®","steam_id":76561198040361331,"connected_time":132000000000,"state":"active","ping":107},{"user_id":104,"name":"Palmasanti","steam_id":76561199067841526,"connected_time":2602000000000,"state":"active","ping":73},{"user_id":132,"name":"Bowbius","steam_id":76561198262381355,"connected_time":129000000000,"state":"active","ping":82}]},{"server_id":311,"name":"Uncletopia | Frankfurt | 6 | All Maps","name_short":"frk-6","host":"frk-1.de.uncletopia.com","port":27065,"enabled":true,"region":"eu","cc":"de","latitude":50.110924,"longitude":8.682127,"reserved":0,"last_update":"0001-01-01T00:00:00Z","name_a2s":"Uncletopia | Frankfurt | 6 | All Maps","protocol":17,"map":"koth_highpass","folder":"tf","game":"Team Fortress","app_id":440,"player_count":0,"max_players":24,"Bots":0,"server_type":"Dedicated","server_os":"Linux","password":true,"vac":true,"version":"7757534","steam_id":85568392924504278,"keywords":["cp","nocrits","nodmgspread","uncletopia"],"game_id":440,"stv_port":27066,"stv_name":"Uncletopia | Frankfurt | 6 | All Maps | STV","players":null},{"server_id":23,"name":"Uncletopia | Frankfurt | 7 | Stopwatch Beta","name_short":"frk-7","host":"frk-1.de.uncletopia.com","port":27075,"enabled":true,"region":"eu","cc":"de","latitude":50.110924,"longitude":8.682127,"reserved":0,"last_update":"0001-01-01T00:00:00Z","name_a2s":"Uncletopia | Frankfurt | 7 | Stopwatch Beta","protocol":17,"map":"pl_frontier_final","folder":"tf","game":"Team Fortress","app_id":440,"player_count":0,"max_players":24,"Bots":0,"server_type":"Dedicated","server_os":"Linux","password":true,"vac":true,"version":"7757534","steam_id":85568392924742827,"keywords":["nocrits","nodmgspread","payload","uncletopia"],"game_id":440,"stv_port":27076,"stv_name":"Uncletopia | Frankfurt | 7 | Stopwatch Beta | STV","players":null},{"server_id":24,"name":"Uncletopia | Frankfurt | 8 | Community","name_short":"frk-8","host":"frk-1.de.uncletopia.com","port":27085,"enabled":true,"region":"eu","cc":"de","latitude":50.110924,"longitude":8.682127,"reserved":0,"last_update":"0001-01-01T00:00:00Z","name_a2s":"Uncletopia | Frankfurt | 8 | Community","protocol":17,"map":"pl_badwater","folder":"tf","game":"Team Fortress","app_id":440,"player_count":0,"max_players":24,"Bots":0,"server_type":"Dedicated","server_os":"Linux","password":true,"vac":true,"version":"7757534","steam_id":85568392924742828,"keywords":["nocrits","nodmgspread","payload","uncletopia"],"game_id":440,"stv_port":27086,"stv_name":"Uncletopia | Frankfurt | 8 | Community | STV","players":null},{"server_id":202,"name":"Uncletopia | Hong Kong | 1 | All Maps","name_short":"hgk-1","host":"hgk-1.hk.uncletopia.com","port":27015,"enabled":true,"region":"asia","cc":"hk","latitude":22.302711,"longitude":114.177216,"reserved":0,"last_update":"0001-01-01T00:00:00Z","name_a2s":"Uncletopia | Hong Kong | 1 | All Maps","protocol":17,"map":"cp_dustbowl","folder":"tf","game":"Team Fortress","app_id":440,"player_count":0,"max_players":24,"Bots":0,"server_type":"Dedicated","server_os":"Linux","password":true,"vac":true,"version":"7757534","steam_id":85568392924494504,"keywords":["cp","nocrits","nodmgspread","uncletopia"],"game_id":440,"stv_port":27016,"stv_name":"Uncletopia | Hong Kong | 1 | All Maps | STV","players":null},{"server_id":1,"name":"Uncletopia | Los Angeles | 1 | All Maps","name_short":"lax-1","host":"lax-1.us.uncletopia.com","port":27015,"enabled":true,"region":"us-west","cc":"us","latitude":33.94279,"longitude":-118.41004,"reserved":0,"last_update":"0001-01-01T00:00:00Z","name_a2s":"Uncletopia | Los Angeles | 1 | All Maps","protocol":17,"map":"pl_badwater","folder":"tf","game":"Team Fortress","app_id":440,"player_count":24,"max_players":24,"Bots":0,"server_type":"Dedicated","server_os":"Linux","password":true,"vac":true,"version":"7757534","steam_id":85568392924469991,"keywords":["nocrits","nodmgspread","payload","uncletopia"],"game_id":440,"stv_port":27016,"stv_name":"Uncletopia | Los Angeles | 1 | All Maps | STV","players":[{"user_id":82,"name":"demonpyro fromhell","steam_id":76561199036142684,"connected_time":3155000000000,"state":"active","ping":61},{"user_id":111,"name":"Super Noob","steam_id":76561199179611350,"connected_time":612000000000,"state":"active","ping":109},{"user_id":119,"name":"TheBold","steam_id":76561199194787298,"connected_time":125000000000,"state":"active","ping":52},{"user_id":91,"name":"golf (backspin edition)","steam_id":76561198007464245,"connected_time":2534000000000,"state":"active","ping":101},{"user_id":92,"name":"Core19","steam_id":76561198318126190,"connected_time":2486000000000,"state":"active","ping":160},{"user_id":120,"name":"SquirrelAwayâ„¢","steam_id":76561197998828619,"connected_time":70000000000,"state":"active","ping":82},{"user_id":57,"name":"VicLoL","steam_id":76561198045580784,"connected_time":4702000000000,"state":"active","ping":58},{"user_id":105,"name":"omugai_","steam_id":76561198086481768,"connected_time":1603000000000,"state":"active","ping":49},{"user_id":112,"name":"Astro","steam_id":76561198035676106,"connected_time":584000000000,"state":"active","ping":86},{"user_id":87,"name":"Maid 'n' China","steam_id":76561198423392976,"connected_time":2748000000000,"state":"active","ping":59},{"user_id":17,"name":"westward","steam_id":76561198805512350,"connected_time":5637000000000,"state":"active","ping":86},{"user_id":109,"name":"EÃ¤rendil","steam_id":76561198067934529,"connected_time":869000000000,"state":"active","ping":63},{"user_id":107,"name":"pickle","steam_id":76561198115269587,"connected_time":1337000000000,"state":"active","ping":98},{"user_id":114,"name":"TeriyakiDynamite","steam_id":76561198050049346,"connected_time":535000000000,"state":"active","ping":60},{"user_id":115,"name":"rlty","steam_id":76561198009395055,"connected_time":533000000000,"state":"active","ping":105},{"user_id":85,"name":"MoneyMoves","steam_id":76561198406895347,"connected_time":2989000000000,"state":"active","ping":85},{"user_id":93,"name":"Dangerous_Dave76","steam_id":76561199230056550,"connected_time":2467000000000,"state":"active","ping":59},{"user_id":100,"name":"Pyro weapons guy â½ Ë¡á¶¦áµ—","steam_id":76561198353789504,"connected_time":2224000000000,"state":"active","ping":65},{"user_id":41,"name":"Stranger Danger","steam_id":76561198115242460,"connected_time":5428000000000,"state":"active","ping":76},{"user_id":30,"name":"TheOshawott64","steam_id":76561198126361408,"connected_time":5510000000000,"state":"active","ping":94},{"user_id":117,"name":"average bandit","steam_id":76561198026054565,"connected_time":394000000000,"state":"active","ping":115},{"user_id":42,"name":"Hindmost","steam_id":76561199081837220,"connected_time":5417000000000,"state":"active","ping":96},{"user_id":96,"name":"023e20902o0239ee02390o239e","steam_id":76561198175741741,"connected_time":2400000000000,"state":"active","ping":115},{"user_id":121,"name":"SonicTheHedgehogEpicGamer2013","steam_id":76561199229577594,"connected_time":58000000000,"state":"active","ping":65}]},{"server_id":112,"name":"Uncletopia | Los Angeles | 2 | All Maps","name_short":"lax-2","host":"lax-1.us.uncletopia.com","port":27025,"enabled":true,"region":"us-west","cc":"us","latitude":33.94279,"longitude":-118.41004,"reserved":0,"last_update":"0001-01-01T00:00:00Z","name_a2s":"Uncletopia | Los Angeles | 2 | All Maps","protocol":17,"map":"cp_process_final","folder":"tf","game":"Team Fortress","app_id":440,"player_count":24,"max_players":24,"Bots":0,"server_type":"Dedicated","server_os":"Linux","password":true,"vac":true,"version":"7757534","steam_id":85568392924469992,"keywords":["cp","nocrits","nodmgspread","uncletopia"],"game_id":440,"stv_port":27026,"stv_name":"Uncletopia | Los Angeles | 2 | All Maps | STV","players":[{"user_id":29,"name":"Mom","steam_id":76561198207936000,"connected_time":934000000000,"state":"active","ping":60},{"user_id":25,"name":"Heavy","steam_id":76561198437794740,"connected_time":1165000000000,"state":"active","ping":62},{"user_id":31,"name":"Tummy Sunday","steam_id":76561198031336957,"connected_time":780000000000,"state":"active","ping":90},{"user_id":26,"name":"john depp","steam_id":76561198161199653,"connected_time":1141000000000,"state":"active","ping":116},{"user_id":11,"name":"johnman gooberguy","steam_id":76561199014859764,"connected_time":2747000000000,"state":"active","ping":88},{"user_id":48,"name":"=PB=","steam_id":76561197999146612,"connected_time":74000000000,"state":"active","ping":168},{"user_id":18,"name":"Harland","steam_id":76561198177908823,"connected_time":1658000000000,"state":"active","ping":80},{"user_id":19,"name":"NotAnEggo tera.gg","steam_id":76561198399365319,"connected_time":1656000000000,"state":"active","ping":104},{"user_id":28,"name":"dosimeter","steam_id":76561198039608940,"connected_time":1031000000000,"state":"active","ping":94},{"user_id":30,"name":"Sparrow","steam_id":76561199122118959,"connected_time":837000000000,"state":"active","ping":58},{"user_id":40,"name":"BarelyAnimateObject","steam_id":76561198986264116,"connected_time":358000000000,"state":"active","ping":38},{"user_id":34,"name":"chrissyoons","steam_id":76561198870009361,"connected_time":677000000000,"state":"active","ping":81},{"user_id":35,"name":"Dr. Harold coomer Phd","steam_id":76561197999158580,"connected_time":669000000000,"state":"active","ping":83},{"user_id":36,"name":"sukawaller","steam_id":76561198182108218,"connected_time":487000000000,"state":"active","ping":60},{"user_id":37,"name":"nephone","steam_id":76561198452515824,"connected_time":469000000000,"state":"active","ping":59},{"user_id":38,"name":"your mom calls me princess too","steam_id":76561198020400899,"connected_time":430000000000,"state":"active","ping":75},{"user_id":39,"name":"Poopie Babie","steam_id":76561198047500494,"connected_time":417000000000,"state":"active","ping":75},{"user_id":41,"name":"Karasu","steam_id":76561198043494276,"connected_time":326000000000,"state":"active","ping":115},{"user_id":42,"name":"Dog Deodorant","steam_id":76561199225832228,"connected_time":326000000000,"state":"active","ping":43},{"user_id":43,"name":"PigeonGirlMera","steam_id":76561198080830664,"connected_time":294000000000,"state":"active","ping":119},{"user_id":44,"name":"smush","steam_id":76561198009772955,"connected_time":293000000000,"state":"active","ping":45},{"user_id":45,"name":"dumb guy","steam_id":76561198245308588,"connected_time":262000000000,"state":"active","ping":117},{"user_id":46,"name":"nimitz","steam_id":76561198053707335,"connected_time":239000000000,"state":"active","ping":52},{"user_id":47,"name":"fl","steam_id":76561198150982973,"connected_time":231000000000,"state":"active","ping":119}]},{"server_id":324,"name":"Uncletopia | Los Angeles | 3 | All Maps","name_short":"lax-3","host":"lax-1.us.uncletopia.com","port":27035,"enabled":true,"region":"us-west","cc":"us","latitude":33.94279,"longitude":-118.41004,"reserved":0,"last_update":"0001-01-01T00:00:00Z","name_a2s":"Uncletopia | Los Angeles | 3 | All Maps","protocol":17,"map":"pl_barnblitz","folder":"tf","game":"Team Fortress","app_id":440,"player_count":24,"max_players":24,"Bots":0,"server_type":"Dedicated","server_os":"Linux","password":true,"vac":true,"version":"7757534","steam_id":85568392924510198,"keywords":["nocrits","nodmgspread","payload","uncletopia"],"game_id":440,"stv_port":27036,"stv_name":"Uncletopia | Los Angeles | 3 | All Maps | STV","players":[{"user_id":116,"name":"Antzen","steam_id":76561198041343470,"connected_time":706000000000,"state":"active","ping":57},{"user_id":117,"name":"ADHDking","steam_id":76561198116099017,"connected_time":612000000000,"state":"active","ping":90},{"user_id":91,"name":"heisenberg","steam_id":76561198075341060,"connected_time":2645000000000,"state":"active","ping":57},{"user_id":114,"name":"doobiebob","steam_id":76561198071963742,"connected_time":876000000000,"state":"active","ping":61},{"user_id":132,"name":"DiegoTheFunny","steam_id":76561199058003302,"connected_time":337000000000,"state":"active","ping":49},{"user_id":102,"name":"Whyamidoingthisaaaa","steam_id":76561199168837342,"connected_time":2127000000000,"state":"active","ping":115},{"user_id":103,"name":"DoppelgÃ¤nger","steam_id":76561198036730436,"connected_time":2060000000000,"state":"active","ping":54},{"user_id":119,"name":"Grouch","steam_id":76561198080790944,"connected_time":559000000000,"state":"active","ping":94},{"user_id":93,"name":"hakken","steam_id":76561199102391736,"connected_time":2633000000000,"state":"active","ping":49},{"user_id":123,"name":"shoob","steam_id":76561198072573046,"connected_time":521000000000,"state":"active","ping":117},{"user_id":125,"name":"ayaya?","steam_id":76561199000188109,"connected_time":485000000000,"state":"active","ping":51},{"user_id":105,"name":"AVeryTInyKitty","steam_id":76561198072311475,"connected_time":1981000000000,"state":"active","ping":77},{"user_id":82,"name":"Jonatello","steam_id":76561198045699189,"connected_time":4122000000000,"state":"active","ping":74},{"user_id":19,"name":"Oomitch","steam_id":76561198071702759,"connected_time":7846000000000,"state":"active","ping":86},{"user_id":97,"name":"Roland Martin","steam_id":76561198271945534,"connected_time":2593000000000,"state":"active","ping":107},{"user_id":126,"name":"Gary","steam_id":76561198147451346,"connected_time":475000000000,"state":"active","ping":123},{"user_id":135,"name":"Uncle Warcrimes","steam_id":76561198413013439,"connected_time":137000000000,"state":"active","ping":45},{"user_id":95,"name":"GREG","steam_id":76561198073021168,"connected_time":2621000000000,"state":"active","ping":114},{"user_id":112,"name":"Rhutebeer","steam_id":76561198018302761,"connected_time":1419000000000,"state":"active","ping":110},{"user_id":127,"name":"Lord GabeN","steam_id":76561198140862723,"connected_time":467000000000,"state":"active","ping":123},{"user_id":129,"name":"car gas is yummy","steam_id":76561199045901994,"connected_time":399000000000,"state":"active","ping":60},{"user_id":130,"name":"peanutbitter","steam_id":76561198981346275,"connected_time":369000000000,"state":"active","ping":46},{"user_id":113,"name":"master_minion","steam_id":76561198170693990,"connected_time":1105000000000,"state":"active","ping":54},{"user_id":133,"name":"bengineer","steam_id":76561198171912174,"connected_time":212000000000,"state":"active","ping":86}]},{"server_id":25,"name":"Uncletopia | Los Angeles | 4 | Stopwatch Beta","name_short":"lax-4","host":"lax-1.us.uncletopia.com","port":27045,"enabled":true,"region":"us-west","cc":"us","latitude":33.94279,"longitude":-118.41004,"reserved":0,"last_update":"0001-01-01T00:00:00Z","name_a2s":"Uncletopia | Los Angeles | 4 | Stopwatch Beta","protocol":17,"map":"workshop/pl_summercoast_rc8e.ugc1761528829","folder":"tf","game":"Team Fortress","app_id":440,"player_count":0,"max_players":24,"Bots":0,"server_type":"Dedicated","server_os":"Linux","password":true,"vac":true,"version":"7757534","steam_id":85568392924510199,"keywords":["nocrits","nodmgspread","payload","uncletopia"],"game_id":440,"stv_port":27046,"stv_name":"Uncletopia | Los Angeles | 4 | Stopwatch Beta | STV","players":null},{"server_id":11,"name":"Uncletopia | London | 1 | All Maps","name_short":"lon-1","host":"lon-1.uk.uncletopia.com","port":27015,"enabled":true,"region":"eu","cc":"gb","latitude":51.509865,"longitude":-0.118092,"reserved":0,"last_update":"0001-01-01T00:00:00Z","name_a2s":"Uncletopia | London | 1 | All Maps","protocol":17,"map":"pl_snowycoast","folder":"tf","game":"Team Fortress","app_id":440,"player_count":24,"max_players":24,"Bots":0,"server_type":"Dedicated","server_os":"Linux","password":true,"vac":true,"version":"7757534","steam_id":85568392924367362,"keywords":["nocrits","nodmgspread","payload","uncletopia"],"game_id":440,"stv_port":27016,"stv_name":"Uncletopia | London | 1 | All Maps | STV","players":[{"user_id":100,"name":"Room","steam_id":76561199174579733,"connected_time":51000000000,"state":"spawning","ping":146},{"user_id":92,"name":"UGH!","steam_id":76561198004335297,"connected_time":268000000000,"state":"active","ping":53},{"user_id":5,"name":"gnarly business","steam_id":76561198832688767,"connected_time":7983000000000,"state":"active","ping":47},{"user_id":89,"name":"donal rump","steam_id":76561198136239861,"connected_time":724000000000,"state":"active","ping":45},{"user_id":87,"name":"fogings","steam_id":76561198044165284,"connected_time":1074000000000,"state":"active","ping":48},{"user_id":91,"name":"The cost of living in the UK","steam_id":76561199000520747,"connected_time":354000000000,"state":"active","ping":45},{"user_id":84,"name":"S4mura!","steam_id":76561198374412262,"connected_time":1712000000000,"state":"active","ping":82},{"user_id":11,"name":"teddy","steam_id":76561198007436837,"connected_time":7962000000000,"state":"active","ping":33},{"user_id":88,"name":"steakman10","steam_id":76561198152584691,"connected_time":837000000000,"state":"active","ping":73},{"user_id":82,"name":"Fred","steam_id":76561198107137362,"connected_time":1748000000000,"state":"active","ping":52},{"user_id":96,"name":"Walle","steam_id":76561197995148937,"connected_time":104000000000,"state":"active","ping":79},{"user_id":39,"name":"New","steam_id":76561198402195911,"connected_time":6735000000000,"state":"active","ping":109},{"user_id":71,"name":"Podcast","steam_id":76561198531978435,"connected_time":3353000000000,"state":"active","ping":68},{"user_id":99,"name":"The.Convoy","steam_id":76561198206525464,"connected_time":96000000000,"state":"active","ping":58},{"user_id":18,"name":"Matomatic","steam_id":76561198063013603,"connected_time":7939000000000,"state":"active","ping":60},{"user_id":97,"name":"mr gaming","steam_id":76561198110103308,"connected_time":100000000000,"state":"active","ping":45},{"user_id":63,"name":"nedilya","steam_id":76561198039692077,"connected_time":4709000000000,"state":"active","ping":60},{"user_id":21,"name":"sora","steam_id":76561198096547662,"connected_time":7936000000000,"state":"active","ping":47},{"user_id":23,"name":"Sabour","steam_id":76561197963965445,"connected_time":7934000000000,"state":"active","ping":74},{"user_id":90,"name":"Jag Ã¤r ett anka","steam_id":76561198059978438,"connected_time":706000000000,"state":"active","ping":64},{"user_id":93,"name":"Daan Bread","steam_id":76561198040699398,"connected_time":167000000000,"state":"active","ping":34},{"user_id":74,"name":"Lukas","steam_id":76561198009118452,"connected_time":2957000000000,"state":"active","ping":65},{"user_id":98,"name":"Crisp gaming","steam_id":76561198004526176,"connected_time":98000000000,"state":"spawning","ping":48},{"user_id":32,"name":"Lord Maldimort","steam_id":76561198063150039,"connected_time":7773000000000,"state":"active","ping":60}]},{"server_id":114,"name":"Uncletopia | London | 2 | All Maps","name_short":"lon-2","host":"lon-1.uk.uncletopia.com","port":27025,"enabled":true,"region":"eu","cc":"gb","latitude":51.509865,"longitude":-0.118092,"reserved":0,"last_update":"0001-01-01T00:00:00Z","name_a2s":"Uncletopia | London | 2 | All Maps","protocol":17,"map":"cp_sunshine","folder":"tf","game":"Team Fortress","app_id":440,"player_count":0,"max_players":24,"Bots":0,"server_type":"Dedicated","server_os":"Linux","password":true,"vac":true,"version":"7757534","steam_id":85568392924470941,"keywords":["cp","nocrits","nodmgspread","uncletopia"],"game_id":440,"stv_port":27026,"stv_name":"Uncletopia | London | 2 | All Maps | STV","players":null},{"server_id":320,"name":"Uncletopia | London | 3 | All Maps","name_short":"lon-3","host":"lon-1.uk.uncletopia.com","port":27035,"enabled":true,"region":"eu","cc":"gb","latitude":51.509865,"longitude":-0.118092,"reserved":0,"last_update":"0001-01-01T00:00:00Z","name_a2s":"Uncletopia | London | 3 | All Maps","protocol":17,"map":"cp_well","folder":"tf","game":"Team Fortress","app_id":440,"player_count":24,"max_players":24,"Bots":0,"server_type":"Dedicated","server_os":"Linux","password":true,"vac":true,"version":"7757534","steam_id":85568392924510192,"keywords":["cp","nocrits","nodmgspread","uncletopia"],"game_id":440,"stv_port":27036,"stv_name":"Uncletopia | London | 3 | All Maps | STV","players":[{"user_id":93,"name":"Phrog","steam_id":76561197994499500,"connected_time":1855000000000,"state":"active","ping":52},{"user_id":78,"name":"posht0 @_@","steam_id":76561198106182078,"connected_time":2570000000000,"state":"active","ping":105},{"user_id":108,"name":"Not Sussy Tanuki","steam_id":76561198137289375,"connected_time":304000000000,"state":"active","ping":101},{"user_id":77,"name":"LokNadia","steam_id":76561198854156566,"connected_time":2711000000000,"state":"active","ping":124},{"user_id":70,"name":"Mach |=|20BB|)","steam_id":76561198952487564,"connected_time":4376000000000,"state":"active","ping":90},{"user_id":79,"name":"sabaka jebanoia","steam_id":76561198147249160,"connected_time":2453000000000,"state":"active","ping":104},{"user_id":17,"name":"Penis Contortionist","steam_id":76561198073663784,"connected_time":7322000000000,"state":"active","ping":41},{"user_id":105,"name":"Oaknight","steam_id":76561198030824146,"connected_time":505000000000,"state":"active","ping":44},{"user_id":59,"name":"Nikola","steam_id":76561197993300020,"connected_time":6078000000000,"state":"active","ping":74},{"user_id":81,"name":"Electro_Creeper","steam_id":76561199196836893,"connected_time":2403000000000,"state":"active","ping":79},{"user_id":100,"name":"kbbq","steam_id":76561198346638308,"connected_time":714000000000,"state":"active","ping":59},{"user_id":63,"name":"ghostie","steam_id":76561199097303487,"connected_time":4659000000000,"state":"active","ping":57},{"user_id":104,"name":"Dweeb thing","steam_id":76561198088411029,"connected_time":570000000000,"state":"active","ping":47},{"user_id":38,"name":"that fat croc from donkey kong","steam_id":76561198159172495,"connected_time":6765000000000,"state":"active","ping":75},{"user_id":65,"name":"ashley","steam_id":76561198448551449,"connected_time":4492000000000,"state":"active","ping":37},{"user_id":49,"name":"â™“ï¸Žâž³ oneman army","steam_id":76561198384248669,"connected_time":6459000000000,"state":"active","ping":93},{"user_id":73,"name":"Laurie","steam_id":76561198082951750,"connected_time":4200000000000,"state":"active","ping":47},{"user_id":109,"name":"Cocteau Twins - Heaven or Las V","steam_id":76561198119470669,"connected_time":97000000000,"state":"active","ping":57},{"user_id":92,"name":"Thibob","steam_id":76561198000541852,"connected_time":1873000000000,"state":"active","ping":58},{"user_id":106,"name":"ahrenisabimbo","steam_id":76561198078723788,"connected_time":496000000000,"state":"active","ping":66},{"user_id":58,"name":"Alibi","steam_id":76561198061845595,"connected_time":6270000000000,"state":"active","ping":47},{"user_id":101,"name":"Ashpho","steam_id":76561198369943853,"connected_time":708000000000,"state":"active","ping":64},{"user_id":102,"name":"Butt Hurling","steam_id":76561198093229786,"connected_time":706000000000,"state":"active","ping":83},{"user_id":103,"name":"Paulbraker","steam_id":76561198150162470,"connected_time":702000000000,"state":"active","ping":67}]},{"server_id":321,"name":"Uncletopia | London | 4 | All Maps","name_short":"lon-4","host":"lon-1.uk.uncletopia.com","port":27045,"enabled":true,"region":"eu","cc":"gb","latitude":51.509865,"longitude":-0.118092,"reserved":0,"last_update":"0001-01-01T00:00:00Z","name_a2s":"Uncletopia | London | 4 | All Maps","protocol":17,"map":"koth_viaduct","folder":"tf","game":"Team Fortress","app_id":440,"player_count":0,"max_players":24,"Bots":0,"server_type":"Dedicated","server_os":"Linux","password":true,"vac":true,"version":"7757534","steam_id":85568392924510193,"keywords":["cp","nocrits","nodmgspread","uncletopia"],"game_id":440,"stv_port":27046,"stv_name":"Uncletopia | London | 4 | All Maps | STV","players":null},{"server_id":21,"name":"Uncletopia | London | 5 | All Maps","name_short":"lon-5","host":"lon-1.uk.uncletopia.com","port":27055,"enabled":true,"region":"eu","cc":"gb","latitude":51.509865,"longitude":-0.118092,"reserved":0,"last_update":"0001-01-01T00:00:00Z","name_a2s":"Uncletopia | London | 5 | All Maps","protocol":17,"map":"cp_snakewater_final1","folder":"tf","game":"Team Fortress","app_id":440,"player_count":0,"max_players":24,"Bots":0,"server_type":"Dedicated","server_os":"Linux","password":true,"vac":true,"version":"7757534","steam_id":85568392924742829,"keywords":["cp","nocrits","nodmgspread","uncletopia"],"game_id":440,"stv_port":27056,"stv_name":"Uncletopia | London | 5 | All Maps | STV","players":null},{"server_id":22,"name":"Uncletopia | London | 6 | All Maps","name_short":"lon-6","host":"lon-1.uk.uncletopia.com","port":27065,"enabled":true,"region":"eu","cc":"gb","latitude":51.509865,"longitude":-0.118092,"reserved":0,"last_update":"0001-01-01T00:00:00Z","name_a2s":"Uncletopia | London | 6 | All Maps","protocol":17,"map":"koth_cascade","folder":"tf","game":"Team Fortress","app_id":440,"player_count":0,"max_players":24,"Bots":0,"server_type":"Dedicated","server_os":"Linux","password":true,"vac":true,"version":"7757534","steam_id":85568392924742830,"keywords":["cp","nocrits","nodmgspread","uncletopia"],"game_id":440,"stv_port":27066,"stv_name":"Uncletopia | London | 6 | All Maps | STV","players":null},{"server_id":40,"name":"Uncletopia | London | 7 | No Payload","name_short":"lon-7","host":"lon-1.uk.uncletopia.com","port":27075,"enabled":true,"region":"eu","cc":"gb","latitude":51.509865,"longitude":-0.118092,"reserved":0,"last_update":"0001-01-01T00:00:00Z","name_a2s":"Uncletopia | London | 7 | No Payload","protocol":17,"map":"koth_sawmill","folder":"tf","game":"Team Fortress","app_id":440,"player_count":0,"max_players":24,"Bots":0,"server_type":"Dedicated","server_os":"Linux","password":true,"vac":true,"version":"7757534","steam_id":85568392924964314,"keywords":["cp","nocrits","nodmgspread","uncletopia"],"game_id":440,"stv_port":27076,"stv_name":"Uncletopia | London | 7 | No Payload | STV","players":null},{"server_id":41,"name":"Uncletopia | London | 8 | Community","name_short":"lon-8","host":"lon-1.uk.uncletopia.com","port":27085,"enabled":true,"region":"eu","cc":"gb","latitude":51.509865,"longitude":-0.118092,"reserved":0,"last_update":"0001-01-01T00:00:00Z","name_a2s":"Uncletopia | London | 8 | Community","protocol":17,"map":"workshop/koth_product_final.ugc454272353","folder":"tf","game":"Team Fortress","app_id":440,"player_count":10,"max_players":24,"Bots":0,"server_type":"Dedicated","server_os":"Linux","password":true,"vac":true,"version":"7757534","steam_id":85568392924964315,"keywords":["cp","nocrits","nodmgspread","uncletopia"],"game_id":440,"stv_port":27086,"stv_name":"Uncletopia | London | 8 | Community | STV","players":[{"user_id":3,"name":"â¥Shinru","steam_id":76561198285951918,"connected_time":7913000000000,"state":"active","ping":92},{"user_id":4,"name":"Donnersphaehre","steam_id":76561199157807184,"connected_time":7901000000000,"state":"active","ping":67},{"user_id":97,"name":"*Monkey Noises*","steam_id":76561198136529691,"connected_time":339000000000,"state":"active","ping":39},{"user_id":78,"name":"walking sentry","steam_id":76561199225363633,"connected_time":2858000000000,"state":"active","ping":108},{"user_id":92,"name":"Swancky","steam_id":76561199147065433,"connected_time":1041000000000,"state":"active","ping":74},{"user_id":94,"name":"redbox","steam_id":76561198431106440,"connected_time":943000000000,"state":"active","ping":85},{"user_id":98,"name":"Vezage","steam_id":76561198064916164,"connected_time":94000000000,"state":"active","ping":65},{"user_id":88,"name":"toe bias","steam_id":76561199084996146,"connected_time":1469000000000,"state":"active","ping":59},{"user_id":89,"name":"WeArMature","steam_id":76561198046116420,"connected_time":1451000000000,"state":"active","ping":70},{"user_id":90,"name":"Jumpin over your head","steam_id":76561198140517330,"connected_time":1433000000000,"state":"active","ping":162}]},{"server_id":300,"name":"Uncletopia | MontrÃ©al | 1 | All Maps","name_short":"mtl-1","host":"mtl-1.ca.uncletopia.com","port":27015,"enabled":true,"region":"us-east","cc":"ca","latitude":45.50889,"longitude":-73.56167,"reserved":0,"last_update":"0001-01-01T00:00:00Z","name_a2s":"Uncletopia | MontrÃ©al | 1 | All Maps","protocol":17,"map":"koth_lakeside_final","folder":"tf","game":"Team Fortress","app_id":440,"player_count":0,"max_players":24,"Bots":0,"server_type":"Dedicated","server_os":"Linux","password":true,"vac":true,"version":"7757534","steam_id":85568392924500087,"keywords":["cp","nocrits","nodmgspread","uncletopia"],"game_id":440,"stv_port":27016,"stv_name":"Uncletopia | MontrÃ©al | 1 | All Maps | STV","players":null},{"server_id":301,"name":"Uncletopia | MontrÃ©al | 2 | All Maps","name_short":"mtl-2","host":"mtl-1.ca.uncletopia.com","port":27025,"enabled":true,"region":"us-east","cc":"ca","latitude":45.50889,"longitude":-73.56167,"reserved":0,"last_update":"0001-01-01T00:00:00Z","name_a2s":"Uncletopia | MontrÃ©al | 2 | All Maps","protocol":17,"map":"pl_snowycoast","folder":"tf","game":"Team Fortress","app_id":440,"player_count":0,"max_players":24,"Bots":0,"server_type":"Dedicated","server_os":"Linux","password":true,"vac":true,"version":"7757534","steam_id":85568392924500088,"keywords":["nocrits","nodmgspread","payload","uncletopia"],"game_id":440,"stv_port":27026,"stv_name":"Uncletopia | MontrÃ©al | 2 | All Maps | STV","players":null},{"server_id":302,"name":"Uncletopia | MontrÃ©al | 3 | All Maps","name_short":"mtl-3","host":"mtl-1.ca.uncletopia.com","port":27035,"enabled":true,"region":"us-east","cc":"ca","latitude":45.50889,"longitude":-73.56167,"reserved":0,"last_update":"0001-01-01T00:00:00Z","name_a2s":"Uncletopia | MontrÃ©al | 3 | All Maps","protocol":17,"map":"cp_dustbowl","folder":"tf","game":"Team Fortress","app_id":440,"player_count":0,"max_players":24,"Bots":0,"server_type":"Dedicated","server_os":"Linux","password":true,"vac":true,"version":"7757534","steam_id":85568392924500089,"keywords":["cp","nocrits","nodmgspread","uncletopia"],"game_id":440,"stv_port":27036,"stv_name":"Uncletopia | MontrÃ©al | 3 | All Maps | STV","players":null},{"server_id":303,"name":"Uncletopia | MontrÃ©al | 4 | No Payload","name_short":"mtl-4","host":"mtl-1.ca.uncletopia.com","port":27045,"enabled":true,"region":"us-east","cc":"ca","latitude":45.50889,"longitude":-73.56167,"reserved":0,"last_update":"0001-01-01T00:00:00Z","name_a2s":"Uncletopia | MontrÃ©al | 4 | No Payload","protocol":17,"map":"pl_borneo","folder":"tf","game":"Team Fortress","app_id":440,"player_count":0,"max_players":24,"Bots":0,"server_type":"Dedicated","server_os":"Linux","password":true,"vac":true,"version":"7757534","steam_id":85568392924500090,"keywords":["nocrits","nodmgspread","payload","uncletopia"],"game_id":440,"stv_port":27046,"stv_name":"Uncletopia | MontrÃ©al | 4 | No Payload | STV","players":null},{"server_id":13,"name":"Uncletopia | New York City | 1 | All Maps","name_short":"nyc-1","host":"nyc-1.us.uncletopia.com","port":27015,"enabled":true,"region":"us-east","cc":"us","latitude":40.73061,"longitude":-73.93524,"reserved":0,"last_update":"0001-01-01T00:00:00Z","name_a2s":"Uncletopia | New York City | 1 | All Maps","protocol":17,"map":"pl_frontier_final","folder":"tf","game":"Team Fortress","app_id":440,"player_count":24,"max_players":24,"Bots":0,"server_type":"Dedicated","server_os":"Linux","password":true,"vac":true,"version":"7757534","steam_id":85568392924469993,"keywords":["nocrits","nodmgspread","payload","uncletopia"],"game_id":440,"stv_port":27016,"stv_name":"Uncletopia | New York City | 1 | All Maps | STV","players":[{"user_id":128,"name":"tator171 (âŒâ– _â– )","steam_id":76561198047446121,"connected_time":985000000000,"state":"active","ping":52},{"user_id":117,"name":"Sir Quacksalot","steam_id":76561198048942777,"connected_time":1807000000000,"state":"active","ping":88},{"user_id":106,"name":"JPMockMan","steam_id":76561198071370876,"connected_time":3083000000000,"state":"active","ping":93},{"user_id":136,"name":"Nico","steam_id":76561198125701869,"connected_time":381000000000,"state":"active","ping":60},{"user_id":129,"name":"MCATU3","steam_id":76561198210230867,"connected_time":982000000000,"state":"active","ping":57},{"user_id":125,"name":"xMystic_Fire","steam_id":76561198189961543,"connected_time":1621000000000,"state":"active","ping":98},{"user_id":135,"name":"the snoog","steam_id":76561198159339442,"connected_time":631000000000,"state":"active","ping":70},{"user_id":134,"name":"Fawful's Minion","steam_id":76561198090120779,"connected_time":783000000000,"state":"active","ping":133},{"user_id":127,"name":"Super Splint","steam_id":76561199465781208,"connected_time":1468000000000,"state":"active","ping":78},{"user_id":88,"name":"specialinsect","steam_id":76561198324718706,"connected_time":3591000000000,"state":"active","ping":56},{"user_id":96,"name":"ChernobylFriend","steam_id":76561198244676730,"connected_time":3458000000000,"state":"active","ping":121},{"user_id":119,"name":"egg man","steam_id":76561199068549893,"connected_time":1794000000000,"state":"active","ping":46},{"user_id":113,"name":"Blk_Mage_Ctype","steam_id":76561198041290184,"connected_time":2260000000000,"state":"active","ping":59},{"user_id":139,"name":"benjamoney","steam_id":76561199023027047,"connected_time":350000000000,"state":"active","ping":138},{"user_id":114,"name":"p0rps","steam_id":76561198000014631,"connected_time":2169000000000,"state":"active","ping":82},{"user_id":133,"name":"Braamklauw","steam_id":76561198283287697,"connected_time":818000000000,"state":"active","ping":134},{"user_id":116,"name":"jambie!","steam_id":76561198296042477,"connected_time":1812000000000,"state":"active","ping":60},{"user_id":140,"name":"Suicutie","steam_id":76561198878942822,"connected_time":308000000000,"state":"active","ping":101},{"user_id":118,"name":"Pozyomka","steam_id":76561198086331015,"connected_time":1802000000000,"state":"active","ping":34},{"user_id":148,"name":"lolllipops87","steam_id":76561198821758520,"connected_time":195000000000,"state":"active","ping":105},{"user_id":121,"name":"Who's Pablo","steam_id":76561198380533809,"connected_time":1760000000000,"state":"active","ping":78},{"user_id":154,"name":"Final_MarioXD","steam_id":76561199184862419,"connected_time":1000000000,"state":"spawning","ping":80},{"user_id":124,"name":"ChPerette","steam_id":76561198060004887,"connected_time":1741000000000,"state":"active","ping":115},{"user_id":138,"name":"4ling","steam_id":76561197994398381,"connected_time":366000000000,"state":"active","ping":56}]},{"server_id":14,"name":"Uncletopia | New York City | 2 | All Maps","name_short":"nyc-2","host":"nyc-1.us.uncletopia.com","port":27025,"enabled":true,"region":"us-east","cc":"us","latitude":40.73061,"longitude":-73.93524,"reserved":0,"last_update":"0001-01-01T00:00:00Z","name_a2s":"Uncletopia | New York City | 2 | All Maps","protocol":17,"map":"pl_pier","folder":"tf","game":"Team Fortress","app_id":440,"player_count":0,"max_players":24,"Bots":0,"server_type":"Dedicated","server_os":"Linux","password":true,"vac":true,"version":"7757534","steam_id":85568392924469994,"keywords":["nocrits","nodmgspread","payload","uncletopia"],"game_id":440,"stv_port":27026,"stv_name":"Uncletopia | New York City | 2 | All Maps | STV","players":null},{"server_id":15,"name":"Uncletopia | New York City | 3 | Stopwatch Beta","name_short":"nyc-3","host":"nyc-1.us.uncletopia.com","port":27035,"enabled":true,"region":"us-east","cc":"us","latitude":40.73061,"longitude":-73.93524,"reserved":0,"last_update":"0001-01-01T00:00:00Z","name_a2s":"Uncletopia | New York City | 3 | Stopwatch Beta","protocol":17,"map":"workshop/cp_reckoner_rc6.ugc674719999","folder":"tf","game":"Team Fortress","app_id":440,"player_count":0,"max_players":24,"Bots":0,"server_type":"Dedicated","server_os":"Linux","password":true,"vac":true,"version":"7757534","steam_id":85568392924742820,"keywords":["cp","nocrits","nodmgspread","uncletopia"],"game_id":440,"stv_port":27036,"stv_name":"Uncletopia | New York City | 3 | Stopwatch Beta | STV","players":null},{"server_id":16,"name":"Uncletopia | New York City | 4 | Community","name_short":"nyc-4","host":"nyc-1.us.uncletopia.com","port":27045,"enabled":true,"region":"us-east","cc":"us","latitude":40.73061,"longitude":-73.93524,"reserved":0,"last_update":"0001-01-01T00:00:00Z","name_a2s":"Uncletopia | New York City | 4 | Community","protocol":17,"map":"pl_borneo","folder":"tf","game":"Team Fortress","app_id":440,"player_count":0,"max_players":24,"Bots":0,"server_type":"Dedicated","server_os":"Linux","password":true,"vac":true,"version":"7757534","steam_id":85568392924742821,"keywords":["nocrits","nodmgspread","payload","uncletopia"],"game_id":440,"stv_port":27046,"stv_name":"Uncletopia | New York City | 4 | Community | STV","players":null},{"server_id":142,"name":"Uncletopia | SÃ£o Paulo | 1 | All Maps","name_short":"sao-1","host":"sao-1.br.uncletopia.com","port":27015,"enabled":true,"region":"sa","cc":"br","latitude":-23.533773,"longitude":-46.62529,"reserved":0,"last_update":"0001-01-01T00:00:00Z","name_a2s":"Uncletopia | SÃ£o Paulo | 1 | All Maps","protocol":17,"map":"pl_frontier_final","folder":"tf","game":"Team Fortress","app_id":440,"player_count":0,"max_players":24,"Bots":0,"server_type":"Dedicated","server_os":"Linux","password":true,"vac":true,"version":"7757534","steam_id":85568392924469996,"keywords":["nocrits","nodmgspread","payload","uncletopia"],"game_id":440,"stv_port":27016,"stv_name":"Uncletopia | SÃ£o Paulo | 1 | All Maps | STV","players":null},{"server_id":143,"name":"Uncletopia | SÃ£o Paulo | 2 | All Maps","name_short":"sao-2","host":"sao-2.br.uncletopia.com","port":27015,"enabled":true,"region":"sa","cc":"br","latitude":-23.533773,"longitude":-46.62529,"reserved":0,"last_update":"0001-01-01T00:00:00Z","name_a2s":"Uncletopia | SÃ£o Paulo | 2 | All Maps","protocol":17,"map":"pl_borneo","folder":"tf","game":"Team Fortress","app_id":440,"player_count":0,"max_players":24,"Bots":0,"server_type":"Dedicated","server_os":"Linux","password":true,"vac":true,"version":"7757534","steam_id":85568392924485349,"keywords":["nocrits","nodmgspread","payload","uncletopia"],"game_id":440,"stv_port":27016,"stv_name":"Uncletopia | SÃ£o Paulo | 2 | All Maps | STV","players":null},{"server_id":7,"name":"Uncletopia | Seattle | 1 | All Maps","name_short":"sea-1","host":"sea-1.us.uncletopia.com","port":27015,"enabled":true,"region":"us-west","cc":"us","latitude":47.608013,"longitude":-122.33517,"reserved":0,"last_update":"0001-01-01T00:00:00Z","name_a2s":"Uncletopia | Seattle | 1 | All Maps","protocol":17,"map":"pl_snowycoast","folder":"tf","game":"Team Fortress","app_id":440,"player_count":24,"max_players":24,"Bots":0,"server_type":"Dedicated","server_os":"Linux","password":true,"vac":true,"version":"7757534","steam_id":85568392924469997,"keywords":["nocrits","nodmgspread","payload","uncletopia"],"game_id":440,"stv_port":27016,"stv_name":"Uncletopia | Seattle | 1 | All Maps | STV","players":[{"user_id":113,"name":"Serene Salamander","steam_id":76561198001094770,"connected_time":1087000000000,"state":"active","ping":90},{"user_id":105,"name":"dougrocks421","steam_id":76561198165063918,"connected_time":1555000000000,"state":"active","ping":40},{"user_id":95,"name":"The Super Mario Bros. Movie","steam_id":76561198871692156,"connected_time":2466000000000,"state":"active","ping":57},{"user_id":122,"name":"Kzjytsugn","steam_id":76561198130241974,"connected_time":79000000000,"state":"active","ping":44},{"user_id":90,"name":"lavender","steam_id":76561199069518286,"connected_time":2497000000000,"state":"active","ping":72},{"user_id":66,"name":"giant_dork","steam_id":76561199105606956,"connected_time":5330000000000,"state":"active","ping":121},{"user_id":104,"name":"[TrC] Dackstrus","steam_id":76561197973518509,"connected_time":1987000000000,"state":"active","ping":56},{"user_id":121,"name":"ã€£dustã€£ -she/her-","steam_id":76561198045218909,"connected_time":624000000000,"state":"active","ping":36},{"user_id":82,"name":"Mike's Pimento Cheese Sandwich","steam_id":76561198978499219,"connected_time":3269000000000,"state":"active","ping":75},{"user_id":114,"name":"[TrC] Nosy","steam_id":76561197978859310,"connected_time":973000000000,"state":"active","ping":59},{"user_id":92,"name":"marquis","steam_id":76561198042941628,"connected_time":2487000000000,"state":"active","ping":76},{"user_id":118,"name":"ikuyo","steam_id":76561198996950205,"connected_time":876000000000,"state":"active","ping":62},{"user_id":120,"name":"thunderous prophet","steam_id":76561198131166135,"connected_time":830000000000,"state":"active","ping":42},{"user_id":65,"name":"Sniff","steam_id":76561198010270922,"connected_time":5459000000000,"state":"active","ping":46},{"user_id":102,"name":"ReDiculous22","steam_id":76561198038391383,"connected_time":2161000000000,"state":"active","ping":92},{"user_id":75,"name":"Ayayahuasca","steam_id":76561199002906056,"connected_time":4087000000000,"state":"active","ping":51},{"user_id":86,"name":"jello","steam_id":76561198149683030,"connected_time":2651000000000,"state":"active","ping":68},{"user_id":100,"name":"KakyÅin Noriaki","steam_id":76561198123809642,"connected_time":2334000000000,"state":"active","ping":128},{"user_id":44,"name":"Julien","steam_id":76561199389584938,"connected_time":7021000000000,"state":"active","ping":47},{"user_id":103,"name":"rat gets the cheese","steam_id":76561198031234032,"connected_time":2115000000000,"state":"active","ping":100},{"user_id":84,"name":"monji","steam_id":76561198239598834,"connected_time":3166000000000,"state":"active","ping":131},{"user_id":117,"name":"Skabbety","steam_id":76561198168044257,"connected_time":963000000000,"state":"active","ping":44},{"user_id":108,"name":"Glenn","steam_id":76561198059313367,"connected_time":1191000000000,"state":"active","ping":46},{"user_id":111,"name":"tophawkyy","steam_id":76561199075934685,"connected_time":1178000000000,"state":"active","ping":81}]},{"server_id":119,"name":"Uncletopia | Seattle | 2 | All Maps","name_short":"sea-2","host":"sea-1.us.uncletopia.com","port":27025,"enabled":true,"region":"us-west","cc":"us","latitude":47.608013,"longitude":-122.33517,"reserved":0,"last_update":"0001-01-01T00:00:00Z","name_a2s":"Uncletopia | Seattle | 2 | All Maps","protocol":17,"map":"pl_pier","folder":"tf","game":"Team Fortress","app_id":440,"player_count":24,"max_players":24,"Bots":0,"server_type":"Dedicated","server_os":"Linux","password":true,"vac":true,"version":"7757534","steam_id":85568392924469998,"keywords":["nocrits","nodmgspread","payload","uncletopia"],"game_id":440,"stv_port":27026,"stv_name":"Uncletopia | Seattle | 2 | All Maps | STV","players":[{"user_id":63,"name":"Rude Dog","steam_id":76561197980385816,"connected_time":2488000000000,"state":"active","ping":55},{"user_id":64,"name":"JayTheMonkeyMan","steam_id":76561198932836256,"connected_time":2467000000000,"state":"active","ping":59},{"user_id":73,"name":"Sacrificial Wormy","steam_id":76561198054539200,"connected_time":2233000000000,"state":"active","ping":55},{"user_id":97,"name":"Neophyte","steam_id":76561198027183394,"connected_time":609000000000,"state":"active","ping":92},{"user_id":100,"name":"InfernoFlower64","steam_id":76561198181097391,"connected_time":508000000000,"state":"active","ping":128},{"user_id":91,"name":"Lactose à¹‘ï­¥","steam_id":76561198208256987,"connected_time":869000000000,"state":"active","ping":89},{"user_id":98,"name":"WarpdriveEngineer","steam_id":76561198073530973,"connected_time":589000000000,"state":"active","ping":117},{"user_id":99,"name":"Nobuunga","steam_id":76561198100614981,"connected_time":543000000000,"state":"active","ping":59},{"user_id":67,"name":"Raphael","steam_id":76561198101425586,"connected_time":2416000000000,"state":"active","ping":49},{"user_id":95,"name":"Sad Sapling","steam_id":76561198075612150,"connected_time":765000000000,"state":"active","ping":85},{"user_id":27,"name":"North","steam_id":76561199173696836,"connected_time":4578000000000,"state":"active","ping":72},{"user_id":93,"name":"MarshallMellows","steam_id":76561198231561020,"connected_time":861000000000,"state":"active","ping":59},{"user_id":30,"name":"Themasterman75","steam_id":76561199385573293,"connected_time":4367000000000,"state":"active","ping":71},{"user_id":68,"name":"American freedom bird","steam_id":76561198366142388,"connected_time":2339000000000,"state":"active","ping":91},{"user_id":33,"name":"Koolaid","steam_id":76561199200296010,"connected_time":4321000000000,"state":"active","ping":148},{"user_id":94,"name":"Mr. Fungus","steam_id":76561199054621064,"connected_time":828000000000,"state":"active","ping":121},{"user_id":69,"name":"Lawnmower","steam_id":76561198186680197,"connected_time":2309000000000,"state":"active","ping":58},{"user_id":88,"name":"Anjeer Kohi","steam_id":76561199466957279,"connected_time":1053000000000,"state":"active","ping":91},{"user_id":75,"name":"milfs hmu","steam_id":76561198123477485,"connected_time":2172000000000,"state":"active","ping":77},{"user_id":96,"name":"Volkan, Pervert Extraordinaire","steam_id":76561198004569575,"connected_time":763000000000,"state":"active","ping":127},{"user_id":103,"name":"Monkey_Eyes","steam_id":76561198972371618,"connected_time":66000000000,"state":"active","ping":59},{"user_id":101,"name":"The destroyer of foreskin","steam_id":76561198135275966,"connected_time":441000000000,"state":"active","ping":130},{"user_id":50,"name":"A F2P With Hats","steam_id":76561198171497882,"connected_time":3935000000000,"state":"active","ping":71},{"user_id":85,"name":"Lime","steam_id":76561198080786408,"connected_time":1474000000000,"state":"active","ping":55}]},{"server_id":406,"name":"Uncletopia | Seattle | 3 | Stopwatch Beta","name_short":"sea-3","host":"sea-1.us.uncletopia.com","port":27035,"enabled":true,"region":"us-west","cc":"us","latitude":47.608013,"longitude":-122.33517,"reserved":0,"last_update":"0001-01-01T00:00:00Z","name_a2s":"Uncletopia | Seattle | 3 | Stopwatch Beta","protocol":17,"map":"pl_barnblitz","folder":"tf","game":"Team Fortress","app_id":440,"player_count":0,"max_players":24,"Bots":0,"server_type":"Dedicated","server_os":"Linux","password":true,"vac":true,"version":"7757534","steam_id":85568392924515217,"keywords":["nocrits","nodmgspread","payload","uncletopia"],"game_id":440,"stv_port":27036,"stv_name":"Uncletopia | Seattle | 3 | Stopwatch Beta | STV","players":null},{"server_id":17,"name":"Uncletopia | San Francisco | 1 | All Maps","name_short":"sfo-1","host":"sfo-1.us.uncletopia.com","port":27015,"enabled":true,"region":"us-west","cc":"us","latitude":37.77397,"longitude":-122.4313,"reserved":0,"last_update":"0001-01-01T00:00:00Z","name_a2s":"Uncletopia | San Francisco | 1 | All Maps","protocol":17,"map":"cp_process_final","folder":"tf","game":"Team Fortress","app_id":440,"player_count":0,"max_players":24,"Bots":0,"server_type":"Dedicated","server_os":"Linux","password":true,"vac":true,"version":"7757534","steam_id":85568392924469999,"keywords":["cp","nocrits","nodmgspread","uncletopia"],"game_id":440,"stv_port":27016,"stv_name":"Uncletopia | San Francisco | 1 | All Maps | STV","players":null},{"server_id":18,"name":"Uncletopia | San Francisco | 2 | All Maps","name_short":"sfo-2","host":"sfo-1.us.uncletopia.com","port":27025,"enabled":true,"region":"us-west","cc":"us","latitude":37.77397,"longitude":-122.4313,"reserved":0,"last_update":"0001-01-01T00:00:00Z","name_a2s":"Uncletopia | San Francisco | 2 | All Maps","protocol":17,"map":"pl_badwater","folder":"tf","game":"Team Fortress","app_id":440,"player_count":24,"max_players":24,"Bots":0,"server_type":"Dedicated","server_os":"Linux","password":true,"vac":true,"version":"7757534","steam_id":85568392924470000,"keywords":["nocrits","nodmgspread","payload","uncletopia"],"game_id":440,"stv_port":27026,"stv_name":"Uncletopia | San Francisco | 2 | All Maps | STV","players":[{"user_id":91,"name":"Fredrick","steam_id":76561197981419964,"connected_time":523000000000,"state":"active","ping":114},{"user_id":87,"name":"non menthol newport","steam_id":76561198041907345,"connected_time":731000000000,"state":"active","ping":68},{"user_id":95,"name":"doghouse","steam_id":76561198000319035,"connected_time":275000000000,"state":"active","ping":61},{"user_id":15,"name":"MINI CRIT!999","steam_id":76561198027649268,"connected_time":4580000000000,"state":"active","ping":88},{"user_id":92,"name":"Lemur","steam_id":76561198056693287,"connected_time":388000000000,"state":"active","ping":60},{"user_id":85,"name":"BBL Sponsor","steam_id":76561199093733603,"connected_time":780000000000,"state":"active","ping":59},{"user_id":35,"name":"NavyDinosaur","steam_id":76561198088459962,"connected_time":3082000000000,"state":"active","ping":54},{"user_id":68,"name":"20 pc mcnugget","steam_id":76561198056330171,"connected_time":2291000000000,"state":"active","ping":92},{"user_id":96,"name":"GreenApples","steam_id":76561198120559543,"connected_time":253000000000,"state":"active","ping":45},{"user_id":67,"name":"frosted_blake1","steam_id":76561198138794246,"connected_time":2338000000000,"state":"active","ping":56},{"user_id":86,"name":"[BUFF] Artgrenadier","steam_id":76561198063305359,"connected_time":779000000000,"state":"active","ping":113},{"user_id":59,"name":"Taael","steam_id":76561198044215133,"connected_time":2560000000000,"state":"active","ping":60},{"user_id":89,"name":"Brian","steam_id":76561198144650969,"connected_time":627000000000,"state":"active","ping":85},{"user_id":93,"name":"MA BEETS","steam_id":76561198168981607,"connected_time":368000000000,"state":"active","ping":62},{"user_id":74,"name":"Moscow Medic","steam_id":76561198071040516,"connected_time":2064000000000,"state":"active","ping":112},{"user_id":53,"name":"L","steam_id":76561198046074220,"connected_time":2616000000000,"state":"active","ping":57},{"user_id":101,"name":"supcupman","steam_id":76561198051513866,"connected_time":152000000000,"state":"active","ping":58},{"user_id":97,"name":"â¤ Ashley â¤","steam_id":76561198056428303,"connected_time":249000000000,"state":"active","ping":52},{"user_id":99,"name":"joethefool","steam_id":76561199015436319,"connected_time":232000000000,"state":"active","ping":131},{"user_id":75,"name":"SpinnerSpecial","steam_id":76561198065661869,"connected_time":1754000000000,"state":"active","ping":105},{"user_id":61,"name":"Silverdragon314","steam_id":76561198140470460,"connected_time":2555000000000,"state":"active","ping":120},{"user_id":62,"name":"Scampy","steam_id":76561198001506924,"connected_time":2512000000000,"state":"active","ping":68},{"user_id":100,"name":"Madrox Who?","steam_id":76561197988859134,"connected_time":232000000000,"state":"active","ping":121},{"user_id":79,"name":"The_Skull_boy","steam_id":76561198227692664,"connected_time":1611000000000,"state":"active","ping":67}]},{"server_id":19,"name":"Uncletopia | San Francisco | 3 | Stopwatch Beta","name_short":"sfo-3","host":"sfo-1.us.uncletopia.com","port":27035,"enabled":true,"region":"us-west","cc":"us","latitude":37.77397,"longitude":-122.4313,"reserved":0,"last_update":"0001-01-01T00:00:00Z","name_a2s":"Uncletopia | San Francisco | 3 | Stopwatch Beta","protocol":17,"map":"pl_borneo","folder":"tf","game":"Team Fortress","app_id":440,"player_count":0,"max_players":24,"Bots":0,"server_type":"Dedicated","server_os":"Linux","password":true,"vac":true,"version":"7757534","steam_id":85568392924742824,"keywords":["nocrits","nodmgspread","payload","uncletopia"],"game_id":440,"stv_port":27036,"stv_name":"Uncletopia | San Francisco | 3 | Stopwatch Beta | STV","players":null},{"server_id":20,"name":"Uncletopia | San Francisco | 4 | Community","name_short":"sfo-4","host":"sfo-1.us.uncletopia.com","port":27045,"enabled":true,"region":"us-west","cc":"us","latitude":37.77397,"longitude":-122.4313,"reserved":0,"last_update":"0001-01-01T00:00:00Z","name_a2s":"Uncletopia | San Francisco | 4 | Community","protocol":17,"map":"workshop/koth_trenchfoot_b1a.ugc731436616","folder":"tf","game":"Team Fortress","app_id":440,"player_count":0,"max_players":24,"Bots":0,"server_type":"Dedicated","server_os":"Linux","password":true,"vac":true,"version":"7757534","steam_id":85568392924742826,"keywords":["cp","nocrits","nodmgspread","uncletopia"],"game_id":440,"stv_port":27046,"stv_name":"Uncletopia | San Francisco | 4 | Community | STV","players":null},{"server_id":141,"name":"Uncletopia | Sydney | 1 | All Maps","name_short":"syd-1","host":"syd-1.au.uncletopia.com","port":27015,"enabled":true,"region":"au","cc":"au","latitude":-33.865143,"longitude":151.2099,"reserved":0,"last_update":"0001-01-01T00:00:00Z","name_a2s":"Uncletopia | Sydney | 1 | All Maps","protocol":17,"map":"cp_dustbowl","folder":"tf","game":"Team Fortress","app_id":440,"player_count":24,"max_players":24,"Bots":0,"server_type":"Dedicated","server_os":"Linux","password":true,"vac":true,"version":"7757534","steam_id":85568392924470001,"keywords":["cp","nocrits","nodmgspread","uncletopia"],"game_id":440,"stv_port":27016,"stv_name":"Uncletopia | Sydney | 1 | All Maps | STV","players":[{"user_id":4,"name":"pigeon","steam_id":76561198135180841,"connected_time":4192000000000,"state":"active","ping":47},{"user_id":18,"name":"doris","steam_id":76561198985688207,"connected_time":2389000000000,"state":"active","ping":56},{"user_id":6,"name":"the rot doesn't consume","steam_id":76561198866538028,"connected_time":4142000000000,"state":"active","ping":77},{"user_id":40,"name":"Fresh Produce Gaming","steam_id":76561198358483352,"connected_time":1602000000000,"state":"active","ping":57},{"user_id":54,"name":"freek","steam_id":76561198406237673,"connected_time":244000000000,"state":"active","ping":57},{"user_id":14,"name":"lavanderpumpernickle","steam_id":76561199093611800,"connected_time":2649000000000,"state":"active","ping":50},{"user_id":25,"name":"PandaPenisPounder","steam_id":76561198101357494,"connected_time":2060000000000,"state":"active","ping":41},{"user_id":12,"name":"SaltierThanYou","steam_id":76561198444395188,"connected_time":3081000000000,"state":"active","ping":82},{"user_id":15,"name":"burfdae boi","steam_id":76561199000827969,"connected_time":2528000000000,"state":"active","ping":37},{"user_id":48,"name":"ly","steam_id":76561198303878229,"connected_time":1234000000000,"state":"active","ping":55},{"user_id":36,"name":"trash","steam_id":76561198110764631,"connected_time":1676000000000,"state":"active","ping":45},{"user_id":21,"name":"neptune","steam_id":76561198039920735,"connected_time":2230000000000,"state":"active","ping":34},{"user_id":22,"name":"Dog With Headphones","steam_id":76561198111076916,"connected_time":2214000000000,"state":"active","ping":51},{"user_id":56,"name":"Glockenspe (She/Her)","steam_id":76561199184115241,"connected_time":26000000000,"state":"active","ping":192},{"user_id":50,"name":"arnott's chicken crimpys","steam_id":76561198144341115,"connected_time":1070000000000,"state":"active","ping":46},{"user_id":33,"name":"mashiro","steam_id":76561198053070636,"connected_time":1723000000000,"state":"active","ping":33},{"user_id":27,"name":"Wild ???","steam_id":76561198133529257,"connected_time":1952000000000,"state":"active","ping":65},{"user_id":34,"name":"ToadFungus","steam_id":76561199219667039,"connected_time":1722000000000,"state":"active","ping":101},{"user_id":35,"name":"lemur","steam_id":76561198278239170,"connected_time":1720000000000,"state":"active","ping":87},{"user_id":37,"name":"Doctrine","steam_id":76561199050447792,"connected_time":1668000000000,"state":"active","ping":57},{"user_id":51,"name":"Hawk","steam_id":76561198135164277,"connected_time":531000000000,"state":"active","ping":47},{"user_id":42,"name":"sydney sydney","steam_id":76561199057568663,"connected_time":1479000000000,"state":"active","ping":56},{"user_id":55,"name":"Finios","steam_id":76561198209013071,"connected_time":145000000000,"state":"active","ping":56},{"user_id":46,"name":"soupy","steam_id":76561198073734936,"connected_time":1324000000000,"state":"active","ping":88}]},{"server_id":123,"name":"Uncletopia | Sydney | 2 | All Maps","name_short":"syd-2","host":"syd-1.au.uncletopia.com","port":27025,"enabled":true,"region":"au","cc":"au","latitude":-33.865143,"longitude":151.2099,"reserved":0,"last_update":"0001-01-01T00:00:00Z","name_a2s":"Uncletopia | Sydney | 2 | All Maps","protocol":17,"map":"koth_viaduct","folder":"tf","game":"Team Fortress","app_id":440,"player_count":0,"max_players":24,"Bots":0,"server_type":"Dedicated","server_os":"Linux","password":true,"vac":true,"version":"7757534","steam_id":85568392924470002,"keywords":["cp","nocrits","nodmgspread","uncletopia"],"game_id":440,"stv_port":27026,"stv_name":"Uncletopia | Sydney | 2 | All Maps | STV","players":null},{"server_id":395,"name":"Uncletopia | Sydney | 3 | All Maps","name_short":"syd-3","host":"syd-1.au.uncletopia.com","port":27035,"enabled":true,"region":"au","cc":"au","latitude":-33.865143,"longitude":151.2099,"reserved":0,"last_update":"0001-01-01T00:00:00Z","name_a2s":"Uncletopia | Sydney | 3 | All Maps","protocol":17,"map":"pl_upward","folder":"tf","game":"Team Fortress","app_id":440,"player_count":0,"max_players":24,"Bots":0,"server_type":"Dedicated","server_os":"Linux","password":true,"vac":true,"version":"7757534","steam_id":85568392925194467,"keywords":["nocrits","nodmgspread","payload","uncletopia"],"game_id":440,"stv_port":27036,"stv_name":"Uncletopia | Sydney | 3 | All Maps | STV","players":null},{"server_id":396,"name":"Uncletopia | Sydney | 4 | All Maps","name_short":"syd-4","host":"syd-1.au.uncletopia.com","port":27045,"enabled":true,"region":"au","cc":"au","latitude":-33.865143,"longitude":151.2099,"reserved":0,"last_update":"0001-01-01T00:00:00Z","name_a2s":"Uncletopia | Sydney | 4 | All Maps","protocol":17,"map":"koth_lakeside_final","folder":"tf","game":"Team Fortress","app_id":440,"player_count":0,"max_players":24,"Bots":0,"server_type":"Dedicated","server_os":"Linux","password":true,"vac":true,"version":"7757534","steam_id":85568392925397958,"keywords":["cp","nocrits","nodmgspread","uncletopia"],"game_id":440,"stv_port":27046,"stv_name":"Uncletopia | Sydney | 4 | All Maps | STV","players":null},{"server_id":58,"name":"Uncletopia | Sydney | 5 | Stopwatch Beta","name_short":"syd-5","host":"syd-1.au.uncletopia.com","port":27055,"enabled":true,"region":"au","cc":"au","latitude":-33.865143,"longitude":151.2099,"reserved":0,"last_update":"0001-01-01T00:00:00Z","name_a2s":"Uncletopia | Sydney | 5 | Stopwatch Beta","protocol":17,"map":"koth_highpass","folder":"tf","game":"Team Fortress","app_id":440,"player_count":0,"max_players":24,"Bots":0,"server_type":"Dedicated","server_os":"Linux","password":true,"vac":true,"version":"7757534","steam_id":85568392925397959,"keywords":["cp","nocrits","nodmgspread","uncletopia"],"game_id":440,"stv_port":27056,"stv_name":"Uncletopia | Sydney | 5 | Stopwatch Beta | STV","players":null},{"server_id":59,"name":"Uncletopia | Sydney | 6 | Community","name_short":"syd-6","host":"syd-1.au.uncletopia.com","port":27065,"enabled":true,"region":"au","cc":"au","latitude":-33.865143,"longitude":151.2099,"reserved":0,"last_update":"0001-01-01T00:00:00Z","name_a2s":"Uncletopia | Sydney | 6 | Community","protocol":17,"map":"workshop/cp_croissant_final.ugc458840209","folder":"tf","game":"Team Fortress","app_id":440,"player_count":0,"max_players":24,"Bots":0,"server_type":"Dedicated","server_os":"Linux","password":true,"vac":true,"version":"7757534","steam_id":85568392925397960,"keywords":["cp","nocrits","nodmgspread","uncletopia"],"game_id":440,"stv_port":27066,"stv_name":"Uncletopia | Sydney | 6 | Community | STV","players":null},{"server_id":49,"name":"Uncletopia | Warsaw | 1 | All Maps","name_short":"waw-1","host":"waw-1.pl.uncletopia.com","port":27015,"enabled":true,"region":"eu","cc":"pl","latitude":52.2297,"longitude":21.017532,"reserved":0,"last_update":"0001-01-01T00:00:00Z","name_a2s":"","protocol":0,"map":"","folder":"","game":"","app_id":0,"player_count":0,"max_players":0,"Bots":0,"server_type":"","server_os":"","password":false,"vac":false,"version":"","steam_id":0,"keywords":null,"game_id":0,"stv_port":0,"stv_name":"","players":null},{"server_id":50,"name":"Uncletopia | Warsaw | 2 | All Maps","name_short":"waw-2","host":"waw-1.pl.uncletopia.com","port":27025,"enabled":true,"region":"eu","cc":"pl","latitude":52.2297,"longitude":21.017532,"reserved":0,"last_update":"0001-01-01T00:00:00Z","name_a2s":"Uncletopia | Warsaw | 2 | All Maps","protocol":17,"map":"cp_process_final","folder":"tf","game":"Team Fortress","app_id":440,"player_count":0,"max_players":24,"Bots":0,"server_type":"Dedicated","server_os":"Linux","password":true,"vac":true,"version":"7757534","steam_id":85568392925397851,"keywords":["cp","nocrits","nodmgspread","uncletopia"],"game_id":440,"stv_port":27026,"stv_name":"Uncletopia | Warsaw | 2 | All Maps | STV","players":null},{"server_id":51,"name":"Uncletopia | Warsaw | 3 | All Maps","name_short":"waw-3","host":"waw-1.pl.uncletopia.com","port":27035,"enabled":true,"region":"eu","cc":"pl","latitude":52.2297,"longitude":21.017532,"reserved":0,"last_update":"0001-01-01T00:00:00Z","name_a2s":"Uncletopia | Warsaw | 3 | All Maps","protocol":17,"map":"pl_barnblitz","folder":"tf","game":"Team Fortress","app_id":440,"player_count":0,"max_players":24,"Bots":0,"server_type":"Dedicated","server_os":"Linux","password":true,"vac":true,"version":"7757534","steam_id":85568392925397852,"keywords":["nocrits","nodmgspread","payload","uncletopia"],"game_id":440,"stv_port":27036,"stv_name":"Uncletopia | Warsaw | 3 | All Maps | STV","players":null},{"server_id":52,"name":"Uncletopia | Warsaw | 4 | All Maps","name_short":"waw-4","host":"waw-1.pl.uncletopia.com","port":27045,"enabled":true,"region":"eu","cc":"pl","latitude":52.2297,"longitude":21.017532,"reserved":0,"last_update":"0001-01-01T00:00:00Z","name_a2s":"Uncletopia | Warsaw | 4 | All Maps","protocol":17,"map":"koth_lakeside_final","folder":"tf","game":"Team Fortress","app_id":440,"player_count":0,"max_players":24,"Bots":0,"server_type":"Dedicated","server_os":"Linux","password":true,"vac":true,"version":"7757534","steam_id":85568392925397853,"keywords":["cp","nocrits","nodmgspread","uncletopia"],"game_id":440,"stv_port":27046,"stv_name":"Uncletopia | Warsaw | 4 | All Maps | STV","players":null},{"server_id":53,"name":"Uncletopia | Warsaw | 5 | Stopwatch Beta","name_short":"waw-5","host":"waw-1.pl.uncletopia.com","port":27055,"enabled":true,"region":"eu","cc":"pl","latitude":52.2297,"longitude":21.017532,"reserved":0,"last_update":"0001-01-01T00:00:00Z","name_a2s":"Uncletopia | Warsaw | 5 | Stopwatch Beta","protocol":17,"map":"pl_barnblitz","folder":"tf","game":"Team Fortress","app_id":440,"player_count":0,"max_players":24,"Bots":0,"server_type":"Dedicated","server_os":"Linux","password":true,"vac":true,"version":"7757534","steam_id":85568392925397854,"keywords":["nocrits","nodmgspread","payload","uncletopia"],"game_id":440,"stv_port":27056,"stv_name":"Uncletopia | Warsaw | 5 | Stopwatch Beta | STV","players":null},{"server_id":54,"name":"Uncletopia | Warsaw | 6 | Community","name_short":"waw-6","host":"waw-1.pl.uncletopia.com","port":27065,"enabled":true,"region":"eu","cc":"pl","latitude":52.2297,"longitude":21.017532,"reserved":0,"last_update":"0001-01-01T00:00:00Z","name_a2s":"Uncletopia | Warsaw | 6 | Community","protocol":17,"map":"pl_swiftwater_final1","folder":"tf","game":"Team Fortress","app_id":440,"player_count":0,"max_players":24,"Bots":0,"server_type":"Dedicated","server_os":"Linux","password":true,"vac":true,"version":"7757534","steam_id":85568392925397856,"keywords":["nocrits","nodmgspread","payload","uncletopia"],"game_id":440,"stv_port":27066,"stv_name":"Uncletopia | Warsaw | 6 | Community | STV","players":null}]}