{"status":true,"message":"","result":[{"server_id":9,"name":"Uncletopia | Atlanta | 1 | All Maps","name_short":"atl-1","host":"atl-1.us.uncletopia.com","port":27015,"enabled":true,"region":"us-east","cc":"us","latitude":33.753746,"longitude":-84.38633,"reserved":0,"last_update":"0001-01-01T00:00:00Z","name_a2s":"Uncletopia | Atlanta | 1 | All Maps","protocol":17,"map":"koth_cascade","folder":"tf","game":"Team Fortress","app_id":440,"player_count":3,"max_players":24,"Bots":0,"server_type":"Dedicated","server_os":"Linux","password":true,"vac":true,"version":"7961495","steam_id":85568392924469982,"keywords":["cp","nocrits","nodmgspread","uncletopia"],"game_id":440,"stv_port":27016,"stv_name":"Uncletopia | Atlanta | 1 | All Maps | STV","players":null},{"server_id":104,"name":"Uncletopia | Atlanta | 2 | All Maps","name_short":"atl-2","host":"atl-1.us.uncletopia.com","port":27025,"enabled":true,"region":"us-east","cc":"us","latitude":33.753746,"longitude":-84.38633,"reserved":0,"last_update":"0001-01-01T00:00:00Z","name_a2s":"Uncletopia | Atlanta | 2 | All Maps","protocol":17,"map":"pl_badwater","folder":"tf","game":"Team Fortress","app_id":440,"player_count":5,"max_players":24,"Bots":0,"server_type":"Dedicated","server_os":"Linux","password":true,"vac":true,"version":"7961495","steam_id":85568392924469983,"keywords":["nocrits","nodmgspread","payload","uncletopia"],"game_id":440,"stv_port":27026,"stv_name":"Uncletopia | Atlanta | 2 | All Maps | STV","players":null},{"server_id":400,"name":"Uncletopia | Atlanta | 3 | All Maps","name_short":"atl-3","host":"atl-1.us.uncletopia.com","port":27035,"enabled":true,"region":"us-east","cc":"us","latitude":33.753746,"longitude":-84.38633,"reserved":0,"last_update":"0001-01-01T00:00:00Z","name_a2s":"Uncletopia | Atlanta | 3 | All Maps","protocol":17,"map":"koth_harvest_final","folder":"tf","game":"Team Fortress","app_id":440,"player_count":17,"max_players":24,"Bots":0,"server_type":"Dedicated","server_os":"Linux","password":true,"vac":true,"version":"7961495","steam_id":85568392924515187,"keywords":["cp","nocrits","nodmgspread","uncletopia"],"game_id":440,"stv_port":27036,"stv_name":"Uncletopia | Atlanta | 3 | All Maps | STV","players":null},{"server_id":401,"name":"Uncletopia | Atlanta | 4 | Community","name_short":"atl-4","host":"atl-1.us.uncletopia.com","port":27045,"enabled":true,"region":"us-east","cc":"us","latitude":33.753746,"longitude":-84.38633,"reserved":0,"last_update":"0001-01-01T00:00:00Z","name_a2s":"Uncletopia | Atlanta | 4 | Community","protocol":17,"map":"koth_cascade","folder":"tf","game":"Team Fortress","app_id":440,"player_count":0,"max_players":24,"Bots":0,"server_type":"Dedicated","server_os":"Linux","password":true,"vac":true,"version":"7961495","steam_id":85568392924515188,"keywords":["cp","nocrits","nodmgspread","uncletopia"],"game_id":440,"stv_port":27046,"stv_name":"Uncletopia | Atlanta | 4 | Community | STV","players":null},{"server_id":2,"name":"Uncletopia | Chicago | 1 | All Maps","name_short":"chi-1","host":"chi-1.us.uncletopia.com","port":27015,"enabled":true,"region":"us-central","cc":"us","latitude":41.881832,"longitude":-87.62318,"reserved":0,"last_update":"0001-01-01T00:00:00Z","name_a2s":"Uncletopia | Chicago | 1 | All Maps","protocol":17,"map":"pl_barnblitz","folder":"tf","game":"Team Fortress","app_id":440,"player_count":24,"max_players":24,"Bots":0,"server_type":"Dedicated","server_os":"Linux","password":true,"vac":true,"version":"7961495","steam_id":85568392924469984,"keywords":["nocrits","nodmgspread","payload","uncletopia"],"game_id":440,"stv_port":27016,"stv_name":"Uncletopia | Chicago | 1 | All Maps | STV","players":[{"user_id":426,"name":"Cyclops_672","steam_id":76561198080169497,"connected_time":9592000000000,"state":"active","ping":55},{"user_id":510,"name":"Iggy","steam_id":76561198059602545,"connected_time":1540000000000,"state":"active","ping":53},{"user_id":490,"name":"b4n$hee","steam_id":76561198061372816,"connected_time":3688000000000,"state":"active","ping":91},{"user_id":496,"name":"Ras","steam_id":76561198123546775,"connected_time":3174000000000,"state":"active","ping":75},{"user_id":480,"name":"Soulidity","steam_id":76561198429603550,"connected_time":5446000000000,"state":"active","ping":64},{"user_id":506,"name":"❤Cookie❤","steam_id":76561198167488304,"connected_time":1841000000000,"state":"active","ping":57},{"user_id":489,"name":"Sapphie","steam_id":76561198014986936,"connected_time":3697000000000,"state":"active","ping":72},{"user_id":516,"name":"Wolffkran","steam_id":76561198003018041,"connected_time":583000000000,"state":"active","ping":105},{"user_id":511,"name":"Bottom Trans Cowgirl","steam_id":76561198304239680,"connected_time":1535000000000,"state":"active","ping":82},{"user_id":504,"name":"capybara (malding)","steam_id":76561198798828328,"connected_time":1966000000000,"state":"active","ping":54},{"user_id":488,"name":"blob","steam_id":76561198122375328,"connected_time":3852000000000,"state":"active","ping":62},{"user_id":421,"name":"Soul Garg Plushy","steam_id":76561198044480181,"connected_time":9842000000000,"state":"active","ping":50},{"user_id":515,"name":"Rukks","steam_id":76561197993918954,"connected_time":945000000000,"state":"active","ping":90},{"user_id":517,"name":"TextureNotfound","steam_id":76561199123984905,"connected_time":442000000000,"state":"active","ping":52},{"user_id":519,"name":"supcupman","steam_id":76561198051513866,"connected_time":328000000000,"state":"active","ping":109},{"user_id":518,"name":"scriiible","steam_id":76561198117803411,"connected_time":345000000000,"state":"active","ping":71},{"user_id":479,"name":"mario2192","steam_id":76561198065269485,"connected_time":5496000000000,"state":"active","ping":95},{"user_id":507,"name":"hej","steam_id":76561197996366940,"connected_time":1570000000000,"state":"active","ping":61},{"user_id":505,"name":"TheOneZoot","steam_id":76561198121944243,"connected_time":1943000000000,"state":"active","ping":76},{"user_id":495,"name":"tlar","steam_id":76561198060117460,"connected_time":3268000000000,"state":"active","ping":76},{"user_id":513,"name":"Boxpipe","steam_id":76561197964501915,"connected_time":1361000000000,"state":"active","ping":50},{"user_id":514,"name":"Chernov","steam_id":76561198014463424,"connected_time":1057000000000,"state":"active","ping":57},{"user_id":451,"name":"Shoeshocker","steam_id":76561198174302467,"connected_time":7887000000000,"state":"active","ping":71}]},{"server_id":106,"name":"Uncletopia | Chicago | 2 | All Maps","name_short":"chi-2","host":"chi-1.us.uncletopia.com","port":27025,"enabled":true,"region":"us-central","cc":"us","latitude":41.881832,"longitude":-87.62318,"reserved":0,"last_update":"0001-01-01T00:00:00Z","name_a2s":"Uncletopia | Chicago | 2 | All Maps","protocol":17,"map":"cp_dustbowl","folder":"tf","game":"Team Fortress","app_id":440,"player_count":24,"max_players":24,"Bots":0,"server_type":"Dedicated","server_os":"Linux","password":true,"vac":true,"version":"7961495","steam_id":85568392924469985,"keywords":["cp","nocrits","nodmgspread","uncletopia"],"game_id":440,"stv_port":27026,"stv_name":"Uncletopia | Chicago | 2 | All Maps | STV","players":[{"user_id":269,"name":"Scita","steam_id":76561198066861559,"connected_time":4364000000000,"state":"active","ping":69},{"user_id":324,"name":"peppion spaghet","steam_id":76561199220539460,"connected_time":1313000000000,"state":"active","ping":139},{"user_id":334,"name":"sailor","steam_id":76561198091015050,"connected_time":472000000000,"state":"active","ping":47},{"user_id":335,"name":"Peter Popoff","steam_id":76561198027171160,"connected_time":455000000000,"state":"active","ping":30},{"user_id":308,"name":"Lucon","steam_id":76561198067147724,"connected_time":1688000000000,"state":"active","ping":55},{"user_id":319,"name":"Kazmirl","steam_id":76561198116008410,"connected_time":1423000000000,"state":"active","ping":105},{"user_id":309,"name":"msay","steam_id":76561198170888029,"connected_time":1672000000000,"state":"active","ping":110},{"user_id":330,"name":"yo mr white, isn't this haram?","steam_id":76561198104086771,"connected_time":986000000000,"state":"active","ping":100},{"user_id":200,"name":"Semper Ber","steam_id":76561198274021990,"connected_time":10149000000000,"state":"active","ping":88},{"user_id":312,"name":"Hylic","steam_id":76561199051314589,"connected_time":1576000000000,"state":"active","ping":70},{"user_id":302,"name":"vv","steam_id":76561198134813102,"connected_time":2274000000000,"state":"active","ping":65},{"user_id":320,"name":"painting4","steam_id":76561198067554256,"connected_time":1400000000000,"state":"active","ping":143},{"user_id":313,"name":"Small Boobs","steam_id":76561198045230921,"connected_time":1548000000000,"state":"active","ping":60},{"user_id":332,"name":"Cidio Irion","steam_id":76561198176885019,"connected_time":506000000000,"state":"active","ping":83},{"user_id":336,"name":"IamLightning","steam_id":76561198193881559,"connected_time":415000000000,"state":"active","ping":68},{"user_id":321,"name":"NewGuy","steam_id":76561198968058652,"connected_time":1396000000000,"state":"active","ping":97},{"user_id":322,"name":"femboy foxgirl","steam_id":76561198056432756,"connected_time":1376000000000,"state":"active","ping":49},{"user_id":323,"name":"Fstev ✘","steam_id":76561198358766202,"connected_time":1370000000000,"state":"active","ping":166},{"user_id":325,"name":"Cap'n Walrus","steam_id":76561198045651378,"connected_time":1305000000000,"state":"active","ping":84},{"user_id":337,"name":"Kontrast","steam_id":76561198822353564,"connected_time":404000000000,"state":"active","ping":70},{"user_id":327,"name":"._.","steam_id":76561198300316801,"connected_time":1265000000000,"state":"active","ping":59},{"user_id":291,"name":"lexi","steam_id":76561198176299759,"connected_time":3150000000000,"state":"active","ping":76},{"user_id":293,"name":"[El Fail] MR.BadassMCLee","steam_id":76561198043787818,"connected_time":2782000000000,"state":"active","ping":115},{"user_id":328,"name":"SquidGoose","steam_id":76561198119574973,"connected_time":1238000000000,"state":"active","ping":83}]},{"server_id":402,"name":"Uncletopia | Chicago | 3 | All Maps","name_short":"chi-3","host":"chi-1.us.uncletopia.com","port":27035,"enabled":true,"region":"us-central","cc":"us","latitude":41.881832,"longitude":-87.62318,"reserved":0,"last_update":"0001-01-01T00:00:00Z","name_a2s":"Uncletopia | Chicago | 3 | All Maps","protocol":17,"map":"cp_dustbowl","folder":"tf","game":"Team Fortress","app_id":440,"player_count":24,"max_players":24,"Bots":0,"server_type":"Dedicated","server_os":"Linux","password":true,"vac":true,"version":"7961495","steam_id":85568392924515191,"keywords":["cp","nocrits","nodmgspread","uncletopia"],"game_id":440,"stv_port":27036,"stv_name":"Uncletopia | Chicago | 3 | All Maps | STV","players":[{"user_id":343,"name":"Sophie","steam_id":76561198170408057,"connected_time":1332000000000,"state":"active","ping":59},{"user_id":354,"name":"Toonice","steam_id":76561198402994885,"connected_time":627000000000,"state":"active","ping":81},{"user_id":350,"name":"Eviscerator","steam_id":76561197980073637,"connected_time":733000000000,"state":"active","ping":68},{"user_id":353,"name":"Jolpflgivck","steam_id":76561198085250893,"connected_time":648000000000,"state":"active","ping":51},{"user_id":348,"name":"MILKY","steam_id":76561198073114061,"connected_time":802000000000,"state":"active","ping":69},{"user_id":345,"name":"praise kink","steam_id":76561198239286750,"connected_time":997000000000,"state":"active","ping":70},{"user_id":327,"name":"boobs lol","steam_id":76561198249206656,"connected_time":2607000000000,"state":"active","ping":75},{"user_id":319,"name":"eish","steam_id":76561198089463603,"connected_time":4240000000000,"state":"active","ping":128},{"user_id":347,"name":"Tlaloc","steam_id":76561198375215983,"connected_time":876000000000,"state":"active","ping":119},{"user_id":260,"name":"Mephistopheles","steam_id":76561198253731826,"connected_time":7756000000000,"state":"active","ping":75},{"user_id":344,"name":"TheSnipersHat","steam_id":76561198057684066,"connected_time":1312000000000,"state":"active","ping":55},{"user_id":320,"name":"Your Local Jester","steam_id":76561199120223717,"connected_time":4230000000000,"state":"active","ping":70},{"user_id":254,"name":"LittleFieryOne","steam_id":76561198107463724,"connected_time":8047000000000,"state":"active","ping":60},{"user_id":355,"name":"Foxx","steam_id":76561198369193326,"connected_time":604000000000,"state":"active","ping":66},{"user_id":332,"name":"Exio","steam_id":76561198218639325,"connected_time":2541000000000,"state":"active","ping":80},{"user_id":341,"name":"Itichi","steam_id":76561199132533506,"connected_time":1730000000000,"state":"active","ping":77},{"user_id":338,"name":"Majin Boo Radley","steam_id":76561198288471052,"connected_time":2199000000000,"state":"active","ping":56},{"user_id":333,"name":"transrights","steam_id":76561198799305484,"connected_time":2525000000000,"state":"active","ping":46},{"user_id":334,"name":"D. Kickem","steam_id":76561198978221033,"connected_time":2505000000000,"state":"active","ping":63},{"user_id":311,"name":"frotting lol","steam_id":76561198079416036,"connected_time":4535000000000,"state":"active","ping":42},{"user_id":357,"name":"i have no situational awareness","steam_id":76561198319442494,"connected_time":248000000000,"state":"active","ping":94},{"user_id":298,"name":"RuinLucky","steam_id":76561199481172481,"connected_time":4931000000000,"state":"active","ping":101},{"user_id":352,"name":"uhooter","steam_id":76561198007829078,"connected_time":712000000000,"state":"active","ping":57},{"user_id":336,"name":"chromed out 1100","steam_id":76561198142756572,"connected_time":2471000000000,"state":"active","ping":71}]},{"server_id":403,"name":"Uncletopia | Chicago | 4 | All Maps","name_short":"chi-4","host":"chi-1.us.uncletopia.com","port":27045,"enabled":true,"region":"us-central","cc":"us","latitude":41.881832,"longitude":-87.62318,"reserved":0,"last_update":"0001-01-01T00:00:00Z","name_a2s":"Uncletopia | Chicago | 4 | All Maps","protocol":17,"map":"cp_mossrock","folder":"tf","game":"Team Fortress","app_id":440,"player_count":24,"max_players":24,"Bots":0,"server_type":"Dedicated","server_os":"Linux","password":true,"vac":true,"version":"7961495","steam_id":85568392924515193,"keywords":["cp","nocrits","nodmgspread","uncletopia"],"game_id":440,"stv_port":27046,"stv_name":"Uncletopia | Chicago | 4 | All Maps | STV","players":[{"user_id":165,"name":"Ringo x Seiran","steam_id":76561198357437908,"connected_time":2489000000000,"state":"active","ping":61},{"user_id":186,"name":"Randy \"the Man\" Johnson","steam_id":76561198039124445,"connected_time":1407000000000,"state":"active","ping":135},{"user_id":145,"name":"Kirby.exe","steam_id":76561198242714582,"connected_time":3704000000000,"state":"active","ping":59},{"user_id":135,"name":"Epicgamer92","steam_id":76561198312448484,"connected_time":4565000000000,"state":"active","ping":49},{"user_id":164,"name":"Oopsie Daisy ❋","steam_id":76561198042144492,"connected_time":2526000000000,"state":"active","ping":78},{"user_id":169,"name":"eat Pant","steam_id":76561197974965536,"connected_time":2432000000000,"state":"active","ping":66},{"user_id":203,"name":"RyInc","steam_id":76561198874261643,"connected_time":249000000000,"state":"active","ping":48},{"user_id":189,"name":"Cold shoulder","steam_id":76561198453824178,"connected_time":1301000000000,"state":"active","ping":135},{"user_id":201,"name":"3848","steam_id":76561198109077451,"connected_time":477000000000,"state":"active","ping":55},{"user_id":192,"name":"Pariah","steam_id":76561198300479600,"connected_time":1231000000000,"state":"active","ping":59},{"user_id":176,"name":"punkim","steam_id":76561199403410081,"connected_time":2225000000000,"state":"active","ping":82},{"user_id":190,"name":"Oddball","steam_id":76561198040440984,"connected_time":1285000000000,"state":"active","ping":71},{"user_id":199,"name":"Carl Hung","steam_id":76561198805511159,"connected_time":512000000000,"state":"active","ping":60},{"user_id":81,"name":"DrD","steam_id":76561198067266383,"connected_time":7236000000000,"state":"active","ping":89},{"user_id":153,"name":"r","steam_id":76561198435286999,"connected_time":3411000000000,"state":"active","ping":61},{"user_id":185,"name":"SСАТТЕR","steam_id":76561198405168492,"connected_time":1441000000000,"state":"active","ping":88},{"user_id":154,"name":"nonstopdisco","steam_id":76561198014036814,"connected_time":3410000000000,"state":"active","ping":74},{"user_id":205,"name":"Shaby_Frost","steam_id":76561198401334563,"connected_time":154000000000,"state":"active","ping":45},{"user_id":202,"name":"WhiteRabbit","steam_id":76561198027579538,"connected_time":335000000000,"state":"active","ping":71},{"user_id":187,"name":"40s on the jeep","steam_id":76561198893301630,"connected_time":1315000000000,"state":"active","ping":60},{"user_id":197,"name":"Cicada Orchestra","steam_id":76561199226839783,"connected_time":631000000000,"state":"active","ping":86},{"user_id":196,"name":"mikey","steam_id":76561198095803763,"connected_time":693000000000,"state":"active","ping":64},{"user_id":84,"name":"Emily50AE","steam_id":76561198088619665,"connected_time":6852000000000,"state":"active","ping":83},{"user_id":128,"name":"K.O. Stradivarius","steam_id":76561198974913245,"connected_time":4635000000000,"state":"active","ping":71}]},{"server_id":36,"name":"Uncletopia | Chicago | 5 | All Maps","name_short":"chi-5","host":"chi-2.us.uncletopia.com","port":27015,"enabled":true,"region":"us-central","cc":"us","latitude":41.881832,"longitude":-87.62318,"reserved":0,"last_update":"0001-01-01T00:00:00Z","name_a2s":"Uncletopia | Chicago | 5 | All Maps","protocol":17,"map":"pl_borneo","folder":"tf","game":"Team Fortress","app_id":440,"player_count":24,"max_players":24,"Bots":0,"server_type":"Dedicated","server_os":"Linux","password":true,"vac":true,"version":"7961495","steam_id":85568392924866362,"keywords":["nocrits","nodmgspread","payload","uncletopia"],"game_id":440,"stv_port":27016,"stv_name":"Uncletopia | Chicago | 5 | All Maps | STV","players":[{"user_id":70,"name":"Lullaby","steam_id":76561198061103166,"connected_time":4883000000000,"state":"active","ping":59},{"user_id":115,"name":"Flubby","steam_id":76561198069171252,"connected_time":1365000000000,"state":"active","ping":60},{"user_id":101,"name":"Protato","steam_id":76561198061182563,"connected_time":2370000000000,"state":"active","ping":74},{"user_id":125,"name":"Taco","steam_id":76561198158621392,"connected_time":866000000000,"state":"active","ping":72},{"user_id":133,"name":"gIBBY","steam_id":76561198080099598,"connected_time":206000000000,"state":"active","ping":60},{"user_id":132,"name":"blood-thirsty pitbull","steam_id":76561198106690989,"connected_time":383000000000,"state":"active","ping":74},{"user_id":116,"name":"amberenix","steam_id":76561198805110908,"connected_time":1352000000000,"state":"active","ping":82},{"user_id":131,"name":"floppy muppet","steam_id":76561198003076261,"connected_time":555000000000,"state":"active","ping":80},{"user_id":120,"name":"astron","steam_id":76561198058546328,"connected_time":1210000000000,"state":"active","ping":76},{"user_id":114,"name":"Tonboh","steam_id":76561198152304584,"connected_time":1412000000000,"state":"active","ping":84},{"user_id":134,"name":"Crunchy","steam_id":76561198060342804,"connected_time":194000000000,"state":"active","ping":74},{"user_id":108,"name":"Truck-kun2107","steam_id":76561199161417910,"connected_time":2163000000000,"state":"active","ping":96},{"user_id":117,"name":"glankinator","steam_id":76561198354077256,"connected_time":1322000000000,"state":"active","ping":47},{"user_id":89,"name":"prosciutto","steam_id":76561198882758067,"connected_time":2872000000000,"state":"active","ping":45},{"user_id":118,"name":"Bunt","steam_id":76561198124477567,"connected_time":1318000000000,"state":"active","ping":72},{"user_id":121,"name":"spooky","steam_id":76561198122964663,"connected_time":1206000000000,"state":"active","ping":68},{"user_id":119,"name":"Willem Dafoe","steam_id":76561198037453253,"connected_time":1297000000000,"state":"active","ping":61},{"user_id":68,"name":"skooma_consuma","steam_id":76561197974009843,"connected_time":4900000000000,"state":"active","ping":60},{"user_id":128,"name":"marto81711","steam_id":76561199453849273,"connected_time":839000000000,"state":"active","ping":102},{"user_id":129,"name":"crabapples","steam_id":76561198075818655,"connected_time":816000000000,"state":"active","ping":63},{"user_id":102,"name":"Neat","steam_id":76561198140451429,"connected_time":2335000000000,"state":"active","ping":45},{"user_id":105,"name":"Gibs Degrossi","steam_id":76561198066152609,"connected_time":2236000000000,"state":"active","ping":57},{"user_id":130,"name":"Cherry Juice","steam_id":76561198366570108,"connected_time":784000000000,"state":"active","ping":65},{"user_id":107,"name":"22moo","steam_id":76561199075331630,"connected_time":2174000000000,"state":"active","ping":77}]},{"server_id":37,"name":"Uncletopia | Chicago | 6 | All Maps","name_short":"chi-6","host":"chi-2.us.uncletopia.com","port":27025,"enabled":true,"region":"us-central","cc":"us","latitude":41.881832,"longitude":-87.62318,"reserved":0,"last_update":"0001-01-01T00:00:00Z","name_a2s":"Uncletopia | Chicago | 6 | All Maps","protocol":17,"map":"pl_borneo","folder":"tf","game":"Team Fortress","app_id":440,"player_count":24,"max_players":24,"Bots":0,"server_type":"Dedicated","server_os":"Linux","password":true,"vac":true,"version":"7961495","steam_id":85568392924866363,"keywords":["nocrits","nodmgspread","payload","uncletopia"],"game_id":440,"stv_port":27026,"stv_name":"Uncletopia | Chicago | 6 | All Maps | STV","players":[{"user_id":114,"name":"GooniOoni","steam_id":76561198102154561,"connected_time":2108000000000,"state":"active","ping":43},{"user_id":152,"name":"mild","steam_id":76561198082470182,"connected_time":230000000000,"state":"active","ping":93},{"user_id":145,"name":"C Papi","steam_id":76561198027779564,"connected_time":271000000000,"state":"active","ping":54},{"user_id":132,"name":"mr poop","steam_id":76561199195196632,"connected_time":1207000000000,"state":"active","ping":79},{"user_id":115,"name":"--_Cook_--","steam_id":76561198080855748,"connected_time":2076000000000,"state":"active","ping":45},{"user_id":156,"name":"Abaddon","steam_id":76561198030992243,"connected_time":91000000000,"state":"active","ping":69},{"user_id":141,"name":"aiden","steam_id":76561198449527009,"connected_time":910000000000,"state":"active","ping":99},{"user_id":139,"name":"Linus","steam_id":76561198084279797,"connected_time":996000000000,"state":"active","ping":84},{"user_id":157,"name":"None of that $9.99 bullshit","steam_id":76561198116169903,"connected_time":78000000000,"state":"active","ping":45},{"user_id":146,"name":"wavlog0124","steam_id":76561199079614516,"connected_time":270000000000,"state":"active","ping":47},{"user_id":150,"name":"Sugahu17S","steam_id":76561198799403828,"connected_time":247000000000,"state":"active","ping":56},{"user_id":129,"name":"solstice","steam_id":76561198313364985,"connected_time":1436000000000,"state":"active","ping":71},{"user_id":57,"name":"Rappitor","steam_id":76561198105613110,"connected_time":6547000000000,"state":"active","ping":60},{"user_id":153,"name":"the","steam_id":76561198003226288,"connected_time":222000000000,"state":"active","ping":61},{"user_id":144,"name":"HarryjusttHarry","steam_id":76561198982810452,"connected_time":511000000000,"state":"active","ping":81},{"user_id":147,"name":"Dark Lord","steam_id":76561198044199150,"connected_time":269000000000,"state":"active","ping":82},{"user_id":148,"name":"Idiot Princess","steam_id":76561198048205270,"connected_time":267000000000,"state":"active","ping":85},{"user_id":154,"name":"thug shaker mind control","steam_id":76561198984612489,"connected_time":219000000000,"state":"active","ping":97},{"user_id":122,"name":"Soup","steam_id":76561198079000665,"connected_time":2001000000000,"state":"active","ping":46},{"user_id":149,"name":"pooookelolmon","steam_id":76561199120062370,"connected_time":258000000000,"state":"active","ping":62},{"user_id":138,"name":"Ursus Ludius","steam_id":76561198025470722,"connected_time":1063000000000,"state":"active","ping":73},{"user_id":140,"name":"wenshengqiu","steam_id":76561199048682062,"connected_time":950000000000,"state":"active","ping":85},{"user_id":151,"name":"Hero8171","steam_id":76561199239824271,"connected_time":246000000000,"state":"active","ping":66},{"user_id":60,"name":"scapegoat","steam_id":76561198188722751,"connected_time":6020000000000,"state":"active","ping":91}]},{"server_id":38,"name":"Uncletopia | Chicago | 7 | Stopwatch Beta","name_short":"chi-7","host":"chi-2.us.uncletopia.com","port":27035,"enabled":true,"region":"us-central","cc":"us","latitude":41.881832,"longitude":-87.62318,"reserved":0,"last_update":"0001-01-01T00:00:00Z","name_a2s":"Uncletopia | Chicago | 7 | Stopwatch Beta","protocol":17,"map":"pl_badwater","folder":"tf","game":"Team Fortress","app_id":440,"player_count":0,"max_players":24,"Bots":0,"server_type":"Dedicated","server_os":"Linux","password":true,"vac":true,"version":"7961495","steam_id":85568392924866364,"keywords":["nocrits","nodmgspread","payload","uncletopia"],"game_id":440,"stv_port":27036,"stv_name":"Uncletopia | Chicago | 7 | Stopwatch Beta | STV","players":null},{"server_id":39,"name":"Uncletopia | Chicago | 8 | Community","name_short":"chi-8","host":"chi-2.us.uncletopia.com","port":27045,"enabled":true,"region":"us-central","cc":"us","latitude":41.881832,"longitude":-87.62318,"reserved":0,"last_update":"0001-01-01T00:00:00Z","name_a2s":"Uncletopia | Chicago | 8 | Community","protocol":17,"map":"workshop/koth_bagel_rc6.ugc2514036946","folder":"tf","game":"Team Fortress","app_id":440,"player_count":24,"max_players":24,"Bots":0,"server_type":"Dedicated","server_os":"Linux","password":true,"vac":true,"version":"7961495","steam_id":85568392924866365,"keywords":["cp","nocrits","nodmgspread","uncletopia"],"game_id":440,"stv_port":27046,"stv_name":"Uncletopia | Chicago | 8 | Community | STV","players":[{"user_id":185,"name":"Aware","steam_id":76561198013338167,"connected_time":2144000000000,"state":"active","ping":59},{"user_id":199,"name":"Wengatang","steam_id":76561198021747059,"connected_time":1380000000000,"state":"active","ping":50},{"user_id":153,"name":"Ejaculation Zach","steam_id":76561198203765200,"connected_time":5160000000000,"state":"active","ping":63},{"user_id":155,"name":"Lovedaddy","steam_id":76561198006569710,"connected_time":4979000000000,"state":"active","ping":85},{"user_id":197,"name":"SapphireSalt","steam_id":76561198356921097,"connected_time":1651000000000,"state":"active","ping":71},{"user_id":211,"name":"frank","steam_id":76561198137777483,"connected_time":126000000000,"state":"active","ping":73},{"user_id":178,"name":"Ghille","steam_id":76561198027234838,"connected_time":2638000000000,"state":"active","ping":60},{"user_id":206,"name":"killionaire","steam_id":76561198135559825,"connected_time":270000000000,"state":"active","ping":61},{"user_id":204,"name":"ssslippy","steam_id":76561199150140335,"connected_time":609000000000,"state":"active","ping":63},{"user_id":168,"name":"leonardo doujinshi","steam_id":76561198025810326,"connected_time":4167000000000,"state":"active","ping":77},{"user_id":195,"name":"Jim","steam_id":76561198998398262,"connected_time":1889000000000,"state":"active","ping":103},{"user_id":198,"name":"Swifgz","steam_id":76561198162875756,"connected_time":1544000000000,"state":"active","ping":66},{"user_id":205,"name":"doc⚸","steam_id":76561197997949711,"connected_time":286000000000,"state":"active","ping":59},{"user_id":188,"name":"dmikewilcox","steam_id":76561198060700489,"connected_time":2107000000000,"state":"active","ping":46},{"user_id":210,"name":"Plinko","steam_id":76561197968530638,"connected_time":162000000000,"state":"active","ping":59},{"user_id":189,"name":"Lila Hazel","steam_id":76561198273436977,"connected_time":2078000000000,"state":"active","ping":49},{"user_id":209,"name":"Ninten","steam_id":76561198131409710,"connected_time":257000000000,"state":"active","ping":70},{"user_id":161,"name":"Barney8108","steam_id":76561198169844321,"connected_time":4682000000000,"state":"active","ping":85},{"user_id":200,"name":"HeavyMettleDick","steam_id":76561198001925087,"connected_time":909000000000,"state":"active","ping":73},{"user_id":191,"name":"CookieM","steam_id":76561198838686633,"connected_time":2053000000000,"state":"active","ping":67},{"user_id":192,"name":"Mr. Foxtrot","steam_id":76561198936033602,"connected_time":2043000000000,"state":"active","ping":101},{"user_id":193,"name":"ScRuff","steam_id":76561198441062337,"connected_time":2043000000000,"state":"active","ping":82},{"user_id":202,"name":"snafu","steam_id":76561198211062267,"connected_time":785000000000,"state":"active","ping":77},{"user_id":194,"name":"Salt","steam_id":76561198418001135,"connected_time":1981000000000,"state":"active","ping":75}]},{"server_id":8,"name":"Uncletopia | Dallas | 1 | All Maps","name_short":"dal-1","host":"dal-1.us.uncletopia.com","port":27015,"enabled":true,"region":"us-central","cc":"us","latitude":32.779167,"longitude":-96.80889,"reserved":0,"last_update":"0001-01-01T00:00:00Z","name_a2s":"Uncletopia | Dallas | 1 | All Maps","protocol":17,"map":"pl_badwater","folder":"tf","game":"Team Fortress","app_id":440,"player_count":24,"max_players":24,"Bots":0,"server_type":"Dedicated","server_os":"Linux","password":true,"vac":true,"version":"7961495","steam_id":85568392924469986,"keywords":["nocrits","nodmgspread","payload","uncletopia"],"game_id":440,"stv_port":27016,"stv_name":"Uncletopia | Dallas | 1 | All Maps | STV","players":[{"user_id":326,"name":"Ros","steam_id":76561199055963822,"connected_time":795000000000,"state":"active","ping":60},{"user_id":321,"name":"Shrederatershan","steam_id":76561199211707598,"connected_time":1076000000000,"state":"active","ping":85},{"user_id":253,"name":"Grumby","steam_id":76561198149175262,"connected_time":7023000000000,"state":"active","ping":57},{"user_id":322,"name":"Mehman","steam_id":76561199020244051,"connected_time":954000000000,"state":"active","ping":100},{"user_id":297,"name":"FanaticSalt","steam_id":76561199380123059,"connected_time":3215000000000,"state":"active","ping":66},{"user_id":290,"name":"flippercurve","steam_id":76561199238295034,"connected_time":3389000000000,"state":"active","ping":72},{"user_id":311,"name":"Miro","steam_id":76561198936412406,"connected_time":2144000000000,"state":"active","ping":76},{"user_id":292,"name":"Shisho","steam_id":76561198800199201,"connected_time":3364000000000,"state":"active","ping":56},{"user_id":324,"name":"ChickenzRcoul","steam_id":76561199187193665,"connected_time":872000000000,"state":"active","ping":67},{"user_id":310,"name":"Seshreb","steam_id":76561198846614634,"connected_time":2166000000000,"state":"active","ping":91},{"user_id":315,"name":"moe","steam_id":76561198929586245,"connected_time":1839000000000,"state":"active","ping":79},{"user_id":237,"name":"SPREAD SPRING GROWTH AND WARMTH","steam_id":76561198800386026,"connected_time":8437000000000,"state":"active","ping":89},{"user_id":325,"name":"kibsta","steam_id":76561198991982630,"connected_time":865000000000,"state":"active","ping":71},{"user_id":327,"name":"Fish","steam_id":76561199016308078,"connected_time":691000000000,"state":"active","ping":90},{"user_id":320,"name":"Sagertooth","steam_id":76561198060863894,"connected_time":1190000000000,"state":"active","ping":46},{"user_id":229,"name":"Greg Boberton 2012","steam_id":76561198983566026,"connected_time":9278000000000,"state":"active","ping":77},{"user_id":329,"name":"Bubba Bass","steam_id":76561198026767327,"connected_time":136000000000,"state":"active","ping":55},{"user_id":241,"name":"Deadline","steam_id":76561199079078845,"connected_time":8386000000000,"state":"active","ping":85},{"user_id":328,"name":"Broken Cereal√","steam_id":76561198087489795,"connected_time":485000000000,"state":"active","ping":76},{"user_id":317,"name":"Kc","steam_id":76561198210734407,"connected_time":1478000000000,"state":"active","ping":67},{"user_id":314,"name":"littlesack","steam_id":76561197960270526,"connected_time":1944000000000,"state":"active","ping":86},{"user_id":304,"name":"Neptune˖⁺｡˚⋆˙♥","steam_id":76561199054203198,"connected_time":2844000000000,"state":"active","ping":80},{"user_id":316,"name":"Ginnunga","steam_id":76561198000320083,"connected_time":1503000000000,"state":"active","ping":82},{"user_id":318,"name":"Squagol","steam_id":76561197987486159,"connected_time":1387000000000,"state":"active","ping":67}]},{"server_id":108,"name":"Uncletopia | Dallas | 2 | All Maps","name_short":"dal-2","host":"dal-1.us.uncletopia.com","port":27025,"enabled":true,"region":"us-central","cc":"us","latitude":32.779167,"longitude":-96.80889,"reserved":0,"last_update":"0001-01-01T00:00:00Z","name_a2s":"Uncletopia | Dallas | 2 | All Maps","protocol":17,"map":"cp_snakewater_final1","folder":"tf","game":"Team Fortress","app_id":440,"player_count":22,"max_players":24,"Bots":0,"server_type":"Dedicated","server_os":"Linux","password":true,"vac":true,"version":"7961495","steam_id":85568392924469988,"keywords":["cp","nocrits","nodmgspread","uncletopia"],"game_id":440,"stv_port":27026,"stv_name":"Uncletopia | Dallas | 2 | All Maps | STV","players":[{"user_id":270,"name":"giant_dork","steam_id":76561199105606956,"connected_time":1266000000000,"state":"active","ping":80},{"user_id":238,"name":"Pegway","steam_id":76561198044303814,"connected_time":3006000000000,"state":"active","ping":83},{"user_id":283,"name":"Krashovo","steam_id":76561198880163891,"connected_time":805000000000,"state":"active","ping":67},{"user_id":282,"name":"blurpreez","steam_id":76561199389693326,"connected_time":899000000000,"state":"active","ping":111},{"user_id":290,"name":"morphine","steam_id":76561198072124799,"connected_time":294000000000,"state":"active","ping":64},{"user_id":258,"name":"ReDiculous22","steam_id":76561198038391383,"connected_time":1543000000000,"state":"active","ping":43},{"user_id":285,"name":"Phoenix_Rising","steam_id":76561198311187471,"connected_time":774000000000,"state":"active","ping":83},{"user_id":272,"name":"GenericName","steam_id":76561198104074968,"connected_time":1216000000000,"state":"active","ping":66},{"user_id":255,"name":"inzang","steam_id":76561198088318074,"connected_time":2023000000000,"state":"active","ping":55},{"user_id":260,"name":"John16Mark","steam_id":76561198119445407,"connected_time":1531000000000,"state":"active","ping":60},{"user_id":233,"name":"Master Of Whales","steam_id":76561198349104889,"connected_time":3429000000000,"state":"active","ping":79},{"user_id":253,"name":"DoomedMakwa","steam_id":76561198167053158,"connected_time":2333000000000,"state":"active","ping":75},{"user_id":281,"name":"RagingRoosevelt","steam_id":76561197985483153,"connected_time":974000000000,"state":"active","ping":96},{"user_id":273,"name":"Acro","steam_id":76561198092451804,"connected_time":1193000000000,"state":"active","ping":73},{"user_id":291,"name":"moneymobile","steam_id":76561198066730780,"connected_time":7000000000,"state":"spawning","ping":74},{"user_id":265,"name":"goopgrabber","steam_id":76561199029951083,"connected_time":1462000000000,"state":"active","ping":88},{"user_id":278,"name":"cliftoce","steam_id":76561197998912007,"connected_time":1093000000000,"state":"active","ping":90},{"user_id":287,"name":"Mile S","steam_id":76561198163238434,"connected_time":652000000000,"state":"active","ping":95},{"user_id":268,"name":"Principle Steinback","steam_id":76561199087157705,"connected_time":1433000000000,"state":"active","ping":107},{"user_id":275,"name":"Major_Pippy","steam_id":76561198004482878,"connected_time":1151000000000,"state":"active","ping":100},{"user_id":276,"name":"Mr Sir Logan","steam_id":76561198088803891,"connected_time":1147000000000,"state":"active","ping":88},{"user_id":280,"name":"Root","steam_id":76561198051749255,"connected_time":1067000000000,"state":"active","ping":72}]},{"server_id":404,"name":"Uncletopia | Dallas | 3 | All Maps","name_short":"dal-3","host":"dal-1.us.uncletopia.com","port":27035,"enabled":true,"region":"us-central","cc":"us","latitude":32.779167,"longitude":-96.80889,"reserved":0,"last_update":"0001-01-01T00:00:00Z","name_a2s":"Uncletopia | Dallas | 3 | All Maps","protocol":17,"map":"koth_viaduct","folder":"tf","game":"Team Fortress","app_id":440,"player_count":24,"max_players":24,"Bots":0,"server_type":"Dedicated","server_os":"Linux","password":true,"vac":true,"version":"7961495","steam_id":85568392924515219,"keywords":["cp","nocrits","nodmgspread","uncletopia"],"game_id":440,"stv_port":27036,"stv_name":"Uncletopia | Dallas | 3 | All Maps | STV","players":[{"user_id":315,"name":"flwrgrl","steam_id":76561198815644949,"connected_time":1075000000000,"state":"active","ping":56},{"user_id":261,"name":"mytoyo2k2","steam_id":76561199486326945,"connected_time":6965000000000,"state":"active","ping":75},{"user_id":265,"name":"Evil little man","steam_id":76561198311053471,"connected_time":6705000000000,"state":"active","ping":55},{"user_id":309,"name":"North","steam_id":76561198814844969,"connected_time":1456000000000,"state":"active","ping":78},{"user_id":312,"name":"UFQ NARRATIVE","steam_id":76561197995211570,"connected_time":1183000000000,"state":"active","ping":52},{"user_id":313,"name":"CampinCarl","steam_id":76561197997373624,"connected_time":1183000000000,"state":"active","ping":89},{"user_id":325,"name":"Nungel","steam_id":76561198272961376,"connected_time":811000000000,"state":"active","ping":70},{"user_id":326,"name":"Sup m8","steam_id":76561198081659121,"connected_time":768000000000,"state":"active","ping":42},{"user_id":203,"name":"FriedYogurt","steam_id":76561198280667376,"connected_time":11560000000000,"state":"active","ping":97},{"user_id":331,"name":"schmuck","steam_id":76561198143789773,"connected_time":173000000000,"state":"active","ping":49},{"user_id":316,"name":"jimmyfnaf172198yay","steam_id":76561198311446636,"connected_time":1068000000000,"state":"active","ping":77},{"user_id":317,"name":"Neco-Arc (real)","steam_id":76561198353010811,"connected_time":1047000000000,"state":"active","ping":63},{"user_id":323,"name":"Pizza Tower Enthusiast","steam_id":76561198267974546,"connected_time":924000000000,"state":"active","ping":69},{"user_id":319,"name":"Lemony Lilly (She/Her)","steam_id":76561198042479066,"connected_time":1013000000000,"state":"active","ping":83},{"user_id":303,"name":"FireQuiz","steam_id":76561198107357249,"connected_time":2167000000000,"state":"active","ping":104},{"user_id":321,"name":"mkl","steam_id":76561197986401685,"connected_time":977000000000,"state":"active","ping":59},{"user_id":306,"name":"the master of cats","steam_id":76561198819255576,"connected_time":1866000000000,"state":"active","ping":104},{"user_id":277,"name":"IHaveKrabs","steam_id":76561198263208436,"connected_time":4779000000000,"state":"active","ping":86},{"user_id":330,"name":"Iced Mustard","steam_id":76561198025407368,"connected_time":188000000000,"state":"active","ping":97},{"user_id":328,"name":"hforce11","steam_id":76561198087647130,"connected_time":551000000000,"state":"active","ping":59},{"user_id":332,"name":"Deadangla Merkel","steam_id":76561198038258405,"connected_time":62000000000,"state":"active","ping":46},{"user_id":214,"name":"Not Guztaf","steam_id":76561198334924763,"connected_time":11243000000000,"state":"active","ping":90},{"user_id":327,"name":"Nameless","steam_id":76561198038396837,"connected_time":722000000000,"state":"active","ping":98},{"user_id":299,"name":"Lezabel","steam_id":76561198970753261,"connected_time":2439000000000,"state":"active","ping":78}]},{"server_id":405,"name":"Uncletopia | Dallas | 4 | Community","name_short":"dal-4","host":"dal-1.us.uncletopia.com","port":27045,"enabled":true,"region":"us-central","cc":"us","latitude":32.779167,"longitude":-96.80889,"reserved":0,"last_update":"0001-01-01T00:00:00Z","name_a2s":"Uncletopia | Dallas | 4 | Community","protocol":17,"map":"workshop/pl_shoreleave_rc2.ugc1238849347","folder":"tf","game":"Team Fortress","app_id":440,"player_count":19,"max_players":24,"Bots":0,"server_type":"Dedicated","server_os":"Linux","password":true,"vac":true,"version":"7961495","steam_id":85568392924515220,"keywords":["nocrits","nodmgspread","payload","uncletopia"],"game_id":440,"stv_port":27046,"stv_name":"Uncletopia | Dallas | 4 | Community | STV","players":[{"user_id":124,"name":"ramen","steam_id":76561198971285292,"connected_time":1849000000000,"state":"active","ping":60},{"user_id":140,"name":"Bob \"Hell Rider\" White","steam_id":76561198979277948,"connected_time":890000000000,"state":"active","ping":57},{"user_id":108,"name":"dweamy","steam_id":76561198119181880,"connected_time":2473000000000,"state":"active","ping":60},{"user_id":151,"name":"itsbirdE","steam_id":76561198378783304,"connected_time":216000000000,"state":"active","ping":94},{"user_id":147,"name":"Burny Sanders","steam_id":76561197961879048,"connected_time":476000000000,"state":"active","ping":41},{"user_id":118,"name":"Big Boobs","steam_id":76561198401455467,"connected_time":2081000000000,"state":"active","ping":99},{"user_id":152,"name":"iStrava","steam_id":76561198088223717,"connected_time":151000000000,"state":"active","ping":75},{"user_id":86,"name":"two-bit Thief","steam_id":76561199202681534,"connected_time":3553000000000,"state":"active","ping":84},{"user_id":153,"name":"Navs","steam_id":76561199414749444,"connected_time":144000000000,"state":"spawning","ping":236},{"user_id":141,"name":"mailman","steam_id":76561199151919678,"connected_time":846000000000,"state":"active","ping":81},{"user_id":123,"name":"hihohe","steam_id":76561197987823936,"connected_time":1888000000000,"state":"active","ping":61},{"user_id":148,"name":"InchMan","steam_id":76561198272658825,"connected_time":325000000000,"state":"active","ping":92},{"user_id":138,"name":"Giselle","steam_id":76561198162593640,"connected_time":948000000000,"state":"active","ping":105},{"user_id":111,"name":"Chonkrmonke","steam_id":76561199379170544,"connected_time":2462000000000,"state":"active","ping":81},{"user_id":142,"name":"Shneebly","steam_id":76561198046654391,"connected_time":680000000000,"state":"active","ping":61},{"user_id":133,"name":"Space360","steam_id":76561198106743284,"connected_time":1462000000000,"state":"active","ping":114},{"user_id":149,"name":"Yarch0","steam_id":76561199106172477,"connected_time":318000000000,"state":"active","ping":98},{"user_id":145,"name":"incredirocks","steam_id":76561198061079993,"connected_time":569000000000,"state":"active","ping":74},{"user_id":150,"name":"Robzilla","steam_id":76561198035236155,"connected_time":310000000000,"state":"active","ping":69}]},{"server_id":5,"name":"Uncletopia | Frankfurt | 1 | All Maps","name_short":"frk-1","host":"frk-1.de.uncletopia.com","port":27015,"enabled":true,"region":"eu","cc":"de","latitude":50.110924,"longitude":8.682127,"reserved":0,"last_update":"0001-01-01T00:00:00Z","name_a2s":"Uncletopia | Frankfurt | 1 | All Maps","protocol":17,"map":"cp_mossrock","folder":"tf","game":"Team Fortress","app_id":440,"player_count":23,"max_players":24,"Bots":0,"server_type":"Dedicated","server_os":"Linux","password":true,"vac":true,"version":"7961495","steam_id":85568392924469989,"keywords":["cp","nocrits","nodmgspread","uncletopia"],"game_id":440,"stv_port":27016,"stv_name":"Uncletopia | Frankfurt | 1 | All Maps | STV","players":[{"user_id":505,"name":"zonzin","steam_id":76561198414163265,"connected_time":1242000000000,"state":"active","ping":57},{"user_id":461,"name":"In the balls","steam_id":76561198991595320,"connected_time":4282000000000,"state":"active","ping":57},{"user_id":493,"name":"polnac","steam_id":76561198071890911,"connected_time":1547000000000,"state":"active","ping":91},{"user_id":495,"name":"Proxy-mo","steam_id":76561198221741428,"connected_time":1478000000000,"state":"active","ping":186},{"user_id":428,"name":"Unbridled","steam_id":76561198113089831,"connected_time":6438000000000,"state":"active","ping":88},{"user_id":506,"name":"tired weeb","steam_id":76561198804469427,"connected_time":1237000000000,"state":"active","ping":87},{"user_id":503,"name":"sloppy transgirl toppy","steam_id":76561198057092208,"connected_time":1323000000000,"state":"active","ping":58},{"user_id":519,"name":"İslam'ın Zinciri - Sylas","steam_id":76561198419812739,"connected_time":558000000000,"state":"active","ping":101},{"user_id":468,"name":"Dovakhin31","steam_id":76561198029884537,"connected_time":3934000000000,"state":"active","ping":72},{"user_id":512,"name":"Mally","steam_id":76561198025013765,"connected_time":1030000000000,"state":"active","ping":161},{"user_id":490,"name":"?TheEnd","steam_id":76561198055280327,"connected_time":1953000000000,"state":"active","ping":57},{"user_id":516,"name":"the one who grips","steam_id":76561198381106289,"connected_time":821000000000,"state":"active","ping":75},{"user_id":518,"name":"Star in a pond","steam_id":76561198205501279,"connected_time":610000000000,"state":"active","ping":97},{"user_id":522,"name":"Girlboy Hightower","steam_id":76561198029025500,"connected_time":72000000000,"state":"active","ping":77},{"user_id":523,"name":"MargoulGetron","steam_id":76561198020551698,"connected_time":30000000000,"state":"active","ping":63},{"user_id":514,"name":"Illidan","steam_id":76561198192358862,"connected_time":937000000000,"state":"active","ping":78},{"user_id":521,"name":"finbar","steam_id":76561198056812396,"connected_time":510000000000,"state":"active","ping":74},{"user_id":442,"name":"Mr. Watch","steam_id":76561198276103501,"connected_time":5573000000000,"state":"active","ping":85},{"user_id":502,"name":"fallingpencil","steam_id":76561199230233148,"connected_time":1336000000000,"state":"active","ping":61},{"user_id":478,"name":"_420_StopItDudeCmon","steam_id":76561197997146481,"connected_time":3376000000000,"state":"active","ping":54},{"user_id":485,"name":"gaming","steam_id":76561199015038728,"connected_time":2457000000000,"state":"active","ping":69},{"user_id":480,"name":"willem dafoe fan","steam_id":76561198795590054,"connected_time":3112000000000,"state":"active","ping":83},{"user_id":508,"name":"LODIRA","steam_id":76561198380918983,"connected_time":1203000000000,"state":"active","ping":104}]},{"server_id":110,"name":"Uncletopia | Frankfurt | 2 | All Maps","name_short":"frk-2","host":"frk-1.de.uncletopia.com","port":27025,"enabled":true,"region":"eu","cc":"de","latitude":50.110924,"longitude":8.682127,"reserved":0,"last_update":"0001-01-01T00:00:00Z","name_a2s":"Uncletopia | Frankfurt | 2 | All Maps","protocol":17,"map":"pl_badwater","folder":"tf","game":"Team Fortress","app_id":440,"player_count":24,"max_players":24,"Bots":0,"server_type":"Dedicated","server_os":"Linux","password":true,"vac":true,"version":"7961495","steam_id":85568392924469990,"keywords":["nocrits","nodmgspread","payload","uncletopia"],"game_id":440,"stv_port":27026,"stv_name":"Uncletopia | Frankfurt | 2 | All Maps | STV","players":[{"user_id":198,"name":"THE CLUELESS CLOWN","steam_id":76561198246990590,"connected_time":251000000000,"state":"active","ping":48},{"user_id":179,"name":"Cooals","steam_id":76561198839467446,"connected_time":2089000000000,"state":"active","ping":57},{"user_id":177,"name":"SYLOK","steam_id":76561198117257427,"connected_time":2267000000000,"state":"active","ping":86},{"user_id":174,"name":"antlionguard","steam_id":76561198072747143,"connected_time":2384000000000,"state":"active","ping":98},{"user_id":178,"name":"Lackryx","steam_id":76561198313256505,"connected_time":2119000000000,"state":"active","ping":72},{"user_id":202,"name":"Swift","steam_id":76561197998799889,"connected_time":146000000000,"state":"active","ping":59},{"user_id":159,"name":"Teathling.ttv","steam_id":76561198061580505,"connected_time":3902000000000,"state":"active","ping":59},{"user_id":190,"name":"nobodyy","steam_id":76561198027735766,"connected_time":1396000000000,"state":"active","ping":79},{"user_id":173,"name":"Nathy10Thousand","steam_id":76561198324180317,"connected_time":2406000000000,"state":"active","ping":67},{"user_id":195,"name":"Smoking problem","steam_id":76561198361351449,"connected_time":688000000000,"state":"active","ping":55},{"user_id":182,"name":"svannl","steam_id":76561198980095345,"connected_time":1916000000000,"state":"active","ping":67},{"user_id":188,"name":"Da Gus","steam_id":76561198435032627,"connected_time":1473000000000,"state":"active","ping":91},{"user_id":196,"name":"jawA","steam_id":76561198070341774,"connected_time":596000000000,"state":"active","ping":77},{"user_id":166,"name":"KENZO","steam_id":76561197993520279,"connected_time":2693000000000,"state":"active","ping":66},{"user_id":194,"name":"d0gger","steam_id":76561198054902449,"connected_time":1278000000000,"state":"active","ping":59},{"user_id":199,"name":"Warped","steam_id":76561197989916494,"connected_time":250000000000,"state":"active","ping":56},{"user_id":203,"name":"Cosmetic brain","steam_id":76561198055936410,"connected_time":60000000000,"state":"active","ping":79},{"user_id":184,"name":"Gugu","steam_id":76561198161822358,"connected_time":1841000000000,"state":"active","ping":60},{"user_id":192,"name":"o","steam_id":76561198066799770,"connected_time":1380000000000,"state":"active","ping":61},{"user_id":185,"name":"hotmom","steam_id":76561198081264588,"connected_time":1840000000000,"state":"active","ping":75},{"user_id":204,"name":"Portal2Player","steam_id":76561198062870114,"connected_time":32000000000,"state":"active","ping":152},{"user_id":186,"name":"Chipmaris","steam_id":76561198252270984,"connected_time":1840000000000,"state":"active","ping":103},{"user_id":201,"name":"dolo","steam_id":76561198206672297,"connected_time":224000000000,"state":"active","ping":52},{"user_id":200,"name":"tirr0j","steam_id":76561198061949211,"connected_time":237000000000,"state":"active","ping":72}]},{"server_id":308,"name":"Uncletopia | Frankfurt | 3 | All Maps","name_short":"frk-3","host":"frk-1.de.uncletopia.com","port":27035,"enabled":true,"region":"eu","cc":"de","latitude":50.110924,"longitude":8.682127,"reserved":0,"last_update":"0001-01-01T00:00:00Z","name_a2s":"Uncletopia | Frankfurt | 3 | All Maps","protocol":17,"map":"pl_frontier_final","folder":"tf","game":"Team Fortress","app_id":440,"player_count":24,"max_players":24,"Bots":0,"server_type":"Dedicated","server_os":"Linux","password":true,"vac":true,"version":"7961495","steam_id":85568392924504274,"keywords":["nocrits","nodmgspread","payload","uncletopia"],"game_id":440,"stv_port":27036,"stv_name":"Uncletopia | Frankfurt | 3 | All Maps | STV","players":[{"user_id":304,"name":"Lyncurion","steam_id":76561199260022725,"connected_time":3836000000000,"state":"active","ping":81},{"user_id":356,"name":"Ixsus\u003c3","steam_id":76561198094756869,"connected_time":890000000000,"state":"active","ping":58},{"user_id":366,"name":"Šajke","steam_id":76561198162695930,"connected_time":78000000000,"state":"active","ping":140},{"user_id":335,"name":"dotdotdot","steam_id":76561198057628751,"connected_time":2284000000000,"state":"active","ping":69},{"user_id":362,"name":"Syd","steam_id":76561198020515027,"connected_time":218000000000,"state":"active","ping":62},{"user_id":302,"name":"Mitt","steam_id":76561199011013919,"connected_time":4692000000000,"state":"active","ping":73},{"user_id":353,"name":"Rimx","steam_id":76561198053034840,"connected_time":1376000000000,"state":"active","ping":89},{"user_id":337,"name":"0\u003e0","steam_id":76561198049741238,"connected_time":2270000000000,"state":"active","ping":105},{"user_id":343,"name":"pos","steam_id":76561198026132442,"connected_time":2188000000000,"state":"active","ping":84},{"user_id":350,"name":"Toasty5050","steam_id":76561198073540881,"connected_time":1964000000000,"state":"active","ping":45},{"user_id":346,"name":"bad farter","steam_id":76561198261853441,"connected_time":2035000000000,"state":"active","ping":59},{"user_id":339,"name":"avalon","steam_id":76561198003212528,"connected_time":2261000000000,"state":"active","ping":63},{"user_id":363,"name":"thekoolest88","steam_id":76561199022415672,"connected_time":205000000000,"state":"active","ping":140},{"user_id":288,"name":"Michal jordan","steam_id":76561199106262610,"connected_time":6510000000000,"state":"active","ping":67},{"user_id":359,"name":"Cathedra","steam_id":76561198430227030,"connected_time":817000000000,"state":"active","ping":50},{"user_id":352,"name":"TylowStar","steam_id":76561198357107806,"connected_time":1952000000000,"state":"active","ping":63},{"user_id":354,"name":"Lukas","steam_id":76561198009118452,"connected_time":1300000000000,"state":"active","ping":63},{"user_id":355,"name":"i've committed war crimes","steam_id":76561198882711226,"connected_time":918000000000,"state":"active","ping":107},{"user_id":357,"name":"LOBZIK","steam_id":76561198114830120,"connected_time":866000000000,"state":"active","ping":76},{"user_id":340,"name":"CEO of Racism","steam_id":76561198042317958,"connected_time":2232000000000,"state":"active","ping":59},{"user_id":321,"name":"Asmodeus","steam_id":76561198283156425,"connected_time":3170000000000,"state":"active","ping":70},{"user_id":316,"name":"Flared","steam_id":76561198018673136,"connected_time":3367000000000,"state":"active","ping":72},{"user_id":364,"name":"Tld Gamer ::DD","steam_id":76561198304101559,"connected_time":181000000000,"state":"active","ping":92},{"user_id":365,"name":"DJPNK","steam_id":76561197989948420,"connected_time":133000000000,"state":"active","ping":66}]},{"server_id":309,"name":"Uncletopia | Frankfurt | 4 | All Maps","name_short":"frk-4","host":"frk-1.de.uncletopia.com","port":27045,"enabled":true,"region":"eu","cc":"de","latitude":50.110924,"longitude":8.682127,"reserved":0,"last_update":"0001-01-01T00:00:00Z","name_a2s":"Uncletopia | Frankfurt | 4 | All Maps","protocol":17,"map":"pl_snowycoast","folder":"tf","game":"Team Fortress","app_id":440,"player_count":24,"max_players":24,"Bots":0,"server_type":"Dedicated","server_os":"Linux","password":true,"vac":true,"version":"7961495","steam_id":85568392924504275,"keywords":["nocrits","nodmgspread","payload","uncletopia"],"game_id":440,"stv_port":27046,"stv_name":"Uncletopia | Frankfurt | 4 | All Maps | STV","players":[{"user_id":352,"name":"united chunk","steam_id":76561199017850298,"connected_time":4995000000000,"state":"active","ping":66},{"user_id":404,"name":"Rarky","steam_id":76561198054398642,"connected_time":438000000000,"state":"active","ping":46},{"user_id":405,"name":"TheEventGuy","steam_id":76561197972797744,"connected_time":255000000000,"state":"active","ping":66},{"user_id":397,"name":"\u003e\u003c\u003e","steam_id":76561198190225954,"connected_time":1892000000000,"state":"active","ping":83},{"user_id":378,"name":"fronin","steam_id":76561198189553021,"connected_time":3766000000000,"state":"active","ping":63},{"user_id":371,"name":"Yangus","steam_id":76561198147796010,"connected_time":4174000000000,"state":"active","ping":60},{"user_id":376,"name":"LuCroGi","steam_id":76561198057283891,"connected_time":3941000000000,"state":"active","ping":57},{"user_id":398,"name":"Mi Manchi","steam_id":76561198171573129,"connected_time":1390000000000,"state":"active","ping":57},{"user_id":408,"name":"♥ trixy ♥","steam_id":76561199474154775,"connected_time":120000000000,"state":"active","ping":65},{"user_id":384,"name":"Kreos (AWAKENED)","steam_id":76561198094772516,"connected_time":3011000000000,"state":"active","ping":45},{"user_id":385,"name":"xavier","steam_id":76561198076494034,"connected_time":2988000000000,"state":"active","ping":54},{"user_id":374,"name":"dustwrld","steam_id":76561198152576682,"connected_time":4087000000000,"state":"active","ping":84},{"user_id":406,"name":"willus212","steam_id":76561199182615246,"connected_time":230000000000,"state":"active","ping":93},{"user_id":370,"name":"Vershal Smershal","steam_id":76561198116223995,"connected_time":4236000000000,"state":"active","ping":62},{"user_id":407,"name":"Lyell","steam_id":76561198350329389,"connected_time":198000000000,"state":"active","ping":88},{"user_id":409,"name":"Geoff the Oracle","steam_id":76561198053759965,"connected_time":70000000000,"state":"active","ping":74},{"user_id":400,"name":"ran is running","steam_id":76561199443185667,"connected_time":1007000000000,"state":"active","ping":142},{"user_id":375,"name":"Ewelinka Zniszczenia","steam_id":76561198307374456,"connected_time":4058000000000,"state":"active","ping":63},{"user_id":389,"name":"DatRandomPanda.ttv","steam_id":76561198092115063,"connected_time":2659000000000,"state":"active","ping":149},{"user_id":383,"name":"r06u3","steam_id":76561198254099253,"connected_time":3299000000000,"state":"active","ping":166},{"user_id":377,"name":"antonio.jurjevic@brazzers.hr","steam_id":76561198179392402,"connected_time":3933000000000,"state":"active","ping":55},{"user_id":382,"name":"manKe","steam_id":76561198008564860,"connected_time":3325000000000,"state":"active","ping":60},{"user_id":392,"name":"Cabbch","steam_id":76561198045955679,"connected_time":2430000000000,"state":"active","ping":60},{"user_id":395,"name":"sareena","steam_id":76561198810194062,"connected_time":2011000000000,"state":"active","ping":79}]},{"server_id":310,"name":"Uncletopia | Frankfurt | 5 | All Maps","name_short":"frk-5","host":"frk-1.de.uncletopia.com","port":27055,"enabled":true,"region":"eu","cc":"de","latitude":50.110924,"longitude":8.682127,"reserved":0,"last_update":"0001-01-01T00:00:00Z","name_a2s":"Uncletopia | Frankfurt | 5 | All Maps","protocol":17,"map":"cp_dustbowl","folder":"tf","game":"Team Fortress","app_id":440,"player_count":9,"max_players":24,"Bots":0,"server_type":"Dedicated","server_os":"Linux","password":true,"vac":true,"version":"7961495","steam_id":85568392924504277,"keywords":["cp","nocrits","nodmgspread","uncletopia"],"game_id":440,"stv_port":27056,"stv_name":"Uncletopia | Frankfurt | 5 | All Maps | STV","players":[{"user_id":491,"name":"John Wick","steam_id":76561198078854257,"connected_time":1929000000000,"state":"active","ping":85},{"user_id":492,"name":"Floating Vampire Jesus","steam_id":76561198146375559,"connected_time":1723000000000,"state":"active","ping":68},{"user_id":495,"name":"63756d","steam_id":76561198808699024,"connected_time":1297000000000,"state":"active","ping":68},{"user_id":493,"name":"croissanta","steam_id":76561198049452909,"connected_time":1690000000000,"state":"active","ping":50},{"user_id":494,"name":"Dimitry.","steam_id":76561198078843971,"connected_time":1688000000000,"state":"active","ping":69},{"user_id":496,"name":"chrząszcz","steam_id":76561198358887237,"connected_time":1296000000000,"state":"active","ping":96},{"user_id":497,"name":"Clueless","steam_id":76561198272180956,"connected_time":1165000000000,"state":"active","ping":53},{"user_id":498,"name":"kubanamaxa","steam_id":76561198154315656,"connected_time":1044000000000,"state":"active","ping":88},{"user_id":499,"name":"Mr. Master","steam_id":76561199198569317,"connected_time":851000000000,"state":"active","ping":60}]},{"server_id":311,"name":"Uncletopia | Frankfurt | 6 | All Maps","name_short":"frk-6","host":"frk-1.de.uncletopia.com","port":27065,"enabled":true,"region":"eu","cc":"de","latitude":50.110924,"longitude":8.682127,"reserved":0,"last_update":"0001-01-01T00:00:00Z","name_a2s":"Uncletopia | Frankfurt | 6 | All Maps","protocol":17,"map":"pl_swiftwater_final1","folder":"tf","game":"Team Fortress","app_id":440,"player_count":19,"max_players":24,"Bots":0,"server_type":"Dedicated","server_os":"Linux","password":true,"vac":true,"version":"7961495","steam_id":85568392924504278,"keywords":["nocrits","nodmgspread","payload","uncletopia"],"game_id":440,"stv_port":27066,"stv_name":"Uncletopia | Frankfurt | 6 | All Maps | STV","players":[{"user_id":447,"name":"jovi_","steam_id":76561198449280552,"connected_time":53000000000,"state":"active","ping":54},{"user_id":383,"name":"The Daniella","steam_id":76561198023075547,"connected_time":4902000000000,"state":"active","ping":64},{"user_id":445,"name":"Saul Goodman","steam_id":76561199182988206,"connected_time":136000000000,"state":"active","ping":318},{"user_id":399,"name":"Dominus Di Spiritus","steam_id":76561198200488383,"connected_time":3453000000000,"state":"active","ping":74},{"user_id":439,"name":"GΛƧ","steam_id":76561198327820941,"connected_time":1016000000000,"state":"active","ping":164},{"user_id":388,"name":"protëin","steam_id":76561197998423616,"connected_time":4545000000000,"state":"active","ping":74},{"user_id":448,"name":"DM_Tiz","steam_id":76561198061478257,"connected_time":8000000000,"state":"spawning","ping":44},{"user_id":422,"name":"Philosophos_Alpha","steam_id":76561198951264580,"connected_time":2065000000000,"state":"active","ping":102},{"user_id":360,"name":"cotroD","steam_id":76561198130063938,"connected_time":6492000000000,"state":"active","ping":77},{"user_id":444,"name":"Wade Wilson's Spoilt C4","steam_id":76561198013884709,"connected_time":144000000000,"state":"active","ping":68},{"user_id":443,"name":"GZimmer","steam_id":76561198088794767,"connected_time":548000000000,"state":"active","ping":46},{"user_id":446,"name":"Dozer","steam_id":76561197998742338,"connected_time":131000000000,"state":"active","ping":65},{"user_id":407,"name":"flange","steam_id":76561198040182692,"connected_time":3190000000000,"state":"active","ping":57},{"user_id":428,"name":"jonathan","steam_id":76561198076107263,"connected_time":1831000000000,"state":"active","ping":59},{"user_id":411,"name":"Tampon Lollipop","steam_id":76561198042593027,"connected_time":2908000000000,"state":"active","ping":87},{"user_id":430,"name":"Mathias","steam_id":76561198245907056,"connected_time":1816000000000,"state":"active","ping":61},{"user_id":432,"name":"TidB","steam_id":76561198055342304,"connected_time":1575000000000,"state":"active","ping":57},{"user_id":437,"name":"Glenn Quagmire","steam_id":76561199348527880,"connected_time":1088000000000,"state":"active","ping":87}]},{"server_id":23,"name":"Uncletopia | Frankfurt | 7 | Stopwatch Beta","name_short":"frk-7","host":"frk-1.de.uncletopia.com","port":27075,"enabled":true,"region":"eu","cc":"de","latitude":50.110924,"longitude":8.682127,"reserved":0,"last_update":"0001-01-01T00:00:00Z","name_a2s":"Uncletopia | Frankfurt | 7 | Stopwatch Beta","protocol":17,"map":"workshop/koth_clearcut_b15.ugc2107050255","folder":"tf","game":"Team Fortress","app_id":440,"player_count":0,"max_players":24,"Bots":0,"server_type":"Dedicated","server_os":"Linux","password":true,"vac":true,"version":"7961495","steam_id":85568392924742827,"keywords":["cp","nocrits","nodmgspread","uncletopia"],"game_id":440,"stv_port":27076,"stv_name":"Uncletopia | Frankfurt | 7 | Stopwatch Beta | STV","players":null},{"server_id":24,"name":"Uncletopia | Frankfurt | 8 | Community","name_short":"frk-8","host":"frk-1.de.uncletopia.com","port":27085,"enabled":true,"region":"eu","cc":"de","latitude":50.110924,"longitude":8.682127,"reserved":0,"last_update":"0001-01-01T00:00:00Z","name_a2s":"Uncletopia | Frankfurt | 8 | Community","protocol":17,"map":"workshop/cp_snowbase_b18.ugc2081770490","folder":"tf","game":"Team Fortress","app_id":440,"player_count":0,"max_players":24,"Bots":0,"server_type":"Dedicated","server_os":"Linux","password":true,"vac":true,"version":"7961495","steam_id":85568392924742828,"keywords":["cp","nocrits","nodmgspread","uncletopia"],"game_id":440,"stv_port":27086,"stv_name":"Uncletopia | Frankfurt | 8 | Community | STV","players":null},{"server_id":202,"name":"Uncletopia | Hong Kong | 1 | All Maps","name_short":"hgk-1","host":"hgk-1.hk.uncletopia.com","port":27015,"enabled":true,"region":"asia","cc":"hk","latitude":22.302711,"longitude":114.177216,"reserved":0,"last_update":"0001-01-01T00:00:00Z","name_a2s":"","protocol":0,"map":"","folder":"","game":"","app_id":0,"player_count":0,"max_players":0,"Bots":0,"server_type":"","server_os":"","password":false,"vac":false,"version":"","steam_id":0,"keywords":null,"game_id":0,"stv_port":0,"stv_name":"","players":null},{"server_id":1,"name":"Uncletopia | Los Angeles | 1 | All Maps","name_short":"lax-1","host":"lax-1.us.uncletopia.com","port":27015,"enabled":true,"region":"us-west","cc":"us","latitude":33.94279,"longitude":-118.41004,"reserved":0,"last_update":"0001-01-01T00:00:00Z","name_a2s":"Uncletopia | Los Angeles | 1 | All Maps","protocol":17,"map":"pl_swiftwater_final1","folder":"tf","game":"Team Fortress","app_id":440,"player_count":0,"max_players":24,"Bots":0,"server_type":"Dedicated","server_os":"Linux","password":true,"vac":true,"version":"7961495","steam_id":85568392924469991,"keywords":["nocrits","nodmgspread","payload","uncletopia"],"game_id":440,"stv_port":27016,"stv_name":"Uncletopia | Los Angeles | 1 | All Maps | STV","players":null},{"server_id":112,"name":"Uncletopia | Los Angeles | 2 | All Maps","name_short":"lax-2","host":"lax-1.us.uncletopia.com","port":27025,"enabled":true,"region":"us-west","cc":"us","latitude":33.94279,"longitude":-118.41004,"reserved":0,"last_update":"0001-01-01T00:00:00Z","name_a2s":"Uncletopia | Los Angeles | 2 | All Maps","protocol":17,"map":"pl_frontier_final","folder":"tf","game":"Team Fortress","app_id":440,"player_count":24,"max_players":24,"Bots":0,"server_type":"Dedicated","server_os":"Linux","password":true,"vac":true,"version":"7961495","steam_id":85568392924469992,"keywords":["nocrits","nodmgspread","payload","uncletopia"],"game_id":440,"stv_port":27026,"stv_name":"Uncletopia | Los Angeles | 2 | All Maps | STV","players":[{"user_id":112,"name":"Scoops M'Gooch","steam_id":76561198048423812,"connected_time":2470000000000,"state":"active","ping":65},{"user_id":92,"name":"HAT-WEARING™ Maggot Gamer Cat","steam_id":76561197973992705,"connected_time":4325000000000,"state":"active","ping":70},{"user_id":104,"name":"mega","steam_id":76561198089520959,"connected_time":3019000000000,"state":"active","ping":111},{"user_id":83,"name":"Cypress","steam_id":76561198070560915,"connected_time":5245000000000,"state":"active","ping":57},{"user_id":121,"name":"pinkacrash","steam_id":76561198110723576,"connected_time":969000000000,"state":"active","ping":37},{"user_id":111,"name":"elephant thumb","steam_id":76561198118859752,"connected_time":2517000000000,"state":"active","ping":46},{"user_id":125,"name":"thai tea","steam_id":76561198308290211,"connected_time":543000000000,"state":"active","ping":117},{"user_id":124,"name":"circus","steam_id":76561199085524751,"connected_time":555000000000,"state":"active","ping":52},{"user_id":126,"name":"Jazpy","steam_id":76561198036872545,"connected_time":542000000000,"state":"active","ping":75},{"user_id":109,"name":"pan","steam_id":76561198093968095,"connected_time":2596000000000,"state":"active","ping":60},{"user_id":133,"name":"Dr. Fish, PhD","steam_id":76561198045814069,"connected_time":84000000000,"state":"active","ping":56},{"user_id":114,"name":"bong fellow","steam_id":76561198334044006,"connected_time":1803000000000,"state":"active","ping":42},{"user_id":132,"name":"ElShaggy","steam_id":76561198148870214,"connected_time":211000000000,"state":"active","ping":66},{"user_id":128,"name":"Pablo.Gonzalez.2007","steam_id":76561199083115222,"connected_time":505000000000,"state":"active","ping":117},{"user_id":110,"name":"Ashes!","steam_id":76561197998475441,"connected_time":2591000000000,"state":"active","ping":119},{"user_id":103,"name":"RIP Old Man Chico :(","steam_id":76561198865172720,"connected_time":3040000000000,"state":"active","ping":67},{"user_id":23,"name":"Smashy","steam_id":76561198030704307,"connected_time":8803000000000,"state":"active","ping":88},{"user_id":130,"name":"Grim","steam_id":76561198016978310,"connected_time":303000000000,"state":"active","ping":71},{"user_id":116,"name":"Jokezonyu","steam_id":76561198213167893,"connected_time":1337000000000,"state":"active","ping":65},{"user_id":123,"name":"i cant aim","steam_id":76561198065873462,"connected_time":662000000000,"state":"active","ping":47},{"user_id":90,"name":"AimBütter","steam_id":76561198060108739,"connected_time":4579000000000,"state":"active","ping":46},{"user_id":117,"name":"rad killl raccoon","steam_id":76561198980975595,"connected_time":1337000000000,"state":"active","ping":93},{"user_id":131,"name":"Mr. Pockets","steam_id":76561198053657771,"connected_time":226000000000,"state":"active","ping":61},{"user_id":69,"name":"Marry Kozakura Gaming","steam_id":76561198063315650,"connected_time":6176000000000,"state":"active","ping":88}]},{"server_id":324,"name":"Uncletopia | Los Angeles | 3 | All Maps","name_short":"lax-3","host":"lax-1.us.uncletopia.com","port":27035,"enabled":true,"region":"us-west","cc":"us","latitude":33.94279,"longitude":-118.41004,"reserved":0,"last_update":"0001-01-01T00:00:00Z","name_a2s":"Uncletopia | Los Angeles | 3 | All Maps","protocol":17,"map":"pl_badwater","folder":"tf","game":"Team Fortress","app_id":440,"player_count":0,"max_players":24,"Bots":0,"server_type":"Dedicated","server_os":"Linux","password":true,"vac":true,"version":"7961495","steam_id":85568392924510198,"keywords":["nocrits","nodmgspread","payload","uncletopia"],"game_id":440,"stv_port":27036,"stv_name":"Uncletopia | Los Angeles | 3 | All Maps | STV","players":null},{"server_id":25,"name":"Uncletopia | Los Angeles | 4 | Stopwatch Beta","name_short":"lax-4","host":"lax-1.us.uncletopia.com","port":27045,"enabled":true,"region":"us-west","cc":"us","latitude":33.94279,"longitude":-118.41004,"reserved":0,"last_update":"0001-01-01T00:00:00Z","name_a2s":"Uncletopia | Los Angeles | 4 | Stopwatch Beta","protocol":17,"map":"pl_upward","folder":"tf","game":"Team Fortress","app_id":440,"player_count":0,"max_players":24,"Bots":0,"server_type":"Dedicated","server_os":"Linux","password":true,"vac":true,"version":"7961495","steam_id":85568392924510199,"keywords":["nocrits","nodmgspread","payload","uncletopia"],"game_id":440,"stv_port":27046,"stv_name":"Uncletopia | Los Angeles | 4 | Stopwatch Beta | STV","players":null},{"server_id":11,"name":"Uncletopia | London | 1 | All Maps","name_short":"lon-1","host":"lon-1.uk.uncletopia.com","port":27015,"enabled":true,"region":"eu","cc":"gb","latitude":51.509865,"longitude":-0.118092,"reserved":0,"last_update":"0001-01-01T00:00:00Z","name_a2s":"Uncletopia | London | 1 | All Maps","protocol":17,"map":"koth_suijin","folder":"tf","game":"Team Fortress","app_id":440,"player_count":23,"max_players":24,"Bots":0,"server_type":"Dedicated","server_os":"Linux","password":true,"vac":true,"version":"7961495","steam_id":85568392924367362,"keywords":["cp","nocrits","nodmgspread","uncletopia"],"game_id":440,"stv_port":27016,"stv_name":"Uncletopia | London | 1 | All Maps | STV","players":[{"user_id":389,"name":"frosty","steam_id":76561198094560834,"connected_time":50000000000,"state":"active","ping":45},{"user_id":375,"name":"jimmy bob","steam_id":76561198319583692,"connected_time":741000000000,"state":"active","ping":60},{"user_id":370,"name":"flappi","steam_id":76561198072892783,"connected_time":1657000000000,"state":"active","ping":60},{"user_id":376,"name":"Silverkeys","steam_id":76561197986012496,"connected_time":717000000000,"state":"active","ping":129},{"user_id":377,"name":"Jeffrey Harpen","steam_id":76561199073314677,"connected_time":471000000000,"state":"active","ping":85},{"user_id":386,"name":"Beta Probopass","steam_id":76561198140806694,"connected_time":114000000000,"state":"active","ping":75},{"user_id":280,"name":"Juliderkek","steam_id":76561198962270674,"connected_time":10399000000000,"state":"active","ping":77},{"user_id":379,"name":"krayy","steam_id":76561198035037830,"connected_time":411000000000,"state":"active","ping":46},{"user_id":369,"name":"cinder block enthusiast","steam_id":76561199062160061,"connected_time":2361000000000,"state":"active","ping":51},{"user_id":223,"name":"png.png","steam_id":76561198444446521,"connected_time":13445000000000,"state":"active","ping":108},{"user_id":381,"name":"mkwii","steam_id":76561198062507768,"connected_time":249000000000,"state":"active","ping":61},{"user_id":387,"name":"pond","steam_id":76561198214849363,"connected_time":102000000000,"state":"active","ping":88},{"user_id":364,"name":"Fwebbie","steam_id":76561199006875621,"connected_time":3065000000000,"state":"active","ping":57},{"user_id":383,"name":"Quantum","steam_id":76561198401018345,"connected_time":198000000000,"state":"active","ping":75},{"user_id":360,"name":"SOPHIIEE (JESSIE GANG)","steam_id":76561198443798981,"connected_time":3399000000000,"state":"active","ping":57},{"user_id":385,"name":"Minimi","steam_id":76561198873850443,"connected_time":163000000000,"state":"active","ping":46},{"user_id":388,"name":"zinzyk","steam_id":76561198128011822,"connected_time":82000000000,"state":"active","ping":65},{"user_id":368,"name":"jermany","steam_id":76561198126599355,"connected_time":2372000000000,"state":"active","ping":62},{"user_id":363,"name":"hmscole09","steam_id":76561198811362788,"connected_time":3117000000000,"state":"active","ping":50},{"user_id":390,"name":"SlonkyDonky","steam_id":76561198425787528,"connected_time":0,"state":"spawning","ping":7},{"user_id":300,"name":"shooer!","steam_id":76561198110531281,"connected_time":7661000000000,"state":"active","ping":84},{"user_id":391,"name":"takyon","steam_id":76561198330594512,"connected_time":0,"state":"spawning","ping":0},{"user_id":348,"name":"Snake-chan","steam_id":76561199044755854,"connected_time":4858000000000,"state":"active","ping":75}]},{"server_id":114,"name":"Uncletopia | London | 2 | All Maps","name_short":"lon-2","host":"lon-1.uk.uncletopia.com","port":27025,"enabled":true,"region":"eu","cc":"gb","latitude":51.509865,"longitude":-0.118092,"reserved":0,"last_update":"0001-01-01T00:00:00Z","name_a2s":"Uncletopia | London | 2 | All Maps","protocol":17,"map":"cp_steel","folder":"tf","game":"Team Fortress","app_id":440,"player_count":17,"max_players":24,"Bots":0,"server_type":"Dedicated","server_os":"Linux","password":true,"vac":true,"version":"7961495","steam_id":85568392924470941,"keywords":["cp","nocrits","nodmgspread","uncletopia"],"game_id":440,"stv_port":27026,"stv_name":"Uncletopia | London | 2 | All Maps | STV","players":[{"user_id":375,"name":"StingyLettuce","steam_id":76561199010337406,"connected_time":4040000000000,"state":"active","ping":119},{"user_id":359,"name":"Gaxkang","steam_id":76561198125768571,"connected_time":5632000000000,"state":"active","ping":55},{"user_id":357,"name":"LordTrap.exe","steam_id":76561198318089716,"connected_time":5999000000000,"state":"active","ping":53},{"user_id":391,"name":"Voks_","steam_id":76561198159687785,"connected_time":2319000000000,"state":"active","ping":79},{"user_id":413,"name":"Jon \"FluidmasterBallwasher\" Doe","steam_id":76561199006462039,"connected_time":1103000000000,"state":"active","ping":71},{"user_id":422,"name":"MudFlap","steam_id":76561198257541676,"connected_time":429000000000,"state":"active","ping":104},{"user_id":423,"name":"8 Ball","steam_id":76561197960988736,"connected_time":349000000000,"state":"active","ping":45},{"user_id":418,"name":"Hildreth","steam_id":76561197995254867,"connected_time":674000000000,"state":"active","ping":45},{"user_id":417,"name":"Burpman","steam_id":76561198022897937,"connected_time":748000000000,"state":"active","ping":47},{"user_id":411,"name":"Doggo225","steam_id":76561198166707002,"connected_time":1197000000000,"state":"active","ping":30},{"user_id":414,"name":"Roy","steam_id":76561198133860215,"connected_time":840000000000,"state":"active","ping":158},{"user_id":419,"name":"BELADIT","steam_id":76561198011911501,"connected_time":626000000000,"state":"active","ping":75},{"user_id":400,"name":"LIGHTWEIGHT BABY","steam_id":76561198002761980,"connected_time":2151000000000,"state":"active","ping":60},{"user_id":424,"name":"Gosman","steam_id":76561198062956955,"connected_time":326000000000,"state":"active","ping":68},{"user_id":428,"name":"Bupster","steam_id":76561199077027065,"connected_time":109000000000,"state":"active","ping":83},{"user_id":412,"name":"KMP","steam_id":76561198278707199,"connected_time":1188000000000,"state":"active","ping":44},{"user_id":370,"name":"Yelowchy","steam_id":76561198199416121,"connected_time":4755000000000,"state":"active","ping":71}]},{"server_id":320,"name":"Uncletopia | London | 3 | All Maps","name_short":"lon-3","host":"lon-1.uk.uncletopia.com","port":27035,"enabled":true,"region":"eu","cc":"gb","latitude":51.509865,"longitude":-0.118092,"reserved":0,"last_update":"0001-01-01T00:00:00Z","name_a2s":"Uncletopia | London | 3 | All Maps","protocol":17,"map":"pl_pier","folder":"tf","game":"Team Fortress","app_id":440,"player_count":4,"max_players":24,"Bots":0,"server_type":"Dedicated","server_os":"Linux","password":true,"vac":true,"version":"7961495","steam_id":85568392924510192,"keywords":["nocrits","nodmgspread","payload","uncletopia"],"game_id":440,"stv_port":27036,"stv_name":"Uncletopia | London | 3 | All Maps | STV","players":[{"user_id":356,"name":"Truen","steam_id":76561198074686635,"connected_time":333000000000,"state":"active","ping":58},{"user_id":355,"name":"British Disapproval","steam_id":76561198001375260,"connected_time":443000000000,"state":"active","ping":48},{"user_id":346,"name":"Reets","steam_id":76561199389301257,"connected_time":1314000000000,"state":"active","ping":43},{"user_id":347,"name":"LainBizkit","steam_id":76561199200708626,"connected_time":1304000000000,"state":"active","ping":85}]},{"server_id":321,"name":"Uncletopia | London | 4 | All Maps","name_short":"lon-4","host":"lon-1.uk.uncletopia.com","port":27045,"enabled":true,"region":"eu","cc":"gb","latitude":51.509865,"longitude":-0.118092,"reserved":0,"last_update":"0001-01-01T00:00:00Z","name_a2s":"Uncletopia | London | 4 | All Maps","protocol":17,"map":"pl_badwater","folder":"tf","game":"Team Fortress","app_id":440,"player_count":24,"max_players":24,"Bots":0,"server_type":"Dedicated","server_os":"Linux","password":true,"vac":true,"version":"7961495","steam_id":85568392924510193,"keywords":["nocrits","nodmgspread","payload","uncletopia"],"game_id":440,"stv_port":27046,"stv_name":"Uncletopia | London | 4 | All Maps | STV","players":[{"user_id":194,"name":"Mystic8ball","steam_id":76561197996950301,"connected_time":575000000000,"state":"active","ping":72},{"user_id":204,"name":"The man","steam_id":76561198342065102,"connected_time":218000000000,"state":"active","ping":63},{"user_id":197,"name":"the catboy","steam_id":76561198236015506,"connected_time":371000000000,"state":"active","ping":105},{"user_id":185,"name":"MrSPY123","steam_id":76561198803380049,"connected_time":1169000000000,"state":"active","ping":94},{"user_id":186,"name":"Racist Buttplug","steam_id":76561198033024160,"connected_time":1169000000000,"state":"active","ping":69},{"user_id":157,"name":"Starach","steam_id":76561198084530972,"connected_time":2251000000000,"state":"active","ping":68},{"user_id":146,"name":"SD","steam_id":76561198169314111,"connected_time":2689000000000,"state":"active","ping":61},{"user_id":148,"name":"Fungiii༼つ ◕_◕ ༽つ","steam_id":76561198030595729,"connected_time":2634000000000,"state":"active","ping":86},{"user_id":187,"name":"dzban","steam_id":76561198013511672,"connected_time":1167000000000,"state":"active","ping":60},{"user_id":198,"name":"ROX","steam_id":76561198272289320,"connected_time":362000000000,"state":"active","ping":61},{"user_id":174,"name":"What2eat","steam_id":76561198017985829,"connected_time":1568000000000,"state":"active","ping":51},{"user_id":206,"name":"Grey","steam_id":76561198187190267,"connected_time":191000000000,"state":"active","ping":48},{"user_id":200,"name":"cantsniff","steam_id":76561198259668029,"connected_time":278000000000,"state":"active","ping":46},{"user_id":201,"name":"i look at gay people","steam_id":76561198078032019,"connected_time":238000000000,"state":"active","ping":81},{"user_id":202,"name":"shminky dinky","steam_id":76561199088913787,"connected_time":232000000000,"state":"active","ping":64},{"user_id":168,"name":"⑨","steam_id":76561198351154533,"connected_time":1675000000000,"state":"active","ping":55},{"user_id":169,"name":"peace of sheet","steam_id":76561197997323419,"connected_time":1674000000000,"state":"active","ping":75},{"user_id":181,"name":"Pineappleman","steam_id":76561199074651648,"connected_time":1371000000000,"state":"active","ping":55},{"user_id":203,"name":"marvs","steam_id":76561198851777617,"connected_time":227000000000,"state":"active","ping":43},{"user_id":172,"name":"5tv^","steam_id":76561198063129586,"connected_time":1603000000000,"state":"active","ping":51},{"user_id":207,"name":"uncle113582345","steam_id":76561198423902979,"connected_time":27000000000,"state":"active","ping":59},{"user_id":193,"name":"Moonkey","steam_id":76561199013741389,"connected_time":682000000000,"state":"active","ping":109},{"user_id":180,"name":"Flyin'BBQ","steam_id":76561198021363070,"connected_time":1471000000000,"state":"active","ping":52},{"user_id":182,"name":"Nox","steam_id":76561198256384104,"connected_time":1359000000000,"state":"active","ping":60}]},{"server_id":21,"name":"Uncletopia | London | 5 | All Maps","name_short":"lon-5","host":"lon-1.uk.uncletopia.com","port":27055,"enabled":true,"region":"eu","cc":"gb","latitude":51.509865,"longitude":-0.118092,"reserved":0,"last_update":"0001-01-01T00:00:00Z","name_a2s":"Uncletopia | London | 5 | All Maps","protocol":17,"map":"pl_swiftwater_final1","folder":"tf","game":"Team Fortress","app_id":440,"player_count":24,"max_players":24,"Bots":0,"server_type":"Dedicated","server_os":"Linux","password":true,"vac":true,"version":"7961495","steam_id":85568392924742829,"keywords":["nocrits","nodmgspread","payload","uncletopia"],"game_id":440,"stv_port":27056,"stv_name":"Uncletopia | London | 5 | All Maps | STV","players":[{"user_id":317,"name":"blonde furry femboy","steam_id":76561198273361428,"connected_time":885000000000,"state":"active","ping":81},{"user_id":318,"name":"artonzhun","steam_id":76561198259104010,"connected_time":823000000000,"state":"active","ping":87},{"user_id":319,"name":"walter","steam_id":76561198021950957,"connected_time":817000000000,"state":"active","ping":67},{"user_id":305,"name":"Epic Meal Time","steam_id":76561198178032977,"connected_time":2665000000000,"state":"active","ping":50},{"user_id":299,"name":"Dr. Funkenstein","steam_id":76561197977816210,"connected_time":2965000000000,"state":"active","ping":65},{"user_id":286,"name":"Buddy","steam_id":76561198050185582,"connected_time":4490000000000,"state":"active","ping":53},{"user_id":320,"name":"Mono","steam_id":76561198114569493,"connected_time":796000000000,"state":"active","ping":36},{"user_id":321,"name":"Maldom","steam_id":76561198000687053,"connected_time":656000000000,"state":"active","ping":63},{"user_id":306,"name":"juJu","steam_id":76561198049343793,"connected_time":2495000000000,"state":"active","ping":64},{"user_id":322,"name":"Dr.Sees [F2P]","steam_id":76561199219233587,"connected_time":595000000000,"state":"active","ping":80},{"user_id":316,"name":"Hot._.Chocopops","steam_id":76561199025668594,"connected_time":918000000000,"state":"active","ping":96},{"user_id":323,"name":"blagged","steam_id":76561199306855416,"connected_time":529000000000,"state":"active","ping":59},{"user_id":325,"name":"Klunkerino","steam_id":76561197971081655,"connected_time":396000000000,"state":"active","ping":76},{"user_id":326,"name":"rapsterdude","steam_id":76561199388597561,"connected_time":364000000000,"state":"active","ping":58},{"user_id":327,"name":"my mom","steam_id":76561199225201569,"connected_time":360000000000,"state":"active","ping":124},{"user_id":309,"name":"Splattted","steam_id":76561199327476294,"connected_time":2315000000000,"state":"active","ping":72},{"user_id":328,"name":"xaronex","steam_id":76561198112004175,"connected_time":339000000000,"state":"active","ping":69},{"user_id":256,"name":"PinkCuve","steam_id":76561198802989702,"connected_time":5953000000000,"state":"active","ping":89},{"user_id":329,"name":"Asa Mitaka","steam_id":76561198361723475,"connected_time":334000000000,"state":"active","ping":66},{"user_id":258,"name":"💝Midnight💝","steam_id":76561198112806540,"connected_time":5938000000000,"state":"active","ping":146},{"user_id":310,"name":"A new medic(F2p)","steam_id":76561199388826335,"connected_time":2176000000000,"state":"active","ping":135},{"user_id":280,"name":"fence_","steam_id":76561198150386379,"connected_time":5305000000000,"state":"active","ping":48},{"user_id":330,"name":"Puro ♥","steam_id":76561198039016765,"connected_time":320000000000,"state":"active","ping":175},{"user_id":331,"name":"Uncle Moomin","steam_id":76561198011628656,"connected_time":261000000000,"state":"active","ping":82}]},{"server_id":22,"name":"Uncletopia | London | 6 | All Maps","name_short":"lon-6","host":"lon-1.uk.uncletopia.com","port":27065,"enabled":true,"region":"eu","cc":"gb","latitude":51.509865,"longitude":-0.118092,"reserved":0,"last_update":"0001-01-01T00:00:00Z","name_a2s":"Uncletopia | London | 6 | All Maps","protocol":17,"map":"pl_upward","folder":"tf","game":"Team Fortress","app_id":440,"player_count":20,"max_players":24,"Bots":0,"server_type":"Dedicated","server_os":"Linux","password":true,"vac":true,"version":"7961495","steam_id":85568392924742830,"keywords":["nocrits","nodmgspread","payload","uncletopia"],"game_id":440,"stv_port":27066,"stv_name":"Uncletopia | London | 6 | All Maps | STV","players":[{"user_id":276,"name":"Darfsterman #rustclash","steam_id":76561199004139305,"connected_time":482000000000,"state":"active","ping":69},{"user_id":240,"name":"Kaupsýslumaðurinn","steam_id":76561198070358944,"connected_time":3914000000000,"state":"active","ping":51},{"user_id":259,"name":"Plop_","steam_id":76561198112567921,"connected_time":1896000000000,"state":"active","ping":45},{"user_id":273,"name":"Dewotter","steam_id":76561198007653168,"connected_time":692000000000,"state":"active","ping":60},{"user_id":271,"name":"MovingIsOverRated","steam_id":76561198385633292,"connected_time":791000000000,"state":"active","ping":152},{"user_id":266,"name":"I jazzed myself","steam_id":76561198203016603,"connected_time":1504000000000,"state":"active","ping":59},{"user_id":278,"name":"I sell exotic parrots","steam_id":76561199192434258,"connected_time":450000000000,"state":"active","ping":90},{"user_id":263,"name":"Mach","steam_id":76561198952487564,"connected_time":1792000000000,"state":"active","ping":178},{"user_id":237,"name":"Jimmi Amareno","steam_id":76561198327750625,"connected_time":4048000000000,"state":"active","ping":34},{"user_id":233,"name":"TomNoSocks","steam_id":76561198114071046,"connected_time":4792000000000,"state":"active","ping":64},{"user_id":267,"name":"omnibombulator","steam_id":76561198025858897,"connected_time":1423000000000,"state":"active","ping":47},{"user_id":265,"name":"screenshot2020-25-09","steam_id":76561198255275650,"connected_time":1653000000000,"state":"active","ping":61},{"user_id":279,"name":"Wiggle Wiggle","steam_id":76561199053447896,"connected_time":429000000000,"state":"active","ping":152},{"user_id":280,"name":"Arii","steam_id":76561198138137939,"connected_time":426000000000,"state":"active","ping":56},{"user_id":248,"name":"Pierdu","steam_id":76561198028705770,"connected_time":2979000000000,"state":"active","ping":46},{"user_id":262,"name":"SlwoFø","steam_id":76561198049663931,"connected_time":1796000000000,"state":"active","ping":60},{"user_id":264,"name":"Fandovec03","steam_id":76561198252567650,"connected_time":1743000000000,"state":"active","ping":61},{"user_id":270,"name":"❤ Sparx ❤","steam_id":76561198095009261,"connected_time":942000000000,"state":"active","ping":56},{"user_id":216,"name":"Milosz52","steam_id":76561199060940204,"connected_time":5667000000000,"state":"active","ping":84},{"user_id":253,"name":"Mr_Pulse_","steam_id":76561198095001602,"connected_time":2472000000000,"state":"active","ping":112}]},{"server_id":40,"name":"Uncletopia | London | 7 | No Payload","name_short":"lon-7","host":"lon-1.uk.uncletopia.com","port":27075,"enabled":true,"region":"eu","cc":"gb","latitude":51.509865,"longitude":-0.118092,"reserved":0,"last_update":"0001-01-01T00:00:00Z","name_a2s":"Uncletopia | London | 7 | No Payload","protocol":17,"map":"ctf_sawmill","folder":"tf","game":"Team Fortress","app_id":440,"player_count":24,"max_players":24,"Bots":0,"server_type":"Dedicated","server_os":"Linux","password":true,"vac":true,"version":"7961495","steam_id":85568392924964314,"keywords":["ctf","nocrits","nodmgspread","uncletopia"],"game_id":440,"stv_port":27076,"stv_name":"Uncletopia | London | 7 | No Payload | STV","players":[{"user_id":260,"name":"HADID_sex_god","steam_id":76561198302623594,"connected_time":536000000000,"state":"active","ping":98},{"user_id":247,"name":"Tx_madmash","steam_id":76561198924656512,"connected_time":1144000000000,"state":"active","ping":115},{"user_id":215,"name":"Blad","steam_id":76561198866832210,"connected_time":2778000000000,"state":"active","ping":62},{"user_id":262,"name":"Gustavo_Fring_6969","steam_id":76561199373610279,"connected_time":353000000000,"state":"active","ping":102},{"user_id":242,"name":"Adolf Potter","steam_id":76561198120554557,"connected_time":1384000000000,"state":"active","ping":61},{"user_id":249,"name":"KingPotatoChips","steam_id":76561198035156465,"connected_time":1115000000000,"state":"active","ping":69},{"user_id":245,"name":"Twingo","steam_id":76561198207042812,"connected_time":1303000000000,"state":"active","ping":83},{"user_id":250,"name":"allimadness","steam_id":76561199061698187,"connected_time":1106000000000,"state":"active","ping":190},{"user_id":257,"name":"bkktrans","steam_id":76561198264393359,"connected_time":695000000000,"state":"active","ping":42},{"user_id":210,"name":"Saucy Jack","steam_id":76561198894525288,"connected_time":3021000000000,"state":"active","ping":45},{"user_id":235,"name":"Conan","steam_id":76561198158321202,"connected_time":1923000000000,"state":"active","ping":67},{"user_id":254,"name":"Cahl","steam_id":76561198980863125,"connected_time":1069000000000,"state":"active","ping":92},{"user_id":263,"name":"f0x","steam_id":76561198072921704,"connected_time":116000000000,"state":"active","ping":49},{"user_id":220,"name":"Shalalala","steam_id":76561198088707470,"connected_time":2741000000000,"state":"active","ping":47},{"user_id":261,"name":"Tinhead","steam_id":76561198446806080,"connected_time":496000000000,"state":"active","ping":142},{"user_id":243,"name":"Welder","steam_id":76561198355300561,"connected_time":1348000000000,"state":"active","ping":72},{"user_id":227,"name":"Nonok","steam_id":76561199480685498,"connected_time":2551000000000,"state":"active","ping":61},{"user_id":223,"name":"Gooby","steam_id":76561198383937031,"connected_time":2673000000000,"state":"active","ping":54},{"user_id":224,"name":"Mr Weatherman","steam_id":76561198435297875,"connected_time":2618000000000,"state":"active","ping":56},{"user_id":239,"name":"Mge Brother","steam_id":76561198860424456,"connected_time":1724000000000,"state":"active","ping":77},{"user_id":228,"name":"(1)mr weatherman","steam_id":76561198097612561,"connected_time":2537000000000,"state":"active","ping":71},{"user_id":229,"name":"RockFrenzy","steam_id":76561198005428050,"connected_time":2500000000000,"state":"active","ping":74},{"user_id":258,"name":"THE Grosser","steam_id":76561197995530666,"connected_time":695000000000,"state":"active","ping":61},{"user_id":264,"name":"Zzzz","steam_id":76561198152392309,"connected_time":105000000000,"state":"active","ping":59}]},{"server_id":41,"name":"Uncletopia | London | 8 | Community","name_short":"lon-8","host":"lon-1.uk.uncletopia.com","port":27085,"enabled":true,"region":"eu","cc":"gb","latitude":51.509865,"longitude":-0.118092,"reserved":0,"last_update":"0001-01-01T00:00:00Z","name_a2s":"Uncletopia | London | 8 | Community","protocol":17,"map":"workshop/koth_ashville_final.ugc2130459942","folder":"tf","game":"Team Fortress","app_id":440,"player_count":0,"max_players":24,"Bots":0,"server_type":"Dedicated","server_os":"Linux","password":true,"vac":true,"version":"7961495","steam_id":85568392924964315,"keywords":["cp","nocrits","nodmgspread","uncletopia"],"game_id":440,"stv_port":27086,"stv_name":"Uncletopia | London | 8 | Community | STV","players":null},{"server_id":300,"name":"Uncletopia | Montréal | 1 | All Maps","name_short":"mtl-1","host":"mtl-1.ca.uncletopia.com","port":27015,"enabled":true,"region":"us-east","cc":"ca","latitude":45.50889,"longitude":-73.56167,"reserved":0,"last_update":"0001-01-01T00:00:00Z","name_a2s":"Uncletopia | Montréal | 1 | All Maps","protocol":17,"map":"pl_swiftwater_final1","folder":"tf","game":"Team Fortress","app_id":440,"player_count":1,"max_players":24,"Bots":0,"server_type":"Dedicated","server_os":"Linux","password":true,"vac":true,"version":"7961495","steam_id":85568392924500087,"keywords":["nocrits","nodmgspread","payload","uncletopia"],"game_id":440,"stv_port":27016,"stv_name":"Uncletopia | Montréal | 1 | All Maps | STV","players":[{"user_id":4,"name":"TheGuy101","steam_id":76561199201772624,"connected_time":976000000000,"state":"active","ping":116}]},{"server_id":301,"name":"Uncletopia | Montréal | 2 | All Maps","name_short":"mtl-2","host":"mtl-1.ca.uncletopia.com","port":27025,"enabled":true,"region":"us-east","cc":"ca","latitude":45.50889,"longitude":-73.56167,"reserved":0,"last_update":"0001-01-01T00:00:00Z","name_a2s":"Uncletopia | Montréal | 2 | All Maps","protocol":17,"map":"koth_highpass","folder":"tf","game":"Team Fortress","app_id":440,"player_count":6,"max_players":24,"Bots":0,"server_type":"Dedicated","server_os":"Linux","password":true,"vac":true,"version":"7961495","steam_id":85568392924500088,"keywords":["cp","nocrits","nodmgspread","uncletopia"],"game_id":440,"stv_port":27026,"stv_name":"Uncletopia | Montréal | 2 | All Maps | STV","players":[{"user_id":13,"name":"EnDeRmAn","steam_id":76561199121993305,"connected_time":517000000000,"state":"active","ping":60},{"user_id":4,"name":"XxChocola20xX","steam_id":76561199108579557,"connected_time":3227000000000,"state":"active","ping":142},{"user_id":8,"name":"mr_makarovvru","steam_id":76561199104213927,"connected_time":1940000000000,"state":"active","ping":182},{"user_id":14,"name":"gravid baby","steam_id":76561198318646867,"connected_time":138000000000,"state":"active","ping":42},{"user_id":15,"name":"GruntTSD","steam_id":76561198034211311,"connected_time":81000000000,"state":"active","ping":121},{"user_id":10,"name":"gideon nav my beloved","steam_id":76561198259092181,"connected_time":1339000000000,"state":"active","ping":56}]},{"server_id":302,"name":"Uncletopia | Montréal | 3 | All Maps","name_short":"mtl-3","host":"mtl-1.ca.uncletopia.com","port":27035,"enabled":true,"region":"us-east","cc":"ca","latitude":45.50889,"longitude":-73.56167,"reserved":0,"last_update":"0001-01-01T00:00:00Z","name_a2s":"Uncletopia | Montréal | 3 | All Maps","protocol":17,"map":"koth_cascade","folder":"tf","game":"Team Fortress","app_id":440,"player_count":0,"max_players":24,"Bots":0,"server_type":"Dedicated","server_os":"Linux","password":true,"vac":true,"version":"7961495","steam_id":85568392924500089,"keywords":["cp","nocrits","nodmgspread","uncletopia"],"game_id":440,"stv_port":27036,"stv_name":"Uncletopia | Montréal | 3 | All Maps | STV","players":null},{"server_id":303,"name":"Uncletopia | Montréal | 4 | No Payload","name_short":"mtl-4","host":"mtl-1.ca.uncletopia.com","port":27045,"enabled":true,"region":"us-east","cc":"ca","latitude":45.50889,"longitude":-73.56167,"reserved":0,"last_update":"0001-01-01T00:00:00Z","name_a2s":"Uncletopia | Montréal | 4 | No Payload","protocol":17,"map":"koth_lakeside_final","folder":"tf","game":"Team Fortress","app_id":440,"player_count":0,"max_players":24,"Bots":0,"server_type":"Dedicated","server_os":"Linux","password":true,"vac":true,"version":"7961495","steam_id":85568392924500090,"keywords":["cp","nocrits","nodmgspread","uncletopia"],"game_id":440,"stv_port":27046,"stv_name":"Uncletopia | Montréal | 4 | No Payload | STV","players":null},{"server_id":13,"name":"Uncletopia | New York City | 1 | All Maps","name_short":"nyc-1","host":"nyc-1.us.uncletopia.com","port":27015,"enabled":true,"region":"us-east","cc":"us","latitude":40.73061,"longitude":-73.93524,"reserved":0,"last_update":"0001-01-01T00:00:00Z","name_a2s":"Uncletopia | New York City | 1 | All Maps","protocol":17,"map":"pl_barnblitz","folder":"tf","game":"Team Fortress","app_id":440,"player_count":23,"max_players":24,"Bots":0,"server_type":"Dedicated","server_os":"Linux","password":true,"vac":true,"version":"7961495","steam_id":85568392924469993,"keywords":["nocrits","nodmgspread","payload","uncletopia"],"game_id":440,"stv_port":27016,"stv_name":"Uncletopia | New York City | 1 | All Maps | STV","players":[{"user_id":528,"name":"Mister Mundy","steam_id":76561198145675134,"connected_time":2861000000000,"state":"active","ping":53},{"user_id":533,"name":"KGAMER blw.tf","steam_id":76561199087940594,"connected_time":2442000000000,"state":"active","ping":55},{"user_id":545,"name":"Za spooky!!","steam_id":76561199380446876,"connected_time":1200000000000,"state":"active","ping":83},{"user_id":513,"name":"rosable ☆","steam_id":76561199164371592,"connected_time":3688000000000,"state":"active","ping":64},{"user_id":514,"name":"Muffin","steam_id":76561199156302434,"connected_time":3674000000000,"state":"active","ping":70},{"user_id":555,"name":"Mysterious Stranger","steam_id":76561198212044371,"connected_time":190000000000,"state":"active","ping":70},{"user_id":548,"name":"Nic0","steam_id":76561198305690218,"connected_time":1168000000000,"state":"active","ping":57},{"user_id":530,"name":"Genectic","steam_id":76561198202130192,"connected_time":2491000000000,"state":"active","ping":74},{"user_id":535,"name":"Raine","steam_id":76561198055761141,"connected_time":2427000000000,"state":"active","ping":92},{"user_id":556,"name":"l3fty","steam_id":76561198057788958,"connected_time":117000000000,"state":"active","ping":63},{"user_id":549,"name":"t","steam_id":76561198175988929,"connected_time":1150000000000,"state":"active","ping":113},{"user_id":554,"name":"Rodgedan","steam_id":76561198226236524,"connected_time":1010000000000,"state":"active","ping":80},{"user_id":552,"name":"Cookie","steam_id":76561198047736899,"connected_time":1130000000000,"state":"active","ping":36},{"user_id":531,"name":"dr peppah chug!","steam_id":76561198068835693,"connected_time":2457000000000,"state":"active","ping":76},{"user_id":499,"name":"stupid bastard","steam_id":76561199195104977,"connected_time":5174000000000,"state":"active","ping":62},{"user_id":544,"name":"Drake the Pixel","steam_id":76561198131824401,"connected_time":1413000000000,"state":"active","ping":35},{"user_id":532,"name":"PileofPolygons","steam_id":76561199321343460,"connected_time":2453000000000,"state":"active","ping":76},{"user_id":557,"name":"battle clown","steam_id":76561198045788371,"connected_time":6000000000,"state":"spawning","ping":67},{"user_id":540,"name":"Poi","steam_id":76561198176914898,"connected_time":1703000000000,"state":"active","ping":88},{"user_id":551,"name":"ЯawrFatcat","steam_id":76561198017698926,"connected_time":1144000000000,"state":"active","ping":74},{"user_id":553,"name":"Queso2469","steam_id":76561197993024580,"connected_time":1109000000000,"state":"active","ping":42},{"user_id":541,"name":"Krusty Nut","steam_id":76561198120637924,"connected_time":1551000000000,"state":"active","ping":51},{"user_id":543,"name":"MetalNavigator","steam_id":76561198974231439,"connected_time":1525000000000,"state":"active","ping":96}]},{"server_id":14,"name":"Uncletopia | New York City | 2 | All Maps","name_short":"nyc-2","host":"nyc-1.us.uncletopia.com","port":27025,"enabled":true,"region":"us-east","cc":"us","latitude":40.73061,"longitude":-73.93524,"reserved":0,"last_update":"0001-01-01T00:00:00Z","name_a2s":"Uncletopia | New York City | 2 | All Maps","protocol":17,"map":"pl_pier","folder":"tf","game":"Team Fortress","app_id":440,"player_count":24,"max_players":24,"Bots":0,"server_type":"Dedicated","server_os":"Linux","password":true,"vac":true,"version":"7961495","steam_id":85568392924469994,"keywords":["nocrits","nodmgspread","payload","uncletopia"],"game_id":440,"stv_port":27026,"stv_name":"Uncletopia | New York City | 2 | All Maps | STV","players":[{"user_id":360,"name":"...","steam_id":76561198312298321,"connected_time":757000000000,"state":"active","ping":67},{"user_id":361,"name":"neet","steam_id":76561197968115168,"connected_time":751000000000,"state":"active","ping":46},{"user_id":325,"name":"raphaim #bb","steam_id":76561198089649422,"connected_time":3013000000000,"state":"active","ping":113},{"user_id":343,"name":"Siren","steam_id":76561198047395823,"connected_time":2073000000000,"state":"active","ping":95},{"user_id":332,"name":"antoniov00gaming","steam_id":76561198364632073,"connected_time":2284000000000,"state":"active","ping":82},{"user_id":362,"name":"Just washed","steam_id":76561199030160932,"connected_time":746000000000,"state":"active","ping":79},{"user_id":371,"name":"face","steam_id":76561198035629877,"connected_time":408000000000,"state":"active","ping":60},{"user_id":349,"name":"Esteban Delsin","steam_id":76561198433519639,"connected_time":1790000000000,"state":"active","ping":126},{"user_id":354,"name":"Redkiller","steam_id":76561199453655288,"connected_time":1169000000000,"state":"active","ping":67},{"user_id":369,"name":"Boot","steam_id":76561198423162555,"connected_time":460000000000,"state":"active","ping":76},{"user_id":348,"name":"Kritzburgh","steam_id":76561198149466938,"connected_time":1798000000000,"state":"active","ping":63},{"user_id":365,"name":"cellogamer","steam_id":76561198016937098,"connected_time":607000000000,"state":"active","ping":54},{"user_id":347,"name":"AstronautPug","steam_id":76561198162372709,"connected_time":1968000000000,"state":"active","ping":73},{"user_id":341,"name":"femtofarad™","steam_id":76561198308583053,"connected_time":2106000000000,"state":"active","ping":68},{"user_id":315,"name":"marcus tillius","steam_id":76561197982832274,"connected_time":3648000000000,"state":"active","ping":62},{"user_id":370,"name":"Doppelpunkt","steam_id":76561198102137730,"connected_time":450000000000,"state":"active","ping":45},{"user_id":372,"name":"Guil","steam_id":76561197993289176,"connected_time":390000000000,"state":"active","ping":63},{"user_id":375,"name":"Piss God","steam_id":76561198090504334,"connected_time":61000000000,"state":"active","ping":62},{"user_id":269,"name":"Shush","steam_id":76561198123902813,"connected_time":8617000000000,"state":"active","ping":113},{"user_id":358,"name":"2L84U","steam_id":76561198079176017,"connected_time":926000000000,"state":"active","ping":101},{"user_id":373,"name":"speedy","steam_id":76561199229888608,"connected_time":387000000000,"state":"active","ping":46},{"user_id":366,"name":"peace dog","steam_id":76561198267988522,"connected_time":607000000000,"state":"active","ping":67},{"user_id":316,"name":"peniblor","steam_id":76561198307923786,"connected_time":3628000000000,"state":"active","ping":128},{"user_id":374,"name":"Orange Triangle","steam_id":76561198320498182,"connected_time":312000000000,"state":"active","ping":85}]},{"server_id":15,"name":"Uncletopia | New York City | 3 | Stopwatch Beta","name_short":"nyc-3","host":"nyc-1.us.uncletopia.com","port":27035,"enabled":true,"region":"us-east","cc":"us","latitude":40.73061,"longitude":-73.93524,"reserved":0,"last_update":"0001-01-01T00:00:00Z","name_a2s":"Uncletopia | New York City | 3 | Stopwatch Beta","protocol":17,"map":"koth_highpass","folder":"tf","game":"Team Fortress","app_id":440,"player_count":3,"max_players":24,"Bots":0,"server_type":"Dedicated","server_os":"Linux","password":true,"vac":true,"version":"7961495","steam_id":85568392924742820,"keywords":["cp","nocrits","nodmgspread","uncletopia"],"game_id":440,"stv_port":27036,"stv_name":"Uncletopia | New York City | 3 | Stopwatch Beta | STV","players":[{"user_id":68,"name":"yer_nerd","steam_id":76561199435454093,"connected_time":538000000000,"state":"active","ping":68},{"user_id":65,"name":"ssjrone600","steam_id":76561199208263809,"connected_time":1683000000000,"state":"active","ping":58},{"user_id":66,"name":"Nice21","steam_id":76561199427548141,"connected_time":1492000000000,"state":"active","ping":75}]},{"server_id":16,"name":"Uncletopia | New York City | 4 | Community","name_short":"nyc-4","host":"nyc-1.us.uncletopia.com","port":27045,"enabled":true,"region":"us-east","cc":"us","latitude":40.73061,"longitude":-73.93524,"reserved":0,"last_update":"0001-01-01T00:00:00Z","name_a2s":"Uncletopia | New York City | 4 | Community","protocol":17,"map":"workshop/cp_bruhstbowl_b6.ugc2878604990","folder":"tf","game":"Team Fortress","app_id":440,"player_count":24,"max_players":24,"Bots":0,"server_type":"Dedicated","server_os":"Linux","password":true,"vac":true,"version":"7961495","steam_id":85568392924742821,"keywords":["cp","nocrits","nodmgspread","uncletopia"],"game_id":440,"stv_port":27046,"stv_name":"Uncletopia | New York City | 4 | Community | STV","players":[{"user_id":211,"name":"babyface","steam_id":76561199440933687,"connected_time":527000000000,"state":"active","ping":65},{"user_id":212,"name":"MeatGrinderGuy(Vegans Beware)","steam_id":76561198833470398,"connected_time":509000000000,"state":"active","ping":55},{"user_id":152,"name":"Mecha","steam_id":76561198014927379,"connected_time":3976000000000,"state":"active","ping":71},{"user_id":196,"name":"TheGhostThatWas","steam_id":76561198055836483,"connected_time":1730000000000,"state":"active","ping":45},{"user_id":201,"name":"Wut dat dog doin","steam_id":76561198848535267,"connected_time":1024000000000,"state":"active","ping":146},{"user_id":213,"name":"Hope","steam_id":76561199201900779,"connected_time":497000000000,"state":"active","ping":60},{"user_id":204,"name":"is there anything unfappable?","steam_id":76561198032259680,"connected_time":996000000000,"state":"active","ping":65},{"user_id":215,"name":"mooseC","steam_id":76561198042775367,"connected_time":395000000000,"state":"active","ping":54},{"user_id":190,"name":"Raizen","steam_id":76561199092445367,"connected_time":2537000000000,"state":"active","ping":60},{"user_id":151,"name":"Rang Reveiws","steam_id":76561198968587541,"connected_time":4072000000000,"state":"active","ping":54},{"user_id":216,"name":"Keyblockor","steam_id":76561197997009501,"connected_time":368000000000,"state":"active","ping":103},{"user_id":148,"name":"Nickanader","steam_id":76561199122027856,"connected_time":4107000000000,"state":"active","ping":65},{"user_id":173,"name":"King Sans","steam_id":76561198294198517,"connected_time":3381000000000,"state":"active","ping":47},{"user_id":224,"name":"Ender","steam_id":76561198819439451,"connected_time":148000000000,"state":"active","ping":47},{"user_id":219,"name":"Error *********","steam_id":76561199017745158,"connected_time":339000000000,"state":"active","ping":80},{"user_id":181,"name":"Tinaho","steam_id":76561198815585874,"connected_time":2846000000000,"state":"active","ping":114},{"user_id":223,"name":"Mr. Sun","steam_id":76561198081338822,"connected_time":185000000000,"state":"active","ping":85},{"user_id":222,"name":"santargo","steam_id":76561198838282369,"connected_time":198000000000,"state":"active","ping":61},{"user_id":225,"name":"brian damage","steam_id":76561198118455606,"connected_time":140000000000,"state":"active","ping":60},{"user_id":226,"name":"∇TEARS","steam_id":76561198740347952,"connected_time":111000000000,"state":"active","ping":85},{"user_id":227,"name":"The Sinister Potion","steam_id":76561198131280715,"connected_time":104000000000,"state":"active","ping":54},{"user_id":189,"name":"hobojoemama","steam_id":76561198108345568,"connected_time":2622000000000,"state":"active","ping":101},{"user_id":195,"name":"DaBigRat","steam_id":76561199169877252,"connected_time":2165000000000,"state":"active","ping":136},{"user_id":163,"name":"scout gaming","steam_id":76561199314496252,"connected_time":3722000000000,"state":"active","ping":66}]},{"server_id":142,"name":"Uncletopia | São Paulo | 1 | All Maps","name_short":"sao-1","host":"sao-1.br.uncletopia.com","port":27015,"enabled":true,"region":"sa","cc":"br","latitude":-23.533773,"longitude":-46.62529,"reserved":0,"last_update":"0001-01-01T00:00:00Z","name_a2s":"Uncletopia | São Paulo | 1 | All Maps","protocol":17,"map":"pl_frontier_final","folder":"tf","game":"Team Fortress","app_id":440,"player_count":5,"max_players":24,"Bots":0,"server_type":"Dedicated","server_os":"Linux","password":true,"vac":true,"version":"7961495","steam_id":85568392924469996,"keywords":["nocrits","nodmgspread","payload","uncletopia"],"game_id":440,"stv_port":27016,"stv_name":"Uncletopia | São Paulo | 1 | All Maps | STV","players":[{"user_id":152,"name":"kifi","steam_id":76561199069994646,"connected_time":1939000000000,"state":"active","ping":89},{"user_id":165,"name":"The Patata Robot 2.0","steam_id":76561198244343008,"connected_time":76000000000,"state":"active","ping":91},{"user_id":164,"name":"que belezaaaaaa","steam_id":76561198876309936,"connected_time":524000000000,"state":"active","ping":44},{"user_id":63,"name":"YellowEyePatch Guy","steam_id":76561199108111310,"connected_time":9963000000000,"state":"active","ping":56},{"user_id":161,"name":"MEKEDavis","steam_id":76561198984065486,"connected_time":1322000000000,"state":"active","ping":101}]},{"server_id":143,"name":"Uncletopia | São Paulo | 2 | Community","name_short":"sao-2","host":"sao-2.br.uncletopia.com","port":27015,"enabled":true,"region":"sa","cc":"br","latitude":-23.533773,"longitude":-46.62529,"reserved":0,"last_update":"0001-01-01T00:00:00Z","name_a2s":"Uncletopia | São Paulo | 2 | Community","protocol":17,"map":"workshop/pl_badwater_pro_v12.ugc2142942074","folder":"tf","game":"Team Fortress","app_id":440,"player_count":2,"max_players":24,"Bots":0,"server_type":"Dedicated","server_os":"Linux","password":true,"vac":true,"version":"7961495","steam_id":85568392924485349,"keywords":["nocrits","nodmgspread","payload","uncletopia"],"game_id":440,"stv_port":27016,"stv_name":"Uncletopia | São Paulo | 2 | Community | STV","players":[{"user_id":19,"name":"TheHiddenBlade","steam_id":76561199129787866,"connected_time":2377000000000,"state":"active","ping":209},{"user_id":20,"name":"Cheesi","steam_id":76561199417190840,"connected_time":2259000000000,"state":"active","ping":203}]},{"server_id":7,"name":"Uncletopia | Seattle | 1 | All Maps","name_short":"sea-1","host":"sea-1.us.uncletopia.com","port":27015,"enabled":true,"region":"us-west","cc":"us","latitude":47.608013,"longitude":-122.33517,"reserved":0,"last_update":"0001-01-01T00:00:00Z","name_a2s":"Uncletopia | Seattle | 1 | All Maps","protocol":17,"map":"pl_borneo","folder":"tf","game":"Team Fortress","app_id":440,"player_count":24,"max_players":24,"Bots":0,"server_type":"Dedicated","server_os":"Linux","password":true,"vac":true,"version":"7961495","steam_id":85568392924469997,"keywords":["nocrits","nodmgspread","payload","uncletopia"],"game_id":440,"stv_port":27016,"stv_name":"Uncletopia | Seattle | 1 | All Maps | STV","players":[{"user_id":155,"name":"Wimpzilla","steam_id":76561198025166189,"connected_time":1813000000000,"state":"active","ping":46},{"user_id":77,"name":"General Fisticuffs","steam_id":76561198255721392,"connected_time":10304000000000,"state":"active","ping":113},{"user_id":94,"name":"Fh","steam_id":76561198000903511,"connected_time":7953000000000,"state":"active","ping":74},{"user_id":144,"name":"ZEKKER","steam_id":76561197967968980,"connected_time":2527000000000,"state":"active","ping":53},{"user_id":151,"name":"Vincent Van Bro","steam_id":76561197966919802,"connected_time":1916000000000,"state":"active","ping":57},{"user_id":139,"name":"greens beans","steam_id":76561198153611491,"connected_time":3162000000000,"state":"active","ping":40},{"user_id":145,"name":"momus","steam_id":76561198966979196,"connected_time":2462000000000,"state":"active","ping":76},{"user_id":160,"name":"Skoad","steam_id":76561198104650528,"connected_time":876000000000,"state":"active","ping":63},{"user_id":138,"name":"gnoblin","steam_id":76561198210322871,"connected_time":3283000000000,"state":"active","ping":88},{"user_id":152,"name":"dust | she/it","steam_id":76561198045218909,"connected_time":1910000000000,"state":"active","ping":35},{"user_id":121,"name":"oo","steam_id":76561198119626492,"connected_time":5324000000000,"state":"active","ping":75},{"user_id":163,"name":"mango cafe","steam_id":76561198142328193,"connected_time":595000000000,"state":"active","ping":51},{"user_id":159,"name":"Connor","steam_id":76561198382997456,"connected_time":1256000000000,"state":"active","ping":76},{"user_id":137,"name":"S Q U I S H E  T H A T  C A T","steam_id":76561198293865429,"connected_time":3466000000000,"state":"active","ping":45},{"user_id":153,"name":"CashGordon","steam_id":76561197975594096,"connected_time":1906000000000,"state":"active","ping":41},{"user_id":124,"name":"♥ President Shitfart ♥","steam_id":76561198141819053,"connected_time":4820000000000,"state":"active","ping":68},{"user_id":146,"name":"exephur","steam_id":76561198135763234,"connected_time":2387000000000,"state":"active","ping":61},{"user_id":133,"name":"bobaddict","steam_id":76561199137063042,"connected_time":3794000000000,"state":"active","ping":49},{"user_id":154,"name":"BlazedBunny","steam_id":76561198243610560,"connected_time":1844000000000,"state":"active","ping":77},{"user_id":147,"name":"2 Point Tom","steam_id":76561198087617008,"connected_time":2375000000000,"state":"active","ping":56},{"user_id":162,"name":"R33se","steam_id":76561198296531992,"connected_time":756000000000,"state":"active","ping":102},{"user_id":141,"name":"THAT CAT","steam_id":76561198010828625,"connected_time":2829000000000,"state":"active","ping":39},{"user_id":142,"name":"Qas","steam_id":76561198067564482,"connected_time":2823000000000,"state":"active","ping":72},{"user_id":150,"name":"Landlord","steam_id":76561198987913057,"connected_time":2160000000000,"state":"active","ping":102}]},{"server_id":119,"name":"Uncletopia | Seattle | 2 | All Maps","name_short":"sea-2","host":"sea-1.us.uncletopia.com","port":27025,"enabled":true,"region":"us-west","cc":"us","latitude":47.608013,"longitude":-122.33517,"reserved":0,"last_update":"0001-01-01T00:00:00Z","name_a2s":"Uncletopia | Seattle | 2 | All Maps","protocol":17,"map":"koth_highpass","folder":"tf","game":"Team Fortress","app_id":440,"player_count":24,"max_players":24,"Bots":0,"server_type":"Dedicated","server_os":"Linux","password":true,"vac":true,"version":"7961495","steam_id":85568392924469998,"keywords":["cp","nocrits","nodmgspread","uncletopia"],"game_id":440,"stv_port":27026,"stv_name":"Uncletopia | Seattle | 2 | All Maps | STV","players":[{"user_id":130,"name":"Akira (they/them)","steam_id":76561198294601519,"connected_time":381000000000,"state":"active","ping":35},{"user_id":56,"name":"Defeat","steam_id":76561198065203818,"connected_time":6750000000000,"state":"active","ping":33},{"user_id":68,"name":"forest (minecraft npc)","steam_id":76561198157960257,"connected_time":5408000000000,"state":"active","ping":36},{"user_id":141,"name":"lukamine","steam_id":76561198166827208,"connected_time":143000000000,"state":"active","ping":45},{"user_id":94,"name":"Jkbh1","steam_id":76561198093449670,"connected_time":3465000000000,"state":"active","ping":73},{"user_id":133,"name":"||BassMan||","steam_id":76561198279865229,"connected_time":285000000000,"state":"active","ping":91},{"user_id":101,"name":"Pneumo.","steam_id":76561197987911883,"connected_time":3071000000000,"state":"active","ping":68},{"user_id":134,"name":"ORANGE","steam_id":76561198000401769,"connected_time":284000000000,"state":"active","ping":45},{"user_id":137,"name":"O","steam_id":76561198450073779,"connected_time":271000000000,"state":"active","ping":48},{"user_id":127,"name":"gunnarrevel","steam_id":76561198842854582,"connected_time":611000000000,"state":"active","ping":64},{"user_id":142,"name":"Jane Against the Grain","steam_id":76561198424248616,"connected_time":133000000000,"state":"active","ping":99},{"user_id":126,"name":"Seriously Bruh","steam_id":76561198070408485,"connected_time":672000000000,"state":"active","ping":53},{"user_id":135,"name":"LarsLoop","steam_id":76561198064892315,"connected_time":277000000000,"state":"active","ping":102},{"user_id":129,"name":"Angela :3","steam_id":76561198991101353,"connected_time":465000000000,"state":"active","ping":43},{"user_id":136,"name":"rainbowmaster25!","steam_id":76561199215255414,"connected_time":275000000000,"state":"active","ping":90},{"user_id":125,"name":"polyatomic subterfuge","steam_id":76561198050192689,"connected_time":791000000000,"state":"active","ping":75},{"user_id":138,"name":"ベガーズブラスト (BB BL","steam_id":76561198999161827,"connected_time":213000000000,"state":"active","ping":112},{"user_id":60,"name":"ejschild745","steam_id":76561199013388867,"connected_time":6235000000000,"state":"active","ping":78},{"user_id":139,"name":"Keamy","steam_id":76561199471434875,"connected_time":207000000000,"state":"active","ping":45},{"user_id":140,"name":"KingSteve42","steam_id":76561198409455888,"connected_time":199000000000,"state":"active","ping":102},{"user_id":111,"name":"bemo","steam_id":76561198344331503,"connected_time":2105000000000,"state":"active","ping":45},{"user_id":143,"name":"Ġ1 ♦ Synth","steam_id":76561198058660228,"connected_time":86000000000,"state":"active","ping":105},{"user_id":132,"name":"SAD PANDA GAMING","steam_id":76561198060846419,"connected_time":303000000000,"state":"active","ping":58},{"user_id":118,"name":"loader","steam_id":76561199196442823,"connected_time":1723000000000,"state":"active","ping":99}]},{"server_id":406,"name":"Uncletopia | Seattle | 3 | Stopwatch Beta","name_short":"sea-3","host":"sea-1.us.uncletopia.com","port":27035,"enabled":true,"region":"us-west","cc":"us","latitude":47.608013,"longitude":-122.33517,"reserved":0,"last_update":"0001-01-01T00:00:00Z","name_a2s":"Uncletopia | Seattle | 3 | Stopwatch Beta","protocol":17,"map":"koth_lakeside_final","folder":"tf","game":"Team Fortress","app_id":440,"player_count":0,"max_players":24,"Bots":0,"server_type":"Dedicated","server_os":"Linux","password":true,"vac":true,"version":"7961495","steam_id":85568392924515217,"keywords":["cp","nocrits","nodmgspread","uncletopia"],"game_id":440,"stv_port":27036,"stv_name":"Uncletopia | Seattle | 3 | Stopwatch Beta | STV","players":null},{"server_id":17,"name":"Uncletopia | San Francisco | 1 | All Maps","name_short":"sfo-1","host":"sfo-1.us.uncletopia.com","port":27015,"enabled":true,"region":"us-west","cc":"us","latitude":37.77397,"longitude":-122.4313,"reserved":0,"last_update":"0001-01-01T00:00:00Z","name_a2s":"Uncletopia | San Francisco | 1 | All Maps","protocol":17,"map":"ctf_2fort","folder":"tf","game":"Team Fortress","app_id":440,"player_count":21,"max_players":24,"Bots":0,"server_type":"Dedicated","server_os":"Linux","password":true,"vac":true,"version":"7961495","steam_id":85568392924469999,"keywords":["ctf","nocrits","nodmgspread","uncletopia"],"game_id":440,"stv_port":27016,"stv_name":"Uncletopia | San Francisco | 1 | All Maps | STV","players":[{"user_id":13,"name":"Huntsman Sniper","steam_id":76561198204055701,"connected_time":3823000000000,"state":"active","ping":56},{"user_id":19,"name":"omnislime","steam_id":76561199382475668,"connected_time":2740000000000,"state":"active","ping":97},{"user_id":58,"name":"puffer","steam_id":76561199049164456,"connected_time":913000000000,"state":"active","ping":58},{"user_id":64,"name":"isomething","steam_id":76561199221951548,"connected_time":531000000000,"state":"active","ping":68},{"user_id":63,"name":"Pyrano","steam_id":76561198841531936,"connected_time":711000000000,"state":"active","ping":177},{"user_id":25,"name":"hoOmIN","steam_id":76561198334947079,"connected_time":1992000000000,"state":"active","ping":46},{"user_id":53,"name":"BurdBrain","steam_id":76561197962097737,"connected_time":1097000000000,"state":"active","ping":63},{"user_id":66,"name":"YouAreReadingThis","steam_id":76561198367831600,"connected_time":159000000000,"state":"active","ping":75},{"user_id":28,"name":"The Original Ryan","steam_id":76561197992443496,"connected_time":1895000000000,"state":"active","ping":33},{"user_id":67,"name":"mr cool","steam_id":76561197967915784,"connected_time":72000000000,"state":"active","ping":74},{"user_id":68,"name":"Draxlo","steam_id":76561199363093658,"connected_time":65000000000,"state":"active","ping":212},{"user_id":49,"name":"Can You Feel It Mr.Krabs","steam_id":76561198128302414,"connected_time":1326000000000,"state":"active","ping":62},{"user_id":35,"name":"Chaptain","steam_id":76561198452725739,"connected_time":1782000000000,"state":"active","ping":67},{"user_id":37,"name":"tacofever","steam_id":76561198010966507,"connected_time":1729000000000,"state":"active","ping":77},{"user_id":42,"name":"but why though?","steam_id":76561198091871087,"connected_time":1553000000000,"state":"active","ping":45},{"user_id":60,"name":"Rat","steam_id":76561199015890000,"connected_time":871000000000,"state":"active","ping":128},{"user_id":41,"name":"Real Azure #SaveTF2","steam_id":76561198095912284,"connected_time":1645000000000,"state":"active","ping":71},{"user_id":43,"name":"SomeRandomMail","steam_id":76561199002913110,"connected_time":1548000000000,"state":"active","ping":45},{"user_id":56,"name":"minimalpair","steam_id":76561198071788709,"connected_time":1066000000000,"state":"active","ping":116},{"user_id":50,"name":"mrthugpug1732","steam_id":76561198881200768,"connected_time":1307000000000,"state":"active","ping":70},{"user_id":48,"name":"FrostNova","steam_id":76561198348354629,"connected_time":1503000000000,"state":"active","ping":56}]},{"server_id":18,"name":"Uncletopia | San Francisco | 2 | All Maps","name_short":"sfo-2","host":"sfo-1.us.uncletopia.com","port":27025,"enabled":true,"region":"us-west","cc":"us","latitude":37.77397,"longitude":-122.4313,"reserved":0,"last_update":"0001-01-01T00:00:00Z","name_a2s":"Uncletopia | San Francisco | 2 | All Maps","protocol":17,"map":"cp_snakewater_final1","folder":"tf","game":"Team Fortress","app_id":440,"player_count":0,"max_players":24,"Bots":0,"server_type":"Dedicated","server_os":"Linux","password":true,"vac":true,"version":"7961495","steam_id":85568392924470000,"keywords":["cp","nocrits","nodmgspread","uncletopia"],"game_id":440,"stv_port":27026,"stv_name":"Uncletopia | San Francisco | 2 | All Maps | STV","players":null},{"server_id":19,"name":"Uncletopia | San Francisco | 3 | Stopwatch Beta","name_short":"sfo-3","host":"sfo-1.us.uncletopia.com","port":27035,"enabled":true,"region":"us-west","cc":"us","latitude":37.77397,"longitude":-122.4313,"reserved":0,"last_update":"0001-01-01T00:00:00Z","name_a2s":"Uncletopia | San Francisco | 3 | Stopwatch Beta","protocol":17,"map":"pl_borneo","folder":"tf","game":"Team Fortress","app_id":440,"player_count":0,"max_players":24,"Bots":0,"server_type":"Dedicated","server_os":"Linux","password":true,"vac":true,"version":"7961495","steam_id":85568392924742824,"keywords":["nocrits","nodmgspread","payload","uncletopia"],"game_id":440,"stv_port":27036,"stv_name":"Uncletopia | San Francisco | 3 | Stopwatch Beta | STV","players":null},{"server_id":20,"name":"Uncletopia | San Francisco | 4 | Community","name_short":"sfo-4","host":"sfo-1.us.uncletopia.com","port":27045,"enabled":true,"region":"us-west","cc":"us","latitude":37.77397,"longitude":-122.4313,"reserved":0,"last_update":"0001-01-01T00:00:00Z","name_a2s":"Uncletopia | San Francisco | 4 | Community","protocol":17,"map":"koth_viaduct","folder":"tf","game":"Team Fortress","app_id":440,"player_count":0,"max_players":24,"Bots":0,"server_type":"Dedicated","server_os":"Linux","password":true,"vac":true,"version":"7961495","steam_id":85568392924742826,"keywords":["cp","nocrits","nodmgspread","uncletopia"],"game_id":440,"stv_port":27046,"stv_name":"Uncletopia | San Francisco | 4 | Community | STV","players":null},{"server_id":141,"name":"Uncletopia | Sydney | 1 | All Maps","name_short":"syd-1","host":"syd-1.au.uncletopia.com","port":27015,"enabled":true,"region":"au","cc":"au","latitude":-33.865143,"longitude":151.2099,"reserved":0,"last_update":"0001-01-01T00:00:00Z","name_a2s":"","protocol":0,"map":"","folder":"","game":"","app_id":0,"player_count":0,"max_players":0,"Bots":0,"server_type":"","server_os":"","password":false,"vac":false,"version":"","steam_id":0,"keywords":null,"game_id":0,"stv_port":0,"stv_name":"","players":null},{"server_id":123,"name":"Uncletopia | Sydney | 2 | All Maps","name_short":"syd-2","host":"syd-1.au.uncletopia.com","port":27025,"enabled":true,"region":"au","cc":"au","latitude":-33.865143,"longitude":151.2099,"reserved":0,"last_update":"0001-01-01T00:00:00Z","name_a2s":"","protocol":0,"map":"","folder":"","game":"","app_id":0,"player_count":0,"max_players":0,"Bots":0,"server_type":"","server_os":"","password":false,"vac":false,"version":"","steam_id":0,"keywords":null,"game_id":0,"stv_port":0,"stv_name":"","players":null},{"server_id":395,"name":"Uncletopia | Sydney | 3 | All Maps","name_short":"syd-3","host":"syd-1.au.uncletopia.com","port":27035,"enabled":true,"region":"au","cc":"au","latitude":-33.865143,"longitude":151.2099,"reserved":0,"last_update":"0001-01-01T00:00:00Z","name_a2s":"","protocol":0,"map":"","folder":"","game":"","app_id":0,"player_count":0,"max_players":0,"Bots":0,"server_type":"","server_os":"","password":false,"vac":false,"version":"","steam_id":0,"keywords":null,"game_id":0,"stv_port":0,"stv_name":"","players":null},{"server_id":396,"name":"Uncletopia | Sydney | 4 | All Maps","name_short":"syd-4","host":"syd-1.au.uncletopia.com","port":27045,"enabled":true,"region":"au","cc":"au","latitude":-33.865143,"longitude":151.2099,"reserved":0,"last_update":"0001-01-01T00:00:00Z","name_a2s":"","protocol":0,"map":"","folder":"","game":"","app_id":0,"player_count":0,"max_players":0,"Bots":0,"server_type":"","server_os":"","password":false,"vac":false,"version":"","steam_id":0,"keywords":null,"game_id":0,"stv_port":0,"stv_name":"","players":null},{"server_id":58,"name":"Uncletopia | Sydney | 5 | Stopwatch Beta","name_short":"syd-5","host":"syd-1.au.uncletopia.com","port":27055,"enabled":true,"region":"au","cc":"au","latitude":-33.865143,"longitude":151.2099,"reserved":0,"last_update":"0001-01-01T00:00:00Z","name_a2s":"","protocol":0,"map":"","folder":"","game":"","app_id":0,"player_count":0,"max_players":0,"Bots":0,"server_type":"","server_os":"","password":false,"vac":false,"version":"","steam_id":0,"keywords":null,"game_id":0,"stv_port":0,"stv_name":"","players":null},{"server_id":59,"name":"Uncletopia | Sydney | 6 | Community","name_short":"syd-6","host":"syd-1.au.uncletopia.com","port":27065,"enabled":true,"region":"au","cc":"au","latitude":-33.865143,"longitude":151.2099,"reserved":0,"last_update":"0001-01-01T00:00:00Z","name_a2s":"","protocol":0,"map":"","folder":"","game":"","app_id":0,"player_count":0,"max_players":0,"Bots":0,"server_type":"","server_os":"","password":false,"vac":false,"version":"","steam_id":0,"keywords":null,"game_id":0,"stv_port":0,"stv_name":"","players":null},{"server_id":49,"name":"Uncletopia | Warsaw | 1 | All Maps","name_short":"waw-1","host":"waw-1.pl.uncletopia.com","port":27015,"enabled":true,"region":"eu","cc":"pl","latitude":52.2297,"longitude":21.017532,"reserved":0,"last_update":"0001-01-01T00:00:00Z","name_a2s":"","protocol":0,"map":"","folder":"","game":"","app_id":0,"player_count":0,"max_players":0,"Bots":0,"server_type":"","server_os":"","password":false,"vac":false,"version":"","steam_id":0,"keywords":null,"game_id":0,"stv_port":0,"stv_name":"","players":null},{"server_id":50,"name":"Uncletopia | Warsaw | 2 | All Maps","name_short":"waw-2","host":"waw-1.pl.uncletopia.com","port":27025,"enabled":true,"region":"eu","cc":"pl","latitude":52.2297,"longitude":21.017532,"reserved":0,"last_update":"0001-01-01T00:00:00Z","name_a2s":"","protocol":0,"map":"","folder":"","game":"","app_id":0,"player_count":0,"max_players":0,"Bots":0,"server_type":"","server_os":"","password":false,"vac":false,"version":"","steam_id":0,"keywords":null,"game_id":0,"stv_port":0,"stv_name":"","players":null},{"server_id":51,"name":"Uncletopia | Warsaw | 3 | All Maps","name_short":"waw-3","host":"waw-1.pl.uncletopia.com","port":27035,"enabled":true,"region":"eu","cc":"pl","latitude":52.2297,"longitude":21.017532,"reserved":0,"last_update":"0001-01-01T00:00:00Z","name_a2s":"","protocol":0,"map":"","folder":"","game":"","app_id":0,"player_count":0,"max_players":0,"Bots":0,"server_type":"","server_os":"","password":false,"vac":false,"version":"","steam_id":0,"keywords":null,"game_id":0,"stv_port":0,"stv_name":"","players":null},{"server_id":52,"name":"Uncletopia | Warsaw | 4 | All Maps","name_short":"waw-4","host":"waw-1.pl.uncletopia.com","port":27045,"enabled":true,"region":"eu","cc":"pl","latitude":52.2297,"longitude":21.017532,"reserved":0,"last_update":"0001-01-01T00:00:00Z","name_a2s":"","protocol":0,"map":"","folder":"","game":"","app_id":0,"player_count":0,"max_players":0,"Bots":0,"server_type":"","server_os":"","password":false,"vac":false,"version":"","steam_id":0,"keywords":null,"game_id":0,"stv_port":0,"stv_name":"","players":null},{"server_id":53,"name":"Uncletopia | Warsaw | 5 | No Payload","name_short":"waw-5","host":"waw-1.pl.uncletopia.com","port":27055,"enabled":true,"region":"eu","cc":"pl","latitude":52.2297,"longitude":21.017532,"reserved":0,"last_update":"0001-01-01T00:00:00Z","name_a2s":"","protocol":0,"map":"","folder":"","game":"","app_id":0,"player_count":0,"max_players":0,"Bots":0,"server_type":"","server_os":"","password":false,"vac":false,"version":"","steam_id":0,"keywords":null,"game_id":0,"stv_port":0,"stv_name":"","players":null},{"server_id":54,"name":"Uncletopia | Warsaw | 6 | Community","name_short":"waw-6","host":"waw-1.pl.uncletopia.com","port":27065,"enabled":true,"region":"eu","cc":"pl","latitude":52.2297,"longitude":21.017532,"reserved":0,"last_update":"0001-01-01T00:00:00Z","name_a2s":"","protocol":0,"map":"","folder":"","game":"","app_id":0,"player_count":0,"max_players":0,"Bots":0,"server_type":"","server_os":"","password":false,"vac":false,"version":"","steam_id":0,"keywords":null,"game_id":0,"stv_port":0,"stv_name":"","players":null}]}