{"status":true,"message":"","result":[{"server_id":9,"name":"Uncletopia | Atlanta | 1 | All Maps","name_short":"atl-1","host":"atl-1.us.uncletopia.com","port":27015,"enabled":true,"region":"us-east","cc":"us","latitude":33.753746,"longitude":-84.38633,"reserved":0,"last_update":"0001-01-01T00:00:00Z","name_a2s":"Uncletopia | Atlanta | 1 | All Maps","protocol":17,"map":"cp_snakewater_final1","folder":"tf","game":"Team Fortress","app_id":440,"player_count":0,"max_players":24,"Bots":0,"server_type":"Dedicated","server_os":"Linux","password":true,"vac":true,"version":"7961495","steam_id":85568392924469982,"keywords":["cp","nocrits","nodmgspread","uncletopia"],"game_id":440,"stv_port":27016,"stv_name":"Uncletopia | Atlanta | 1 | All Maps | STV","players":null},{"server_id":104,"name":"Uncletopia | Atlanta | 2 | All Maps","name_short":"atl-2","host":"atl-1.us.uncletopia.com","port":27025,"enabled":true,"region":"us-east","cc":"us","latitude":33.753746,"longitude":-84.38633,"reserved":0,"last_update":"0001-01-01T00:00:00Z","name_a2s":"Uncletopia | Atlanta | 2 | All Maps","protocol":17,"map":"koth_cascade","folder":"tf","game":"Team Fortress","app_id":440,"player_count":0,"max_players":24,"Bots":0,"server_type":"Dedicated","server_os":"Linux","password":true,"vac":true,"version":"7961495","steam_id":85568392924469983,"keywords":["cp","nocrits","nodmgspread","uncletopia"],"game_id":440,"stv_port":27026,"stv_name":"Uncletopia | Atlanta | 2 | All Maps | STV","players":null},{"server_id":400,"name":"Uncletopia | Atlanta | 3 | Stopwatch","name_short":"atl-3","host":"atl-1.us.uncletopia.com","port":27035,"enabled":true,"region":"us-east","cc":"us","latitude":33.753746,"longitude":-84.38633,"reserved":0,"last_update":"0001-01-01T00:00:00Z","name_a2s":"Uncletopia | Atlanta | 3 | Stopwatch","protocol":17,"map":"workshop/cp_reckoner_rc6.ugc674719999","folder":"tf","game":"Team Fortress","app_id":440,"player_count":0,"max_players":24,"Bots":0,"server_type":"Dedicated","server_os":"Linux","password":true,"vac":true,"version":"7961495","steam_id":85568392924515187,"keywords":["cp","nocrits","nodmgspread","uncletopia"],"game_id":440,"stv_port":27036,"stv_name":"Uncletopia | Atlanta | 3 | Stopwatch | STV","players":null},{"server_id":401,"name":"Uncletopia | Atlanta | 4 | Community","name_short":"atl-4","host":"atl-1.us.uncletopia.com","port":27045,"enabled":true,"region":"us-east","cc":"us","latitude":33.753746,"longitude":-84.38633,"reserved":0,"last_update":"0001-01-01T00:00:00Z","name_a2s":"Uncletopia | Atlanta | 4 | Community","protocol":17,"map":"cp_sunshine","folder":"tf","game":"Team Fortress","app_id":440,"player_count":0,"max_players":24,"Bots":0,"server_type":"Dedicated","server_os":"Linux","password":true,"vac":true,"version":"7961495","steam_id":85568392924515188,"keywords":["cp","nocrits","nodmgspread","uncletopia"],"game_id":440,"stv_port":27046,"stv_name":"Uncletopia | Atlanta | 4 | Community | STV","players":null},{"server_id":2,"name":"Uncletopia | Chicago | 1 | All Maps","name_short":"chi-1","host":"chi-1.us.uncletopia.com","port":27015,"enabled":true,"region":"us-central","cc":"us","latitude":41.881832,"longitude":-87.62318,"reserved":0,"last_update":"0001-01-01T00:00:00Z","name_a2s":"Uncletopia | Chicago | 1 | All Maps","protocol":17,"map":"pl_barnblitz","folder":"tf","game":"Team Fortress","app_id":440,"player_count":24,"max_players":24,"Bots":0,"server_type":"Dedicated","server_os":"Linux","password":true,"vac":true,"version":"7961495","steam_id":85568392924469984,"keywords":["nocrits","nodmgspread","payload","uncletopia"],"game_id":440,"stv_port":27016,"stv_name":"Uncletopia | Chicago | 1 | All Maps | STV","players":[{"user_id":135,"name":"ThatGamingKiwi","steam_id":76561199170522237,"connected_time":3949000000000,"state":"active","ping":74},{"user_id":140,"name":"MechaSixVII","steam_id":76561198014927379,"connected_time":3658000000000,"state":"active","ping":66},{"user_id":163,"name":"Heathcliff","steam_id":76561198044288534,"connected_time":1516000000000,"state":"active","ping":92},{"user_id":133,"name":"THORNFIELDGAMER","steam_id":76561199087167473,"connected_time":3965000000000,"state":"active","ping":87},{"user_id":171,"name":"The Heart","steam_id":76561198271979288,"connected_time":962000000000,"state":"active","ping":37},{"user_id":168,"name":"uzi murder drones (evil)","steam_id":76561198156799627,"connected_time":990000000000,"state":"active","ping":69},{"user_id":139,"name":"Lefty [Gentlemen of Leisure]","steam_id":76561197980825914,"connected_time":3741000000000,"state":"active","ping":91},{"user_id":111,"name":"incredirocks","steam_id":76561198061079993,"connected_time":5844000000000,"state":"active","ping":46},{"user_id":179,"name":"Lucas","steam_id":76561198399704604,"connected_time":235000000000,"state":"active","ping":107},{"user_id":170,"name":"rando","steam_id":76561197982325629,"connected_time":977000000000,"state":"active","ping":71},{"user_id":153,"name":"GrapeFieldGamer","steam_id":76561199382834868,"connected_time":2735000000000,"state":"active","ping":69},{"user_id":167,"name":"Phoysh","steam_id":76561198137111021,"connected_time":991000000000,"state":"active","ping":98},{"user_id":176,"name":"Jennifer Aniston's Nipples","steam_id":76561198086107548,"connected_time":459000000000,"state":"active","ping":63},{"user_id":141,"name":"Mike Will","steam_id":76561199500265332,"connected_time":3646000000000,"state":"active","ping":68},{"user_id":169,"name":"Bucket Hat Trick","steam_id":76561198381785132,"connected_time":981000000000,"state":"active","ping":91},{"user_id":158,"name":"Wilma","steam_id":76561198138420251,"connected_time":1971000000000,"state":"active","ping":60},{"user_id":164,"name":"‚ùÑÔ∏éSHIT PISSER JULIANNE‚ùÑ","steam_id":76561198061955351,"connected_time":999000000000,"state":"active","ping":51},{"user_id":172,"name":"epiczlolz","steam_id":76561198208369443,"connected_time":926000000000,"state":"active","ping":59},{"user_id":166,"name":"Radpipe","steam_id":76561197987049964,"connected_time":998000000000,"state":"active","ping":58},{"user_id":178,"name":"gmarrt23","steam_id":76561198301150171,"connected_time":265000000000,"state":"active","ping":63},{"user_id":127,"name":"vacachimuela","steam_id":76561198297332421,"connected_time":4694000000000,"state":"active","ping":110},{"user_id":131,"name":"DysfunctionJunction","steam_id":76561198051815183,"connected_time":3986000000000,"state":"active","ping":50},{"user_id":154,"name":"I_Am_Lazy","steam_id":76561199030283067,"connected_time":2700000000000,"state":"active","ping":84},{"user_id":160,"name":"Nurew","steam_id":76561198052589498,"connected_time":1948000000000,"state":"active","ping":104}]},{"server_id":106,"name":"Uncletopia | Chicago | 2 | All Maps","name_short":"chi-2","host":"chi-1.us.uncletopia.com","port":27025,"enabled":true,"region":"us-central","cc":"us","latitude":41.881832,"longitude":-87.62318,"reserved":0,"last_update":"0001-01-01T00:00:00Z","name_a2s":"Uncletopia | Chicago | 2 | All Maps","protocol":17,"map":"pl_badwater","folder":"tf","game":"Team Fortress","app_id":440,"player_count":24,"max_players":24,"Bots":0,"server_type":"Dedicated","server_os":"Linux","password":true,"vac":true,"version":"7961495","steam_id":85568392924469985,"keywords":["nocrits","nodmgspread","payload","uncletopia"],"game_id":440,"stv_port":27026,"stv_name":"Uncletopia | Chicago | 2 | All Maps | STV","players":[{"user_id":307,"name":"Oogie (OddMonster)","steam_id":76561198026802918,"connected_time":2597000000000,"state":"active","ping":95},{"user_id":315,"name":"GoldenPhoenix","steam_id":76561198055450523,"connected_time":1875000000000,"state":"active","ping":94},{"user_id":293,"name":"custodian","steam_id":76561198058793778,"connected_time":3532000000000,"state":"active","ping":65},{"user_id":302,"name":"Cursed WiFi","steam_id":76561198090419068,"connected_time":2745000000000,"state":"active","ping":119},{"user_id":343,"name":"Blitzy","steam_id":76561198149472890,"connected_time":396000000000,"state":"active","ping":74},{"user_id":338,"name":"TheMinusKai","steam_id":76561198296103811,"connected_time":467000000000,"state":"active","ping":105},{"user_id":336,"name":"Pathara44","steam_id":76561198048238620,"connected_time":481000000000,"state":"active","ping":59},{"user_id":339,"name":"Anyar","steam_id":76561198160174097,"connected_time":459000000000,"state":"active","ping":58},{"user_id":335,"name":"ZYNTERLINKED","steam_id":76561198241948526,"connected_time":483000000000,"state":"active","ping":60},{"user_id":337,"name":"dizzyteaTom","steam_id":76561198868094311,"connected_time":475000000000,"state":"active","ping":88},{"user_id":330,"name":"Walmart Employee","steam_id":76561198840373909,"connected_time":842000000000,"state":"active","ping":97},{"user_id":340,"name":"Major Woody","steam_id":76561198835541533,"connected_time":435000000000,"state":"active","ping":79},{"user_id":341,"name":"Dan","steam_id":76561199236719411,"connected_time":410000000000,"state":"active","ping":93},{"user_id":328,"name":"Funke Monke","steam_id":76561198079440976,"connected_time":903000000000,"state":"active","ping":73},{"user_id":304,"name":"Fobby #Savetf2","steam_id":76561198047681469,"connected_time":2737000000000,"state":"active","ping":85},{"user_id":212,"name":"Coffee Instant Type 2","steam_id":76561198307845869,"connected_time":9163000000000,"state":"active","ping":67},{"user_id":324,"name":"Rein","steam_id":76561198300340427,"connected_time":1095000000000,"state":"active","ping":63},{"user_id":319,"name":"frid","steam_id":76561198005806915,"connected_time":1559000000000,"state":"active","ping":60},{"user_id":332,"name":"Female Gamer","steam_id":76561199366482682,"connected_time":627000000000,"state":"active","ping":108},{"user_id":347,"name":"Chaotic Rushu","steam_id":76561198170054407,"connected_time":237000000000,"state":"active","ping":83},{"user_id":221,"name":"Ajax","steam_id":76561197962240140,"connected_time":8686000000000,"state":"active","ping":57},{"user_id":344,"name":"üÖúüÖîüÖîüÖöüÖ¢üÖ£üÖî\ufffd\ufffd\ufffd","steam_id":76561197999748343,"connected_time":390000000000,"state":"active","ping":74},{"user_id":345,"name":"Ahocchi","steam_id":76561198274742715,"connected_time":349000000000,"state":"active","ping":49},{"user_id":308,"name":"Drachma","steam_id":76561198007310514,"connected_time":2581000000000,"state":"active","ping":60}]},{"server_id":402,"name":"Uncletopia | Chicago | 3 | All Maps","name_short":"chi-3","host":"chi-1.us.uncletopia.com","port":27035,"enabled":true,"region":"us-central","cc":"us","latitude":41.881832,"longitude":-87.62318,"reserved":0,"last_update":"0001-01-01T00:00:00Z","name_a2s":"Uncletopia | Chicago | 3 | All Maps","protocol":17,"map":"cp_altitude","folder":"tf","game":"Team Fortress","app_id":440,"player_count":24,"max_players":24,"Bots":0,"server_type":"Dedicated","server_os":"Linux","password":true,"vac":true,"version":"7961495","steam_id":85568392924515191,"keywords":["cp","nocrits","nodmgspread","uncletopia"],"game_id":440,"stv_port":27036,"stv_name":"Uncletopia | Chicago | 3 | All Maps | STV","players":[{"user_id":103,"name":"Malevo","steam_id":76561198148606522,"connected_time":290000000000,"state":"active","ping":85},{"user_id":77,"name":"oog","steam_id":76561198272986152,"connected_time":1423000000000,"state":"active","ping":85},{"user_id":47,"name":"Plant Enthusiast","steam_id":76561198045718960,"connected_time":2657000000000,"state":"active","ping":60},{"user_id":102,"name":"TacoMan","steam_id":76561198049405741,"connected_time":301000000000,"state":"active","ping":76},{"user_id":57,"name":"fruitslicer","steam_id":76561198100015794,"connected_time":1698000000000,"state":"active","ping":61},{"user_id":104,"name":"CORGI.EXE","steam_id":76561198077093432,"connected_time":212000000000,"state":"active","ping":65},{"user_id":78,"name":"Snivy64","steam_id":76561198423445376,"connected_time":1414000000000,"state":"active","ping":90},{"user_id":49,"name":"fuckterry","steam_id":76561198271957738,"connected_time":2579000000000,"state":"active","ping":61},{"user_id":51,"name":"dance monkey","steam_id":76561198188722751,"connected_time":2510000000000,"state":"active","ping":90},{"user_id":101,"name":"a","steam_id":76561198131245396,"connected_time":439000000000,"state":"active","ping":58},{"user_id":90,"name":"CheeseCake488","steam_id":76561199407617942,"connected_time":1122000000000,"state":"active","ping":129},{"user_id":92,"name":"Trulle","steam_id":76561198059090698,"connected_time":1100000000000,"state":"active","ping":157},{"user_id":25,"name":"Burny Sanders","steam_id":76561197961879048,"connected_time":3413000000000,"state":"active","ping":65},{"user_id":97,"name":"messenger zidgeon","steam_id":76561198098770013,"connected_time":1023000000000,"state":"active","ping":95},{"user_id":100,"name":"Ecliptica","steam_id":76561198171951333,"connected_time":561000000000,"state":"active","ping":98},{"user_id":87,"name":"Maurdakar","steam_id":76561197983420976,"connected_time":1135000000000,"state":"active","ping":73},{"user_id":94,"name":"Zobozo","steam_id":76561198028954297,"connected_time":1072000000000,"state":"active","ping":103},{"user_id":65,"name":"Acro","steam_id":76561198092451804,"connected_time":1533000000000,"state":"active","ping":79},{"user_id":41,"name":"Jesse Bear","steam_id":76561198217075305,"connected_time":3063000000000,"state":"active","ping":84},{"user_id":53,"name":"celestia ludenberg","steam_id":76561199196437823,"connected_time":2048000000000,"state":"active","ping":116},{"user_id":37,"name":"TheRatBoi","steam_id":76561199123032506,"connected_time":3143000000000,"state":"active","ping":64},{"user_id":82,"name":"mkl","steam_id":76561197986401685,"connected_time":1333000000000,"state":"active","ping":80},{"user_id":72,"name":"Barbecue  Bacon Burger","steam_id":76561198981135699,"connected_time":1469000000000,"state":"active","ping":86},{"user_id":96,"name":"Fuzzycoco","steam_id":76561198154714679,"connected_time":1050000000000,"state":"active","ping":93}]},{"server_id":403,"name":"Uncletopia | Chicago | 4 | All Maps","name_short":"chi-4","host":"chi-1.us.uncletopia.com","port":27045,"enabled":true,"region":"us-central","cc":"us","latitude":41.881832,"longitude":-87.62318,"reserved":0,"last_update":"0001-01-01T00:00:00Z","name_a2s":"Uncletopia | Chicago | 4 | All Maps","protocol":17,"map":"koth_cascade","folder":"tf","game":"Team Fortress","app_id":440,"player_count":0,"max_players":24,"Bots":0,"server_type":"Dedicated","server_os":"Linux","password":true,"vac":true,"version":"7961495","steam_id":85568392924515193,"keywords":["cp","nocrits","nodmgspread","uncletopia"],"game_id":440,"stv_port":27046,"stv_name":"Uncletopia | Chicago | 4 | All Maps | STV","players":null},{"server_id":36,"name":"Uncletopia | Chicago | 5 | All Maps","name_short":"chi-5","host":"chi-2.us.uncletopia.com","port":27015,"enabled":true,"region":"us-central","cc":"us","latitude":41.881832,"longitude":-87.62318,"reserved":0,"last_update":"0001-01-01T00:00:00Z","name_a2s":"Uncletopia | Chicago | 5 | All Maps","protocol":17,"map":"koth_viaduct","folder":"tf","game":"Team Fortress","app_id":440,"player_count":2,"max_players":24,"Bots":0,"server_type":"Dedicated","server_os":"Linux","password":true,"vac":true,"version":"7961495","steam_id":85568392924866362,"keywords":["cp","nocrits","nodmgspread","uncletopia"],"game_id":440,"stv_port":27016,"stv_name":"Uncletopia | Chicago | 5 | All Maps | STV","players":[{"user_id":8,"name":"Fryball","steam_id":76561199171025092,"connected_time":917000000000,"state":"active","ping":69},{"user_id":10,"name":"The Hose on Upward","steam_id":76561197965092192,"connected_time":608000000000,"state":"active","ping":74}]},{"server_id":37,"name":"Uncletopia | Chicago | 6 | All Maps","name_short":"chi-6","host":"chi-2.us.uncletopia.com","port":27025,"enabled":true,"region":"us-central","cc":"us","latitude":41.881832,"longitude":-87.62318,"reserved":0,"last_update":"0001-01-01T00:00:00Z","name_a2s":"Uncletopia | Chicago | 6 | All Maps","protocol":17,"map":"pl_frontier_final","folder":"tf","game":"Team Fortress","app_id":440,"player_count":0,"max_players":24,"Bots":0,"server_type":"Dedicated","server_os":"Linux","password":true,"vac":true,"version":"7961495","steam_id":85568392924866363,"keywords":["nocrits","nodmgspread","payload","uncletopia"],"game_id":440,"stv_port":27026,"stv_name":"Uncletopia | Chicago | 6 | All Maps | STV","players":null},{"server_id":38,"name":"Uncletopia | Chicago | 7 | Stopwatch","name_short":"chi-7","host":"chi-2.us.uncletopia.com","port":27035,"enabled":true,"region":"us-central","cc":"us","latitude":41.881832,"longitude":-87.62318,"reserved":0,"last_update":"0001-01-01T00:00:00Z","name_a2s":"Uncletopia | Chicago | 7 | Stopwatch","protocol":17,"map":"koth_highpass","folder":"tf","game":"Team Fortress","app_id":440,"player_count":0,"max_players":24,"Bots":0,"server_type":"Dedicated","server_os":"Linux","password":true,"vac":true,"version":"7961495","steam_id":85568392924866364,"keywords":["cp","nocrits","nodmgspread","uncletopia"],"game_id":440,"stv_port":27036,"stv_name":"Uncletopia | Chicago | 7 | Stopwatch | STV","players":null},{"server_id":39,"name":"Uncletopia | Chicago | 8 | Community","name_short":"chi-8","host":"chi-2.us.uncletopia.com","port":27045,"enabled":true,"region":"us-central","cc":"us","latitude":41.881832,"longitude":-87.62318,"reserved":0,"last_update":"0001-01-01T00:00:00Z","name_a2s":"Uncletopia | Chicago | 8 | Community","protocol":17,"map":"pl_pier","folder":"tf","game":"Team Fortress","app_id":440,"player_count":0,"max_players":24,"Bots":0,"server_type":"Dedicated","server_os":"Linux","password":true,"vac":true,"version":"7961495","steam_id":85568392924866365,"keywords":["nocrits","nodmgspread","payload","uncletopia"],"game_id":440,"stv_port":27046,"stv_name":"Uncletopia | Chicago | 8 | Community | STV","players":null},{"server_id":8,"name":"Uncletopia | Dallas | 1 | All Maps","name_short":"dal-1","host":"dal-1.us.uncletopia.com","port":27015,"enabled":true,"region":"us-central","cc":"us","latitude":32.779167,"longitude":-96.80889,"reserved":0,"last_update":"0001-01-01T00:00:00Z","name_a2s":"Uncletopia | Dallas | 1 | All Maps","protocol":17,"map":"pl_swiftwater_final1","folder":"tf","game":"Team Fortress","app_id":440,"player_count":0,"max_players":24,"Bots":0,"server_type":"Dedicated","server_os":"Linux","password":true,"vac":true,"version":"7961495","steam_id":85568392924469986,"keywords":["nocrits","nodmgspread","payload","uncletopia"],"game_id":440,"stv_port":27016,"stv_name":"Uncletopia | Dallas | 1 | All Maps | STV","players":null},{"server_id":108,"name":"Uncletopia | Dallas | 2 | All Maps","name_short":"dal-2","host":"dal-1.us.uncletopia.com","port":27025,"enabled":true,"region":"us-central","cc":"us","latitude":32.779167,"longitude":-96.80889,"reserved":0,"last_update":"0001-01-01T00:00:00Z","name_a2s":"Uncletopia | Dallas | 2 | All Maps","protocol":17,"map":"koth_lakeside_final","folder":"tf","game":"Team Fortress","app_id":440,"player_count":0,"max_players":24,"Bots":0,"server_type":"Dedicated","server_os":"Linux","password":true,"vac":true,"version":"7961495","steam_id":85568392924469988,"keywords":["cp","nocrits","nodmgspread","uncletopia"],"game_id":440,"stv_port":27026,"stv_name":"Uncletopia | Dallas | 2 | All Maps | STV","players":null},{"server_id":404,"name":"Uncletopia | Dallas | 3 | All Maps","name_short":"dal-3","host":"dal-1.us.uncletopia.com","port":27035,"enabled":true,"region":"us-central","cc":"us","latitude":32.779167,"longitude":-96.80889,"reserved":0,"last_update":"0001-01-01T00:00:00Z","name_a2s":"Uncletopia | Dallas | 3 | All Maps","protocol":17,"map":"pl_badwater","folder":"tf","game":"Team Fortress","app_id":440,"player_count":0,"max_players":24,"Bots":0,"server_type":"Dedicated","server_os":"Linux","password":true,"vac":true,"version":"7961495","steam_id":85568392924515219,"keywords":["nocrits","nodmgspread","payload","uncletopia"],"game_id":440,"stv_port":27036,"stv_name":"Uncletopia | Dallas | 3 | All Maps | STV","players":null},{"server_id":405,"name":"Uncletopia | Dallas | 4 | Community","name_short":"dal-4","host":"dal-1.us.uncletopia.com","port":27045,"enabled":true,"region":"us-central","cc":"us","latitude":32.779167,"longitude":-96.80889,"reserved":0,"last_update":"0001-01-01T00:00:00Z","name_a2s":"Uncletopia | Dallas | 4 | Community","protocol":17,"map":"pl_pier","folder":"tf","game":"Team Fortress","app_id":440,"player_count":5,"max_players":24,"Bots":0,"server_type":"Dedicated","server_os":"Linux","password":true,"vac":true,"version":"7961495","steam_id":85568392924515220,"keywords":["nocrits","nodmgspread","payload","uncletopia"],"game_id":440,"stv_port":27046,"stv_name":"Uncletopia | Dallas | 4 | Community | STV","players":[{"user_id":3,"name":"jimmy skillet","steam_id":76561198067232126,"connected_time":1115000000000,"state":"active","ping":57},{"user_id":4,"name":"105 ¬∞C","steam_id":76561198294258002,"connected_time":846000000000,"state":"active","ping":74},{"user_id":9,"name":"femboy =Ôºæ‚óè ‚ãè ‚óèÔºæ=","steam_id":76561199052450127,"connected_time":115000000000,"state":"spawning","ping":90},{"user_id":6,"name":"Spookiest Breakfast","steam_id":76561198995031387,"connected_time":790000000000,"state":"active","ping":63},{"user_id":7,"name":"cubicSimulation","steam_id":76561198069812039,"connected_time":737000000000,"state":"active","ping":97}]},{"server_id":5,"name":"Uncletopia | Frankfurt | 1 | All Maps","name_short":"frk-1","host":"frk-1.de.uncletopia.com","port":27015,"enabled":true,"region":"eu","cc":"de","latitude":50.110924,"longitude":8.682127,"reserved":0,"last_update":"0001-01-01T00:00:00Z","name_a2s":"Uncletopia | Frankfurt | 1 | All Maps","protocol":17,"map":"pl_upward","folder":"tf","game":"Team Fortress","app_id":440,"player_count":23,"max_players":24,"Bots":0,"server_type":"Dedicated","server_os":"Linux","password":true,"vac":true,"version":"7961495","steam_id":85568392924469989,"keywords":["nocrits","nodmgspread","payload","uncletopia"],"game_id":440,"stv_port":27016,"stv_name":"Uncletopia | Frankfurt | 1 | All Maps | STV","players":[{"user_id":615,"name":"I suck so bad at this game","steam_id":76561198886892454,"connected_time":28000000000,"state":"spawning","ping":81},{"user_id":607,"name":"DevilHunter","steam_id":76561198000946081,"connected_time":822000000000,"state":"active","ping":97},{"user_id":535,"name":"benjels big day","steam_id":76561198025970709,"connected_time":5150000000000,"state":"active","ping":48},{"user_id":613,"name":"Speedyjoestar","steam_id":76561198907130963,"connected_time":55000000000,"state":"active","ping":63},{"user_id":608,"name":"Marty‚Ñ¢","steam_id":76561198060073673,"connected_time":785000000000,"state":"active","ping":61},{"user_id":601,"name":"tallen","steam_id":76561198061708595,"connected_time":1730000000000,"state":"active","ping":71},{"user_id":580,"name":"Guuse","steam_id":76561198030956814,"connected_time":3028000000000,"state":"active","ping":89},{"user_id":616,"name":"booba","steam_id":76561198158018284,"connected_time":23000000000,"state":"spawning","ping":86},{"user_id":602,"name":"Flight of the Blonde Giraffes","steam_id":76561198451585571,"connected_time":1719000000000,"state":"active","ping":65},{"user_id":569,"name":"DudeoftheRock","steam_id":76561198059401865,"connected_time":3206000000000,"state":"active","ping":70},{"user_id":556,"name":"cister0","steam_id":76561198130195469,"connected_time":3652000000000,"state":"active","ping":72},{"user_id":610,"name":"Ursusadur","steam_id":76561198039286640,"connected_time":391000000000,"state":"active","ping":58},{"user_id":609,"name":"New_SteFano_","steam_id":76561198448642353,"connected_time":740000000000,"state":"active","ping":81},{"user_id":593,"name":"goop","steam_id":76561198190073005,"connected_time":2159000000000,"state":"active","ping":57},{"user_id":611,"name":"BlueyRain","steam_id":76561199311762382,"connected_time":383000000000,"state":"active","ping":83},{"user_id":603,"name":"PANAANI","steam_id":76561198322322739,"connected_time":1690000000000,"state":"active","ping":97},{"user_id":617,"name":"Sergeant Pepper","steam_id":76561198259943381,"connected_time":18000000000,"state":"active","ping":74},{"user_id":557,"name":"Tre3","steam_id":76561198054795379,"connected_time":3636000000000,"state":"active","ping":47},{"user_id":612,"name":"KLAMA  ‚ù§","steam_id":76561198351549661,"connected_time":212000000000,"state":"active","ping":64},{"user_id":599,"name":"xavier","steam_id":76561198076494034,"connected_time":1749000000000,"state":"active","ping":52},{"user_id":588,"name":"confusion","steam_id":76561199199499453,"connected_time":2514000000000,"state":"spawning","ping":87},{"user_id":595,"name":"knees","steam_id":76561198005924647,"connected_time":1959000000000,"state":"active","ping":63},{"user_id":605,"name":"Spinya","steam_id":76561198086653667,"connected_time":1158000000000,"state":"active","ping":63}]},{"server_id":110,"name":"Uncletopia | Frankfurt | 2 | All Maps","name_short":"frk-2","host":"frk-1.de.uncletopia.com","port":27025,"enabled":true,"region":"eu","cc":"de","latitude":50.110924,"longitude":8.682127,"reserved":0,"last_update":"0001-01-01T00:00:00Z","name_a2s":"Uncletopia | Frankfurt | 2 | All Maps","protocol":17,"map":"cp_sunshine","folder":"tf","game":"Team Fortress","app_id":440,"player_count":24,"max_players":24,"Bots":0,"server_type":"Dedicated","server_os":"Linux","password":true,"vac":true,"version":"7961495","steam_id":85568392924469990,"keywords":["cp","nocrits","nodmgspread","uncletopia"],"game_id":440,"stv_port":27026,"stv_name":"Uncletopia | Frankfurt | 2 | All Maps | STV","players":[{"user_id":412,"name":"Mikeal (bad)","steam_id":76561198241759034,"connected_time":829000000000,"state":"active","ping":97},{"user_id":425,"name":"Moohsem","steam_id":76561198172198154,"connected_time":339000000000,"state":"active","ping":124},{"user_id":307,"name":"else1","steam_id":76561197996558319,"connected_time":6946000000000,"state":"active","ping":74},{"user_id":424,"name":"Shoe Gayser","steam_id":76561198063127464,"connected_time":374000000000,"state":"active","ping":75},{"user_id":367,"name":"tr4ce","steam_id":76561198085296732,"connected_time":2972000000000,"state":"active","ping":46},{"user_id":422,"name":"Xight","steam_id":76561197984512117,"connected_time":516000000000,"state":"active","ping":54},{"user_id":419,"name":"river.johansson","steam_id":76561199500472177,"connected_time":549000000000,"state":"active","ping":84},{"user_id":392,"name":"Daruun","steam_id":76561198019068781,"connected_time":2366000000000,"state":"active","ping":70},{"user_id":399,"name":"ÍßÅ‡ºíXenon‡ºíÍßÇ","steam_id":76561198120502313,"connected_time":2171000000000,"state":"active","ping":53},{"user_id":401,"name":"ALARM","steam_id":76561198120686521,"connected_time":2162000000000,"state":"active","ping":51},{"user_id":377,"name":"A moon goose","steam_id":76561198064734905,"connected_time":2778000000000,"state":"active","ping":92},{"user_id":390,"name":"Falco","steam_id":76561199061187430,"connected_time":2426000000000,"state":"active","ping":45},{"user_id":382,"name":"Ziomek","steam_id":76561199131735098,"connected_time":2597000000000,"state":"active","ping":72},{"user_id":400,"name":"‚∏∏Gelipter‚Ä†","steam_id":76561198326423574,"connected_time":2167000000000,"state":"active","ping":80},{"user_id":404,"name":"Weed Kratos","steam_id":76561199069263356,"connected_time":2117000000000,"state":"active","ping":61},{"user_id":423,"name":"Bob Sacamano","steam_id":76561198085610701,"connected_time":494000000000,"state":"active","ping":85},{"user_id":409,"name":"Nithle","steam_id":76561198025372740,"connected_time":1183000000000,"state":"active","ping":46},{"user_id":346,"name":"myon","steam_id":76561197992528570,"connected_time":4881000000000,"state":"active","ping":79},{"user_id":426,"name":"tokss","steam_id":76561198033084982,"connected_time":330000000000,"state":"active","ping":91},{"user_id":427,"name":"me (real)","steam_id":76561198013770973,"connected_time":325000000000,"state":"active","ping":73},{"user_id":403,"name":"Vaffeljarn","steam_id":76561198151060365,"connected_time":2130000000000,"state":"active","ping":69},{"user_id":428,"name":"c1v","steam_id":76561199085624224,"connected_time":318000000000,"state":"active","ping":74},{"user_id":408,"name":"r^f nyanezt","steam_id":76561198253734265,"connected_time":1311000000000,"state":"active","ping":88},{"user_id":415,"name":"Jussukka","steam_id":76561198122894683,"connected_time":642000000000,"state":"active","ping":99}]},{"server_id":308,"name":"Uncletopia | Frankfurt | 3 | All Maps","name_short":"frk-3","host":"frk-1.de.uncletopia.com","port":27035,"enabled":true,"region":"eu","cc":"de","latitude":50.110924,"longitude":8.682127,"reserved":0,"last_update":"0001-01-01T00:00:00Z","name_a2s":"Uncletopia | Frankfurt | 3 | All Maps","protocol":17,"map":"pl_snowycoast","folder":"tf","game":"Team Fortress","app_id":440,"player_count":24,"max_players":24,"Bots":0,"server_type":"Dedicated","server_os":"Linux","password":true,"vac":true,"version":"7961495","steam_id":85568392924504274,"keywords":["nocrits","nodmgspread","payload","uncletopia"],"game_id":440,"stv_port":27036,"stv_name":"Uncletopia | Frankfurt | 3 | All Maps | STV","players":[{"user_id":130,"name":"Goose","steam_id":76561198072261497,"connected_time":1145000000000,"state":"active","ping":86},{"user_id":136,"name":"Qwertuss","steam_id":76561198026305366,"connected_time":857000000000,"state":"active","ping":55},{"user_id":127,"name":"Avalon","steam_id":76561199176781811,"connected_time":1234000000000,"state":"active","ping":81},{"user_id":148,"name":"M√©bh √ìg MacT√≠re","steam_id":76561198346399624,"connected_time":54000000000,"state":"active","ping":73},{"user_id":133,"name":"Citromfa","steam_id":76561198427549600,"connected_time":1126000000000,"state":"active","ping":75},{"user_id":128,"name":"John","steam_id":76561198121630215,"connected_time":1216000000000,"state":"active","ping":61},{"user_id":142,"name":"Ano","steam_id":76561198075054392,"connected_time":208000000000,"state":"active","ping":81},{"user_id":149,"name":"the scringly dingly","steam_id":76561198192179174,"connected_time":41000000000,"state":"spawning","ping":104},{"user_id":114,"name":"0T0","steam_id":76561198304099649,"connected_time":2013000000000,"state":"active","ping":72},{"user_id":35,"name":"Arsonist","steam_id":76561199087953833,"connected_time":5696000000000,"state":"active","ping":107},{"user_id":110,"name":"skippy","steam_id":76561198171958773,"connected_time":2049000000000,"state":"active","ping":68},{"user_id":143,"name":"FortHunter","steam_id":76561198262391126,"connected_time":205000000000,"state":"active","ping":157},{"user_id":86,"name":"fish","steam_id":76561198092096689,"connected_time":3705000000000,"state":"active","ping":45},{"user_id":138,"name":"pSy","steam_id":76561198016471415,"connected_time":568000000000,"state":"active","ping":48},{"user_id":144,"name":"purplecan","steam_id":76561199208283508,"connected_time":185000000000,"state":"active","ping":83},{"user_id":121,"name":"Onion Drugs","steam_id":76561198441194331,"connected_time":1556000000000,"state":"active","ping":105},{"user_id":132,"name":"Elsuedi","steam_id":76561198074722832,"connected_time":1138000000000,"state":"active","ping":57},{"user_id":119,"name":"C20XE","steam_id":76561198236223448,"connected_time":1679000000000,"state":"active","ping":60},{"user_id":80,"name":"alfus","steam_id":76561198071003109,"connected_time":3950000000000,"state":"active","ping":59},{"user_id":145,"name":"hardway","steam_id":76561198272529254,"connected_time":170000000000,"state":"active","ping":57},{"user_id":146,"name":"=PB=","steam_id":76561197999146612,"connected_time":164000000000,"state":"active","ping":60},{"user_id":147,"name":"Chen","steam_id":76561198440363619,"connected_time":143000000000,"state":"active","ping":56},{"user_id":122,"name":"putrefied meat","steam_id":76561198280507478,"connected_time":1404000000000,"state":"active","ping":58},{"user_id":140,"name":"Emilio","steam_id":76561198242767038,"connected_time":298000000000,"state":"active","ping":60}]},{"server_id":309,"name":"Uncletopia | Frankfurt | 4 | All Maps","name_short":"frk-4","host":"frk-1.de.uncletopia.com","port":27045,"enabled":true,"region":"eu","cc":"de","latitude":50.110924,"longitude":8.682127,"reserved":0,"last_update":"0001-01-01T00:00:00Z","name_a2s":"Uncletopia | Frankfurt | 4 | All Maps","protocol":17,"map":"pl_swiftwater_final1","folder":"tf","game":"Team Fortress","app_id":440,"player_count":24,"max_players":24,"Bots":0,"server_type":"Dedicated","server_os":"Linux","password":true,"vac":true,"version":"7961495","steam_id":85568392924504275,"keywords":["nocrits","nodmgspread","payload","uncletopia"],"game_id":440,"stv_port":27046,"stv_name":"Uncletopia | Frankfurt | 4 | All Maps | STV","players":[{"user_id":208,"name":"MARS^","steam_id":76561198011618564,"connected_time":174000000000,"state":"active","ping":55},{"user_id":186,"name":"Zazou","steam_id":76561198028076362,"connected_time":1805000000000,"state":"active","ping":53},{"user_id":198,"name":"yush","steam_id":76561198121688934,"connected_time":1100000000000,"state":"active","ping":72},{"user_id":196,"name":"Scouty boy","steam_id":76561199087495940,"connected_time":1150000000000,"state":"active","ping":48},{"user_id":178,"name":"cockroach","steam_id":76561198841841656,"connected_time":2300000000000,"state":"active","ping":67},{"user_id":205,"name":"Rubi","steam_id":76561198139410003,"connected_time":252000000000,"state":"active","ping":79},{"user_id":170,"name":"Rops","steam_id":76561198031608011,"connected_time":2919000000000,"state":"active","ping":75},{"user_id":206,"name":"caixabank879","steam_id":76561198836442412,"connected_time":250000000000,"state":"active","ping":94},{"user_id":182,"name":"Erection Man","steam_id":76561198021714542,"connected_time":1939000000000,"state":"active","ping":60},{"user_id":207,"name":"stefaaan","steam_id":76561197965924454,"connected_time":234000000000,"state":"active","ping":57},{"user_id":145,"name":"Tortgamer","steam_id":76561198423709756,"connected_time":4308000000000,"state":"active","ping":71},{"user_id":190,"name":"ran is running","steam_id":76561199443185667,"connected_time":1728000000000,"state":"active","ping":130},{"user_id":199,"name":"Slimeby","steam_id":76561198353438688,"connected_time":1082000000000,"state":"active","ping":84},{"user_id":173,"name":"literallyjasonx","steam_id":76561198835895387,"connected_time":2654000000000,"state":"active","ping":75},{"user_id":158,"name":"los pollos hermanos","steam_id":76561198988867951,"connected_time":3419000000000,"state":"active","ping":68},{"user_id":179,"name":"nero","steam_id":76561199104782664,"connected_time":2265000000000,"state":"active","ping":68},{"user_id":209,"name":"Sicko Mode (Chris Pratt Cover)","steam_id":76561198315786174,"connected_time":144000000000,"state":"active","ping":141},{"user_id":197,"name":"Lag","steam_id":76561198159360376,"connected_time":1128000000000,"state":"active","ping":59},{"user_id":191,"name":"Mr. Luigi","steam_id":76561198167312951,"connected_time":1722000000000,"state":"active","ping":56},{"user_id":192,"name":"WonderTotoro","steam_id":76561199217889324,"connected_time":1715000000000,"state":"active","ping":72},{"user_id":194,"name":"piss man (real)","steam_id":76561198839843428,"connected_time":1507000000000,"state":"active","ping":119},{"user_id":162,"name":"dzgnated","steam_id":76561198026927089,"connected_time":3292000000000,"state":"active","ping":108},{"user_id":193,"name":"soder.","steam_id":76561199294336405,"connected_time":1703000000000,"state":"active","ping":71},{"user_id":167,"name":"Mister","steam_id":76561199049647854,"connected_time":3127000000000,"state":"active","ping":47}]},{"server_id":310,"name":"Uncletopia | Frankfurt | 5 | All Maps","name_short":"frk-5","host":"frk-1.de.uncletopia.com","port":27055,"enabled":true,"region":"eu","cc":"de","latitude":50.110924,"longitude":8.682127,"reserved":0,"last_update":"0001-01-01T00:00:00Z","name_a2s":"Uncletopia | Frankfurt | 5 | All Maps","protocol":17,"map":"cp_steel","folder":"tf","game":"Team Fortress","app_id":440,"player_count":24,"max_players":24,"Bots":0,"server_type":"Dedicated","server_os":"Linux","password":true,"vac":true,"version":"7961495","steam_id":85568392924504277,"keywords":["cp","nocrits","nodmgspread","uncletopia"],"game_id":440,"stv_port":27056,"stv_name":"Uncletopia | Frankfurt | 5 | All Maps | STV","players":[{"user_id":431,"name":"Arc","steam_id":76561198805049375,"connected_time":224000000000,"state":"active","ping":55},{"user_id":430,"name":"Vince","steam_id":76561199103000131,"connected_time":266000000000,"state":"active","ping":47},{"user_id":408,"name":"Speggs","steam_id":76561198258554274,"connected_time":2372000000000,"state":"active","ping":101},{"user_id":421,"name":"Old Beavis","steam_id":76561198065951617,"connected_time":1122000000000,"state":"active","ping":62},{"user_id":425,"name":"Hotdog_Gentleman","steam_id":76561199309867837,"connected_time":859000000000,"state":"active","ping":117},{"user_id":432,"name":"Itai","steam_id":76561198804555329,"connected_time":217000000000,"state":"active","ping":105},{"user_id":369,"name":"Schiever","steam_id":76561198052136026,"connected_time":4821000000000,"state":"active","ping":62},{"user_id":413,"name":"–ê–Ω–¥—Ä–µ–π","steam_id":76561199004027817,"connected_time":1672000000000,"state":"active","ping":85},{"user_id":433,"name":"Escobar","steam_id":76561198089785078,"connected_time":187000000000,"state":"active","ping":100},{"user_id":383,"name":"Nick","steam_id":76561198036109469,"connected_time":3301000000000,"state":"active","ping":84},{"user_id":406,"name":"Grumpy.Monk","steam_id":76561198084389508,"connected_time":2540000000000,"state":"active","ping":77},{"user_id":398,"name":"F","steam_id":76561199149462792,"connected_time":2674000000000,"state":"active","ping":64},{"user_id":399,"name":"Yves","steam_id":76561198359804640,"connected_time":2653000000000,"state":"active","ping":42},{"user_id":400,"name":"Delcup","steam_id":76561199006338376,"connected_time":2642000000000,"state":"active","ping":124},{"user_id":411,"name":"Vel0city","steam_id":76561198049687798,"connected_time":1961000000000,"state":"active","ping":47},{"user_id":340,"name":"Mr. Mundy","steam_id":76561198132008918,"connected_time":6782000000000,"state":"active","ping":76},{"user_id":424,"name":"The legendery balls","steam_id":76561199139344747,"connected_time":1007000000000,"state":"active","ping":94},{"user_id":402,"name":"üúè Drepp","steam_id":76561197998867164,"connected_time":2614000000000,"state":"active","ping":55},{"user_id":403,"name":"iirvas","steam_id":76561198095979063,"connected_time":2608000000000,"state":"active","ping":76},{"user_id":419,"name":"GalacticFantasy","steam_id":76561198072077658,"connected_time":1424000000000,"state":"active","ping":74},{"user_id":404,"name":"StejlBiskutt","steam_id":76561198136661610,"connected_time":2583000000000,"state":"active","ping":100},{"user_id":418,"name":"Mangophysics","steam_id":76561198328905546,"connected_time":1485000000000,"state":"active","ping":103},{"user_id":422,"name":"Burrito","steam_id":76561198327217654,"connected_time":1117000000000,"state":"active","ping":56},{"user_id":429,"name":"AftiksPL","steam_id":76561198875182686,"connected_time":375000000000,"state":"active","ping":142}]},{"server_id":311,"name":"Uncletopia | Frankfurt | 6 | All Maps","name_short":"frk-6","host":"frk-1.de.uncletopia.com","port":27065,"enabled":true,"region":"eu","cc":"de","latitude":50.110924,"longitude":8.682127,"reserved":0,"last_update":"0001-01-01T00:00:00Z","name_a2s":"Uncletopia | Frankfurt | 6 | All Maps","protocol":17,"map":"pl_frontier_final","folder":"tf","game":"Team Fortress","app_id":440,"player_count":24,"max_players":24,"Bots":0,"server_type":"Dedicated","server_os":"Linux","password":true,"vac":true,"version":"7961495","steam_id":85568392924504278,"keywords":["nocrits","nodmgspread","payload","uncletopia"],"game_id":440,"stv_port":27066,"stv_name":"Uncletopia | Frankfurt | 6 | All Maps | STV","players":[{"user_id":328,"name":"Doriian","steam_id":76561198071438810,"connected_time":3657000000000,"state":"active","ping":75},{"user_id":302,"name":"omar whateew omar","steam_id":76561198078862151,"connected_time":4729000000000,"state":"active","ping":69},{"user_id":363,"name":"The Communist","steam_id":76561199099995357,"connected_time":542000000000,"state":"active","ping":67},{"user_id":356,"name":"Dmann","steam_id":76561198097958692,"connected_time":1309000000000,"state":"active","ping":92},{"user_id":306,"name":"Hundehunde (137)","steam_id":76561198028683991,"connected_time":4448000000000,"state":"active","ping":46},{"user_id":307,"name":"rockBustaz","steam_id":76561198088290698,"connected_time":4432000000000,"state":"active","ping":65},{"user_id":349,"name":"Kraid","steam_id":76561198082387192,"connected_time":2123000000000,"state":"active","ping":100},{"user_id":351,"name":"Miito","steam_id":76561198188000642,"connected_time":1921000000000,"state":"active","ping":67},{"user_id":308,"name":"slogar","steam_id":76561198046191991,"connected_time":4411000000000,"state":"active","ping":51},{"user_id":362,"name":"YuraGreek","steam_id":76561198050182252,"connected_time":719000000000,"state":"active","ping":77},{"user_id":312,"name":"mrflipflop","steam_id":76561198201617170,"connected_time":4052000000000,"state":"active","ping":60},{"user_id":313,"name":"Mia_","steam_id":76561198042757059,"connected_time":4020000000000,"state":"active","ping":60},{"user_id":314,"name":"Rimx","steam_id":76561198053034840,"connected_time":4018000000000,"state":"active","ping":96},{"user_id":320,"name":"Toasty5050","steam_id":76561198073540881,"connected_time":3970000000000,"state":"active","ping":45},{"user_id":352,"name":"Bai lan do","steam_id":76561198176442942,"connected_time":1700000000000,"state":"active","ping":64},{"user_id":336,"name":"Big Rod","steam_id":76561198353087230,"connected_time":3144000000000,"state":"active","ping":68},{"user_id":360,"name":"Vert","steam_id":76561198045033242,"connected_time":1096000000000,"state":"active","ping":98},{"user_id":345,"name":"leminsc8","steam_id":76561198825084995,"connected_time":2306000000000,"state":"active","ping":43},{"user_id":325,"name":"nutsagger","steam_id":76561198089221888,"connected_time":3850000000000,"state":"active","ping":63},{"user_id":331,"name":"WhyNotFans","steam_id":76561198259507564,"connected_time":3396000000000,"state":"active","ping":99},{"user_id":342,"name":"Pan Prezydent","steam_id":76561198354738139,"connected_time":2917000000000,"state":"active","ping":71},{"user_id":346,"name":"¬°!Ulexos!¬°","steam_id":76561198087502998,"connected_time":2298000000000,"state":"active","ping":51},{"user_id":359,"name":"Supercoxylac","steam_id":76561198376300138,"connected_time":1190000000000,"state":"active","ping":75},{"user_id":361,"name":"RandomName","steam_id":76561198055552108,"connected_time":804000000000,"state":"active","ping":51}]},{"server_id":23,"name":"Uncletopia | Frankfurt | 7 | Stopwatch","name_short":"frk-7","host":"frk-1.de.uncletopia.com","port":27075,"enabled":true,"region":"eu","cc":"de","latitude":50.110924,"longitude":8.682127,"reserved":0,"last_update":"0001-01-01T00:00:00Z","name_a2s":"Uncletopia | Frankfurt | 7 | Stopwatch","protocol":17,"map":"workshop/pl_badwater_pro_v12.ugc2142942074","folder":"tf","game":"Team Fortress","app_id":440,"player_count":0,"max_players":24,"Bots":0,"server_type":"Dedicated","server_os":"Linux","password":true,"vac":true,"version":"7961495","steam_id":85568392924742827,"keywords":["nocrits","nodmgspread","payload","uncletopia"],"game_id":440,"stv_port":27076,"stv_name":"Uncletopia | Frankfurt | 7 | Stopwatch | STV","players":null},{"server_id":24,"name":"Uncletopia | Frankfurt | 8 | Community","name_short":"frk-8","host":"frk-1.de.uncletopia.com","port":27085,"enabled":true,"region":"eu","cc":"de","latitude":50.110924,"longitude":8.682127,"reserved":0,"last_update":"0001-01-01T00:00:00Z","name_a2s":"Uncletopia | Frankfurt | 8 | Community","protocol":17,"map":"workshop/cp_coilblaze_rc7.ugc1272700588","folder":"tf","game":"Team Fortress","app_id":440,"player_count":0,"max_players":24,"Bots":0,"server_type":"Dedicated","server_os":"Linux","password":true,"vac":true,"version":"7961495","steam_id":85568392924742828,"keywords":["cp","nocrits","nodmgspread","uncletopia"],"game_id":440,"stv_port":27086,"stv_name":"Uncletopia | Frankfurt | 8 | Community | STV","players":null},{"server_id":202,"name":"Uncletopia | Hong Kong | 1 | All Maps","name_short":"hgk-1","host":"hgk-1.hk.uncletopia.com","port":27015,"enabled":true,"region":"asia","cc":"hk","latitude":22.302711,"longitude":114.177216,"reserved":0,"last_update":"0001-01-01T00:00:00Z","name_a2s":"Uncletopia | Hong Kong | 1 | All Maps","protocol":17,"map":"cp_mountainlab","folder":"tf","game":"Team Fortress","app_id":440,"player_count":0,"max_players":24,"Bots":0,"server_type":"Dedicated","server_os":"Linux","password":true,"vac":true,"version":"7961495","steam_id":85568392924494504,"keywords":["cp","nocrits","nodmgspread","uncletopia"],"game_id":440,"stv_port":27016,"stv_name":"Uncletopia | Hong Kong | 1 | All Maps | STV","players":null},{"server_id":1,"name":"Uncletopia | Los Angeles | 1 | All Maps","name_short":"lax-1","host":"lax-1.us.uncletopia.com","port":27015,"enabled":true,"region":"us-west","cc":"us","latitude":33.94279,"longitude":-118.41004,"reserved":0,"last_update":"0001-01-01T00:00:00Z","name_a2s":"Uncletopia | Los Angeles | 1 | All Maps","protocol":17,"map":"cp_dustbowl","folder":"tf","game":"Team Fortress","app_id":440,"player_count":11,"max_players":24,"Bots":0,"server_type":"Dedicated","server_os":"Linux","password":true,"vac":true,"version":"7961495","steam_id":85568392924469991,"keywords":["cp","nocrits","nodmgspread","uncletopia"],"game_id":440,"stv_port":27016,"stv_name":"Uncletopia | Los Angeles | 1 | All Maps | STV","players":[{"user_id":17,"name":"Tele Co","steam_id":76561198041909269,"connected_time":996000000000,"state":"active","ping":50},{"user_id":16,"name":"TheDoctorIsIn","steam_id":76561198322058639,"connected_time":1128000000000,"state":"active","ping":88},{"user_id":18,"name":"imng","steam_id":76561198014988031,"connected_time":970000000000,"state":"active","ping":96},{"user_id":19,"name":"Dreamzapp","steam_id":76561199084936632,"connected_time":857000000000,"state":"active","ping":53},{"user_id":24,"name":"Fremond Games","steam_id":76561198847910046,"connected_time":256000000000,"state":"active","ping":102},{"user_id":21,"name":"Jazpy","steam_id":76561198036872545,"connected_time":568000000000,"state":"active","ping":77},{"user_id":22,"name":"GH578","steam_id":76561199493262585,"connected_time":564000000000,"state":"active","ping":72},{"user_id":25,"name":"Babylon","steam_id":76561198048291984,"connected_time":252000000000,"state":"active","ping":126},{"user_id":26,"name":"Lily","steam_id":76561198110050476,"connected_time":188000000000,"state":"active","ping":64},{"user_id":27,"name":"arkei-mgtg (I‚ô•ZONING)","steam_id":76561198013113138,"connected_time":180000000000,"state":"active","ping":55},{"user_id":29,"name":"Thequirka","steam_id":76561198968058652,"connected_time":4000000000,"state":"spawning","ping":74}]},{"server_id":112,"name":"Uncletopia | Los Angeles | 2 | All Maps","name_short":"lax-2","host":"lax-1.us.uncletopia.com","port":27025,"enabled":true,"region":"us-west","cc":"us","latitude":33.94279,"longitude":-118.41004,"reserved":0,"last_update":"0001-01-01T00:00:00Z","name_a2s":"Uncletopia | Los Angeles | 2 | All Maps","protocol":17,"map":"cp_snakewater_final1","folder":"tf","game":"Team Fortress","app_id":440,"player_count":0,"max_players":24,"Bots":0,"server_type":"Dedicated","server_os":"Linux","password":true,"vac":true,"version":"7961495","steam_id":85568392924469992,"keywords":["cp","nocrits","nodmgspread","uncletopia"],"game_id":440,"stv_port":27026,"stv_name":"Uncletopia | Los Angeles | 2 | All Maps | STV","players":null},{"server_id":324,"name":"Uncletopia | Los Angeles | 3 | All Maps","name_short":"lax-3","host":"lax-1.us.uncletopia.com","port":27035,"enabled":true,"region":"us-west","cc":"us","latitude":33.94279,"longitude":-118.41004,"reserved":0,"last_update":"0001-01-01T00:00:00Z","name_a2s":"Uncletopia | Los Angeles | 3 | All Maps","protocol":17,"map":"pl_frontier_final","folder":"tf","game":"Team Fortress","app_id":440,"player_count":0,"max_players":24,"Bots":0,"server_type":"Dedicated","server_os":"Linux","password":true,"vac":true,"version":"7961495","steam_id":85568392924510198,"keywords":["nocrits","nodmgspread","payload","uncletopia"],"game_id":440,"stv_port":27036,"stv_name":"Uncletopia | Los Angeles | 3 | All Maps | STV","players":null},{"server_id":25,"name":"Uncletopia | Los Angeles | 4 | Stopwatch","name_short":"lax-4","host":"lax-1.us.uncletopia.com","port":27045,"enabled":true,"region":"us-west","cc":"us","latitude":33.94279,"longitude":-118.41004,"reserved":0,"last_update":"0001-01-01T00:00:00Z","name_a2s":"Uncletopia | Los Angeles | 4 | Stopwatch","protocol":17,"map":"pl_barnblitz","folder":"tf","game":"Team Fortress","app_id":440,"player_count":0,"max_players":24,"Bots":0,"server_type":"Dedicated","server_os":"Linux","password":true,"vac":true,"version":"7961495","steam_id":85568392924510199,"keywords":["nocrits","nodmgspread","payload","uncletopia"],"game_id":440,"stv_port":27046,"stv_name":"Uncletopia | Los Angeles | 4 | Stopwatch | STV","players":null},{"server_id":11,"name":"Uncletopia | London | 1 | All Maps","name_short":"lon-1","host":"lon-1.uk.uncletopia.com","port":27015,"enabled":true,"region":"eu","cc":"gb","latitude":51.509865,"longitude":-0.118092,"reserved":0,"last_update":"0001-01-01T00:00:00Z","name_a2s":"Uncletopia | London | 1 | All Maps","protocol":17,"map":"pl_thundermountain","folder":"tf","game":"Team Fortress","app_id":440,"player_count":24,"max_players":24,"Bots":0,"server_type":"Dedicated","server_os":"Linux","password":true,"vac":true,"version":"7961495","steam_id":85568392924367362,"keywords":["nocrits","nodmgspread","payload","uncletopia"],"game_id":440,"stv_port":27016,"stv_name":"Uncletopia | London | 1 | All Maps | STV","players":[{"user_id":541,"name":"Jergu","steam_id":76561198023457541,"connected_time":1146000000000,"state":"active","ping":88},{"user_id":551,"name":"BOZZO","steam_id":76561198044210844,"connected_time":359000000000,"state":"active","ping":79},{"user_id":535,"name":"Hinojo","steam_id":76561198015573257,"connected_time":1268000000000,"state":"active","ping":73},{"user_id":502,"name":"Blar","steam_id":76561198042438229,"connected_time":2895000000000,"state":"active","ping":72},{"user_id":496,"name":"Kahvi","steam_id":76561198723244199,"connected_time":3083000000000,"state":"active","ping":85},{"user_id":488,"name":"Orbit","steam_id":76561198242999878,"connected_time":4371000000000,"state":"active","ping":62},{"user_id":525,"name":"Fiurius","steam_id":76561198151910950,"connected_time":1544000000000,"state":"active","ping":65},{"user_id":554,"name":"Milk","steam_id":76561198125876588,"connected_time":129000000000,"state":"active","ping":38},{"user_id":549,"name":"unconditional love","steam_id":76561199026097466,"connected_time":819000000000,"state":"active","ping":75},{"user_id":505,"name":"ultralight","steam_id":76561198022046842,"connected_time":2797000000000,"state":"active","ping":76},{"user_id":537,"name":"simon","steam_id":76561198880361394,"connected_time":1251000000000,"state":"active","ping":62},{"user_id":555,"name":"AsianPersuasion","steam_id":76561198202112536,"connected_time":112000000000,"state":"active","ping":57},{"user_id":550,"name":"shooer!","steam_id":76561198110531281,"connected_time":395000000000,"state":"active","ping":75},{"user_id":552,"name":"PavelTDT","steam_id":76561198445579776,"connected_time":316000000000,"state":"active","ping":97},{"user_id":503,"name":"‚∏∏aura‚∏∏","steam_id":76561198066258544,"connected_time":2877000000000,"state":"active","ping":66},{"user_id":514,"name":"deadkep","steam_id":76561198097463968,"connected_time":1881000000000,"state":"active","ping":75},{"user_id":433,"name":"Fran","steam_id":76561199070516960,"connected_time":9709000000000,"state":"active","ping":74},{"user_id":478,"name":"Amandus","steam_id":76561198036281079,"connected_time":5562000000000,"state":"active","ping":74},{"user_id":538,"name":"Dr. Cox","steam_id":76561198246629218,"connected_time":1244000000000,"state":"active","ping":107},{"user_id":556,"name":".:TEAM:. Rusty‚Ñ¢","steam_id":76561198042400381,"connected_time":84000000000,"state":"active","ping":56},{"user_id":547,"name":"kimchiking82","steam_id":76561198008423339,"connected_time":957000000000,"state":"active","ping":114},{"user_id":545,"name":"asdf","steam_id":76561199112671611,"connected_time":1087000000000,"state":"active","ping":91},{"user_id":557,"name":"NotChloe","steam_id":76561198080658092,"connected_time":76000000000,"state":"active","ping":63},{"user_id":510,"name":"Dr. Funkenstein","steam_id":76561197977816210,"connected_time":1918000000000,"state":"active","ping":64}]},{"server_id":114,"name":"Uncletopia | London | 2 | All Maps","name_short":"lon-2","host":"lon-1.uk.uncletopia.com","port":27025,"enabled":true,"region":"eu","cc":"gb","latitude":51.509865,"longitude":-0.118092,"reserved":0,"last_update":"0001-01-01T00:00:00Z","name_a2s":"Uncletopia | London | 2 | All Maps","protocol":17,"map":"pl_upward","folder":"tf","game":"Team Fortress","app_id":440,"player_count":24,"max_players":24,"Bots":0,"server_type":"Dedicated","server_os":"Linux","password":true,"vac":true,"version":"7961495","steam_id":85568392924470941,"keywords":["nocrits","nodmgspread","payload","uncletopia"],"game_id":440,"stv_port":27026,"stv_name":"Uncletopia | London | 2 | All Maps | STV","players":[{"user_id":315,"name":"TheBeardedM1G","steam_id":76561198040208946,"connected_time":830000000000,"state":"active","ping":44},{"user_id":331,"name":"Khrinde","steam_id":76561198036744526,"connected_time":15000000000,"state":"spawning","ping":88},{"user_id":328,"name":"The Beverage","steam_id":76561198046967039,"connected_time":208000000000,"state":"active","ping":83},{"user_id":229,"name":"Cattwood","steam_id":76561198054308015,"connected_time":6324000000000,"state":"active","ping":41},{"user_id":284,"name":"Joetron","steam_id":76561198267907985,"connected_time":3326000000000,"state":"active","ping":44},{"user_id":314,"name":"lomse_","steam_id":76561198146939162,"connected_time":1131000000000,"state":"active","ping":57},{"user_id":288,"name":"chinese name","steam_id":76561198069649097,"connected_time":3137000000000,"state":"active","ping":62},{"user_id":321,"name":"Scobra","steam_id":76561198000734400,"connected_time":529000000000,"state":"active","ping":116},{"user_id":322,"name":"Axter","steam_id":76561198118747192,"connected_time":518000000000,"state":"active","ping":87},{"user_id":311,"name":"Proud Jojo Fan #TF2SP","steam_id":76561198847327216,"connected_time":1167000000000,"state":"active","ping":74},{"user_id":318,"name":"padillacampos","steam_id":76561198161923970,"connected_time":776000000000,"state":"active","ping":74},{"user_id":310,"name":"Atomix","steam_id":76561198127352880,"connected_time":1174000000000,"state":"active","ping":56},{"user_id":329,"name":"Silver","steam_id":76561198037290739,"connected_time":182000000000,"state":"active","ping":71},{"user_id":291,"name":"UnusedEngine","steam_id":76561199281868902,"connected_time":3078000000000,"state":"active","ping":46},{"user_id":327,"name":"Somethingü§ô","steam_id":76561198375358222,"connected_time":261000000000,"state":"active","ping":39},{"user_id":257,"name":"eva","steam_id":76561198054474684,"connected_time":5475000000000,"state":"active","ping":77},{"user_id":312,"name":"Fer De Lancer","steam_id":76561198091367098,"connected_time":1165000000000,"state":"active","ping":64},{"user_id":268,"name":"orange","steam_id":76561198153181940,"connected_time":5018000000000,"state":"active","ping":53},{"user_id":302,"name":"XPullaHiiri","steam_id":76561198031652375,"connected_time":2277000000000,"state":"active","ping":87},{"user_id":330,"name":"Vv","steam_id":76561199052196750,"connected_time":181000000000,"state":"active","ping":157},{"user_id":313,"name":"SUSHII","steam_id":76561198086702651,"connected_time":1151000000000,"state":"active","ping":70},{"user_id":324,"name":"=flashpoint=","steam_id":76561197976774456,"connected_time":365000000000,"state":"active","ping":45},{"user_id":320,"name":"ediheelo","steam_id":76561198363615045,"connected_time":668000000000,"state":"active","ping":52},{"user_id":277,"name":"Xenophon","steam_id":76561198158781327,"connected_time":4485000000000,"state":"active","ping":53}]},{"server_id":320,"name":"Uncletopia | London | 3 | All Maps","name_short":"lon-3","host":"lon-1.uk.uncletopia.com","port":27035,"enabled":true,"region":"eu","cc":"gb","latitude":51.509865,"longitude":-0.118092,"reserved":0,"last_update":"0001-01-01T00:00:00Z","name_a2s":"Uncletopia | London | 3 | All Maps","protocol":17,"map":"pl_frontier_final","folder":"tf","game":"Team Fortress","app_id":440,"player_count":24,"max_players":24,"Bots":0,"server_type":"Dedicated","server_os":"Linux","password":true,"vac":true,"version":"7961495","steam_id":85568392924510192,"keywords":["nocrits","nodmgspread","payload","uncletopia"],"game_id":440,"stv_port":27036,"stv_name":"Uncletopia | London | 3 | All Maps | STV","players":[{"user_id":150,"name":"Kernel Panic","steam_id":76561198215811047,"connected_time":1601000000000,"state":"active","ping":38},{"user_id":157,"name":"Gaius","steam_id":76561198188174963,"connected_time":1057000000000,"state":"active","ping":45},{"user_id":51,"name":"MEDiUM","steam_id":76561198112328561,"connected_time":4256000000000,"state":"active","ping":84},{"user_id":158,"name":"hold it down like a stone","steam_id":76561198104896547,"connected_time":1043000000000,"state":"active","ping":75},{"user_id":144,"name":"FlameTheGame","steam_id":76561198841108519,"connected_time":1956000000000,"state":"active","ping":107},{"user_id":52,"name":"Welder","steam_id":76561198355300561,"connected_time":4254000000000,"state":"active","ping":67},{"user_id":79,"name":"Adwulf","steam_id":76561198045489942,"connected_time":3117000000000,"state":"active","ping":43},{"user_id":155,"name":"korupt","steam_id":76561198022738512,"connected_time":1370000000000,"state":"active","ping":62},{"user_id":20,"name":"Ixsus\u003c3","steam_id":76561198094756869,"connected_time":5304000000000,"state":"active","ping":69},{"user_id":143,"name":"Wardruna96","steam_id":76561199057083828,"connected_time":1974000000000,"state":"active","ping":75},{"user_id":163,"name":"the keebler","steam_id":76561199486326945,"connected_time":435000000000,"state":"active","ping":146},{"user_id":164,"name":"fingel :3","steam_id":76561198184798679,"connected_time":421000000000,"state":"active","ping":71},{"user_id":166,"name":"Life goes on","steam_id":76561198103978102,"connected_time":91000000000,"state":"active","ping":74},{"user_id":165,"name":"Zank Frappa","steam_id":76561199227624104,"connected_time":128000000000,"state":"active","ping":68},{"user_id":48,"name":"NaVi''Un1Soft''","steam_id":76561199059076097,"connected_time":4343000000000,"state":"active","ping":88},{"user_id":159,"name":"UnaSimpleBatata","steam_id":76561199008490451,"connected_time":965000000000,"state":"active","ping":98},{"user_id":149,"name":"DrExplosive","steam_id":76561198063678579,"connected_time":1685000000000,"state":"active","ping":47},{"user_id":167,"name":"Ace","steam_id":76561198279398145,"connected_time":63000000000,"state":"active","ping":60},{"user_id":73,"name":"wtabs","steam_id":76561198831766743,"connected_time":3454000000000,"state":"active","ping":81},{"user_id":161,"name":"john fortress","steam_id":76561198013237629,"connected_time":739000000000,"state":"active","ping":99},{"user_id":78,"name":"Poule De Combat","steam_id":76561198002108430,"connected_time":3239000000000,"state":"active","ping":71},{"user_id":168,"name":"kai","steam_id":76561198044847532,"connected_time":62000000000,"state":"active","ping":41},{"user_id":169,"name":"keleos82","steam_id":76561198123916013,"connected_time":61000000000,"state":"active","ping":72},{"user_id":147,"name":"BooceMaster","steam_id":76561198148520318,"connected_time":1939000000000,"state":"active","ping":128}]},{"server_id":321,"name":"Uncletopia | London | 4 | All Maps","name_short":"lon-4","host":"lon-1.uk.uncletopia.com","port":27045,"enabled":true,"region":"eu","cc":"gb","latitude":51.509865,"longitude":-0.118092,"reserved":0,"last_update":"0001-01-01T00:00:00Z","name_a2s":"Uncletopia | London | 4 | All Maps","protocol":17,"map":"pl_snowycoast","folder":"tf","game":"Team Fortress","app_id":440,"player_count":23,"max_players":24,"Bots":0,"server_type":"Dedicated","server_os":"Linux","password":true,"vac":true,"version":"7961495","steam_id":85568392924510193,"keywords":["nocrits","nodmgspread","payload","uncletopia"],"game_id":440,"stv_port":27046,"stv_name":"Uncletopia | London | 4 | All Maps | STV","players":[{"user_id":475,"name":"Acucutl","steam_id":76561198133867096,"connected_time":278000000000,"state":"active","ping":51},{"user_id":476,"name":"Sinta","steam_id":76561198098398841,"connected_time":214000000000,"state":"active","ping":114},{"user_id":369,"name":"A Shoelace","steam_id":76561198126726364,"connected_time":2996000000000,"state":"active","ping":52},{"user_id":462,"name":"Pottery Knight","steam_id":76561198094455814,"connected_time":858000000000,"state":"active","ping":71},{"user_id":420,"name":"ZENISHIRA","steam_id":76561198148357250,"connected_time":1675000000000,"state":"active","ping":75},{"user_id":445,"name":"Cookies and Bakies","steam_id":76561198017442928,"connected_time":1227000000000,"state":"active","ping":58},{"user_id":450,"name":"f0x","steam_id":76561198072921704,"connected_time":1117000000000,"state":"active","ping":46},{"user_id":334,"name":"kurage","steam_id":76561198021221288,"connected_time":5593000000000,"state":"active","ping":74},{"user_id":349,"name":"Margaret Thatcher","steam_id":76561198124463930,"connected_time":4048000000000,"state":"active","ping":40},{"user_id":460,"name":"JamOnBread","steam_id":76561199232257212,"connected_time":909000000000,"state":"active","ping":54},{"user_id":444,"name":"Doctor Pyro","steam_id":76561198240400118,"connected_time":1245000000000,"state":"active","ping":166},{"user_id":464,"name":"dibdabdeb","steam_id":76561198864272307,"connected_time":796000000000,"state":"active","ping":53},{"user_id":453,"name":"Yodas Brother","steam_id":76561197970375663,"connected_time":1062000000000,"state":"active","ping":77},{"user_id":438,"name":"MrSoy","steam_id":76561198082960634,"connected_time":1401000000000,"state":"active","ping":72},{"user_id":393,"name":"Small Mouse","steam_id":76561198286085100,"connected_time":2365000000000,"state":"active","ping":92},{"user_id":465,"name":"Michael","steam_id":76561198003146906,"connected_time":778000000000,"state":"active","ping":46},{"user_id":477,"name":"Acanda","steam_id":76561198123246537,"connected_time":130000000000,"state":"active","ping":69},{"user_id":468,"name":"Ah shit, here we go again","steam_id":76561198382080975,"connected_time":704000000000,"state":"active","ping":56},{"user_id":403,"name":"Maru","steam_id":76561198030931030,"connected_time":2134000000000,"state":"active","ping":81},{"user_id":407,"name":"AetheR","steam_id":76561198005418838,"connected_time":2096000000000,"state":"active","ping":85},{"user_id":414,"name":"denimchicken","steam_id":76561197989061982,"connected_time":1777000000000,"state":"active","ping":92},{"user_id":408,"name":"I Love Filtered Water","steam_id":76561198016042113,"connected_time":2092000000000,"state":"active","ping":90},{"user_id":382,"name":"dunduu","steam_id":76561198875240717,"connected_time":2594000000000,"state":"active","ping":76}]},{"server_id":21,"name":"Uncletopia | London | 5 | All Maps","name_short":"lon-5","host":"lon-1.uk.uncletopia.com","port":27055,"enabled":true,"region":"eu","cc":"gb","latitude":51.509865,"longitude":-0.118092,"reserved":0,"last_update":"0001-01-01T00:00:00Z","name_a2s":"Uncletopia | London | 5 | All Maps","protocol":17,"map":"pl_upward","folder":"tf","game":"Team Fortress","app_id":440,"player_count":24,"max_players":24,"Bots":0,"server_type":"Dedicated","server_os":"Linux","password":true,"vac":true,"version":"7961495","steam_id":85568392924742829,"keywords":["nocrits","nodmgspread","payload","uncletopia"],"game_id":440,"stv_port":27056,"stv_name":"Uncletopia | London | 5 | All Maps | STV","players":[{"user_id":161,"name":"olof","steam_id":76561198095681561,"connected_time":5678000000000,"state":"active","ping":97},{"user_id":230,"name":"LEGEND FUMO.","steam_id":76561198061033903,"connected_time":689000000000,"state":"active","ping":55},{"user_id":233,"name":"Fatmagic Mukbang ASMR","steam_id":76561198063492110,"connected_time":86000000000,"state":"active","ping":82},{"user_id":177,"name":"Colonel Dimanche","steam_id":76561197994792632,"connected_time":4797000000000,"state":"active","ping":57},{"user_id":181,"name":"Dromeka","steam_id":76561198963557200,"connected_time":4721000000000,"state":"active","ping":52},{"user_id":174,"name":"Ooze","steam_id":76561198039642637,"connected_time":4927000000000,"state":"active","ping":75},{"user_id":62,"name":"finbar","steam_id":76561198056812396,"connected_time":12278000000000,"state":"active","ping":79},{"user_id":216,"name":"s a i","steam_id":76561197970379754,"connected_time":2016000000000,"state":"active","ping":60},{"user_id":232,"name":"Visco","steam_id":76561199094320962,"connected_time":301000000000,"state":"active","ping":55},{"user_id":227,"name":"jacnok","steam_id":76561198281374370,"connected_time":908000000000,"state":"active","ping":48},{"user_id":211,"name":"DEFENDOR62","steam_id":76561199386703896,"connected_time":2236000000000,"state":"active","ping":54},{"user_id":201,"name":"LeonCactus","steam_id":76561198102360825,"connected_time":3114000000000,"state":"active","ping":63},{"user_id":217,"name":"Burpman","steam_id":76561198022897937,"connected_time":1902000000000,"state":"active","ping":47},{"user_id":145,"name":"William Afton","steam_id":76561198891551659,"connected_time":6643000000000,"state":"active","ping":46},{"user_id":140,"name":"You Don't Nomi.","steam_id":76561197969137836,"connected_time":6918000000000,"state":"active","ping":116},{"user_id":226,"name":"groyper_8814_bligger","steam_id":76561198276691164,"connected_time":921000000000,"state":"active","ping":61},{"user_id":199,"name":"glyph","steam_id":76561197980736364,"connected_time":3408000000000,"state":"active","ping":86},{"user_id":186,"name":"jacio","steam_id":76561199491964000,"connected_time":4338000000000,"state":"active","ping":61},{"user_id":234,"name":"Larry Penus","steam_id":76561198207546233,"connected_time":48000000000,"state":"active","ping":45},{"user_id":218,"name":"Zedifo","steam_id":76561198044032070,"connected_time":1862000000000,"state":"active","ping":47},{"user_id":207,"name":"Ney","steam_id":76561198301623058,"connected_time":2309000000000,"state":"active","ping":138},{"user_id":179,"name":"BING CHILLING","steam_id":76561198065438030,"connected_time":4754000000000,"state":"active","ping":142},{"user_id":110,"name":"zayd","steam_id":76561198895235231,"connected_time":8412000000000,"state":"active","ping":59},{"user_id":229,"name":"BasilNight The Snowman","steam_id":76561198092767374,"connected_time":733000000000,"state":"active","ping":75}]},{"server_id":22,"name":"Uncletopia | London | 6 | All Maps","name_short":"lon-6","host":"lon-1.uk.uncletopia.com","port":27065,"enabled":true,"region":"eu","cc":"gb","latitude":51.509865,"longitude":-0.118092,"reserved":0,"last_update":"0001-01-01T00:00:00Z","name_a2s":"Uncletopia | London | 6 | All Maps","protocol":17,"map":"cp_dustbowl","folder":"tf","game":"Team Fortress","app_id":440,"player_count":24,"max_players":24,"Bots":0,"server_type":"Dedicated","server_os":"Linux","password":true,"vac":true,"version":"7961495","steam_id":85568392924742830,"keywords":["cp","nocrits","nodmgspread","uncletopia"],"game_id":440,"stv_port":27066,"stv_name":"Uncletopia | London | 6 | All Maps | STV","players":[{"user_id":744,"name":"Someone","steam_id":76561199030195879,"connected_time":282000000000,"state":"active","ping":55},{"user_id":710,"name":"Plep","steam_id":76561198840259819,"connected_time":3312000000000,"state":"active","ping":58},{"user_id":734,"name":"Abit","steam_id":76561198032786948,"connected_time":701000000000,"state":"active","ping":71},{"user_id":733,"name":"Haschgott 2.0","steam_id":76561198049820307,"connected_time":758000000000,"state":"active","ping":68},{"user_id":711,"name":"sin","steam_id":76561198193416785,"connected_time":3196000000000,"state":"active","ping":52},{"user_id":735,"name":"Washburne","steam_id":76561198032810579,"connected_time":660000000000,"state":"active","ping":41},{"user_id":719,"name":"orkleon1","steam_id":76561198255092913,"connected_time":2223000000000,"state":"active","ping":100},{"user_id":689,"name":"RLCrazyCat3","steam_id":76561197983757878,"connected_time":3942000000000,"state":"active","ping":63},{"user_id":736,"name":"WomenBeardLike","steam_id":76561198390184314,"connected_time":654000000000,"state":"active","ping":59},{"user_id":700,"name":"zq4h","steam_id":76561198874605015,"connected_time":3628000000000,"state":"active","ping":110},{"user_id":737,"name":"clubmate v nosu","steam_id":76561199185525063,"connected_time":582000000000,"state":"active","ping":120},{"user_id":738,"name":"Bouef","steam_id":76561198240814546,"connected_time":544000000000,"state":"active","ping":51},{"user_id":730,"name":"Christmas Ham","steam_id":76561198119601623,"connected_time":1367000000000,"state":"active","ping":56},{"user_id":745,"name":"fuo","steam_id":76561197995536944,"connected_time":244000000000,"state":"active","ping":31},{"user_id":740,"name":"‚úß‚Çä‚Åé‡ºö","steam_id":76561199441196540,"connected_time":513000000000,"state":"active","ping":72},{"user_id":705,"name":"|\\/|r.–∫–æ—á–µ—Ä–≥–∞ „Éù„Éº„Ç´","steam_id":76561198126629775,"connected_time":3452000000000,"state":"active","ping":122},{"user_id":741,"name":"mhib","steam_id":76561198048037379,"connected_time":475000000000,"state":"active","ping":91},{"user_id":698,"name":"Wyvern786","steam_id":76561199137770636,"connected_time":3689000000000,"state":"active","ping":70},{"user_id":729,"name":"Jan Pawe≈Ç D≈Çugi","steam_id":76561198002849717,"connected_time":1372000000000,"state":"active","ping":83},{"user_id":742,"name":"GENOSAD","steam_id":76561198285619586,"connected_time":455000000000,"state":"active","ping":135},{"user_id":743,"name":"GrzMik","steam_id":76561198061951968,"connected_time":440000000000,"state":"active","ping":98},{"user_id":704,"name":"D()()mer","steam_id":76561198152252756,"connected_time":3501000000000,"state":"active","ping":145},{"user_id":747,"name":"Doctor Glizzy","steam_id":76561198315474018,"connected_time":21000000000,"state":"active","ping":69}]},{"server_id":40,"name":"Uncletopia | London | 7 | Stopwatch","name_short":"lon-7","host":"lon-1.uk.uncletopia.com","port":27075,"enabled":true,"region":"eu","cc":"gb","latitude":51.509865,"longitude":-0.118092,"reserved":0,"last_update":"0001-01-01T00:00:00Z","name_a2s":"Uncletopia | London | 7 | Stopwatch","protocol":17,"map":"koth_highpass","folder":"tf","game":"Team Fortress","app_id":440,"player_count":0,"max_players":24,"Bots":0,"server_type":"Dedicated","server_os":"Linux","password":true,"vac":true,"version":"7961495","steam_id":85568392924964314,"keywords":["cp","nocrits","nodmgspread","uncletopia"],"game_id":440,"stv_port":27076,"stv_name":"Uncletopia | London | 7 | Stopwatch | STV","players":null},{"server_id":41,"name":"Uncletopia | London | 8 | Community","name_short":"lon-8","host":"lon-1.uk.uncletopia.com","port":27085,"enabled":true,"region":"eu","cc":"gb","latitude":51.509865,"longitude":-0.118092,"reserved":0,"last_update":"0001-01-01T00:00:00Z","name_a2s":"Uncletopia | London | 8 | Community","protocol":17,"map":"workshop/koth_slaughter_rc1.ugc1712845210","folder":"tf","game":"Team Fortress","app_id":440,"player_count":0,"max_players":24,"Bots":0,"server_type":"Dedicated","server_os":"Linux","password":true,"vac":true,"version":"7961495","steam_id":85568392924964315,"keywords":["cp","nocrits","nodmgspread","uncletopia"],"game_id":440,"stv_port":27086,"stv_name":"Uncletopia | London | 8 | Community | STV","players":null},{"server_id":300,"name":"Uncletopia | Montr√©al | 1 | One Thousand Uncles","name_short":"mtl-1","host":"mtl-1.ca.uncletopia.com","port":27015,"enabled":true,"region":"us-east","cc":"ca","latitude":45.50889,"longitude":-73.56167,"reserved":0,"last_update":"0001-01-01T00:00:00Z","name_a2s":"","protocol":0,"map":"","folder":"","game":"","app_id":0,"player_count":2,"max_players":0,"Bots":0,"server_type":"","server_os":"","password":false,"vac":false,"version":"","steam_id":0,"keywords":null,"game_id":0,"stv_port":0,"stv_name":"","players":[{"user_id":88,"name":"nickname64","steam_id":76561199350406358,"connected_time":759000000000,"state":"active","ping":104},{"user_id":105,"name":"DrMisteryous2","steam_id":76561198336307012,"connected_time":336000000000,"state":"active","ping":163}]},{"server_id":301,"name":"Uncletopia | Montr√©al | 2 | One Thousand Uncles","name_short":"mtl-2","host":"mtl-1.ca.uncletopia.com","port":27025,"enabled":true,"region":"us-east","cc":"ca","latitude":45.50889,"longitude":-73.56167,"reserved":0,"last_update":"0001-01-01T00:00:00Z","name_a2s":"","protocol":0,"map":"","folder":"","game":"","app_id":0,"player_count":0,"max_players":0,"Bots":0,"server_type":"","server_os":"","password":false,"vac":false,"version":"","steam_id":0,"keywords":null,"game_id":0,"stv_port":0,"stv_name":"","players":null},{"server_id":302,"name":"Uncletopia | Montr√©al | 3 | One Thousand Uncles","name_short":"mtl-3","host":"mtl-1.ca.uncletopia.com","port":27035,"enabled":true,"region":"us-east","cc":"ca","latitude":45.50889,"longitude":-73.56167,"reserved":0,"last_update":"0001-01-01T00:00:00Z","name_a2s":"","protocol":0,"map":"","folder":"","game":"","app_id":0,"player_count":4,"max_players":0,"Bots":0,"server_type":"","server_os":"","password":false,"vac":false,"version":"","steam_id":0,"keywords":null,"game_id":0,"stv_port":0,"stv_name":"","players":[{"user_id":64,"name":"ECCO","steam_id":76561198002821513,"connected_time":5174000000000,"state":"active","ping":61},{"user_id":71,"name":"Chicken Gaming","steam_id":76561198976697705,"connected_time":3680000000000,"state":"active","ping":58},{"user_id":94,"name":"bundykeats","steam_id":76561199214099646,"connected_time":1641000000000,"state":"active","ping":71},{"user_id":98,"name":"Canuck","steam_id":76561197999152255,"connected_time":861000000000,"state":"active","ping":108}]},{"server_id":13,"name":"Uncletopia | New York City | 1 | All Maps","name_short":"nyc-1","host":"nyc-1.us.uncletopia.com","port":27015,"enabled":true,"region":"us-east","cc":"us","latitude":40.73061,"longitude":-73.93524,"reserved":0,"last_update":"0001-01-01T00:00:00Z","name_a2s":"Uncletopia | New York City | 1 | All Maps","protocol":17,"map":"koth_harvest_final","folder":"tf","game":"Team Fortress","app_id":440,"player_count":24,"max_players":24,"Bots":0,"server_type":"Dedicated","server_os":"Linux","password":true,"vac":true,"version":"7961495","steam_id":85568392924469993,"keywords":["cp","nocrits","nodmgspread","uncletopia"],"game_id":440,"stv_port":27016,"stv_name":"Uncletopia | New York City | 1 | All Maps | STV","players":[{"user_id":188,"name":"Bald Vegeta","steam_id":76561198844143746,"connected_time":6706000000000,"state":"active","ping":69},{"user_id":247,"name":"Shemply","steam_id":76561198193658910,"connected_time":905000000000,"state":"active","ping":88},{"user_id":213,"name":"Rummy the Blargh-gineer","steam_id":76561197997192800,"connected_time":4220000000000,"state":"active","ping":66},{"user_id":211,"name":"Lee-Ch","steam_id":76561198164980622,"connected_time":4315000000000,"state":"active","ping":75},{"user_id":250,"name":"Looge","steam_id":76561198155483586,"connected_time":500000000000,"state":"active","ping":64},{"user_id":220,"name":"Kritzburgh","steam_id":76561198149466938,"connected_time":3147000000000,"state":"active","ping":49},{"user_id":251,"name":"FIJI","steam_id":76561198126087725,"connected_time":497000000000,"state":"active","ping":55},{"user_id":249,"name":"a table","steam_id":76561198158461279,"connected_time":507000000000,"state":"active","ping":2305},{"user_id":93,"name":"pea ttv/peabeanz","steam_id":76561198119551968,"connected_time":12450000000000,"state":"active","ping":66},{"user_id":246,"name":"lego star wars on the psp","steam_id":76561198148014773,"connected_time":1122000000000,"state":"active","ping":57},{"user_id":214,"name":"Spiral Mountain","steam_id":76561198058683715,"connected_time":4200000000000,"state":"active","ping":75},{"user_id":237,"name":"CAT STAPLER","steam_id":76561198067614625,"connected_time":1701000000000,"state":"active","ping":68},{"user_id":231,"name":"epsilene","steam_id":76561198027468624,"connected_time":1957000000000,"state":"active","ping":45},{"user_id":252,"name":"LeBron James from Multiversus\ufffd\ufffd","steam_id":76561198316060646,"connected_time":494000000000,"state":"active","ping":119},{"user_id":241,"name":"ùëëùëúùëôùëù‚Ñéùëñùëõ.","steam_id":76561198294013916,"connected_time":1276000000000,"state":"active","ping":45},{"user_id":29,"name":"Minister of God","steam_id":76561198044278802,"connected_time":17778000000000,"state":"active","ping":52},{"user_id":244,"name":"ÎÇòÎ¨¥ Î®πÎäî ÏÇ¨Îûå","steam_id":76561198167893972,"connected_time":1135000000000,"state":"active","ping":80},{"user_id":176,"name":"taigaxx","steam_id":76561198202669250,"connected_time":7389000000000,"state":"active","ping":70},{"user_id":234,"name":"I'm bad I know thx \u003c3","steam_id":76561198058840477,"connected_time":1924000000000,"state":"active","ping":103},{"user_id":242,"name":"Sir Rimmington","steam_id":76561198019476636,"connected_time":1258000000000,"state":"active","ping":67},{"user_id":239,"name":"phroliax","steam_id":76561198207075529,"connected_time":1401000000000,"state":"active","ping":74},{"user_id":245,"name":"Bacchus","steam_id":76561198113244990,"connected_time":1134000000000,"state":"active","ping":73},{"user_id":189,"name":"Hobo Shanker","steam_id":76561198001785187,"connected_time":6687000000000,"state":"active","ping":76},{"user_id":224,"name":"üöΩKorfJobüöΩ","steam_id":76561198212932833,"connected_time":2856000000000,"state":"active","ping":183}]},{"server_id":14,"name":"Uncletopia | New York City | 2 | All Maps","name_short":"nyc-2","host":"nyc-1.us.uncletopia.com","port":27025,"enabled":true,"region":"us-east","cc":"us","latitude":40.73061,"longitude":-73.93524,"reserved":0,"last_update":"0001-01-01T00:00:00Z","name_a2s":"Uncletopia | New York City | 2 | All Maps","protocol":17,"map":"koth_highpass","folder":"tf","game":"Team Fortress","app_id":440,"player_count":0,"max_players":24,"Bots":0,"server_type":"Dedicated","server_os":"Linux","password":true,"vac":true,"version":"7961495","steam_id":85568392924469994,"keywords":["cp","nocrits","nodmgspread","uncletopia"],"game_id":440,"stv_port":27026,"stv_name":"Uncletopia | New York City | 2 | All Maps | STV","players":null},{"server_id":15,"name":"Uncletopia | New York City | 3 | Stopwatch","name_short":"nyc-3","host":"nyc-1.us.uncletopia.com","port":27035,"enabled":true,"region":"us-east","cc":"us","latitude":40.73061,"longitude":-73.93524,"reserved":0,"last_update":"0001-01-01T00:00:00Z","name_a2s":"Uncletopia | New York City | 3 | Stopwatch","protocol":17,"map":"workshop/koth_ashville_final.ugc2130459942","folder":"tf","game":"Team Fortress","app_id":440,"player_count":0,"max_players":24,"Bots":0,"server_type":"Dedicated","server_os":"Linux","password":true,"vac":true,"version":"7961495","steam_id":85568392924742820,"keywords":["cp","nocrits","nodmgspread","uncletopia"],"game_id":440,"stv_port":27036,"stv_name":"Uncletopia | New York City | 3 | Stopwatch | STV","players":null},{"server_id":16,"name":"Uncletopia | New York City | 4 | Community","name_short":"nyc-4","host":"nyc-1.us.uncletopia.com","port":27045,"enabled":true,"region":"us-east","cc":"us","latitude":40.73061,"longitude":-73.93524,"reserved":0,"last_update":"0001-01-01T00:00:00Z","name_a2s":"Uncletopia | New York City | 4 | Community","protocol":17,"map":"cp_altitude","folder":"tf","game":"Team Fortress","app_id":440,"player_count":0,"max_players":24,"Bots":0,"server_type":"Dedicated","server_os":"Linux","password":true,"vac":true,"version":"7961495","steam_id":85568392924742821,"keywords":["cp","nocrits","nodmgspread","uncletopia"],"game_id":440,"stv_port":27046,"stv_name":"Uncletopia | New York City | 4 | Community | STV","players":null},{"server_id":142,"name":"Uncletopia | S√£o Paulo | 1 | All Maps","name_short":"sao-1","host":"sao-1.br.uncletopia.com","port":27015,"enabled":true,"region":"sa","cc":"br","latitude":-23.533773,"longitude":-46.62529,"reserved":0,"last_update":"0001-01-01T00:00:00Z","name_a2s":"Uncletopia | S√£o Paulo | 1 | All Maps","protocol":17,"map":"pl_barnblitz","folder":"tf","game":"Team Fortress","app_id":440,"player_count":4,"max_players":24,"Bots":0,"server_type":"Dedicated","server_os":"Linux","password":true,"vac":true,"version":"7961495","steam_id":85568392924469996,"keywords":["nocrits","nodmgspread","payload","uncletopia"],"game_id":440,"stv_port":27016,"stv_name":"Uncletopia | S√£o Paulo | 1 | All Maps | STV","players":[{"user_id":9,"name":"Spooqui","steam_id":76561198829748673,"connected_time":1747000000000,"state":"active","ping":58},{"user_id":10,"name":"N00B","steam_id":76561199101427851,"connected_time":1709000000000,"state":"active","ping":91},{"user_id":14,"name":"eriquesaltos02","steam_id":76561199440339479,"connected_time":152000000000,"state":"active","ping":46},{"user_id":13,"name":"kike703 ‚ô†","steam_id":76561198103595539,"connected_time":782000000000,"state":"active","ping":91}]},{"server_id":143,"name":"Uncletopia | S√£o Paulo | 2 | Community","name_short":"sao-2","host":"sao-2.br.uncletopia.com","port":27015,"enabled":true,"region":"sa","cc":"br","latitude":-23.533773,"longitude":-46.62529,"reserved":0,"last_update":"0001-01-01T00:00:00Z","name_a2s":"Uncletopia | S√£o Paulo | 2 | Community","protocol":17,"map":"workshop/koth_trenchfoot_ab1.ugc731436616","folder":"tf","game":"Team Fortress","app_id":440,"player_count":0,"max_players":24,"Bots":0,"server_type":"Dedicated","server_os":"Linux","password":true,"vac":true,"version":"7961495","steam_id":85568392924485349,"keywords":["cp","nocrits","nodmgspread","uncletopia"],"game_id":440,"stv_port":27016,"stv_name":"Uncletopia | S√£o Paulo | 2 | Community | STV","players":null},{"server_id":7,"name":"Uncletopia | Seattle | 1 | All Maps","name_short":"sea-1","host":"sea-1.us.uncletopia.com","port":27015,"enabled":true,"region":"us-west","cc":"us","latitude":47.608013,"longitude":-122.33517,"reserved":0,"last_update":"0001-01-01T00:00:00Z","name_a2s":"Uncletopia | Seattle | 1 | All Maps","protocol":17,"map":"cp_egypt_final","folder":"tf","game":"Team Fortress","app_id":440,"player_count":24,"max_players":24,"Bots":0,"server_type":"Dedicated","server_os":"Linux","password":true,"vac":true,"version":"7961495","steam_id":85568392924469997,"keywords":["cp","nocrits","nodmgspread","uncletopia"],"game_id":440,"stv_port":27016,"stv_name":"Uncletopia | Seattle | 1 | All Maps | STV","players":[{"user_id":280,"name":"RoraBeth","steam_id":76561197999432246,"connected_time":1206000000000,"state":"active","ping":33},{"user_id":245,"name":"twitch.tv/rustyorion","steam_id":76561198439186347,"connected_time":3055000000000,"state":"active","ping":49},{"user_id":256,"name":"owl","steam_id":76561198088403016,"connected_time":2746000000000,"state":"active","ping":151},{"user_id":281,"name":"vfa","steam_id":76561198055729118,"connected_time":1162000000000,"state":"active","ping":53},{"user_id":282,"name":"Shark Sandwich","steam_id":76561198025007938,"connected_time":941000000000,"state":"active","ping":45},{"user_id":288,"name":"EAT SPIT!","steam_id":76561198096836451,"connected_time":325000000000,"state":"active","ping":60},{"user_id":274,"name":"Chauncey von Snuffles III","steam_id":76561198021784746,"connected_time":1378000000000,"state":"active","ping":110},{"user_id":231,"name":"bobtheninjaman","steam_id":76561198066424544,"connected_time":3916000000000,"state":"active","ping":71},{"user_id":289,"name":"Walter","steam_id":76561198084650694,"connected_time":89000000000,"state":"active","ping":125},{"user_id":290,"name":"bullet","steam_id":76561198055089667,"connected_time":70000000000,"state":"active","ping":45},{"user_id":261,"name":"Bloodborne Reference","steam_id":76561198380666998,"connected_time":2418000000000,"state":"active","ping":141},{"user_id":223,"name":"Eden","steam_id":76561198081284664,"connected_time":4821000000000,"state":"active","ping":87},{"user_id":268,"name":"Swifterino (f2p!!!)","steam_id":76561199226253326,"connected_time":2176000000000,"state":"active","ping":90},{"user_id":291,"name":"blue duck the 2nd","steam_id":76561198263142765,"connected_time":53000000000,"state":"active","ping":82},{"user_id":254,"name":"oo","steam_id":76561198119626492,"connected_time":2792000000000,"state":"active","ping":84},{"user_id":265,"name":"Femboy Menace","steam_id":76561199207174631,"connected_time":2284000000000,"state":"active","ping":156},{"user_id":269,"name":"Peppy","steam_id":76561198866629645,"connected_time":1676000000000,"state":"active","ping":56},{"user_id":230,"name":"SIMAX","steam_id":76561199243011400,"connected_time":3971000000000,"state":"active","ping":76},{"user_id":257,"name":"Echo","steam_id":76561198103342230,"connected_time":2653000000000,"state":"active","ping":71},{"user_id":266,"name":"baedeker","steam_id":76561199081837220,"connected_time":2253000000000,"state":"active","ping":95},{"user_id":277,"name":"Whimsy!","steam_id":76561197989578836,"connected_time":1342000000000,"state":"active","ping":70},{"user_id":228,"name":"Cloudswallower","steam_id":76561198167583291,"connected_time":4092000000000,"state":"active","ping":90},{"user_id":292,"name":"Koishi","steam_id":76561198054541054,"connected_time":49000000000,"state":"active","ping":356},{"user_id":278,"name":"I love the smell of Electrons","steam_id":76561199122791317,"connected_time":1334000000000,"state":"active","ping":117}]},{"server_id":119,"name":"Uncletopia | Seattle | 2 | All Maps","name_short":"sea-2","host":"sea-1.us.uncletopia.com","port":27025,"enabled":true,"region":"us-west","cc":"us","latitude":47.608013,"longitude":-122.33517,"reserved":0,"last_update":"0001-01-01T00:00:00Z","name_a2s":"Uncletopia | Seattle | 2 | All Maps","protocol":17,"map":"koth_lakeside_final","folder":"tf","game":"Team Fortress","app_id":440,"player_count":0,"max_players":24,"Bots":0,"server_type":"Dedicated","server_os":"Linux","password":true,"vac":true,"version":"7961495","steam_id":85568392924469998,"keywords":["cp","nocrits","nodmgspread","uncletopia"],"game_id":440,"stv_port":27026,"stv_name":"Uncletopia | Seattle | 2 | All Maps | STV","players":null},{"server_id":406,"name":"Uncletopia | Seattle | 3 | Stopwatch","name_short":"sea-3","host":"sea-1.us.uncletopia.com","port":27035,"enabled":true,"region":"us-west","cc":"us","latitude":47.608013,"longitude":-122.33517,"reserved":0,"last_update":"0001-01-01T00:00:00Z","name_a2s":"Uncletopia | Seattle | 3 | Stopwatch","protocol":17,"map":"workshop/pl_badwater_pro_v12.ugc2142942074","folder":"tf","game":"Team Fortress","app_id":440,"player_count":0,"max_players":24,"Bots":0,"server_type":"Dedicated","server_os":"Linux","password":true,"vac":true,"version":"7961495","steam_id":85568392924515217,"keywords":["nocrits","nodmgspread","payload","uncletopia"],"game_id":440,"stv_port":27036,"stv_name":"Uncletopia | Seattle | 3 | Stopwatch | STV","players":null},{"server_id":17,"name":"Uncletopia | San Francisco | 1 | All Maps","name_short":"sfo-1","host":"sfo-1.us.uncletopia.com","port":27015,"enabled":true,"region":"us-west","cc":"us","latitude":37.77397,"longitude":-122.4313,"reserved":0,"last_update":"0001-01-01T00:00:00Z","name_a2s":"Uncletopia | San Francisco | 1 | All Maps","protocol":17,"map":"koth_cascade","folder":"tf","game":"Team Fortress","app_id":440,"player_count":0,"max_players":24,"Bots":0,"server_type":"Dedicated","server_os":"Linux","password":true,"vac":true,"version":"7961495","steam_id":85568392924469999,"keywords":["cp","nocrits","nodmgspread","uncletopia"],"game_id":440,"stv_port":27016,"stv_name":"Uncletopia | San Francisco | 1 | All Maps | STV","players":null},{"server_id":18,"name":"Uncletopia | San Francisco | 2 | All Maps","name_short":"sfo-2","host":"sfo-1.us.uncletopia.com","port":27025,"enabled":true,"region":"us-west","cc":"us","latitude":37.77397,"longitude":-122.4313,"reserved":0,"last_update":"0001-01-01T00:00:00Z","name_a2s":"Uncletopia | San Francisco | 2 | All Maps","protocol":17,"map":"pl_frontier_final","folder":"tf","game":"Team Fortress","app_id":440,"player_count":0,"max_players":24,"Bots":0,"server_type":"Dedicated","server_os":"Linux","password":true,"vac":true,"version":"7961495","steam_id":85568392924470000,"keywords":["nocrits","nodmgspread","payload","uncletopia"],"game_id":440,"stv_port":27026,"stv_name":"Uncletopia | San Francisco | 2 | All Maps | STV","players":null},{"server_id":19,"name":"Uncletopia | San Francisco | 3 | Stopwatch","name_short":"sfo-3","host":"sfo-1.us.uncletopia.com","port":27035,"enabled":true,"region":"us-west","cc":"us","latitude":37.77397,"longitude":-122.4313,"reserved":0,"last_update":"0001-01-01T00:00:00Z","name_a2s":"Uncletopia | San Francisco | 3 | Stopwatch","protocol":17,"map":"pl_pier","folder":"tf","game":"Team Fortress","app_id":440,"player_count":0,"max_players":24,"Bots":0,"server_type":"Dedicated","server_os":"Linux","password":true,"vac":true,"version":"7961495","steam_id":85568392924742824,"keywords":["nocrits","nodmgspread","payload","uncletopia"],"game_id":440,"stv_port":27036,"stv_name":"Uncletopia | San Francisco | 3 | Stopwatch | STV","players":null},{"server_id":20,"name":"Uncletopia | San Francisco | 4 | Community","name_short":"sfo-4","host":"sfo-1.us.uncletopia.com","port":27045,"enabled":true,"region":"us-west","cc":"us","latitude":37.77397,"longitude":-122.4313,"reserved":0,"last_update":"0001-01-01T00:00:00Z","name_a2s":"Uncletopia | San Francisco | 4 | Community","protocol":17,"map":"workshop/cp_logjam_rc12.ugc454812035","folder":"tf","game":"Team Fortress","app_id":440,"player_count":0,"max_players":24,"Bots":0,"server_type":"Dedicated","server_os":"Linux","password":true,"vac":true,"version":"7961495","steam_id":85568392924742826,"keywords":["cp","nocrits","nodmgspread","uncletopia"],"game_id":440,"stv_port":27046,"stv_name":"Uncletopia | San Francisco | 4 | Community | STV","players":null},{"server_id":141,"name":"Uncletopia | Sydney | 1 | All Maps","name_short":"syd-1","host":"syd-1.au.uncletopia.com","port":27015,"enabled":true,"region":"au","cc":"au","latitude":-33.865143,"longitude":151.2099,"reserved":0,"last_update":"0001-01-01T00:00:00Z","name_a2s":"Uncletopia | Sydney | 1 | All Maps","protocol":17,"map":"koth_highpass","folder":"tf","game":"Team Fortress","app_id":440,"player_count":0,"max_players":24,"Bots":0,"server_type":"Dedicated","server_os":"Linux","password":true,"vac":true,"version":"7961495","steam_id":85568392924470001,"keywords":["cp","nocrits","nodmgspread","uncletopia"],"game_id":440,"stv_port":27016,"stv_name":"Uncletopia | Sydney | 1 | All Maps | STV","players":null},{"server_id":123,"name":"Uncletopia | Sydney | 2 | All Maps","name_short":"syd-2","host":"syd-1.au.uncletopia.com","port":27025,"enabled":true,"region":"au","cc":"au","latitude":-33.865143,"longitude":151.2099,"reserved":0,"last_update":"0001-01-01T00:00:00Z","name_a2s":"Uncletopia | Sydney | 2 | All Maps","protocol":17,"map":"koth_highpass","folder":"tf","game":"Team Fortress","app_id":440,"player_count":0,"max_players":24,"Bots":0,"server_type":"Dedicated","server_os":"Linux","password":true,"vac":true,"version":"7961495","steam_id":85568392924470002,"keywords":["cp","nocrits","nodmgspread","uncletopia"],"game_id":440,"stv_port":27026,"stv_name":"Uncletopia | Sydney | 2 | All Maps | STV","players":null},{"server_id":395,"name":"Uncletopia | Sydney | 3 | All Maps","name_short":"syd-3","host":"syd-1.au.uncletopia.com","port":27035,"enabled":true,"region":"au","cc":"au","latitude":-33.865143,"longitude":151.2099,"reserved":0,"last_update":"0001-01-01T00:00:00Z","name_a2s":"Uncletopia | Sydney | 3 | All Maps","protocol":17,"map":"pl_badwater","folder":"tf","game":"Team Fortress","app_id":440,"player_count":0,"max_players":24,"Bots":0,"server_type":"Dedicated","server_os":"Linux","password":true,"vac":true,"version":"7961495","steam_id":85568392925194467,"keywords":["nocrits","nodmgspread","payload","uncletopia"],"game_id":440,"stv_port":27036,"stv_name":"Uncletopia | Sydney | 3 | All Maps | STV","players":null},{"server_id":396,"name":"Uncletopia | Sydney | 4 | All Maps","name_short":"syd-4","host":"syd-1.au.uncletopia.com","port":27045,"enabled":true,"region":"au","cc":"au","latitude":-33.865143,"longitude":151.2099,"reserved":0,"last_update":"0001-01-01T00:00:00Z","name_a2s":"Uncletopia | Sydney | 4 | All Maps","protocol":17,"map":"cp_dustbowl","folder":"tf","game":"Team Fortress","app_id":440,"player_count":0,"max_players":24,"Bots":0,"server_type":"Dedicated","server_os":"Linux","password":true,"vac":true,"version":"7961495","steam_id":85568392925397958,"keywords":["cp","nocrits","nodmgspread","uncletopia"],"game_id":440,"stv_port":27046,"stv_name":"Uncletopia | Sydney | 4 | All Maps | STV","players":null},{"server_id":58,"name":"Uncletopia | Sydney | 5 | Stopwatch","name_short":"syd-5","host":"syd-1.au.uncletopia.com","port":27055,"enabled":true,"region":"au","cc":"au","latitude":-33.865143,"longitude":151.2099,"reserved":0,"last_update":"0001-01-01T00:00:00Z","name_a2s":"Uncletopia | Sydney | 5 | Stopwatch","protocol":17,"map":"pl_frontier_final","folder":"tf","game":"Team Fortress","app_id":440,"player_count":0,"max_players":24,"Bots":0,"server_type":"Dedicated","server_os":"Linux","password":true,"vac":true,"version":"7961495","steam_id":85568392925397959,"keywords":["nocrits","nodmgspread","payload","uncletopia"],"game_id":440,"stv_port":27056,"stv_name":"Uncletopia | Sydney | 5 | Stopwatch | STV","players":null},{"server_id":59,"name":"Uncletopia | Sydney | 6 | Community","name_short":"syd-6","host":"syd-1.au.uncletopia.com","port":27065,"enabled":true,"region":"au","cc":"au","latitude":-33.865143,"longitude":151.2099,"reserved":0,"last_update":"0001-01-01T00:00:00Z","name_a2s":"Uncletopia | Sydney | 6 | Community","protocol":17,"map":"workshop/cp_bruhstbowl_b6.ugc2878604990","folder":"tf","game":"Team Fortress","app_id":440,"player_count":0,"max_players":24,"Bots":0,"server_type":"Dedicated","server_os":"Linux","password":true,"vac":true,"version":"7961495","steam_id":85568392925397960,"keywords":["cp","nocrits","nodmgspread","uncletopia"],"game_id":440,"stv_port":27066,"stv_name":"Uncletopia | Sydney | 6 | Community | STV","players":null},{"server_id":49,"name":"Uncletopia | Warsaw | 1 | One Thousand Uncles","name_short":"waw-1","host":"waw-1.pl.uncletopia.com","port":27015,"enabled":true,"region":"eu","cc":"pl","latitude":52.2297,"longitude":21.017532,"reserved":0,"last_update":"0001-01-01T00:00:00Z","name_a2s":"Uncletopia | Warsaw | 1 | One Thousand Uncles","protocol":17,"map":"cp_mercenarypark","folder":"tf","game":"Team Fortress","app_id":440,"player_count":31,"max_players":32,"Bots":16,"server_type":"Dedicated","server_os":"Linux","password":true,"vac":true,"version":"7961495","steam_id":85568392925397850,"keywords":["alltalk","bots","cp","danepve","increased_maxplayers","nocrits","norespawntime","uncletopia"],"game_id":440,"stv_port":0,"stv_name":"","players":[{"user_id":240,"name":"Fritzkrieg","steam_id":76561199231092470,"connected_time":8691000000000,"state":"active","ping":72},{"user_id":374,"name":"TJ1212","steam_id":76561199013575313,"connected_time":172000000000,"state":"active","ping":66},{"user_id":325,"name":"korea","steam_id":76561198120520111,"connected_time":3427000000000,"state":"active","ping":56},{"user_id":336,"name":"Kecron","steam_id":76561198135331389,"connected_time":1784000000000,"state":"active","ping":90},{"user_id":321,"name":"Riky95","steam_id":76561198095289436,"connected_time":4134000000000,"state":"active","ping":61},{"user_id":373,"name":"hmm yes","steam_id":76561198170322809,"connected_time":214000000000,"state":"active","ping":65},{"user_id":339,"name":"Kotlet schabowy","steam_id":76561198048983509,"connected_time":1684000000000,"state":"active","ping":46},{"user_id":330,"name":"Fotos√≠ntesis","steam_id":76561198034253525,"connected_time":2674000000000,"state":"active","ping":77},{"user_id":353,"name":"Cristiano Ronaldo","steam_id":76561199058257545,"connected_time":1045000000000,"state":"active","ping":227},{"user_id":372,"name":"capetanunito","steam_id":76561199364524852,"connected_time":352000000000,"state":"active","ping":110},{"user_id":375,"name":"ùíØùìáùìäùìàùìÅùí∂ùìã228","steam_id":76561199229195988,"connected_time":154000000000,"state":"active","ping":101},{"user_id":290,"name":"Scout","steam_id":76561198992898803,"connected_time":5381000000000,"state":"active","ping":74},{"user_id":338,"name":"KipxSateee","steam_id":76561198149158137,"connected_time":1742000000000,"state":"active","ping":73},{"user_id":352,"name":"Ando","steam_id":76561197994056083,"connected_time":1089000000000,"state":"active","ping":75},{"user_id":376,"name":"Trustworthy_Fish","steam_id":76561198838934696,"connected_time":112000000000,"state":"spawning","ping":131}]},{"server_id":50,"name":"Uncletopia | Warsaw | 2 | One Thousand Uncles","name_short":"waw-2","host":"waw-1.pl.uncletopia.com","port":27025,"enabled":true,"region":"eu","cc":"pl","latitude":52.2297,"longitude":21.017532,"reserved":0,"last_update":"0001-01-01T00:00:00Z","name_a2s":"Uncletopia | Warsaw | 2 | One Thousand Uncles","protocol":17,"map":"pl_swiftwater_final1","folder":"tf","game":"Team Fortress","app_id":440,"player_count":0,"max_players":32,"Bots":0,"server_type":"Dedicated","server_os":"Linux","password":true,"vac":true,"version":"7961495","steam_id":85568392925397851,"keywords":["alltalk","danepve","increased_maxplayers","nocrits","norespawntime","payload","uncletopia"],"game_id":440,"stv_port":0,"stv_name":"","players":null},{"server_id":51,"name":"Uncletopia | Warsaw | 3 | All Maps","name_short":"waw-3","host":"waw-1.pl.uncletopia.com","port":27035,"enabled":true,"region":"eu","cc":"pl","latitude":52.2297,"longitude":21.017532,"reserved":0,"last_update":"0001-01-01T00:00:00Z","name_a2s":"Uncletopia | Warsaw | 3 | All Maps","protocol":17,"map":"koth_viaduct","folder":"tf","game":"Team Fortress","app_id":440,"player_count":1,"max_players":24,"Bots":0,"server_type":"Dedicated","server_os":"Linux","password":true,"vac":true,"version":"7961495","steam_id":85568392925397852,"keywords":["cp","nocrits","nodmgspread","uncletopia"],"game_id":440,"stv_port":27036,"stv_name":"Uncletopia | Warsaw | 3 | All Maps | STV","players":[{"user_id":18,"name":"Horny_Furry\u003c3","steam_id":76561199372236636,"connected_time":42000000000,"state":"active","ping":59}]},{"server_id":52,"name":"Uncletopia | Warsaw | 4 | All Maps","name_short":"waw-4","host":"waw-1.pl.uncletopia.com","port":27045,"enabled":true,"region":"eu","cc":"pl","latitude":52.2297,"longitude":21.017532,"reserved":0,"last_update":"0001-01-01T00:00:00Z","name_a2s":"Uncletopia | Warsaw | 4 | All Maps","protocol":17,"map":"cp_sunshine","folder":"tf","game":"Team Fortress","app_id":440,"player_count":10,"max_players":24,"Bots":0,"server_type":"Dedicated","server_os":"Linux","password":true,"vac":true,"version":"7961495","steam_id":85568392925397853,"keywords":["cp","nocrits","nodmgspread","uncletopia"],"game_id":440,"stv_port":27046,"stv_name":"Uncletopia | Warsaw | 4 | All Maps | STV","players":[{"user_id":5,"name":"Jesse Dinkman","steam_id":76561198262996078,"connected_time":5774000000000,"state":"active","ping":103},{"user_id":6,"name":"Hostile neighborhood femboy","steam_id":76561198799133372,"connected_time":5734000000000,"state":"active","ping":112},{"user_id":51,"name":"jekk.97","steam_id":76561198146961838,"connected_time":227000000000,"state":"active","ping":121},{"user_id":50,"name":"Mitrixie","steam_id":76561198842023498,"connected_time":310000000000,"state":"active","ping":90},{"user_id":52,"name":"^1MARAMA PALEX","steam_id":76561198311372563,"connected_time":183000000000,"state":"active","ping":90},{"user_id":53,"name":"Piesel","steam_id":76561198985453063,"connected_time":132000000000,"state":"active","ping":35},{"user_id":34,"name":"Zodaick","steam_id":76561198083662129,"connected_time":1108000000000,"state":"active","ping":62},{"user_id":47,"name":"Exe_Red","steam_id":76561198154952759,"connected_time":709000000000,"state":"active","ping":75},{"user_id":27,"name":"Lorenzo Lovers","steam_id":76561198073973581,"connected_time":1306000000000,"state":"active","ping":97},{"user_id":38,"name":"Cabanos","steam_id":76561198285337328,"connected_time":1070000000000,"state":"active","ping":74}]},{"server_id":53,"name":"Uncletopia | Warsaw | 5 | Stopwatch","name_short":"waw-5","host":"waw-1.pl.uncletopia.com","port":27055,"enabled":true,"region":"eu","cc":"pl","latitude":52.2297,"longitude":21.017532,"reserved":0,"last_update":"0001-01-01T00:00:00Z","name_a2s":"Uncletopia | Warsaw | 5 | Stopwatch","protocol":17,"map":"koth_highpass","folder":"tf","game":"Team Fortress","app_id":440,"player_count":2,"max_players":24,"Bots":0,"server_type":"Dedicated","server_os":"Linux","password":true,"vac":true,"version":"7961495","steam_id":85568392925397854,"keywords":["cp","nocrits","nodmgspread","uncletopia"],"game_id":440,"stv_port":27056,"stv_name":"Uncletopia | Warsaw | 5 | Stopwatch | STV","players":[{"user_id":10,"name":"sewer goblin","steam_id":76561199135835032,"connected_time":409000000000,"state":"active","ping":104},{"user_id":11,"name":"Freddy Fazbear","steam_id":76561198299179114,"connected_time":351000000000,"state":"active","ping":75}]},{"server_id":54,"name":"Uncletopia | Warsaw | 6 | Community","name_short":"waw-6","host":"waw-1.pl.uncletopia.com","port":27065,"enabled":true,"region":"eu","cc":"pl","latitude":52.2297,"longitude":21.017532,"reserved":0,"last_update":"0001-01-01T00:00:00Z","name_a2s":"Uncletopia | Warsaw | 6 | Community","protocol":17,"map":"workshop/cp_snowbase_b21.ugc2081770490","folder":"tf","game":"Team Fortress","app_id":440,"player_count":2,"max_players":24,"Bots":0,"server_type":"Dedicated","server_os":"Linux","password":true,"vac":true,"version":"7961495","steam_id":85568392925397856,"keywords":["cp","nocrits","nodmgspread","uncletopia"],"game_id":440,"stv_port":27066,"stv_name":"Uncletopia | Warsaw | 6 | Community | STV","players":[{"user_id":22,"name":"Marcel201","steam_id":76561199186619047,"connected_time":1161000000000,"state":"active","ping":59},{"user_id":24,"name":"rets_","steam_id":76561198061551392,"connected_time":99000000000,"state":"active","ping":63}]}]}