{"status":true,"message":"","result":[{"server_id":9,"name":"Uncletopia | Atlanta | 1 | All Maps","name_short":"atl-1","host":"atl-1.us.uncletopia.com","port":27015,"enabled":true,"region":"us-east","cc":"us","latitude":33.753746,"longitude":-84.38633,"reserved":0,"last_update":"0001-01-01T00:00:00Z","name_a2s":"Uncletopia | Atlanta | 1 | All Maps","protocol":17,"map":"pl_upward","folder":"tf","game":"Team Fortress","app_id":440,"player_count":24,"max_players":24,"Bots":0,"server_type":"Dedicated","server_os":"Linux","password":true,"vac":true,"version":"7961495","steam_id":85568392924469982,"keywords":["nocrits","nodmgspread","payload","uncletopia"],"game_id":440,"stv_port":27016,"stv_name":"Uncletopia | Atlanta | 1 | All Maps | STV","players":null},{"server_id":104,"name":"Uncletopia | Atlanta | 2 | All Maps","name_short":"atl-2","host":"atl-1.us.uncletopia.com","port":27025,"enabled":true,"region":"us-east","cc":"us","latitude":33.753746,"longitude":-84.38633,"reserved":0,"last_update":"0001-01-01T00:00:00Z","name_a2s":"Uncletopia | Atlanta | 2 | All Maps","protocol":17,"map":"pl_barnblitz","folder":"tf","game":"Team Fortress","app_id":440,"player_count":23,"max_players":24,"Bots":0,"server_type":"Dedicated","server_os":"Linux","password":true,"vac":true,"version":"7961495","steam_id":85568392924469983,"keywords":["nocrits","nodmgspread","payload","uncletopia"],"game_id":440,"stv_port":27026,"stv_name":"Uncletopia | Atlanta | 2 | All Maps | STV","players":null},{"server_id":400,"name":"Uncletopia | Atlanta | 3 | Stopwatch","name_short":"atl-3","host":"atl-1.us.uncletopia.com","port":27035,"enabled":true,"region":"us-east","cc":"us","latitude":33.753746,"longitude":-84.38633,"reserved":0,"last_update":"0001-01-01T00:00:00Z","name_a2s":"Uncletopia | Atlanta | 3 | Stopwatch","protocol":17,"map":"pl_badwater","folder":"tf","game":"Team Fortress","app_id":440,"player_count":1,"max_players":24,"Bots":0,"server_type":"Dedicated","server_os":"Linux","password":true,"vac":true,"version":"7961495","steam_id":85568392924515187,"keywords":["nocrits","nodmgspread","payload","uncletopia"],"game_id":440,"stv_port":27036,"stv_name":"Uncletopia | Atlanta | 3 | Stopwatch | STV","players":null},{"server_id":401,"name":"Uncletopia | Atlanta | 4 | Community","name_short":"atl-4","host":"atl-1.us.uncletopia.com","port":27045,"enabled":true,"region":"us-east","cc":"us","latitude":33.753746,"longitude":-84.38633,"reserved":0,"last_update":"0001-01-01T00:00:00Z","name_a2s":"Uncletopia | Atlanta | 4 | Community","protocol":17,"map":"cp_kalinka_rc6a","folder":"tf","game":"Team Fortress","app_id":440,"player_count":16,"max_players":24,"Bots":0,"server_type":"Dedicated","server_os":"Linux","password":true,"vac":true,"version":"7961495","steam_id":85568392924515188,"keywords":["cp","nocrits","nodmgspread","uncletopia"],"game_id":440,"stv_port":27046,"stv_name":"Uncletopia | Atlanta | 4 | Community | STV","players":null},{"server_id":2,"name":"Uncletopia | Chicago | 1 | All Maps","name_short":"chi-1","host":"chi-1.us.uncletopia.com","port":27015,"enabled":true,"region":"us-central","cc":"us","latitude":41.881832,"longitude":-87.62318,"reserved":0,"last_update":"0001-01-01T00:00:00Z","name_a2s":"Uncletopia | Chicago | 1 | All Maps","protocol":17,"map":"cp_mossrock","folder":"tf","game":"Team Fortress","app_id":440,"player_count":24,"max_players":24,"Bots":0,"server_type":"Dedicated","server_os":"Linux","password":true,"vac":true,"version":"7961495","steam_id":85568392924469984,"keywords":["cp","nocrits","nodmgspread","uncletopia"],"game_id":440,"stv_port":27016,"stv_name":"Uncletopia | Chicago | 1 | All Maps | STV","players":[{"user_id":450,"name":"Wilma","steam_id":76561198138420251,"connected_time":772000000000,"state":"active","ping":60},{"user_id":448,"name":"aphexjh","steam_id":76561197985854658,"connected_time":815000000000,"state":"active","ping":59},{"user_id":415,"name":"GlingGlop95","steam_id":76561198386865528,"connected_time":2732000000000,"state":"active","ping":81},{"user_id":423,"name":"Captain Buggy","steam_id":76561198024444448,"connected_time":2600000000000,"state":"active","ping":89},{"user_id":435,"name":"Elliot","steam_id":76561198052843856,"connected_time":1622000000000,"state":"active","ping":65},{"user_id":409,"name":"Milkmur","steam_id":76561198210043821,"connected_time":3185000000000,"state":"active","ping":65},{"user_id":455,"name":"Osrio","steam_id":76561198083428069,"connected_time":357000000000,"state":"active","ping":92},{"user_id":436,"name":"Youmu","steam_id":76561199013167718,"connected_time":1599000000000,"state":"active","ping":70},{"user_id":378,"name":"Ras","steam_id":76561198123546775,"connected_time":5127000000000,"state":"active","ping":60},{"user_id":412,"name":"Ampere","steam_id":76561198853751432,"connected_time":2755000000000,"state":"active","ping":66},{"user_id":440,"name":"PKBEAST_7","steam_id":76561198177136537,"connected_time":1554000000000,"state":"active","ping":94},{"user_id":449,"name":"Satchamo","steam_id":76561198012968239,"connected_time":789000000000,"state":"active","ping":73},{"user_id":441,"name":"Shadok","steam_id":76561198115325238,"connected_time":1547000000000,"state":"active","ping":176},{"user_id":453,"name":"TimTheEnchanter","steam_id":76561198174405078,"connected_time":531000000000,"state":"active","ping":75},{"user_id":428,"name":"Powered","steam_id":76561199298693128,"connected_time":2196000000000,"state":"active","ping":69},{"user_id":454,"name":"Lucon","steam_id":76561198067147724,"connected_time":526000000000,"state":"active","ping":58},{"user_id":386,"name":"Space","steam_id":76561198350489754,"connected_time":4556000000000,"state":"active","ping":58},{"user_id":430,"name":"sneak-gineer","steam_id":76561198882986104,"connected_time":2000000000000,"state":"active","ping":92},{"user_id":446,"name":"Chezburgures","steam_id":76561198173043730,"connected_time":1141000000000,"state":"active","ping":103},{"user_id":444,"name":"Mr_White","steam_id":76561198024615280,"connected_time":1335000000000,"state":"active","ping":159},{"user_id":456,"name":"socializedCryptid","steam_id":76561198991665007,"connected_time":340000000000,"state":"active","ping":54},{"user_id":410,"name":"Artgrendadier","steam_id":76561198063305359,"connected_time":3131000000000,"state":"active","ping":76},{"user_id":447,"name":"Furry Saul Goodman","steam_id":76561198069580305,"connected_time":928000000000,"state":"active","ping":45},{"user_id":443,"name":"PlumSmug","steam_id":76561198103960265,"connected_time":1511000000000,"state":"active","ping":69}]},{"server_id":106,"name":"Uncletopia | Chicago | 2 | All Maps","name_short":"chi-2","host":"chi-1.us.uncletopia.com","port":27025,"enabled":true,"region":"us-central","cc":"us","latitude":41.881832,"longitude":-87.62318,"reserved":0,"last_update":"0001-01-01T00:00:00Z","name_a2s":"Uncletopia | Chicago | 2 | All Maps","protocol":17,"map":"pl_borneo","folder":"tf","game":"Team Fortress","app_id":440,"player_count":24,"max_players":24,"Bots":0,"server_type":"Dedicated","server_os":"Linux","password":true,"vac":true,"version":"7961495","steam_id":85568392924469985,"keywords":["nocrits","nodmgspread","payload","uncletopia"],"game_id":440,"stv_port":27026,"stv_name":"Uncletopia | Chicago | 2 | All Maps | STV","players":[{"user_id":411,"name":"Mister Panic","steam_id":76561198373404338,"connected_time":6165000000000,"state":"active","ping":100},{"user_id":433,"name":"timestew 1","steam_id":76561198367583372,"connected_time":4865000000000,"state":"active","ping":77},{"user_id":494,"name":"JJames","steam_id":76561198055687973,"connected_time":147000000000,"state":"active","ping":61},{"user_id":493,"name":"PPFitzenreit","steam_id":76561199381005210,"connected_time":195000000000,"state":"active","ping":80},{"user_id":402,"name":"Greg_M74","steam_id":76561198823492311,"connected_time":6432000000000,"state":"active","ping":71},{"user_id":425,"name":"[NAME-REDACTED]","steam_id":76561198035682975,"connected_time":5467000000000,"state":"active","ping":67},{"user_id":495,"name":"SCraig64","steam_id":76561198171251965,"connected_time":59000000000,"state":"active","ping":65},{"user_id":464,"name":"Owl Pacino","steam_id":76561197979970666,"connected_time":2842000000000,"state":"active","ping":53},{"user_id":478,"name":"Noahbb09","steam_id":76561199233029345,"connected_time":1765000000000,"state":"active","ping":82},{"user_id":463,"name":"BarrowBaron","steam_id":76561198013633236,"connected_time":2882000000000,"state":"active","ping":53},{"user_id":480,"name":"Shooter of Walls","steam_id":76561197988105207,"connected_time":1749000000000,"state":"active","ping":70},{"user_id":496,"name":"card carrying member","steam_id":76561198043558709,"connected_time":58000000000,"state":"active","ping":91},{"user_id":472,"name":"SlurpyTheDog","steam_id":76561198799733154,"connected_time":2205000000000,"state":"active","ping":77},{"user_id":492,"name":"Octto","steam_id":76561198070124921,"connected_time":396000000000,"state":"active","ping":69},{"user_id":442,"name":"wearing my sunday pants","steam_id":76561198834106533,"connected_time":4245000000000,"state":"active","ping":84},{"user_id":475,"name":"jonie","steam_id":76561199016403787,"connected_time":1935000000000,"state":"active","ping":106},{"user_id":489,"name":"avotoast","steam_id":76561198339644583,"connected_time":1042000000000,"state":"active","ping":60},{"user_id":487,"name":"storyboard","steam_id":76561199088496817,"connected_time":1473000000000,"state":"active","ping":91},{"user_id":473,"name":"mansteam905","steam_id":76561199488421021,"connected_time":2128000000000,"state":"active","ping":98},{"user_id":497,"name":"j_tha_blaidd","steam_id":76561199010926889,"connected_time":23000000000,"state":"active","ping":96},{"user_id":491,"name":"pnut","steam_id":76561198043862737,"connected_time":895000000000,"state":"active","ping":58},{"user_id":490,"name":"Yukio Mishima","steam_id":76561198101890868,"connected_time":1023000000000,"state":"active","ping":70},{"user_id":468,"name":"Smol Zuzu","steam_id":76561198042446540,"connected_time":2267000000000,"state":"active","ping":69},{"user_id":471,"name":"Volichristo","steam_id":76561198148924612,"connected_time":2231000000000,"state":"active","ping":129}]},{"server_id":402,"name":"Uncletopia | Chicago | 3 | All Maps","name_short":"chi-3","host":"chi-1.us.uncletopia.com","port":27035,"enabled":true,"region":"us-central","cc":"us","latitude":41.881832,"longitude":-87.62318,"reserved":0,"last_update":"0001-01-01T00:00:00Z","name_a2s":"Uncletopia | Chicago | 3 | All Maps","protocol":17,"map":"pl_badwater","folder":"tf","game":"Team Fortress","app_id":440,"player_count":24,"max_players":24,"Bots":0,"server_type":"Dedicated","server_os":"Linux","password":true,"vac":true,"version":"7961495","steam_id":85568392924515191,"keywords":["nocrits","nodmgspread","payload","uncletopia"],"game_id":440,"stv_port":27036,"stv_name":"Uncletopia | Chicago | 3 | All Maps | STV","players":[{"user_id":387,"name":"She Pegs Me","steam_id":76561198099770390,"connected_time":609000000000,"state":"active","ping":53},{"user_id":390,"name":"inphlate","steam_id":76561199016973013,"connected_time":516000000000,"state":"active","ping":75},{"user_id":354,"name":"Kimba","steam_id":76561199092078325,"connected_time":3639000000000,"state":"active","ping":85},{"user_id":395,"name":"Rudy","steam_id":76561198013456828,"connected_time":416000000000,"state":"active","ping":74},{"user_id":373,"name":"Cleverless Biped","steam_id":76561198045984856,"connected_time":2375000000000,"state":"active","ping":118},{"user_id":355,"name":"Rhutebeer","steam_id":76561198018302761,"connected_time":3633000000000,"state":"active","ping":103},{"user_id":377,"name":"mn","steam_id":76561198042357436,"connected_time":1868000000000,"state":"active","ping":75},{"user_id":392,"name":"Juan Pablo Gonzalez 2023","steam_id":76561199197961413,"connected_time":440000000000,"state":"active","ping":59},{"user_id":393,"name":"Dake","steam_id":76561199139182003,"connected_time":431000000000,"state":"active","ping":61},{"user_id":386,"name":"LCGPhantom","steam_id":76561199052145044,"connected_time":742000000000,"state":"active","ping":77},{"user_id":336,"name":"Lucide","steam_id":76561197998530400,"connected_time":5136000000000,"state":"active","ping":111},{"user_id":353,"name":"rickyrickyricky","steam_id":76561198041765918,"connected_time":3906000000000,"state":"active","ping":80},{"user_id":382,"name":"[DATS‚û°] Sugar Meowth","steam_id":76561197995251793,"connected_time":1264000000000,"state":"active","ping":90},{"user_id":394,"name":"CPUnit","steam_id":76561198162881878,"connected_time":422000000000,"state":"active","ping":45},{"user_id":383,"name":"blobb","steam_id":76561198950448488,"connected_time":1242000000000,"state":"active","ping":50},{"user_id":396,"name":"radiation","steam_id":76561198001157602,"connected_time":411000000000,"state":"active","ping":75},{"user_id":397,"name":"tank","steam_id":76561199146161006,"connected_time":396000000000,"state":"active","ping":60},{"user_id":366,"name":"Dokkibai","steam_id":76561198355935693,"connected_time":2736000000000,"state":"active","ping":55},{"user_id":367,"name":"Treeckogeek","steam_id":76561198453328078,"connected_time":2485000000000,"state":"active","ping":48},{"user_id":369,"name":".jpg","steam_id":76561198137237377,"connected_time":2477000000000,"state":"active","ping":69},{"user_id":398,"name":"La Bomba","steam_id":76561198069948353,"connected_time":381000000000,"state":"active","ping":111},{"user_id":161,"name":"RandomRainbow","steam_id":76561199107573588,"connected_time":17083000000000,"state":"active","ping":55},{"user_id":372,"name":"Paddy","steam_id":76561198037001457,"connected_time":2419000000000,"state":"active","ping":70},{"user_id":375,"name":"Frank Forearms.","steam_id":76561198225910596,"connected_time":2000000000000,"state":"active","ping":62}]},{"server_id":403,"name":"Uncletopia | Chicago | 4 | All Maps","name_short":"chi-4","host":"chi-1.us.uncletopia.com","port":27045,"enabled":true,"region":"us-central","cc":"us","latitude":41.881832,"longitude":-87.62318,"reserved":0,"last_update":"0001-01-01T00:00:00Z","name_a2s":"Uncletopia | Chicago | 4 | All Maps","protocol":17,"map":"pl_pier","folder":"tf","game":"Team Fortress","app_id":440,"player_count":19,"max_players":24,"Bots":0,"server_type":"Dedicated","server_os":"Linux","password":true,"vac":true,"version":"7961495","steam_id":85568392924515193,"keywords":["nocrits","nodmgspread","payload","uncletopia"],"game_id":440,"stv_port":27046,"stv_name":"Uncletopia | Chicago | 4 | All Maps | STV","players":[{"user_id":120,"name":"Bussy Bandit","steam_id":76561198034028769,"connected_time":3549000000000,"state":"active","ping":62},{"user_id":156,"name":"Wahaha hee","steam_id":76561198098017157,"connected_time":484000000000,"state":"active","ping":88},{"user_id":169,"name":"daxx","steam_id":76561197971296086,"connected_time":11000000000,"state":"spawning","ping":83},{"user_id":50,"name":"shitass (Reaping and Sowing)","steam_id":76561198210572481,"connected_time":7567000000000,"state":"active","ping":75},{"user_id":133,"name":"YunKo„ÉÑ","steam_id":76561199107366261,"connected_time":3039000000000,"state":"active","ping":75},{"user_id":132,"name":"President Atticus","steam_id":76561198157557477,"connected_time":3060000000000,"state":"active","ping":67},{"user_id":159,"name":"DizasterVTuber","steam_id":76561198118241499,"connected_time":282000000000,"state":"active","ping":56},{"user_id":160,"name":"jello_hey","steam_id":76561199176327650,"connected_time":239000000000,"state":"active","ping":90},{"user_id":161,"name":"Goblin (Real)","steam_id":76561199160926985,"connected_time":235000000000,"state":"active","ping":84},{"user_id":139,"name":"Junko","steam_id":76561198146089003,"connected_time":2220000000000,"state":"active","ping":45},{"user_id":162,"name":"Kirby Knight tf2","steam_id":76561199070864271,"connected_time":233000000000,"state":"active","ping":55},{"user_id":163,"name":"TheChoclateDogThatCould","steam_id":76561198142126470,"connected_time":210000000000,"state":"active","ping":43},{"user_id":167,"name":"CloudlessZeus6","steam_id":76561198797087293,"connected_time":97000000000,"state":"active","ping":57},{"user_id":128,"name":"Clean Lines","steam_id":76561197960691518,"connected_time":3233000000000,"state":"active","ping":53},{"user_id":152,"name":"–†–ê–ó–ë–†–û–°","steam_id":76561198405168492,"connected_time":1463000000000,"state":"active","ping":79},{"user_id":166,"name":"feenman","steam_id":76561199383834799,"connected_time":131000000000,"state":"active","ping":99},{"user_id":168,"name":"konker","steam_id":76561199498088524,"connected_time":66000000000,"state":"active","ping":95},{"user_id":153,"name":"Lancer47","steam_id":76561198020481475,"connected_time":1441000000000,"state":"active","ping":71},{"user_id":135,"name":"Reisen Udongein Inaba","steam_id":76561198051082314,"connected_time":2798000000000,"state":"active","ping":99}]},{"server_id":36,"name":"Uncletopia | Chicago | 5 | All Maps","name_short":"chi-5","host":"chi-2.us.uncletopia.com","port":27015,"enabled":true,"region":"us-central","cc":"us","latitude":41.881832,"longitude":-87.62318,"reserved":0,"last_update":"0001-01-01T00:00:00Z","name_a2s":"Uncletopia | Chicago | 5 | All Maps","protocol":17,"map":"pl_badwater","folder":"tf","game":"Team Fortress","app_id":440,"player_count":21,"max_players":24,"Bots":0,"server_type":"Dedicated","server_os":"Linux","password":true,"vac":true,"version":"7961495","steam_id":85568392924866362,"keywords":["nocrits","nodmgspread","payload","uncletopia"],"game_id":440,"stv_port":27016,"stv_name":"Uncletopia | Chicago | 5 | All Maps | STV","players":[{"user_id":106,"name":"the zoo","steam_id":76561198013732450,"connected_time":1607000000000,"state":"active","ping":55},{"user_id":140,"name":"TRIPLE AAARON","steam_id":76561198066835150,"connected_time":64000000000,"state":"active","ping":57},{"user_id":124,"name":"R O D G E D A N","steam_id":76561198226236524,"connected_time":866000000000,"state":"active","ping":73},{"user_id":136,"name":"Barbarian","steam_id":76561198008063409,"connected_time":184000000000,"state":"active","ping":80},{"user_id":15,"name":"NotNewbie","steam_id":76561198164645568,"connected_time":7063000000000,"state":"active","ping":61},{"user_id":81,"name":"gaming elliptical","steam_id":76561198013456569,"connected_time":3973000000000,"state":"active","ping":46},{"user_id":121,"name":"basilberry","steam_id":76561198145275937,"connected_time":1131000000000,"state":"active","ping":86},{"user_id":129,"name":"Huntpk","steam_id":76561198340591674,"connected_time":780000000000,"state":"active","ping":38},{"user_id":110,"name":"Crusade","steam_id":76561199192979051,"connected_time":1483000000000,"state":"active","ping":90},{"user_id":99,"name":"og biden pack cart","steam_id":76561198253731826,"connected_time":2253000000000,"state":"active","ping":61},{"user_id":101,"name":"jimmz","steam_id":76561199076776118,"connected_time":2188000000000,"state":"active","ping":75},{"user_id":138,"name":"Dr. Robotniks Mean Bean Machine","steam_id":76561198047980627,"connected_time":132000000000,"state":"active","ping":59},{"user_id":127,"name":"RoFrogle","steam_id":76561199078941377,"connected_time":808000000000,"state":"active","ping":74},{"user_id":130,"name":"WaWaSkittleTits","steam_id":76561198411234398,"connected_time":770000000000,"state":"active","ping":126},{"user_id":86,"name":"anonion","steam_id":76561198056477584,"connected_time":2933000000000,"state":"active","ping":85},{"user_id":128,"name":"mEch114","steam_id":76561198236936060,"connected_time":808000000000,"state":"active","ping":72},{"user_id":112,"name":"Johnny Lawrence #JohnnyMaxxing","steam_id":76561199367141671,"connected_time":1469000000000,"state":"active","ping":72},{"user_id":137,"name":"idontknowjeffery","steam_id":76561198138822887,"connected_time":151000000000,"state":"active","ping":84},{"user_id":139,"name":"soy milk drinker","steam_id":76561198034955422,"connected_time":106000000000,"state":"active","ping":148},{"user_id":115,"name":"UUUURT","steam_id":76561198047468140,"connected_time":1396000000000,"state":"active","ping":100},{"user_id":134,"name":"Dongus","steam_id":76561197979056451,"connected_time":518000000000,"state":"active","ping":97}]},{"server_id":37,"name":"Uncletopia | Chicago | 6 | All Maps","name_short":"chi-6","host":"chi-2.us.uncletopia.com","port":27025,"enabled":true,"region":"us-central","cc":"us","latitude":41.881832,"longitude":-87.62318,"reserved":0,"last_update":"0001-01-01T00:00:00Z","name_a2s":"Uncletopia | Chicago | 6 | All Maps","protocol":17,"map":"pl_frontier_final","folder":"tf","game":"Team Fortress","app_id":440,"player_count":24,"max_players":24,"Bots":0,"server_type":"Dedicated","server_os":"Linux","password":true,"vac":true,"version":"7961495","steam_id":85568392924866363,"keywords":["nocrits","nodmgspread","payload","uncletopia"],"game_id":440,"stv_port":27026,"stv_name":"Uncletopia | Chicago | 6 | All Maps | STV","players":[{"user_id":42,"name":"whorgampus","steam_id":76561198043610132,"connected_time":726000000000,"state":"active","ping":75},{"user_id":43,"name":"H0ovy","steam_id":76561198996230924,"connected_time":690000000000,"state":"active","ping":62},{"user_id":44,"name":"Triple Lizard","steam_id":76561198188459654,"connected_time":668000000000,"state":"active","ping":79},{"user_id":45,"name":"DonoC","steam_id":76561198274473338,"connected_time":662000000000,"state":"active","ping":87},{"user_id":46,"name":"pastor pete #letspray","steam_id":76561198061103166,"connected_time":636000000000,"state":"active","ping":55},{"user_id":25,"name":"guppy","steam_id":76561198041380190,"connected_time":1077000000000,"state":"active","ping":100},{"user_id":24,"name":"üÖúüÖîüÖîüÖöüÖ¢üÖ£üÖî\ufffd\ufffd\ufffd","steam_id":76561197999748343,"connected_time":1118000000000,"state":"active","ping":72},{"user_id":22,"name":"Leviathan","steam_id":76561198042678399,"connected_time":1219000000000,"state":"active","ping":77},{"user_id":47,"name":"KATSURB","steam_id":76561199172118456,"connected_time":609000000000,"state":"active","ping":60},{"user_id":51,"name":"Kool-Aid Jammer","steam_id":76561198036032168,"connected_time":365000000000,"state":"active","ping":48},{"user_id":27,"name":"The Burglar","steam_id":76561198325685937,"connected_time":930000000000,"state":"active","ping":61},{"user_id":52,"name":"Eins","steam_id":76561199030343810,"connected_time":342000000000,"state":"active","ping":52},{"user_id":54,"name":"doop","steam_id":76561198370487545,"connected_time":170000000000,"state":"active","ping":83},{"user_id":50,"name":"PajamaPants","steam_id":76561198400306643,"connected_time":463000000000,"state":"active","ping":74},{"user_id":55,"name":"Amazingamerhawk","steam_id":76561199064935924,"connected_time":163000000000,"state":"active","ping":76},{"user_id":32,"name":"greydu","steam_id":76561198826924309,"connected_time":846000000000,"state":"active","ping":77},{"user_id":33,"name":"Danmar33","steam_id":76561198056453091,"connected_time":839000000000,"state":"active","ping":48},{"user_id":41,"name":"DaLokes!","steam_id":76561199153023055,"connected_time":766000000000,"state":"active","ping":93},{"user_id":35,"name":"HorseGlue","steam_id":76561198297246672,"connected_time":827000000000,"state":"active","ping":65},{"user_id":36,"name":"Allahgator","steam_id":76561198280659041,"connected_time":826000000000,"state":"active","ping":86},{"user_id":37,"name":"Hashslinging Slasher","steam_id":76561198099015430,"connected_time":825000000000,"state":"active","ping":121},{"user_id":38,"name":"TinCanDim","steam_id":76561198184039682,"connected_time":820000000000,"state":"active","ping":104},{"user_id":39,"name":"SMOKINONTOP5S","steam_id":76561198150627999,"connected_time":819000000000,"state":"active","ping":82},{"user_id":40,"name":"Charles Barley","steam_id":76561198397072609,"connected_time":813000000000,"state":"active","ping":115}]},{"server_id":38,"name":"Uncletopia | Chicago | 7 | Stopwatch","name_short":"chi-7","host":"chi-2.us.uncletopia.com","port":27035,"enabled":true,"region":"us-central","cc":"us","latitude":41.881832,"longitude":-87.62318,"reserved":0,"last_update":"0001-01-01T00:00:00Z","name_a2s":"Uncletopia | Chicago | 7 | Stopwatch","protocol":17,"map":"workshop/pl_summercoast_rc8e.ugc1761528829","folder":"tf","game":"Team Fortress","app_id":440,"player_count":1,"max_players":24,"Bots":0,"server_type":"Dedicated","server_os":"Linux","password":true,"vac":true,"version":"7961495","steam_id":85568392924866364,"keywords":["nocrits","nodmgspread","payload","uncletopia"],"game_id":440,"stv_port":27036,"stv_name":"Uncletopia | Chicago | 7 | Stopwatch | STV","players":[{"user_id":41,"name":"090-nsalih","steam_id":76561199467467873,"connected_time":266000000000,"state":"spawning","ping":106}]},{"server_id":39,"name":"Uncletopia | Chicago | 8 | Community","name_short":"chi-8","host":"chi-2.us.uncletopia.com","port":27045,"enabled":true,"region":"us-central","cc":"us","latitude":41.881832,"longitude":-87.62318,"reserved":0,"last_update":"0001-01-01T00:00:00Z","name_a2s":"Uncletopia | Chicago | 8 | Community","protocol":17,"map":"workshop/cp_glacier_rc6.ugc2905735376","folder":"tf","game":"Team Fortress","app_id":440,"player_count":2,"max_players":24,"Bots":0,"server_type":"Dedicated","server_os":"Linux","password":true,"vac":true,"version":"7961495","steam_id":85568392924866365,"keywords":["cp","nocrits","nodmgspread","uncletopia"],"game_id":440,"stv_port":27046,"stv_name":"Uncletopia | Chicago | 8 | Community | STV","players":[{"user_id":9,"name":"3masterotha","steam_id":76561199382332116,"connected_time":832000000000,"state":"active","ping":72},{"user_id":10,"name":"dom_aperson","steam_id":76561199262315326,"connected_time":581000000000,"state":"active","ping":49}]},{"server_id":8,"name":"Uncletopia | Dallas | 1 | All Maps","name_short":"dal-1","host":"dal-1.us.uncletopia.com","port":27015,"enabled":true,"region":"us-central","cc":"us","latitude":32.779167,"longitude":-96.80889,"reserved":0,"last_update":"0001-01-01T00:00:00Z","name_a2s":"Uncletopia | Dallas | 1 | All Maps","protocol":17,"map":"cp_dustbowl","folder":"tf","game":"Team Fortress","app_id":440,"player_count":21,"max_players":24,"Bots":0,"server_type":"Dedicated","server_os":"Linux","password":true,"vac":true,"version":"7961495","steam_id":85568392924469986,"keywords":["cp","nocrits","nodmgspread","uncletopia"],"game_id":440,"stv_port":27016,"stv_name":"Uncletopia | Dallas | 1 | All Maps | STV","players":[{"user_id":618,"name":"Ghostmeal","steam_id":76561198042380299,"connected_time":240000000000,"state":"active","ping":55},{"user_id":592,"name":"moono","steam_id":76561199113001836,"connected_time":1301000000000,"state":"active","ping":89},{"user_id":616,"name":"Azazellotl","steam_id":76561198824814392,"connected_time":507000000000,"state":"active","ping":85},{"user_id":619,"name":"Keyboardbreaker","steam_id":76561198372836132,"connected_time":230000000000,"state":"active","ping":105},{"user_id":617,"name":"King0500","steam_id":76561198402396167,"connected_time":462000000000,"state":"active","ping":95},{"user_id":613,"name":"Mellou","steam_id":76561198212048740,"connected_time":587000000000,"state":"active","ping":48},{"user_id":610,"name":"cactail","steam_id":76561198238898732,"connected_time":735000000000,"state":"active","ping":102},{"user_id":620,"name":"Iron Argus","steam_id":76561198181088245,"connected_time":217000000000,"state":"active","ping":86},{"user_id":458,"name":"dobby","steam_id":76561198012274834,"connected_time":9013000000000,"state":"active","ping":70},{"user_id":598,"name":"a1HeroDude","steam_id":76561198840391433,"connected_time":1185000000000,"state":"active","ping":126},{"user_id":621,"name":"Lutz","steam_id":76561198319233787,"connected_time":216000000000,"state":"active","ping":90},{"user_id":501,"name":"Space-E","steam_id":76561198799417313,"connected_time":3648000000000,"state":"active","ping":95},{"user_id":622,"name":"MoonMan Midnight","steam_id":76561198300525893,"connected_time":20000000000,"state":"spawning","ping":59},{"user_id":575,"name":"Ridley","steam_id":76561198248615662,"connected_time":1716000000000,"state":"active","ping":97},{"user_id":574,"name":"bredinstead","steam_id":76561199156464551,"connected_time":1752000000000,"state":"active","ping":82},{"user_id":492,"name":"TheSecretNewbie","steam_id":76561198194671218,"connected_time":4485000000000,"state":"active","ping":50},{"user_id":448,"name":"kermitcreeper(ZAZA)","steam_id":76561199222829972,"connected_time":9864000000000,"state":"active","ping":62},{"user_id":595,"name":"huggbugga","steam_id":76561199141557638,"connected_time":1269000000000,"state":"active","ping":72},{"user_id":414,"name":"CeLeb144","steam_id":76561199089907740,"connected_time":11587000000000,"state":"active","ping":71},{"user_id":603,"name":"Dan","steam_id":76561198205054883,"connected_time":924000000000,"state":"active","ping":112},{"user_id":463,"name":"THRONGLER","steam_id":76561198198563466,"connected_time":7871000000000,"state":"active","ping":40}]},{"server_id":108,"name":"Uncletopia | Dallas | 2 | All Maps","name_short":"dal-2","host":"dal-1.us.uncletopia.com","port":27025,"enabled":true,"region":"us-central","cc":"us","latitude":32.779167,"longitude":-96.80889,"reserved":0,"last_update":"0001-01-01T00:00:00Z","name_a2s":"Uncletopia | Dallas | 2 | All Maps","protocol":17,"map":"koth_cascade","folder":"tf","game":"Team Fortress","app_id":440,"player_count":24,"max_players":24,"Bots":0,"server_type":"Dedicated","server_os":"Linux","password":true,"vac":true,"version":"7961495","steam_id":85568392924469988,"keywords":["cp","nocrits","nodmgspread","uncletopia"],"game_id":440,"stv_port":27026,"stv_name":"Uncletopia | Dallas | 2 | All Maps | STV","players":[{"user_id":251,"name":"hunterisntcool","steam_id":76561198093609661,"connected_time":1698000000000,"state":"active","ping":78},{"user_id":267,"name":"Nae Nae no Whip","steam_id":76561198138365728,"connected_time":990000000000,"state":"active","ping":68},{"user_id":233,"name":"Rob","steam_id":76561199187786660,"connected_time":2188000000000,"state":"active","ping":56},{"user_id":275,"name":"Ven0m","steam_id":76561199105729447,"connected_time":223000000000,"state":"active","ping":58},{"user_id":276,"name":"Thewaffleman141","steam_id":76561198083068694,"connected_time":165000000000,"state":"active","ping":44},{"user_id":278,"name":"Hank Hill","steam_id":76561199083888017,"connected_time":27000000000,"state":"spawning","ping":124},{"user_id":274,"name":"ammonia and bleach","steam_id":76561199091585278,"connected_time":420000000000,"state":"active","ping":72},{"user_id":230,"name":"merlin","steam_id":76561198334511480,"connected_time":2814000000000,"state":"active","ping":72},{"user_id":261,"name":"Who loves orange soda?","steam_id":76561198059808982,"connected_time":1221000000000,"state":"active","ping":60},{"user_id":237,"name":"Dreysidel","steam_id":76561198056496183,"connected_time":2105000000000,"state":"active","ping":99},{"user_id":185,"name":"dog","steam_id":76561198263873491,"connected_time":5940000000000,"state":"active","ping":61},{"user_id":128,"name":"Paradon","steam_id":76561198242214772,"connected_time":11251000000000,"state":"active","ping":74},{"user_id":262,"name":"Rock Kickass","steam_id":76561198450510841,"connected_time":1217000000000,"state":"active","ping":94},{"user_id":268,"name":"Nexus","steam_id":76561199092072822,"connected_time":893000000000,"state":"active","ping":68},{"user_id":271,"name":"ShofaX","steam_id":76561198199768014,"connected_time":636000000000,"state":"active","ping":88},{"user_id":279,"name":"TechnoBear2099","steam_id":76561198238863596,"connected_time":16000000000,"state":"active","ping":50},{"user_id":258,"name":"Withered Bonnie (Real)","steam_id":76561198423310113,"connected_time":1511000000000,"state":"active","ping":55},{"user_id":252,"name":"Veroshi","steam_id":76561198183369559,"connected_time":1697000000000,"state":"active","ping":74},{"user_id":270,"name":"Zaid","steam_id":76561199142840666,"connected_time":770000000000,"state":"active","ping":150},{"user_id":264,"name":"TylerKai421","steam_id":76561198207428583,"connected_time":1194000000000,"state":"active","ping":111},{"user_id":249,"name":"Cursed Frog","steam_id":76561198090419068,"connected_time":1812000000000,"state":"active","ping":132},{"user_id":253,"name":"Dr. W0lv","steam_id":76561198129237487,"connected_time":1679000000000,"state":"active","ping":65},{"user_id":255,"name":"sex enjoyer","steam_id":76561198106320012,"connected_time":1627000000000,"state":"active","ping":82},{"user_id":265,"name":"Jamendithas","steam_id":76561198119537716,"connected_time":1089000000000,"state":"active","ping":112}]},{"server_id":404,"name":"Uncletopia | Dallas | 3 | All Maps","name_short":"dal-3","host":"dal-1.us.uncletopia.com","port":27035,"enabled":true,"region":"us-central","cc":"us","latitude":32.779167,"longitude":-96.80889,"reserved":0,"last_update":"0001-01-01T00:00:00Z","name_a2s":"Uncletopia | Dallas | 3 | All Maps","protocol":17,"map":"koth_viaduct","folder":"tf","game":"Team Fortress","app_id":440,"player_count":0,"max_players":24,"Bots":0,"server_type":"Dedicated","server_os":"Linux","password":true,"vac":true,"version":"7961495","steam_id":85568392924515219,"keywords":["cp","nocrits","nodmgspread","uncletopia"],"game_id":440,"stv_port":27036,"stv_name":"Uncletopia | Dallas | 3 | All Maps | STV","players":null},{"server_id":405,"name":"Uncletopia | Dallas | 4 | Community","name_short":"dal-4","host":"dal-1.us.uncletopia.com","port":27045,"enabled":true,"region":"us-central","cc":"us","latitude":32.779167,"longitude":-96.80889,"reserved":0,"last_update":"0001-01-01T00:00:00Z","name_a2s":"Uncletopia | Dallas | 4 | Community","protocol":17,"map":"workshop/cp_overgrown_rc8.ugc503939302","folder":"tf","game":"Team Fortress","app_id":440,"player_count":0,"max_players":24,"Bots":0,"server_type":"Dedicated","server_os":"Linux","password":true,"vac":true,"version":"7961495","steam_id":85568392924515220,"keywords":["cp","nocrits","nodmgspread","uncletopia"],"game_id":440,"stv_port":27046,"stv_name":"Uncletopia | Dallas | 4 | Community | STV","players":null},{"server_id":5,"name":"Uncletopia | Frankfurt | 1 | All Maps","name_short":"frk-1","host":"frk-1.de.uncletopia.com","port":27015,"enabled":true,"region":"eu","cc":"de","latitude":50.110924,"longitude":8.682127,"reserved":0,"last_update":"0001-01-01T00:00:00Z","name_a2s":"Uncletopia | Frankfurt | 1 | All Maps","protocol":17,"map":"pl_badwater","folder":"tf","game":"Team Fortress","app_id":440,"player_count":24,"max_players":24,"Bots":0,"server_type":"Dedicated","server_os":"Linux","password":true,"vac":true,"version":"7961495","steam_id":85568392924469989,"keywords":["nocrits","nodmgspread","payload","uncletopia"],"game_id":440,"stv_port":27016,"stv_name":"Uncletopia | Frankfurt | 1 | All Maps | STV","players":[{"user_id":605,"name":"MaTke","steam_id":76561198378170301,"connected_time":807000000000,"state":"active","ping":67},{"user_id":487,"name":"Borat","steam_id":76561198122226417,"connected_time":9376000000000,"state":"active","ping":50},{"user_id":608,"name":"ihate you","steam_id":76561199428944551,"connected_time":408000000000,"state":"active","ping":78},{"user_id":611,"name":"–±–∞–∑–æ–≤—ã–π —à–∏–∑","steam_id":76561198071485999,"connected_time":181000000000,"state":"active","ping":79},{"user_id":583,"name":"MargoulGetron","steam_id":76561198020551698,"connected_time":2156000000000,"state":"active","ping":61},{"user_id":529,"name":"Endi","steam_id":76561198914938199,"connected_time":5946000000000,"state":"active","ping":88},{"user_id":589,"name":"cloud","steam_id":76561198105983711,"connected_time":1806000000000,"state":"active","ping":70},{"user_id":591,"name":"lacurio","steam_id":76561198059701776,"connected_time":1705000000000,"state":"active","ping":45},{"user_id":604,"name":"Kappa","steam_id":76561198089341471,"connected_time":890000000000,"state":"active","ping":70},{"user_id":612,"name":"Luuk","steam_id":76561198088266026,"connected_time":174000000000,"state":"active","ping":44},{"user_id":594,"name":"the scringly dingly","steam_id":76561198192179174,"connected_time":1649000000000,"state":"active","ping":104},{"user_id":609,"name":"Leon","steam_id":76561198052486397,"connected_time":303000000000,"state":"active","ping":100},{"user_id":607,"name":"finbar","steam_id":76561198056812396,"connected_time":715000000000,"state":"active","ping":84},{"user_id":595,"name":"Eidolon","steam_id":76561198043919565,"connected_time":1578000000000,"state":"active","ping":81},{"user_id":578,"name":"The Lady","steam_id":76561198029895809,"connected_time":2635000000000,"state":"active","ping":75},{"user_id":585,"name":"Diana","steam_id":76561198073471392,"connected_time":2009000000000,"state":"active","ping":60},{"user_id":579,"name":"Kaibz","steam_id":76561197975012611,"connected_time":2570000000000,"state":"active","ping":44},{"user_id":606,"name":"Bill Carr","steam_id":76561198110033943,"connected_time":787000000000,"state":"active","ping":49},{"user_id":615,"name":"Japes","steam_id":76561198079625724,"connected_time":137000000000,"state":"active","ping":148},{"user_id":600,"name":"corrosive taekwondo","steam_id":76561197982510441,"connected_time":928000000000,"state":"active","ping":45},{"user_id":616,"name":"El Wiwi","steam_id":76561198134378108,"connected_time":52000000000,"state":"active","ping":82},{"user_id":445,"name":"MR BUBBLES","steam_id":76561198019005259,"connected_time":11539000000000,"state":"active","ping":101},{"user_id":496,"name":"obi","steam_id":76561198040154461,"connected_time":8875000000000,"state":"active","ping":54},{"user_id":484,"name":"minn","steam_id":76561198099101232,"connected_time":9628000000000,"state":"active","ping":67}]},{"server_id":110,"name":"Uncletopia | Frankfurt | 2 | All Maps","name_short":"frk-2","host":"frk-1.de.uncletopia.com","port":27025,"enabled":true,"region":"eu","cc":"de","latitude":50.110924,"longitude":8.682127,"reserved":0,"last_update":"0001-01-01T00:00:00Z","name_a2s":"Uncletopia | Frankfurt | 2 | All Maps","protocol":17,"map":"cp_granary","folder":"tf","game":"Team Fortress","app_id":440,"player_count":24,"max_players":24,"Bots":0,"server_type":"Dedicated","server_os":"Linux","password":true,"vac":true,"version":"7961495","steam_id":85568392924469990,"keywords":["cp","nocrits","nodmgspread","uncletopia"],"game_id":440,"stv_port":27026,"stv_name":"Uncletopia | Frankfurt | 2 | All Maps | STV","players":[{"user_id":513,"name":"Fales","steam_id":76561198126124929,"connected_time":1534000000000,"state":"active","ping":69},{"user_id":511,"name":"KennyD","steam_id":76561198117763254,"connected_time":1813000000000,"state":"active","ping":78},{"user_id":522,"name":"Tomfool","steam_id":76561197993256481,"connected_time":84000000000,"state":"active","ping":74},{"user_id":501,"name":"Xtis","steam_id":76561198043837480,"connected_time":3351000000000,"state":"active","ping":63},{"user_id":507,"name":"SuperBananeMan","steam_id":76561199091421628,"connected_time":2778000000000,"state":"active","ping":68},{"user_id":470,"name":"hananamanna","steam_id":76561198006570285,"connected_time":6890000000000,"state":"active","ping":108},{"user_id":516,"name":"Finem Belli","steam_id":76561198227177976,"connected_time":1208000000000,"state":"active","ping":47},{"user_id":406,"name":"I AM SUMMER SLAYCATION","steam_id":76561198179339326,"connected_time":11776000000000,"state":"active","ping":78},{"user_id":488,"name":"HelwiiHill","steam_id":76561198066730552,"connected_time":4593000000000,"state":"active","ping":83},{"user_id":512,"name":"Economic crisis","steam_id":76561198063562843,"connected_time":1682000000000,"state":"active","ping":63},{"user_id":505,"name":"Yangus","steam_id":76561198147796010,"connected_time":2821000000000,"state":"active","ping":61},{"user_id":429,"name":"agent youppii","steam_id":76561198055264447,"connected_time":8562000000000,"state":"active","ping":70},{"user_id":438,"name":"Jams","steam_id":76561198118316970,"connected_time":7924000000000,"state":"active","ping":83},{"user_id":520,"name":"‚òûLaZe‚òú","steam_id":76561198202191400,"connected_time":443000000000,"state":"active","ping":72},{"user_id":519,"name":"chillrend_morphs_high_lod6","steam_id":76561198452963141,"connected_time":483000000000,"state":"active","ping":76},{"user_id":521,"name":"dansal","steam_id":76561197997042510,"connected_time":349000000000,"state":"active","ping":176},{"user_id":497,"name":"xavier","steam_id":76561198076494034,"connected_time":4018000000000,"state":"active","ping":57},{"user_id":476,"name":"Fat Pigeon","steam_id":76561198817940142,"connected_time":5988000000000,"state":"active","ping":49},{"user_id":415,"name":"Just Navlis (on the scoreboard)","steam_id":76561198090479609,"connected_time":10596000000000,"state":"active","ping":44},{"user_id":494,"name":"epic gamer moment","steam_id":76561198299515070,"connected_time":4510000000000,"state":"active","ping":91},{"user_id":514,"name":"\u003e\u003c\u003e","steam_id":76561198152392309,"connected_time":1225000000000,"state":"active","ping":45},{"user_id":510,"name":"etc","steam_id":76561197998394797,"connected_time":2242000000000,"state":"active","ping":57},{"user_id":384,"name":"Vershal Smershal","steam_id":76561198116223995,"connected_time":14307000000000,"state":"active","ping":60},{"user_id":515,"name":"Alice (on the scoreboard)","steam_id":76561198052410860,"connected_time":1225000000000,"state":"active","ping":150}]},{"server_id":308,"name":"Uncletopia | Frankfurt | 3 | All Maps","name_short":"frk-3","host":"frk-1.de.uncletopia.com","port":27035,"enabled":true,"region":"eu","cc":"de","latitude":50.110924,"longitude":8.682127,"reserved":0,"last_update":"0001-01-01T00:00:00Z","name_a2s":"Uncletopia | Frankfurt | 3 | All Maps","protocol":17,"map":"pl_pier","folder":"tf","game":"Team Fortress","app_id":440,"player_count":23,"max_players":24,"Bots":0,"server_type":"Dedicated","server_os":"Linux","password":true,"vac":true,"version":"7961495","steam_id":85568392924504274,"keywords":["nocrits","nodmgspread","payload","uncletopia"],"game_id":440,"stv_port":27036,"stv_name":"Uncletopia | Frankfurt | 3 | All Maps | STV","players":[{"user_id":534,"name":"Bigunit","steam_id":76561197960678014,"connected_time":849000000000,"state":"active","ping":71},{"user_id":496,"name":"Zm4j","steam_id":76561198259465946,"connected_time":3551000000000,"state":"active","ping":85},{"user_id":469,"name":"else1","steam_id":76561197996558319,"connected_time":5215000000000,"state":"active","ping":79},{"user_id":502,"name":"Conan the Librarian","steam_id":76561198007224654,"connected_time":3193000000000,"state":"active","ping":80},{"user_id":547,"name":"KAIOKEN X10","steam_id":76561198147173457,"connected_time":220000000000,"state":"active","ping":66},{"user_id":524,"name":"Immortalyes","steam_id":76561198050800698,"connected_time":1599000000000,"state":"active","ping":74},{"user_id":548,"name":"TidB","steam_id":76561198055342304,"connected_time":166000000000,"state":"active","ping":47},{"user_id":537,"name":"REN","steam_id":76561198000596385,"connected_time":693000000000,"state":"active","ping":65},{"user_id":549,"name":"B≈Å√§ck..","steam_id":76561198300644952,"connected_time":109000000000,"state":"active","ping":67},{"user_id":543,"name":"Sabour","steam_id":76561197963965445,"connected_time":536000000000,"state":"active","ping":58},{"user_id":539,"name":"/hm/","steam_id":76561199213268288,"connected_time":616000000000,"state":"active","ping":90},{"user_id":540,"name":"laz","steam_id":76561198065023519,"connected_time":597000000000,"state":"active","ping":88},{"user_id":495,"name":"NG mathhead","steam_id":76561198429138254,"connected_time":3561000000000,"state":"active","ping":61},{"user_id":485,"name":"omony","steam_id":76561197983750025,"connected_time":4080000000000,"state":"active","ping":88},{"user_id":483,"name":"MUWEQ","steam_id":76561198107615727,"connected_time":4328000000000,"state":"active","ping":75},{"user_id":541,"name":"oriano","steam_id":76561198099916327,"connected_time":588000000000,"state":"active","ping":62},{"user_id":542,"name":"Tort","steam_id":76561198329646769,"connected_time":561000000000,"state":"active","ping":71},{"user_id":531,"name":"midgetman","steam_id":76561198084337071,"connected_time":1211000000000,"state":"active","ping":55},{"user_id":544,"name":"Mulle Meck","steam_id":76561198088124509,"connected_time":509000000000,"state":"active","ping":59},{"user_id":527,"name":"cez","steam_id":76561198361380956,"connected_time":1370000000000,"state":"active","ping":72},{"user_id":528,"name":"TW1STaL1CKY","steam_id":76561198026479532,"connected_time":1366000000000,"state":"active","ping":57},{"user_id":545,"name":"steve","steam_id":76561198975416204,"connected_time":459000000000,"state":"active","ping":62},{"user_id":546,"name":"Selderis","steam_id":76561198003731873,"connected_time":355000000000,"state":"active","ping":186}]},{"server_id":309,"name":"Uncletopia | Frankfurt | 4 | All Maps","name_short":"frk-4","host":"frk-1.de.uncletopia.com","port":27045,"enabled":true,"region":"eu","cc":"de","latitude":50.110924,"longitude":8.682127,"reserved":0,"last_update":"0001-01-01T00:00:00Z","name_a2s":"Uncletopia | Frankfurt | 4 | All Maps","protocol":17,"map":"pl_badwater","folder":"tf","game":"Team Fortress","app_id":440,"player_count":6,"max_players":24,"Bots":0,"server_type":"Dedicated","server_os":"Linux","password":true,"vac":true,"version":"7961495","steam_id":85568392924504275,"keywords":["nocrits","nodmgspread","payload","uncletopia"],"game_id":440,"stv_port":27046,"stv_name":"Uncletopia | Frankfurt | 4 | All Maps | STV","players":[{"user_id":275,"name":"cupcakedealer69402","steam_id":76561199122061900,"connected_time":1732000000000,"state":"active","ping":146},{"user_id":291,"name":"Babyyfrog","steam_id":76561198413304415,"connected_time":201000000000,"state":"active","ping":154},{"user_id":292,"name":"ran is running","steam_id":76561199443185667,"connected_time":25000000000,"state":"active","ping":131},{"user_id":280,"name":"Hosenbrunzer","steam_id":76561198331151538,"connected_time":1486000000000,"state":"active","ping":61},{"user_id":156,"name":"corralled","steam_id":76561198028648627,"connected_time":7943000000000,"state":"active","ping":63},{"user_id":286,"name":"ALP","steam_id":76561199167367866,"connected_time":803000000000,"state":"active","ping":85}]},{"server_id":310,"name":"Uncletopia | Frankfurt | 5 | All Maps","name_short":"frk-5","host":"frk-1.de.uncletopia.com","port":27055,"enabled":true,"region":"eu","cc":"de","latitude":50.110924,"longitude":8.682127,"reserved":0,"last_update":"0001-01-01T00:00:00Z","name_a2s":"Uncletopia | Frankfurt | 5 | All Maps","protocol":17,"map":"cp_snakewater_final1","folder":"tf","game":"Team Fortress","app_id":440,"player_count":15,"max_players":24,"Bots":0,"server_type":"Dedicated","server_os":"Linux","password":true,"vac":true,"version":"7961495","steam_id":85568392924504277,"keywords":["cp","nocrits","nodmgspread","uncletopia"],"game_id":440,"stv_port":27056,"stv_name":"Uncletopia | Frankfurt | 5 | All Maps | STV","players":[{"user_id":612,"name":"E¬≤ FTH #freeforsen","steam_id":76561198066287815,"connected_time":108000000000,"state":"active","ping":120},{"user_id":590,"name":"Vitamin Weee","steam_id":76561199183937747,"connected_time":1419000000000,"state":"active","ping":74},{"user_id":615,"name":"Harold","steam_id":76561199049633714,"connected_time":37000000000,"state":"active","ping":62},{"user_id":570,"name":"Penis Contortionist","steam_id":76561198073663784,"connected_time":2430000000000,"state":"active","ping":52},{"user_id":596,"name":"S.N.C","steam_id":76561198061760484,"connected_time":1129000000000,"state":"active","ping":102},{"user_id":609,"name":"schocky_panzer","steam_id":76561197965924454,"connected_time":534000000000,"state":"active","ping":47},{"user_id":613,"name":"üå≠ 0mger #freeforsen","steam_id":76561198053615827,"connected_time":95000000000,"state":"active","ping":63},{"user_id":606,"name":"Qwerty","steam_id":76561198023525894,"connected_time":717000000000,"state":"active","ping":83},{"user_id":579,"name":"wG auto","steam_id":76561198062247888,"connected_time":2229000000000,"state":"active","ping":60},{"user_id":583,"name":"That Brown Nerd","steam_id":76561198196685086,"connected_time":2011000000000,"state":"active","ping":49},{"user_id":599,"name":"Rojapokemona","steam_id":76561198179925894,"connected_time":1042000000000,"state":"active","ping":67},{"user_id":580,"name":"phong","steam_id":76561198090990465,"connected_time":2171000000000,"state":"active","ping":46},{"user_id":577,"name":"leminsc8","steam_id":76561198825084995,"connected_time":2362000000000,"state":"active","ping":36},{"user_id":608,"name":"Jeryx","steam_id":76561197995602803,"connected_time":572000000000,"state":"active","ping":59},{"user_id":611,"name":" Ç ùï° √∂ÃΩÕì √∂ÃΩÕì ‚ìö","steam_id":76561198184636547,"connected_time":232000000000,"state":"active","ping":85}]},{"server_id":311,"name":"Uncletopia | Frankfurt | 6 | All Maps","name_short":"frk-6","host":"frk-1.de.uncletopia.com","port":27065,"enabled":true,"region":"eu","cc":"de","latitude":50.110924,"longitude":8.682127,"reserved":0,"last_update":"0001-01-01T00:00:00Z","name_a2s":"Uncletopia | Frankfurt | 6 | All Maps","protocol":17,"map":"koth_lakeside_final","folder":"tf","game":"Team Fortress","app_id":440,"player_count":16,"max_players":24,"Bots":0,"server_type":"Dedicated","server_os":"Linux","password":true,"vac":true,"version":"7961495","steam_id":85568392924504278,"keywords":["cp","nocrits","nodmgspread","uncletopia"],"game_id":440,"stv_port":27066,"stv_name":"Uncletopia | Frankfurt | 6 | All Maps | STV","players":[{"user_id":508,"name":"sirrad","steam_id":76561199403589748,"connected_time":719000000000,"state":"active","ping":142},{"user_id":515,"name":"Guuse","steam_id":76561198030956814,"connected_time":134000000000,"state":"active","ping":85},{"user_id":510,"name":"Frost","steam_id":76561198796606772,"connected_time":575000000000,"state":"active","ping":86},{"user_id":402,"name":"avanaR","steam_id":76561198132062124,"connected_time":5074000000000,"state":"active","ping":61},{"user_id":511,"name":"omnibombulator","steam_id":76561198025858897,"connected_time":419000000000,"state":"active","ping":57},{"user_id":476,"name":"Sentry hater","steam_id":76561199269309068,"connected_time":1966000000000,"state":"active","ping":90},{"user_id":512,"name":"Dewotter","steam_id":76561198007653168,"connected_time":402000000000,"state":"active","ping":64},{"user_id":419,"name":"Spaguetti","steam_id":76561198002913092,"connected_time":3808000000000,"state":"active","ping":83},{"user_id":513,"name":"Jessica","steam_id":76561198342993279,"connected_time":290000000000,"state":"active","ping":113},{"user_id":516,"name":"Cataleptic","steam_id":76561197997966949,"connected_time":91000000000,"state":"active","ping":65},{"user_id":517,"name":"armadillo","steam_id":76561198324656652,"connected_time":55000000000,"state":"active","ping":64},{"user_id":502,"name":"SmigorX","steam_id":76561198077396697,"connected_time":965000000000,"state":"active","ping":103},{"user_id":503,"name":"Dyrdelius","steam_id":76561198847886871,"connected_time":964000000000,"state":"active","ping":70},{"user_id":421,"name":"Feelsbadman","steam_id":76561198002461001,"connected_time":3800000000000,"state":"active","ping":89},{"user_id":518,"name":"smell_my_cheese","steam_id":76561198008517427,"connected_time":23000000000,"state":"active","ping":70},{"user_id":507,"name":"Devin","steam_id":76561198079284381,"connected_time":796000000000,"state":"active","ping":63}]},{"server_id":23,"name":"Uncletopia | Frankfurt | 7 | Stopwatch","name_short":"frk-7","host":"frk-1.de.uncletopia.com","port":27075,"enabled":true,"region":"eu","cc":"de","latitude":50.110924,"longitude":8.682127,"reserved":0,"last_update":"0001-01-01T00:00:00Z","name_a2s":"Uncletopia | Frankfurt | 7 | Stopwatch","protocol":17,"map":"workshop/koth_ashville_final.ugc2130459942","folder":"tf","game":"Team Fortress","app_id":440,"player_count":0,"max_players":24,"Bots":0,"server_type":"Dedicated","server_os":"Linux","password":true,"vac":true,"version":"7961495","steam_id":85568392924742827,"keywords":["cp","nocrits","nodmgspread","uncletopia"],"game_id":440,"stv_port":27076,"stv_name":"Uncletopia | Frankfurt | 7 | Stopwatch | STV","players":null},{"server_id":24,"name":"Uncletopia | Frankfurt | 8 | Community","name_short":"frk-8","host":"frk-1.de.uncletopia.com","port":27085,"enabled":true,"region":"eu","cc":"de","latitude":50.110924,"longitude":8.682127,"reserved":0,"last_update":"0001-01-01T00:00:00Z","name_a2s":"Uncletopia | Frankfurt | 8 | Community","protocol":17,"map":"workshop/rd_asteroid_redux_b1.ugc2154902912","folder":"tf","game":"Team Fortress","app_id":440,"player_count":0,"max_players":24,"Bots":0,"server_type":"Dedicated","server_os":"Linux","password":true,"vac":true,"version":"7961495","steam_id":85568392924742828,"keywords":["beta","nocrits","nodmgspread","rd","uncletopia"],"game_id":440,"stv_port":27086,"stv_name":"Uncletopia | Frankfurt | 8 | Community | STV","players":null},{"server_id":202,"name":"Uncletopia | Hong Kong | 1 | All Maps","name_short":"hgk-1","host":"hgk-1.hk.uncletopia.com","port":27015,"enabled":true,"region":"asia","cc":"hk","latitude":22.302711,"longitude":114.177216,"reserved":0,"last_update":"0001-01-01T00:00:00Z","name_a2s":"Uncletopia | Hong Kong | 1 | All Maps","protocol":17,"map":"pl_frontier_final","folder":"tf","game":"Team Fortress","app_id":440,"player_count":0,"max_players":24,"Bots":0,"server_type":"Dedicated","server_os":"Linux","password":true,"vac":true,"version":"7961495","steam_id":85568392924494504,"keywords":["nocrits","nodmgspread","payload","uncletopia"],"game_id":440,"stv_port":27016,"stv_name":"Uncletopia | Hong Kong | 1 | All Maps | STV","players":null},{"server_id":1,"name":"Uncletopia | Los Angeles | 1 | All Maps","name_short":"lax-1","host":"lax-1.us.uncletopia.com","port":27015,"enabled":true,"region":"us-west","cc":"us","latitude":33.94279,"longitude":-118.41004,"reserved":0,"last_update":"0001-01-01T00:00:00Z","name_a2s":"Uncletopia | Los Angeles | 1 | All Maps","protocol":17,"map":"pl_goldrush","folder":"tf","game":"Team Fortress","app_id":440,"player_count":22,"max_players":24,"Bots":0,"server_type":"Dedicated","server_os":"Linux","password":true,"vac":true,"version":"7961495","steam_id":85568392924469991,"keywords":["nocrits","nodmgspread","payload","uncletopia"],"game_id":440,"stv_port":27016,"stv_name":"Uncletopia | Los Angeles | 1 | All Maps | STV","players":[{"user_id":304,"name":"GreekYogurt","steam_id":76561198037671890,"connected_time":1392000000000,"state":"active","ping":55},{"user_id":292,"name":"Tetra","steam_id":76561198145257468,"connected_time":1874000000000,"state":"active","ping":62},{"user_id":306,"name":"online","steam_id":76561198192531745,"connected_time":1275000000000,"state":"active","ping":58},{"user_id":303,"name":"no vc no c","steam_id":76561197989503095,"connected_time":1486000000000,"state":"active","ping":162},{"user_id":297,"name":"mcdonald's cashier","steam_id":76561198064631164,"connected_time":1694000000000,"state":"active","ping":52},{"user_id":258,"name":"Jill","steam_id":76561198097398193,"connected_time":4977000000000,"state":"active","ping":45},{"user_id":308,"name":"Laxoloni","steam_id":76561199197045700,"connected_time":1131000000000,"state":"active","ping":63},{"user_id":313,"name":"zzZZzz","steam_id":76561198346823843,"connected_time":9000000000,"state":"active","ping":78},{"user_id":289,"name":"The Angel of Death","steam_id":76561198026079349,"connected_time":2259000000000,"state":"active","ping":92},{"user_id":288,"name":"Cacoona","steam_id":76561198272738226,"connected_time":2507000000000,"state":"active","ping":140},{"user_id":286,"name":"Ralph Kramden (Slim Charles)","steam_id":76561197981687895,"connected_time":2555000000000,"state":"active","ping":61},{"user_id":309,"name":"SodaKid_7","steam_id":76561198079419485,"connected_time":1065000000000,"state":"active","ping":52},{"user_id":291,"name":"nella","steam_id":76561198079349621,"connected_time":1914000000000,"state":"active","ping":58},{"user_id":312,"name":"Black Chan","steam_id":76561198053355299,"connected_time":17000000000,"state":"active","ping":241},{"user_id":264,"name":"Petrivus","steam_id":76561198202152453,"connected_time":4018000000000,"state":"active","ping":77},{"user_id":296,"name":"Skeleop","steam_id":76561198981106464,"connected_time":1754000000000,"state":"active","ping":46},{"user_id":282,"name":"Kaui","steam_id":76561198052249003,"connected_time":2700000000000,"state":"active","ping":57},{"user_id":268,"name":"cinnamon","steam_id":76561198130086375,"connected_time":3727000000000,"state":"active","ping":74},{"user_id":301,"name":"kool_aids3","steam_id":76561198314435679,"connected_time":1629000000000,"state":"active","ping":45},{"user_id":311,"name":"XxDragon4321xX","steam_id":76561198046705735,"connected_time":503000000000,"state":"active","ping":67},{"user_id":310,"name":"big fish","steam_id":76561198186479818,"connected_time":986000000000,"state":"active","ping":60},{"user_id":208,"name":"rollypollyolie","steam_id":76561198039539380,"connected_time":8198000000000,"state":"active","ping":95}]},{"server_id":112,"name":"Uncletopia | Los Angeles | 2 | All Maps","name_short":"lax-2","host":"lax-1.us.uncletopia.com","port":27025,"enabled":true,"region":"us-west","cc":"us","latitude":33.94279,"longitude":-118.41004,"reserved":0,"last_update":"0001-01-01T00:00:00Z","name_a2s":"Uncletopia | Los Angeles | 2 | All Maps","protocol":17,"map":"koth_lakeside_final","folder":"tf","game":"Team Fortress","app_id":440,"player_count":0,"max_players":24,"Bots":0,"server_type":"Dedicated","server_os":"Linux","password":true,"vac":true,"version":"7961495","steam_id":85568392924469992,"keywords":["cp","nocrits","nodmgspread","uncletopia"],"game_id":440,"stv_port":27026,"stv_name":"Uncletopia | Los Angeles | 2 | All Maps | STV","players":null},{"server_id":324,"name":"Uncletopia | Los Angeles | 3 | All Maps","name_short":"lax-3","host":"lax-1.us.uncletopia.com","port":27035,"enabled":true,"region":"us-west","cc":"us","latitude":33.94279,"longitude":-118.41004,"reserved":0,"last_update":"0001-01-01T00:00:00Z","name_a2s":"Uncletopia | Los Angeles | 3 | All Maps","protocol":17,"map":"pl_frontier_final","folder":"tf","game":"Team Fortress","app_id":440,"player_count":0,"max_players":24,"Bots":0,"server_type":"Dedicated","server_os":"Linux","password":true,"vac":true,"version":"7961495","steam_id":85568392924510198,"keywords":["nocrits","nodmgspread","payload","uncletopia"],"game_id":440,"stv_port":27036,"stv_name":"Uncletopia | Los Angeles | 3 | All Maps | STV","players":null},{"server_id":25,"name":"Uncletopia | Los Angeles | 4 | Stopwatch","name_short":"lax-4","host":"lax-1.us.uncletopia.com","port":27045,"enabled":true,"region":"us-west","cc":"us","latitude":33.94279,"longitude":-118.41004,"reserved":0,"last_update":"0001-01-01T00:00:00Z","name_a2s":"Uncletopia | Los Angeles | 4 | Stopwatch","protocol":17,"map":"workshop/pl_summercoast_rc8e.ugc1761528829","folder":"tf","game":"Team Fortress","app_id":440,"player_count":0,"max_players":24,"Bots":0,"server_type":"Dedicated","server_os":"Linux","password":true,"vac":true,"version":"7961495","steam_id":85568392924510199,"keywords":["nocrits","nodmgspread","payload","uncletopia"],"game_id":440,"stv_port":27046,"stv_name":"Uncletopia | Los Angeles | 4 | Stopwatch | STV","players":null},{"server_id":11,"name":"Uncletopia | London | 1 | All Maps","name_short":"lon-1","host":"lon-1.uk.uncletopia.com","port":27015,"enabled":true,"region":"eu","cc":"gb","latitude":51.509865,"longitude":-0.118092,"reserved":0,"last_update":"0001-01-01T00:00:00Z","name_a2s":"Uncletopia | London | 1 | All Maps","protocol":17,"map":"cp_process_final","folder":"tf","game":"Team Fortress","app_id":440,"player_count":24,"max_players":24,"Bots":0,"server_type":"Dedicated","server_os":"Linux","password":true,"vac":true,"version":"7961495","steam_id":85568392924367362,"keywords":["cp","nocrits","nodmgspread","uncletopia"],"game_id":440,"stv_port":27016,"stv_name":"Uncletopia | London | 1 | All Maps | STV","players":[{"user_id":651,"name":"dec","steam_id":76561198009660168,"connected_time":3693000000000,"state":"active","ping":57},{"user_id":654,"name":"Cabbch","steam_id":76561198045955679,"connected_time":3417000000000,"state":"active","ping":45},{"user_id":682,"name":"Frosty","steam_id":76561199055987798,"connected_time":125000000000,"state":"active","ping":65},{"user_id":660,"name":"Rai_to","steam_id":76561199013720618,"connected_time":2871000000000,"state":"active","ping":81},{"user_id":665,"name":"Suetolog","steam_id":76561199053090212,"connected_time":2328000000000,"state":"active","ping":63},{"user_id":677,"name":"sticks","steam_id":76561198127099299,"connected_time":439000000000,"state":"active","ping":44},{"user_id":647,"name":"shooer!","steam_id":76561198110531281,"connected_time":3728000000000,"state":"active","ping":70},{"user_id":670,"name":"gnarly business","steam_id":76561198832688767,"connected_time":1469000000000,"state":"active","ping":48},{"user_id":681,"name":"TEACUPS AND KETTLES","steam_id":76561198083017384,"connected_time":345000000000,"state":"active","ping":44},{"user_id":671,"name":"cuddle","steam_id":76561198805181599,"connected_time":987000000000,"state":"active","ping":55},{"user_id":632,"name":"SOPHIIAA SEASON FINALE","steam_id":76561198443798981,"connected_time":4448000000000,"state":"active","ping":53},{"user_id":485,"name":"Snowmotion","steam_id":76561198075022454,"connected_time":7211000000000,"state":"active","ping":71},{"user_id":672,"name":"flappi","steam_id":76561198072892783,"connected_time":985000000000,"state":"active","ping":62},{"user_id":655,"name":"Xyeed","steam_id":76561198055596799,"connected_time":3404000000000,"state":"active","ping":82},{"user_id":661,"name":"beebo","steam_id":76561199120277007,"connected_time":2611000000000,"state":"active","ping":47},{"user_id":678,"name":" á·¥âu…ê","steam_id":76561198044204428,"connected_time":437000000000,"state":"active","ping":68},{"user_id":666,"name":"ein","steam_id":76561198152162834,"connected_time":2070000000000,"state":"active","ping":98},{"user_id":667,"name":"stroyo","steam_id":76561198409592046,"connected_time":2066000000000,"state":"active","ping":52},{"user_id":673,"name":"NotChloe","steam_id":76561198080658092,"connected_time":948000000000,"state":"active","ping":64},{"user_id":674,"name":"badrobot","steam_id":76561198322878356,"connected_time":864000000000,"state":"active","ping":113},{"user_id":679,"name":"Dan Dan the Furious","steam_id":76561198091032527,"connected_time":436000000000,"state":"active","ping":57},{"user_id":680,"name":"sent from my iPig","steam_id":76561198170026338,"connected_time":428000000000,"state":"active","ping":77},{"user_id":607,"name":"sora","steam_id":76561198096547662,"connected_time":4920000000000,"state":"active","ping":52},{"user_id":602,"name":"Watermelon","steam_id":76561198078349914,"connected_time":5033000000000,"state":"active","ping":46}]},{"server_id":114,"name":"Uncletopia | London | 2 | All Maps","name_short":"lon-2","host":"lon-1.uk.uncletopia.com","port":27025,"enabled":true,"region":"eu","cc":"gb","latitude":51.509865,"longitude":-0.118092,"reserved":0,"last_update":"0001-01-01T00:00:00Z","name_a2s":"Uncletopia | London | 2 | All Maps","protocol":17,"map":"cp_sunshine","folder":"tf","game":"Team Fortress","app_id":440,"player_count":0,"max_players":24,"Bots":0,"server_type":"Dedicated","server_os":"Linux","password":true,"vac":true,"version":"7961495","steam_id":85568392924470941,"keywords":["cp","nocrits","nodmgspread","uncletopia"],"game_id":440,"stv_port":27026,"stv_name":"Uncletopia | London | 2 | All Maps | STV","players":null},{"server_id":320,"name":"Uncletopia | London | 3 | All Maps","name_short":"lon-3","host":"lon-1.uk.uncletopia.com","port":27035,"enabled":true,"region":"eu","cc":"gb","latitude":51.509865,"longitude":-0.118092,"reserved":0,"last_update":"0001-01-01T00:00:00Z","name_a2s":"Uncletopia | London | 3 | All Maps","protocol":17,"map":"plr_hightower","folder":"tf","game":"Team Fortress","app_id":440,"player_count":6,"max_players":24,"Bots":0,"server_type":"Dedicated","server_os":"Linux","password":true,"vac":true,"version":"7961495","steam_id":85568392924510192,"keywords":["nocrits","nodmgspread","payload","uncletopia"],"game_id":440,"stv_port":27036,"stv_name":"Uncletopia | London | 3 | All Maps | STV","players":[{"user_id":192,"name":"–î–∂–µ–∫–µ—Ç","steam_id":76561198327897125,"connected_time":4218000000000,"state":"active","ping":119},{"user_id":196,"name":"kdhbuilder","steam_id":76561199058095193,"connected_time":3001000000000,"state":"active","ping":166},{"user_id":200,"name":"Micha≈Ç","steam_id":76561198320346362,"connected_time":1236000000000,"state":"active","ping":82},{"user_id":201,"name":"Blake","steam_id":76561198034050682,"connected_time":1062000000000,"state":"active","ping":47},{"user_id":203,"name":"Uncle Ben","steam_id":76561198032568298,"connected_time":960000000000,"state":"active","ping":40},{"user_id":190,"name":"Scrooge Mc Clunk","steam_id":76561198885945084,"connected_time":4279000000000,"state":"active","ping":51}]},{"server_id":321,"name":"Uncletopia | London | 4 | All Maps","name_short":"lon-4","host":"lon-1.uk.uncletopia.com","port":27045,"enabled":true,"region":"eu","cc":"gb","latitude":51.509865,"longitude":-0.118092,"reserved":0,"last_update":"0001-01-01T00:00:00Z","name_a2s":"Uncletopia | London | 4 | All Maps","protocol":17,"map":"cp_process_final","folder":"tf","game":"Team Fortress","app_id":440,"player_count":0,"max_players":24,"Bots":0,"server_type":"Dedicated","server_os":"Linux","password":true,"vac":true,"version":"7961495","steam_id":85568392924510193,"keywords":["cp","nocrits","nodmgspread","uncletopia"],"game_id":440,"stv_port":27046,"stv_name":"Uncletopia | London | 4 | All Maps | STV","players":null},{"server_id":21,"name":"Uncletopia | London | 5 | All Maps","name_short":"lon-5","host":"lon-1.uk.uncletopia.com","port":27055,"enabled":true,"region":"eu","cc":"gb","latitude":51.509865,"longitude":-0.118092,"reserved":0,"last_update":"0001-01-01T00:00:00Z","name_a2s":"Uncletopia | London | 5 | All Maps","protocol":17,"map":"pl_upward","folder":"tf","game":"Team Fortress","app_id":440,"player_count":24,"max_players":24,"Bots":0,"server_type":"Dedicated","server_os":"Linux","password":true,"vac":true,"version":"7961495","steam_id":85568392924742829,"keywords":["nocrits","nodmgspread","payload","uncletopia"],"game_id":440,"stv_port":27056,"stv_name":"Uncletopia | London | 5 | All Maps | STV","players":[{"user_id":406,"name":"Purpl3 Scout","steam_id":76561198083663337,"connected_time":3525000000000,"state":"active","ping":45},{"user_id":453,"name":"Implywood (they/them)","steam_id":76561198096762648,"connected_time":547000000000,"state":"active","ping":51},{"user_id":436,"name":"gaggle","steam_id":76561197988226281,"connected_time":1527000000000,"state":"active","ping":44},{"user_id":454,"name":"Xiqui","steam_id":76561198818386611,"connected_time":544000000000,"state":"active","ping":81},{"user_id":455,"name":"Erior","steam_id":76561198039462080,"connected_time":534000000000,"state":"active","ping":86},{"user_id":462,"name":"swallowed 10 pennies please hel","steam_id":76561198055816412,"connected_time":182000000000,"state":"active","ping":49},{"user_id":456,"name":"veto vuyisio","steam_id":76561199101145470,"connected_time":431000000000,"state":"active","ping":67},{"user_id":457,"name":"Orion‚Ñ¢","steam_id":76561198045809708,"connected_time":370000000000,"state":"active","ping":45},{"user_id":442,"name":"[\u003e\u003c] OTP Uncle Sam","steam_id":76561198186666399,"connected_time":1101000000000,"state":"active","ping":63},{"user_id":432,"name":"KLAMA  ‚ù§","steam_id":76561198351549661,"connected_time":1602000000000,"state":"active","ping":74},{"user_id":424,"name":"GalacticFantasy","steam_id":76561198072077658,"connected_time":2157000000000,"state":"active","ping":78},{"user_id":376,"name":"Uriri","steam_id":76561198085588686,"connected_time":5414000000000,"state":"active","ping":86},{"user_id":458,"name":"Arcan'O'Boulus","steam_id":76561198041985578,"connected_time":348000000000,"state":"active","ping":55},{"user_id":459,"name":"Lemmy","steam_id":76561199038870751,"connected_time":329000000000,"state":"active","ping":59},{"user_id":460,"name":"Vivas","steam_id":76561199118814729,"connected_time":324000000000,"state":"active","ping":56},{"user_id":443,"name":"OTP ¬∞Roticher","steam_id":76561198194559879,"connected_time":1094000000000,"state":"active","ping":60},{"user_id":418,"name":"Pizza Time","steam_id":76561197991615913,"connected_time":2644000000000,"state":"active","ping":57},{"user_id":378,"name":"Eph","steam_id":76561198060379725,"connected_time":5404000000000,"state":"active","ping":90},{"user_id":448,"name":"Princess Peach","steam_id":76561198260272240,"connected_time":681000000000,"state":"active","ping":48},{"user_id":422,"name":"Pepsi Minimum","steam_id":76561198000975087,"connected_time":2558000000000,"state":"active","ping":59},{"user_id":461,"name":"Albon","steam_id":76561198060378881,"connected_time":324000000000,"state":"active","ping":63},{"user_id":439,"name":"Tobi1Kenobi","steam_id":76561197967894779,"connected_time":1151000000000,"state":"active","ping":47},{"user_id":420,"name":"bart simpson weed","steam_id":76561198014858762,"connected_time":2638000000000,"state":"active","ping":55},{"user_id":452,"name":"Superfjasen","steam_id":76561198137424821,"connected_time":613000000000,"state":"active","ping":63}]},{"server_id":22,"name":"Uncletopia | London | 6 | All Maps","name_short":"lon-6","host":"lon-1.uk.uncletopia.com","port":27065,"enabled":true,"region":"eu","cc":"gb","latitude":51.509865,"longitude":-0.118092,"reserved":0,"last_update":"0001-01-01T00:00:00Z","name_a2s":"Uncletopia | London | 6 | All Maps","protocol":17,"map":"pl_frontier_final","folder":"tf","game":"Team Fortress","app_id":440,"player_count":24,"max_players":24,"Bots":0,"server_type":"Dedicated","server_os":"Linux","password":true,"vac":true,"version":"7961495","steam_id":85568392924742830,"keywords":["nocrits","nodmgspread","payload","uncletopia"],"game_id":440,"stv_port":27066,"stv_name":"Uncletopia | London | 6 | All Maps | STV","players":[{"user_id":377,"name":"gx71","steam_id":76561198035112358,"connected_time":2307000000000,"state":"active","ping":43},{"user_id":389,"name":"Killbasa","steam_id":76561198064868400,"connected_time":1108000000000,"state":"active","ping":115},{"user_id":378,"name":"poptart","steam_id":76561199284453568,"connected_time":2229000000000,"state":"active","ping":149},{"user_id":390,"name":"K9 Kid","steam_id":76561198078740641,"connected_time":920000000000,"state":"active","ping":134},{"user_id":391,"name":"Hank J Wimbleton","steam_id":76561198408623293,"connected_time":918000000000,"state":"active","ping":66},{"user_id":406,"name":"I jazzed myself","steam_id":76561198203016603,"connected_time":83000000000,"state":"active","ping":88},{"user_id":392,"name":"piper","steam_id":76561198112687349,"connected_time":845000000000,"state":"active","ping":47},{"user_id":393,"name":"Proud Jojo Fan #TF2SP","steam_id":76561198847327216,"connected_time":738000000000,"state":"active","ping":62},{"user_id":364,"name":"SadBambino","steam_id":76561198101989931,"connected_time":3712000000000,"state":"active","ping":54},{"user_id":404,"name":"cora","steam_id":76561199474154775,"connected_time":225000000000,"state":"active","ping":56},{"user_id":407,"name":"Ch4bby","steam_id":76561198058792875,"connected_time":80000000000,"state":"active","ping":59},{"user_id":408,"name":"Donac Dum","steam_id":76561198064089294,"connected_time":80000000000,"state":"active","ping":53},{"user_id":371,"name":"TreatFly","steam_id":76561198069707362,"connected_time":2774000000000,"state":"active","ping":53},{"user_id":338,"name":"generic alias","steam_id":76561198271607226,"connected_time":5691000000000,"state":"active","ping":91},{"user_id":351,"name":"lillunya ‚ô°","steam_id":76561198330418866,"connected_time":4469000000000,"state":"active","ping":69},{"user_id":396,"name":"Mobster Tortoise","steam_id":76561199036837091,"connected_time":699000000000,"state":"active","ping":86},{"user_id":380,"name":"Aku+","steam_id":76561198813782795,"connected_time":2224000000000,"state":"active","ping":75},{"user_id":397,"name":"Hans","steam_id":76561198030061999,"connected_time":693000000000,"state":"active","ping":80},{"user_id":409,"name":"s a i","steam_id":76561197970379754,"connected_time":20000000000,"state":"active","ping":60},{"user_id":399,"name":"PRIMEVAL-WARRIOR","steam_id":76561198027033926,"connected_time":659000000000,"state":"active","ping":58},{"user_id":385,"name":"Spoof059","steam_id":76561198356116829,"connected_time":1604000000000,"state":"active","ping":59},{"user_id":365,"name":"Griffin","steam_id":76561198118247689,"connected_time":3027000000000,"state":"active","ping":57},{"user_id":400,"name":"ha,burger","steam_id":76561199093584225,"connected_time":624000000000,"state":"active","ping":68},{"user_id":405,"name":"DSSD","steam_id":76561197975128756,"connected_time":218000000000,"state":"active","ping":75}]},{"server_id":40,"name":"Uncletopia | London | 7 | Stopwatch","name_short":"lon-7","host":"lon-1.uk.uncletopia.com","port":27075,"enabled":true,"region":"eu","cc":"gb","latitude":51.509865,"longitude":-0.118092,"reserved":0,"last_update":"0001-01-01T00:00:00Z","name_a2s":"Uncletopia | London | 7 | Stopwatch","protocol":17,"map":"workshop/pl_vigil_rc10.ugc1266210012","folder":"tf","game":"Team Fortress","app_id":440,"player_count":0,"max_players":24,"Bots":0,"server_type":"Dedicated","server_os":"Linux","password":true,"vac":true,"version":"7961495","steam_id":85568392924964314,"keywords":["nocrits","nodmgspread","payload","uncletopia"],"game_id":440,"stv_port":27076,"stv_name":"Uncletopia | London | 7 | Stopwatch | STV","players":null},{"server_id":41,"name":"Uncletopia | London | 8 | Community","name_short":"lon-8","host":"lon-1.uk.uncletopia.com","port":27085,"enabled":true,"region":"eu","cc":"gb","latitude":51.509865,"longitude":-0.118092,"reserved":0,"last_update":"0001-01-01T00:00:00Z","name_a2s":"Uncletopia | London | 8 | Community","protocol":17,"map":"workshop/koth_ramjam_rc1.ugc459778887","folder":"tf","game":"Team Fortress","app_id":440,"player_count":0,"max_players":24,"Bots":0,"server_type":"Dedicated","server_os":"Linux","password":true,"vac":true,"version":"7961495","steam_id":85568392924964315,"keywords":["cp","nocrits","nodmgspread","uncletopia"],"game_id":440,"stv_port":27086,"stv_name":"Uncletopia | London | 8 | Community | STV","players":null},{"server_id":300,"name":"Uncletopia | Montr√©al | 1 | One Thousand Uncles","name_short":"mtl-1","host":"mtl-1.ca.uncletopia.com","port":27015,"enabled":true,"region":"us-east","cc":"ca","latitude":45.50889,"longitude":-73.56167,"reserved":0,"last_update":"0001-01-01T00:00:00Z","name_a2s":"","protocol":0,"map":"","folder":"","game":"","app_id":0,"player_count":8,"max_players":0,"Bots":0,"server_type":"","server_os":"","password":false,"vac":false,"version":"","steam_id":0,"keywords":null,"game_id":0,"stv_port":0,"stv_name":"","players":[{"user_id":238,"name":"Cuttle's Fish","steam_id":76561198280483257,"connected_time":2013000000000,"state":"active","ping":75},{"user_id":84,"name":"Kibeka the Weird","steam_id":76561198116534133,"connected_time":11938000000000,"state":"active","ping":45},{"user_id":101,"name":"sheep","steam_id":76561198172943006,"connected_time":8564000000000,"state":"active","ping":62},{"user_id":102,"name":"ODDLOG","steam_id":76561198397624578,"connected_time":8424000000000,"state":"active","ping":62},{"user_id":183,"name":"sasharudzik","steam_id":76561199126617781,"connected_time":3804000000000,"state":"active","ping":51},{"user_id":132,"name":"Gram Tokers Count Doinkula","steam_id":76561198112811565,"connected_time":6669000000000,"state":"active","ping":64},{"user_id":103,"name":"Skeptical","steam_id":76561198038261789,"connected_time":8343000000000,"state":"active","ping":120},{"user_id":181,"name":"trans rights","steam_id":76561198044183038,"connected_time":4180000000000,"state":"active","ping":70}]},{"server_id":301,"name":"Uncletopia | Montr√©al | 2 | One Thousand Uncles","name_short":"mtl-2","host":"mtl-1.ca.uncletopia.com","port":27025,"enabled":true,"region":"us-east","cc":"ca","latitude":45.50889,"longitude":-73.56167,"reserved":0,"last_update":"0001-01-01T00:00:00Z","name_a2s":"","protocol":0,"map":"","folder":"","game":"","app_id":0,"player_count":0,"max_players":0,"Bots":0,"server_type":"","server_os":"","password":false,"vac":false,"version":"","steam_id":0,"keywords":null,"game_id":0,"stv_port":0,"stv_name":"","players":null},{"server_id":302,"name":"Uncletopia | Montr√©al | 3 | One Thousand Uncles","name_short":"mtl-3","host":"mtl-1.ca.uncletopia.com","port":27035,"enabled":true,"region":"us-east","cc":"ca","latitude":45.50889,"longitude":-73.56167,"reserved":0,"last_update":"0001-01-01T00:00:00Z","name_a2s":"","protocol":0,"map":"","folder":"","game":"","app_id":0,"player_count":0,"max_players":0,"Bots":0,"server_type":"","server_os":"","password":false,"vac":false,"version":"","steam_id":0,"keywords":null,"game_id":0,"stv_port":0,"stv_name":"","players":null},{"server_id":13,"name":"Uncletopia | New York City | 1 | All Maps","name_short":"nyc-1","host":"nyc-1.us.uncletopia.com","port":27015,"enabled":true,"region":"us-east","cc":"us","latitude":40.73061,"longitude":-73.93524,"reserved":0,"last_update":"0001-01-01T00:00:00Z","name_a2s":"Uncletopia | New York City | 1 | All Maps","protocol":17,"map":"koth_harvest_final","folder":"tf","game":"Team Fortress","app_id":440,"player_count":21,"max_players":24,"Bots":0,"server_type":"Dedicated","server_os":"Linux","password":true,"vac":true,"version":"7961495","steam_id":85568392924469993,"keywords":["cp","nocrits","nodmgspread","uncletopia"],"game_id":440,"stv_port":27016,"stv_name":"Uncletopia | New York City | 1 | All Maps | STV","players":[{"user_id":319,"name":"Psionara","steam_id":76561198211684263,"connected_time":1788000000000,"state":"active","ping":90},{"user_id":287,"name":"NYC APPA YIP YIP","steam_id":76561198112929942,"connected_time":4345000000000,"state":"active","ping":53},{"user_id":311,"name":"jamzine","steam_id":76561198186168293,"connected_time":1912000000000,"state":"active","ping":51},{"user_id":334,"name":"Nic0","steam_id":76561198305690218,"connected_time":32000000000,"state":"active","ping":51},{"user_id":310,"name":"saurhead","steam_id":76561198132937722,"connected_time":2423000000000,"state":"active","ping":45},{"user_id":312,"name":"20 miles for a Quaalude","steam_id":76561198042579477,"connected_time":1908000000000,"state":"active","ping":52},{"user_id":329,"name":"Pox4Dinner","steam_id":76561198036958101,"connected_time":423000000000,"state":"active","ping":59},{"user_id":330,"name":"Datcucker905","steam_id":76561198078256876,"connected_time":400000000000,"state":"active","ping":63},{"user_id":305,"name":"GOLDIE","steam_id":76561199375258674,"connected_time":3021000000000,"state":"active","ping":114},{"user_id":331,"name":"Xx_gam3rberg_xX","steam_id":76561199035781025,"connected_time":371000000000,"state":"active","ping":63},{"user_id":307,"name":"MLWeegee","steam_id":76561198096399823,"connected_time":2753000000000,"state":"active","ping":43},{"user_id":302,"name":"TRUCK FREAK","steam_id":76561198041017977,"connected_time":3141000000000,"state":"active","ping":90},{"user_id":326,"name":"CWCLONE","steam_id":76561198132459460,"connected_time":1006000000000,"state":"active","ping":85},{"user_id":320,"name":"The Potato Romancer","steam_id":76561198204197648,"connected_time":1772000000000,"state":"active","ping":112},{"user_id":321,"name":"lushtakular","steam_id":76561198840080823,"connected_time":1759000000000,"state":"active","ping":103},{"user_id":328,"name":"BIRd","steam_id":76561198114662028,"connected_time":452000000000,"state":"active","ping":122},{"user_id":278,"name":"Tablaro","steam_id":76561198076915673,"connected_time":5154000000000,"state":"active","ping":69},{"user_id":327,"name":"BeerPowder","steam_id":76561198058129400,"connected_time":501000000000,"state":"active","ping":51},{"user_id":333,"name":"‚ú™Type_Alpha","steam_id":76561198122780598,"connected_time":275000000000,"state":"active","ping":60},{"user_id":332,"name":"Mimt1111","steam_id":76561198392370897,"connected_time":327000000000,"state":"active","ping":88},{"user_id":221,"name":"High School Nudical","steam_id":76561198172120615,"connected_time":10221000000000,"state":"active","ping":32}]},{"server_id":14,"name":"Uncletopia | New York City | 2 | All Maps","name_short":"nyc-2","host":"nyc-1.us.uncletopia.com","port":27025,"enabled":true,"region":"us-east","cc":"us","latitude":40.73061,"longitude":-73.93524,"reserved":0,"last_update":"0001-01-01T00:00:00Z","name_a2s":"Uncletopia | New York City | 2 | All Maps","protocol":17,"map":"koth_highpass","folder":"tf","game":"Team Fortress","app_id":440,"player_count":0,"max_players":24,"Bots":0,"server_type":"Dedicated","server_os":"Linux","password":true,"vac":true,"version":"7961495","steam_id":85568392924469994,"keywords":["cp","nocrits","nodmgspread","uncletopia"],"game_id":440,"stv_port":27026,"stv_name":"Uncletopia | New York City | 2 | All Maps | STV","players":null},{"server_id":15,"name":"Uncletopia | New York City | 3 | Stopwatch","name_short":"nyc-3","host":"nyc-1.us.uncletopia.com","port":27035,"enabled":true,"region":"us-east","cc":"us","latitude":40.73061,"longitude":-73.93524,"reserved":0,"last_update":"0001-01-01T00:00:00Z","name_a2s":"Uncletopia | New York City | 3 | Stopwatch","protocol":17,"map":"koth_highpass","folder":"tf","game":"Team Fortress","app_id":440,"player_count":0,"max_players":24,"Bots":0,"server_type":"Dedicated","server_os":"Linux","password":true,"vac":true,"version":"7961495","steam_id":85568392924742820,"keywords":["cp","nocrits","nodmgspread","uncletopia"],"game_id":440,"stv_port":27036,"stv_name":"Uncletopia | New York City | 3 | Stopwatch | STV","players":null},{"server_id":16,"name":"Uncletopia | New York City | 4 | Community","name_short":"nyc-4","host":"nyc-1.us.uncletopia.com","port":27045,"enabled":true,"region":"us-east","cc":"us","latitude":40.73061,"longitude":-73.93524,"reserved":0,"last_update":"0001-01-01T00:00:00Z","name_a2s":"Uncletopia | New York City | 4 | Community","protocol":17,"map":"cp_altitude","folder":"tf","game":"Team Fortress","app_id":440,"player_count":0,"max_players":24,"Bots":0,"server_type":"Dedicated","server_os":"Linux","password":true,"vac":true,"version":"7961495","steam_id":85568392924742821,"keywords":["cp","nocrits","nodmgspread","uncletopia"],"game_id":440,"stv_port":27046,"stv_name":"Uncletopia | New York City | 4 | Community | STV","players":null},{"server_id":142,"name":"Uncletopia | S√£o Paulo | 1 | All Maps","name_short":"sao-1","host":"sao-1.br.uncletopia.com","port":27015,"enabled":true,"region":"sa","cc":"br","latitude":-23.533773,"longitude":-46.62529,"reserved":0,"last_update":"0001-01-01T00:00:00Z","name_a2s":"Uncletopia | S√£o Paulo | 1 | All Maps","protocol":17,"map":"koth_cascade","folder":"tf","game":"Team Fortress","app_id":440,"player_count":0,"max_players":24,"Bots":0,"server_type":"Dedicated","server_os":"Linux","password":true,"vac":true,"version":"7961495","steam_id":85568392924469996,"keywords":["cp","nocrits","nodmgspread","uncletopia"],"game_id":440,"stv_port":27016,"stv_name":"Uncletopia | S√£o Paulo | 1 | All Maps | STV","players":null},{"server_id":143,"name":"Uncletopia | S√£o Paulo | 2 | Community","name_short":"sao-2","host":"sao-2.br.uncletopia.com","port":27015,"enabled":true,"region":"sa","cc":"br","latitude":-23.533773,"longitude":-46.62529,"reserved":0,"last_update":"0001-01-01T00:00:00Z","name_a2s":"Uncletopia | S√£o Paulo | 2 | Community","protocol":17,"map":"workshop/cp_caldera_rc2.ugc2834196889","folder":"tf","game":"Team Fortress","app_id":440,"player_count":0,"max_players":24,"Bots":0,"server_type":"Dedicated","server_os":"Linux","password":true,"vac":true,"version":"7961495","steam_id":85568392924485349,"keywords":["cp","nocrits","nodmgspread","uncletopia"],"game_id":440,"stv_port":27016,"stv_name":"Uncletopia | S√£o Paulo | 2 | Community | STV","players":null},{"server_id":7,"name":"Uncletopia | Seattle | 1 | All Maps","name_short":"sea-1","host":"sea-1.us.uncletopia.com","port":27015,"enabled":true,"region":"us-west","cc":"us","latitude":47.608013,"longitude":-122.33517,"reserved":0,"last_update":"0001-01-01T00:00:00Z","name_a2s":"Uncletopia | Seattle | 1 | All Maps","protocol":17,"map":"pl_badwater","folder":"tf","game":"Team Fortress","app_id":440,"player_count":24,"max_players":24,"Bots":0,"server_type":"Dedicated","server_os":"Linux","password":true,"vac":true,"version":"7961495","steam_id":85568392924469997,"keywords":["nocrits","nodmgspread","payload","uncletopia"],"game_id":440,"stv_port":27016,"stv_name":"Uncletopia | Seattle | 1 | All Maps | STV","players":[{"user_id":250,"name":"ArjayTheWeenie","steam_id":76561198275999294,"connected_time":3002000000000,"state":"active","ping":47},{"user_id":189,"name":"sneezy :))","steam_id":76561198062451648,"connected_time":9910000000000,"state":"active","ping":89},{"user_id":175,"name":"Pneumo.","steam_id":76561197987911883,"connected_time":10698000000000,"state":"active","ping":53},{"user_id":274,"name":"gloobern","steam_id":76561198341190679,"connected_time":121000000000,"state":"active","ping":47},{"user_id":260,"name":"cat gaming","steam_id":76561198058940913,"connected_time":2217000000000,"state":"active","ping":58},{"user_id":275,"name":"Zee‚úû","steam_id":76561198274550638,"connected_time":119000000000,"state":"active","ping":104},{"user_id":262,"name":"risk","steam_id":76561197990096353,"connected_time":1499000000000,"state":"active","ping":35},{"user_id":272,"name":"ToddStool","steam_id":76561198338144919,"connected_time":977000000000,"state":"active","ping":83},{"user_id":269,"name":"4 life","steam_id":76561198175961598,"connected_time":1059000000000,"state":"active","ping":87},{"user_id":259,"name":"Maid 'n' China","steam_id":76561198423392976,"connected_time":2332000000000,"state":"active","ping":46},{"user_id":248,"name":"toes","steam_id":76561198221151676,"connected_time":3366000000000,"state":"active","ping":53},{"user_id":246,"name":"FI LO","steam_id":76561198976530881,"connected_time":3412000000000,"state":"active","ping":60},{"user_id":150,"name":"COOL master_9","steam_id":76561198073041151,"connected_time":12854000000000,"state":"active","ping":83},{"user_id":277,"name":"Sadodere Grimace","steam_id":76561198008332028,"connected_time":96000000000,"state":"active","ping":63},{"user_id":278,"name":"racist.randy2008","steam_id":76561198063533082,"connected_time":89000000000,"state":"active","ping":43},{"user_id":268,"name":"?","steam_id":76561198209880837,"connected_time":1184000000000,"state":"active","ping":48},{"user_id":244,"name":"Cheezbeargur","steam_id":76561198164702899,"connected_time":3691000000000,"state":"active","ping":67},{"user_id":221,"name":"MacchuPeachu","steam_id":76561199093242587,"connected_time":5800000000000,"state":"active","ping":61},{"user_id":273,"name":"RIP FPS","steam_id":76561198060855125,"connected_time":169000000000,"state":"active","ping":94},{"user_id":265,"name":"Seriously Bruh","steam_id":76561198070408485,"connected_time":1460000000000,"state":"active","ping":55},{"user_id":249,"name":"The Quickster","steam_id":76561199051906724,"connected_time":3360000000000,"state":"active","ping":70},{"user_id":280,"name":"Greskrendtregk","steam_id":76561197969553142,"connected_time":77000000000,"state":"active","ping":62},{"user_id":279,"name":"R0b0tic","steam_id":76561198425688075,"connected_time":81000000000,"state":"active","ping":74},{"user_id":242,"name":"mega","steam_id":76561198089520959,"connected_time":4021000000000,"state":"active","ping":79}]},{"server_id":119,"name":"Uncletopia | Seattle | 2 | All Maps","name_short":"sea-2","host":"sea-1.us.uncletopia.com","port":27025,"enabled":true,"region":"us-west","cc":"us","latitude":47.608013,"longitude":-122.33517,"reserved":0,"last_update":"0001-01-01T00:00:00Z","name_a2s":"Uncletopia | Seattle | 2 | All Maps","protocol":17,"map":"koth_highpass","folder":"tf","game":"Team Fortress","app_id":440,"player_count":0,"max_players":24,"Bots":0,"server_type":"Dedicated","server_os":"Linux","password":true,"vac":true,"version":"7961495","steam_id":85568392924469998,"keywords":["cp","nocrits","nodmgspread","uncletopia"],"game_id":440,"stv_port":27026,"stv_name":"Uncletopia | Seattle | 2 | All Maps | STV","players":null},{"server_id":406,"name":"Uncletopia | Seattle | 3 | Stopwatch","name_short":"sea-3","host":"sea-1.us.uncletopia.com","port":27035,"enabled":true,"region":"us-west","cc":"us","latitude":47.608013,"longitude":-122.33517,"reserved":0,"last_update":"0001-01-01T00:00:00Z","name_a2s":"Uncletopia | Seattle | 3 | Stopwatch","protocol":17,"map":"pl_pier","folder":"tf","game":"Team Fortress","app_id":440,"player_count":0,"max_players":24,"Bots":0,"server_type":"Dedicated","server_os":"Linux","password":true,"vac":true,"version":"7961495","steam_id":85568392924515217,"keywords":["nocrits","nodmgspread","payload","uncletopia"],"game_id":440,"stv_port":27036,"stv_name":"Uncletopia | Seattle | 3 | Stopwatch | STV","players":null},{"server_id":17,"name":"Uncletopia | San Francisco | 1 | All Maps","name_short":"sfo-1","host":"sfo-1.us.uncletopia.com","port":27015,"enabled":true,"region":"us-west","cc":"us","latitude":37.77397,"longitude":-122.4313,"reserved":0,"last_update":"0001-01-01T00:00:00Z","name_a2s":"Uncletopia | San Francisco | 1 | All Maps","protocol":17,"map":"koth_cascade","folder":"tf","game":"Team Fortress","app_id":440,"player_count":0,"max_players":24,"Bots":0,"server_type":"Dedicated","server_os":"Linux","password":true,"vac":true,"version":"7961495","steam_id":85568392924469999,"keywords":["cp","nocrits","nodmgspread","uncletopia"],"game_id":440,"stv_port":27016,"stv_name":"Uncletopia | San Francisco | 1 | All Maps | STV","players":null},{"server_id":18,"name":"Uncletopia | San Francisco | 2 | All Maps","name_short":"sfo-2","host":"sfo-1.us.uncletopia.com","port":27025,"enabled":true,"region":"us-west","cc":"us","latitude":37.77397,"longitude":-122.4313,"reserved":0,"last_update":"0001-01-01T00:00:00Z","name_a2s":"Uncletopia | San Francisco | 2 | All Maps","protocol":17,"map":"pl_frontier_final","folder":"tf","game":"Team Fortress","app_id":440,"player_count":0,"max_players":24,"Bots":0,"server_type":"Dedicated","server_os":"Linux","password":true,"vac":true,"version":"7961495","steam_id":85568392924470000,"keywords":["nocrits","nodmgspread","payload","uncletopia"],"game_id":440,"stv_port":27026,"stv_name":"Uncletopia | San Francisco | 2 | All Maps | STV","players":null},{"server_id":19,"name":"Uncletopia | San Francisco | 3 | Stopwatch","name_short":"sfo-3","host":"sfo-1.us.uncletopia.com","port":27035,"enabled":true,"region":"us-west","cc":"us","latitude":37.77397,"longitude":-122.4313,"reserved":0,"last_update":"0001-01-01T00:00:00Z","name_a2s":"Uncletopia | San Francisco | 3 | Stopwatch","protocol":17,"map":"cp_sunshine","folder":"tf","game":"Team Fortress","app_id":440,"player_count":0,"max_players":24,"Bots":0,"server_type":"Dedicated","server_os":"Linux","password":true,"vac":true,"version":"7961495","steam_id":85568392924742824,"keywords":["cp","nocrits","nodmgspread","uncletopia"],"game_id":440,"stv_port":27036,"stv_name":"Uncletopia | San Francisco | 3 | Stopwatch | STV","players":null},{"server_id":20,"name":"Uncletopia | San Francisco | 4 | Community","name_short":"sfo-4","host":"sfo-1.us.uncletopia.com","port":27045,"enabled":true,"region":"us-west","cc":"us","latitude":37.77397,"longitude":-122.4313,"reserved":0,"last_update":"0001-01-01T00:00:00Z","name_a2s":"Uncletopia | San Francisco | 4 | Community","protocol":17,"map":"workshop/koth_product_final.ugc454272353","folder":"tf","game":"Team Fortress","app_id":440,"player_count":0,"max_players":24,"Bots":0,"server_type":"Dedicated","server_os":"Linux","password":true,"vac":true,"version":"7961495","steam_id":85568392924742826,"keywords":["cp","nocrits","nodmgspread","uncletopia"],"game_id":440,"stv_port":27046,"stv_name":"Uncletopia | San Francisco | 4 | Community | STV","players":null},{"server_id":141,"name":"Uncletopia | Sydney | 1 | All Maps","name_short":"syd-1","host":"syd-1.au.uncletopia.com","port":27015,"enabled":true,"region":"au","cc":"au","latitude":-33.865143,"longitude":151.2099,"reserved":0,"last_update":"0001-01-01T00:00:00Z","name_a2s":"Uncletopia | Sydney | 1 | All Maps","protocol":17,"map":"koth_viaduct","folder":"tf","game":"Team Fortress","app_id":440,"player_count":0,"max_players":24,"Bots":0,"server_type":"Dedicated","server_os":"Linux","password":true,"vac":true,"version":"7961495","steam_id":85568392924470001,"keywords":["cp","nocrits","nodmgspread","uncletopia"],"game_id":440,"stv_port":27016,"stv_name":"Uncletopia | Sydney | 1 | All Maps | STV","players":null},{"server_id":123,"name":"Uncletopia | Sydney | 2 | All Maps","name_short":"syd-2","host":"syd-1.au.uncletopia.com","port":27025,"enabled":true,"region":"au","cc":"au","latitude":-33.865143,"longitude":151.2099,"reserved":0,"last_update":"0001-01-01T00:00:00Z","name_a2s":"Uncletopia | Sydney | 2 | All Maps","protocol":17,"map":"koth_lakeside_final","folder":"tf","game":"Team Fortress","app_id":440,"player_count":0,"max_players":24,"Bots":0,"server_type":"Dedicated","server_os":"Linux","password":true,"vac":true,"version":"7961495","steam_id":85568392924470002,"keywords":["cp","nocrits","nodmgspread","uncletopia"],"game_id":440,"stv_port":27026,"stv_name":"Uncletopia | Sydney | 2 | All Maps | STV","players":null},{"server_id":395,"name":"Uncletopia | Sydney | 3 | All Maps","name_short":"syd-3","host":"syd-1.au.uncletopia.com","port":27035,"enabled":true,"region":"au","cc":"au","latitude":-33.865143,"longitude":151.2099,"reserved":0,"last_update":"0001-01-01T00:00:00Z","name_a2s":"Uncletopia | Sydney | 3 | All Maps","protocol":17,"map":"pl_frontier_final","folder":"tf","game":"Team Fortress","app_id":440,"player_count":0,"max_players":24,"Bots":0,"server_type":"Dedicated","server_os":"Linux","password":true,"vac":true,"version":"7961495","steam_id":85568392925194467,"keywords":["nocrits","nodmgspread","payload","uncletopia"],"game_id":440,"stv_port":27036,"stv_name":"Uncletopia | Sydney | 3 | All Maps | STV","players":null},{"server_id":396,"name":"Uncletopia | Sydney | 4 | All Maps","name_short":"syd-4","host":"syd-1.au.uncletopia.com","port":27045,"enabled":true,"region":"au","cc":"au","latitude":-33.865143,"longitude":151.2099,"reserved":0,"last_update":"0001-01-01T00:00:00Z","name_a2s":"Uncletopia | Sydney | 4 | All Maps","protocol":17,"map":"cp_process_final","folder":"tf","game":"Team Fortress","app_id":440,"player_count":0,"max_players":24,"Bots":0,"server_type":"Dedicated","server_os":"Linux","password":true,"vac":true,"version":"7961495","steam_id":85568392925397958,"keywords":["cp","nocrits","nodmgspread","uncletopia"],"game_id":440,"stv_port":27046,"stv_name":"Uncletopia | Sydney | 4 | All Maps | STV","players":null},{"server_id":58,"name":"Uncletopia | Sydney | 5 | Stopwatch","name_short":"syd-5","host":"syd-1.au.uncletopia.com","port":27055,"enabled":true,"region":"au","cc":"au","latitude":-33.865143,"longitude":151.2099,"reserved":0,"last_update":"0001-01-01T00:00:00Z","name_a2s":"Uncletopia | Sydney | 5 | Stopwatch","protocol":17,"map":"pl_frontier_final","folder":"tf","game":"Team Fortress","app_id":440,"player_count":0,"max_players":24,"Bots":0,"server_type":"Dedicated","server_os":"Linux","password":true,"vac":true,"version":"7961495","steam_id":85568392925397959,"keywords":["nocrits","nodmgspread","payload","uncletopia"],"game_id":440,"stv_port":27056,"stv_name":"Uncletopia | Sydney | 5 | Stopwatch | STV","players":null},{"server_id":59,"name":"Uncletopia | Sydney | 6 | Community","name_short":"syd-6","host":"syd-1.au.uncletopia.com","port":27065,"enabled":true,"region":"au","cc":"au","latitude":-33.865143,"longitude":151.2099,"reserved":0,"last_update":"0001-01-01T00:00:00Z","name_a2s":"Uncletopia | Sydney | 6 | Community","protocol":17,"map":"cp_sunshine","folder":"tf","game":"Team Fortress","app_id":440,"player_count":0,"max_players":24,"Bots":0,"server_type":"Dedicated","server_os":"Linux","password":true,"vac":true,"version":"7961495","steam_id":85568392925397960,"keywords":["cp","nocrits","nodmgspread","uncletopia"],"game_id":440,"stv_port":27066,"stv_name":"Uncletopia | Sydney | 6 | Community | STV","players":null},{"server_id":49,"name":"Uncletopia | Warsaw | 1 | One Thousand Uncles","name_short":"waw-1","host":"waw-1.pl.uncletopia.com","port":27015,"enabled":true,"region":"eu","cc":"pl","latitude":52.2297,"longitude":21.017532,"reserved":0,"last_update":"0001-01-01T00:00:00Z","name_a2s":"Uncletopia | Warsaw | 1 | One Thousand Uncles","protocol":17,"map":"pl_thundermountain","folder":"tf","game":"Team Fortress","app_id":440,"player_count":25,"max_players":32,"Bots":16,"server_type":"Dedicated","server_os":"Linux","password":true,"vac":true,"version":"7961495","steam_id":85568392925397850,"keywords":["alltalk","bots","danepve","increased_maxplayers","nocrits","norespawntime","payload","uncletopia"],"game_id":440,"stv_port":0,"stv_name":"","players":[{"user_id":553,"name":"Cynical","steam_id":76561198077084694,"connected_time":2986000000000,"state":"active","ping":77},{"user_id":536,"name":"Nikt Wa≈ºny","steam_id":76561199273293257,"connected_time":5197000000000,"state":"active","ping":82},{"user_id":515,"name":"pyro gaming","steam_id":76561198087970118,"connected_time":7105000000000,"state":"active","ping":52},{"user_id":576,"name":"Captain Tobias","steam_id":76561198201750734,"connected_time":527000000000,"state":"active","ping":91},{"user_id":577,"name":"Eujekas","steam_id":76561198010527145,"connected_time":193000000000,"state":"active","ping":117},{"user_id":537,"name":"Purplenoogie","steam_id":76561198081872160,"connected_time":4849000000000,"state":"active","ping":72},{"user_id":539,"name":"Dog Barf","steam_id":76561198073586987,"connected_time":4734000000000,"state":"active","ping":76},{"user_id":516,"name":"Doctor Medic","steam_id":76561198100957443,"connected_time":7102000000000,"state":"active","ping":92},{"user_id":540,"name":"Kewlan","steam_id":76561198042775020,"connected_time":4691000000000,"state":"active","ping":83}]},{"server_id":50,"name":"Uncletopia | Warsaw | 2 | One Thousand Uncles","name_short":"waw-2","host":"waw-1.pl.uncletopia.com","port":27025,"enabled":true,"region":"eu","cc":"pl","latitude":52.2297,"longitude":21.017532,"reserved":0,"last_update":"0001-01-01T00:00:00Z","name_a2s":"Uncletopia | Warsaw | 2 | One Thousand Uncles","protocol":17,"map":"cp_dustbowl","folder":"tf","game":"Team Fortress","app_id":440,"player_count":22,"max_players":32,"Bots":16,"server_type":"Dedicated","server_os":"Linux","password":true,"vac":true,"version":"7961495","steam_id":85568392925397851,"keywords":["alltalk","bots","cp","danepve","increased_maxplayers","nocrits","norespawntime","uncletopia"],"game_id":440,"stv_port":0,"stv_name":"","players":[{"user_id":827,"name":"JujuBalu","steam_id":76561198207253071,"connected_time":3477000000000,"state":"active","ping":51},{"user_id":867,"name":"Lauralide","steam_id":76561198291713082,"connected_time":135000000000,"state":"active","ping":96},{"user_id":868,"name":"Meat","steam_id":76561199255677143,"connected_time":111000000000,"state":"active","ping":150},{"user_id":821,"name":"Cornmac","steam_id":76561198104780569,"connected_time":4762000000000,"state":"active","ping":84},{"user_id":797,"name":"chgivan","steam_id":76561198060010064,"connected_time":8094000000000,"state":"active","ping":91},{"user_id":803,"name":"Random Cap","steam_id":76561198129271321,"connected_time":6854000000000,"state":"active","ping":62}]},{"server_id":51,"name":"Uncletopia | Warsaw | 3 | All Maps","name_short":"waw-3","host":"waw-1.pl.uncletopia.com","port":27035,"enabled":true,"region":"eu","cc":"pl","latitude":52.2297,"longitude":21.017532,"reserved":0,"last_update":"0001-01-01T00:00:00Z","name_a2s":"Uncletopia | Warsaw | 3 | All Maps","protocol":17,"map":"pl_badwater","folder":"tf","game":"Team Fortress","app_id":440,"player_count":0,"max_players":24,"Bots":0,"server_type":"Dedicated","server_os":"Linux","password":true,"vac":true,"version":"7961495","steam_id":85568392925397852,"keywords":["nocrits","nodmgspread","payload","uncletopia"],"game_id":440,"stv_port":27036,"stv_name":"Uncletopia | Warsaw | 3 | All Maps | STV","players":null},{"server_id":52,"name":"Uncletopia | Warsaw | 4 | All Maps","name_short":"waw-4","host":"waw-1.pl.uncletopia.com","port":27045,"enabled":true,"region":"eu","cc":"pl","latitude":52.2297,"longitude":21.017532,"reserved":0,"last_update":"0001-01-01T00:00:00Z","name_a2s":"Uncletopia | Warsaw | 4 | All Maps","protocol":17,"map":"koth_cascade","folder":"tf","game":"Team Fortress","app_id":440,"player_count":0,"max_players":24,"Bots":0,"server_type":"Dedicated","server_os":"Linux","password":true,"vac":true,"version":"7961495","steam_id":85568392925397853,"keywords":["cp","nocrits","nodmgspread","uncletopia"],"game_id":440,"stv_port":27046,"stv_name":"Uncletopia | Warsaw | 4 | All Maps | STV","players":null},{"server_id":53,"name":"Uncletopia | Warsaw | 5 | Stopwatch","name_short":"waw-5","host":"waw-1.pl.uncletopia.com","port":27055,"enabled":true,"region":"eu","cc":"pl","latitude":52.2297,"longitude":21.017532,"reserved":0,"last_update":"0001-01-01T00:00:00Z","name_a2s":"Uncletopia | Warsaw | 5 | Stopwatch","protocol":17,"map":"workshop/koth_ramjam_rc1.ugc459778887","folder":"tf","game":"Team Fortress","app_id":440,"player_count":0,"max_players":24,"Bots":0,"server_type":"Dedicated","server_os":"Linux","password":true,"vac":true,"version":"7961495","steam_id":85568392925397854,"keywords":["cp","nocrits","nodmgspread","uncletopia"],"game_id":440,"stv_port":27056,"stv_name":"Uncletopia | Warsaw | 5 | Stopwatch | STV","players":null},{"server_id":54,"name":"Uncletopia | Warsaw | 6 | Community","name_short":"waw-6","host":"waw-1.pl.uncletopia.com","port":27065,"enabled":true,"region":"eu","cc":"pl","latitude":52.2297,"longitude":21.017532,"reserved":0,"last_update":"0001-01-01T00:00:00Z","name_a2s":"Uncletopia | Warsaw | 6 | Community","protocol":17,"map":"workshop/cp_bruhstbowl_b6.ugc2878604990","folder":"tf","game":"Team Fortress","app_id":440,"player_count":0,"max_players":24,"Bots":0,"server_type":"Dedicated","server_os":"Linux","password":true,"vac":true,"version":"7961495","steam_id":85568392925397856,"keywords":["cp","nocrits","nodmgspread","uncletopia"],"game_id":440,"stv_port":27066,"stv_name":"Uncletopia | Warsaw | 6 | Community | STV","players":null}]}