{"status":true,"message":"","result":[{"server_id":9,"name":"Uncletopia | Atlanta | 1 | All Maps","name_short":"atl-1","host":"atl-1.us.uncletopia.com","port":27015,"enabled":true,"region":"us-east","cc":"us","latitude":33.753746,"longitude":-84.38633,"reserved":0,"last_update":"0001-01-01T00:00:00Z","name_a2s":"Uncletopia | Atlanta | 1 | All Maps","protocol":17,"map":"pl_borneo","folder":"tf","game":"Team Fortress","app_id":440,"player_count":2,"max_players":24,"Bots":0,"server_type":"Dedicated","server_os":"Linux","password":true,"vac":true,"version":"7742253","steam_id":85568392924469982,"keywords":["nocrits","nodmgspread","payload","uncletopia"],"game_id":440,"stv_port":27016,"stv_name":"Uncletopia | Atlanta | 1 | All Maps | STV","players":[{"user_id":8,"name":"Singularity","steam_id":76561198000284742,"connected_time":116000000000,"state":"active","ping":41},{"user_id":9,"name":"MrActionJaxon","steam_id":76561198093549908,"connected_time":2000000000,"state":"spawning","ping":82}]},{"server_id":400,"name":"Uncletopia | Atlanta | 3 | Stopwatch Beta","name_short":"atl-3","host":"atl-1.us.uncletopia.com","port":27035,"enabled":true,"region":"us-east","cc":"us","latitude":33.753746,"longitude":-84.38633,"reserved":0,"last_update":"0001-01-01T00:00:00Z","name_a2s":"Uncletopia | Atlanta | 3 | Stopwatch Beta","protocol":17,"map":"pl_pier","folder":"tf","game":"Team Fortress","app_id":440,"player_count":0,"max_players":24,"Bots":0,"server_type":"Dedicated","server_os":"Linux","password":true,"vac":true,"version":"7742253","steam_id":85568392924515187,"keywords":["nocrits","nodmgspread","payload","uncletopia"],"game_id":440,"stv_port":27036,"stv_name":"Uncletopia | Atlanta | 3 | Stopwatch Beta | STV","players":null},{"server_id":401,"name":"Uncletopia | Atlanta | 4 | No Payload","name_short":"atl-4","host":"atl-1.us.uncletopia.com","port":27045,"enabled":true,"region":"us-east","cc":"us","latitude":33.753746,"longitude":-84.38633,"reserved":0,"last_update":"0001-01-01T00:00:00Z","name_a2s":"Uncletopia | Atlanta | 4 | No Payload","protocol":17,"map":"pl_pier","folder":"tf","game":"Team Fortress","app_id":440,"player_count":0,"max_players":24,"Bots":0,"server_type":"Dedicated","server_os":"Linux","password":true,"vac":true,"version":"7723704","steam_id":85568392924515188,"keywords":["nocrits","nodmgspread","payload","uncletopia"],"game_id":440,"stv_port":27046,"stv_name":"Uncletopia | Atlanta | 4 | No Payload | STV","players":null},{"server_id":2,"name":"Uncletopia | Chicago | 1 | All Maps","name_short":"chi-1","host":"chi-1.us.uncletopia.com","port":27015,"enabled":true,"region":"us-central","cc":"us","latitude":41.881832,"longitude":-87.62318,"reserved":0,"last_update":"0001-01-01T00:00:00Z","name_a2s":"Uncletopia | Chicago | 1 | All Maps","protocol":17,"map":"pl_badwater","folder":"tf","game":"Team Fortress","app_id":440,"player_count":24,"max_players":24,"Bots":0,"server_type":"Dedicated","server_os":"Linux","password":true,"vac":true,"version":"7742253","steam_id":85568392924469984,"keywords":["nocrits","nodmgspread","payload","uncletopia"],"game_id":440,"stv_port":27016,"stv_name":"Uncletopia | Chicago | 1 | All Maps | STV","players":[{"user_id":3,"name":"Tommy Pickles (Very Cool)","steam_id":76561198391261463,"connected_time":15484000000000,"state":"active","ping":72},{"user_id":174,"name":"MadPoint","steam_id":76561198074210348,"connected_time":868000000000,"state":"active","ping":72},{"user_id":155,"name":"A Feline Witch","steam_id":76561198073434502,"connected_time":1654000000000,"state":"active","ping":76},{"user_id":185,"name":"Metna ☁","steam_id":76561198092381079,"connected_time":250000000000,"state":"active","ping":55},{"user_id":186,"name":"skrt","steam_id":76561198233984300,"connected_time":216000000000,"state":"active","ping":45},{"user_id":176,"name":"Quansen","steam_id":76561198151594550,"connected_time":686000000000,"state":"active","ping":55},{"user_id":151,"name":"Zadok Allen","steam_id":76561198057374871,"connected_time":2504000000000,"state":"active","ping":61},{"user_id":166,"name":"puppygirl gaming","steam_id":76561198044363630,"connected_time":1243000000000,"state":"active","ping":65},{"user_id":152,"name":"kb","steam_id":76561198115914109,"connected_time":1690000000000,"state":"active","ping":71},{"user_id":182,"name":"Bush.exe","steam_id":76561198124385307,"connected_time":405000000000,"state":"active","ping":66},{"user_id":103,"name":"Elena Manetta","steam_id":76561197998344054,"connected_time":9050000000000,"state":"active","ping":59},{"user_id":159,"name":"Z4lTte","steam_id":76561198283258068,"connected_time":1596000000000,"state":"active","ping":60},{"user_id":184,"name":"Nexus","steam_id":76561198187929865,"connected_time":258000000000,"state":"active","ping":44},{"user_id":122,"name":"spinz","steam_id":76561198353098481,"connected_time":7401000000000,"state":"active","ping":77},{"user_id":163,"name":"Final_MarioXD","steam_id":76561199184862419,"connected_time":1468000000000,"state":"active","ping":82},{"user_id":188,"name":"Stink","steam_id":76561198232646232,"connected_time":77000000000,"state":"active","ping":74},{"user_id":175,"name":"white ray","steam_id":76561198026664629,"connected_time":764000000000,"state":"active","ping":52},{"user_id":160,"name":"Mighty","steam_id":76561198096569755,"connected_time":1555000000000,"state":"active","ping":88},{"user_id":154,"name":"bruiseraaron","steam_id":76561198020092380,"connected_time":1678000000000,"state":"active","ping":47},{"user_id":172,"name":"RoseRadical","steam_id":76561197999984320,"connected_time":1004000000000,"state":"active","ping":60},{"user_id":165,"name":"sunrisebanana","steam_id":76561198038764622,"connected_time":1311000000000,"state":"active","ping":52},{"user_id":91,"name":"Stauxie","steam_id":76561198255030077,"connected_time":10614000000000,"state":"active","ping":89},{"user_id":177,"name":"Toripollo","steam_id":76561198251665862,"connected_time":686000000000,"state":"active","ping":102},{"user_id":181,"name":"TATARA","steam_id":76561199098759517,"connected_time":540000000000,"state":"active","ping":126}]},{"server_id":106,"name":"Uncletopia | Chicago | 2 | All Maps","name_short":"chi-2","host":"chi-1.us.uncletopia.com","port":27025,"enabled":true,"region":"us-central","cc":"us","latitude":41.881832,"longitude":-87.62318,"reserved":0,"last_update":"0001-01-01T00:00:00Z","name_a2s":"Uncletopia | Chicago | 2 | All Maps","protocol":17,"map":"pl_badwater","folder":"tf","game":"Team Fortress","app_id":440,"player_count":24,"max_players":24,"Bots":0,"server_type":"Dedicated","server_os":"Linux","password":true,"vac":true,"version":"7742253","steam_id":85568392924469985,"keywords":["nocrits","nodmgspread","payload","uncletopia"],"game_id":440,"stv_port":27026,"stv_name":"Uncletopia | Chicago | 2 | All Maps | STV","players":[{"user_id":6,"name":"Juni Cortez","steam_id":76561198115552623,"connected_time":6366000000000,"state":"active","ping":52},{"user_id":103,"name":"Spongebob","steam_id":76561198189429665,"connected_time":213000000000,"state":"active","ping":76},{"user_id":88,"name":"Cassini","steam_id":76561198318526294,"connected_time":1136000000000,"state":"active","ping":72},{"user_id":92,"name":":)","steam_id":76561198093921290,"connected_time":1004000000000,"state":"active","ping":45},{"user_id":101,"name":"Cheese4Everyone","steam_id":76561198022333985,"connected_time":223000000000,"state":"active","ping":63},{"user_id":83,"name":"bob1444","steam_id":76561198110258432,"connected_time":1723000000000,"state":"active","ping":93},{"user_id":71,"name":"Vapor","steam_id":76561198850475407,"connected_time":2296000000000,"state":"active","ping":54},{"user_id":87,"name":"Prepnoodles","steam_id":76561198254033291,"connected_time":1159000000000,"state":"active","ping":76},{"user_id":89,"name":"Fr.3D","steam_id":76561198003386826,"connected_time":1111000000000,"state":"active","ping":77},{"user_id":67,"name":"sphinxmagoo","steam_id":76561198057001653,"connected_time":2426000000000,"state":"active","ping":73},{"user_id":31,"name":"Casual Costanza","steam_id":76561198024409325,"connected_time":3625000000000,"state":"active","ping":68},{"user_id":29,"name":"Bee_Pirate","steam_id":76561199000599111,"connected_time":3660000000000,"state":"active","ping":70},{"user_id":102,"name":"MintyPawz","steam_id":76561198111430103,"connected_time":219000000000,"state":"active","ping":89},{"user_id":104,"name":"uhooter","steam_id":76561198007829078,"connected_time":198000000000,"state":"active","ping":56},{"user_id":96,"name":"shmoke","steam_id":76561198056996952,"connected_time":888000000000,"state":"active","ping":74},{"user_id":97,"name":"Yimi","steam_id":76561198097984345,"connected_time":841000000000,"state":"active","ping":90},{"user_id":81,"name":"BinkVibes","steam_id":76561197996393936,"connected_time":1793000000000,"state":"active","ping":159},{"user_id":50,"name":"Royal_tm","steam_id":76561198319509387,"connected_time":3106000000000,"state":"active","ping":75},{"user_id":39,"name":"Samus","steam_id":76561198121933439,"connected_time":3549000000000,"state":"active","ping":69},{"user_id":40,"name":"Regi","steam_id":76561198271508598,"connected_time":3538000000000,"state":"active","ping":55},{"user_id":100,"name":"1998 Volvo S70 T5","steam_id":76561198258615044,"connected_time":227000000000,"state":"active","ping":88},{"user_id":106,"name":"facecheck","steam_id":76561198115269587,"connected_time":81000000000,"state":"active","ping":72},{"user_id":98,"name":"Fishstall","steam_id":76561198038126034,"connected_time":817000000000,"state":"active","ping":90},{"user_id":105,"name":"[ LOUD INCORRECT BUZZER ]","steam_id":76561198112388117,"connected_time":193000000000,"state":"active","ping":80}]},{"server_id":402,"name":"Uncletopia | Chicago | 3 | All Maps","name_short":"chi-3","host":"chi-1.us.uncletopia.com","port":27035,"enabled":true,"region":"us-central","cc":"us","latitude":41.881832,"longitude":-87.62318,"reserved":0,"last_update":"0001-01-01T00:00:00Z","name_a2s":"Uncletopia | Chicago | 3 | All Maps","protocol":17,"map":"koth_viaduct","folder":"tf","game":"Team Fortress","app_id":440,"player_count":0,"max_players":24,"Bots":0,"server_type":"Dedicated","server_os":"Linux","password":true,"vac":true,"version":"7742253","steam_id":85568392924515191,"keywords":["cp","nocrits","nodmgspread","uncletopia"],"game_id":440,"stv_port":27036,"stv_name":"Uncletopia | Chicago | 3 | All Maps | STV","players":null},{"server_id":403,"name":"Uncletopia | Chicago | 4 | All Maps","name_short":"chi-4","host":"chi-1.us.uncletopia.com","port":27045,"enabled":true,"region":"us-central","cc":"us","latitude":41.881832,"longitude":-87.62318,"reserved":0,"last_update":"0001-01-01T00:00:00Z","name_a2s":"Uncletopia | Chicago | 4 | All Maps","protocol":17,"map":"koth_lakeside_final","folder":"tf","game":"Team Fortress","app_id":440,"player_count":0,"max_players":24,"Bots":0,"server_type":"Dedicated","server_os":"Linux","password":true,"vac":true,"version":"7742253","steam_id":85568392924515193,"keywords":["cp","nocrits","nodmgspread","uncletopia"],"game_id":440,"stv_port":27046,"stv_name":"Uncletopia | Chicago | 4 | All Maps | STV","players":null},{"server_id":36,"name":"Uncletopia | Chicago | 5 | All Maps","name_short":"chi-5","host":"chi-2.us.uncletopia.com","port":27015,"enabled":true,"region":"us-central","cc":"us","latitude":41.881832,"longitude":-87.62318,"reserved":0,"last_update":"0001-01-01T00:00:00Z","name_a2s":"Uncletopia | Chicago | 5 | All Maps","protocol":17,"map":"pl_frontier_final","folder":"tf","game":"Team Fortress","app_id":440,"player_count":0,"max_players":24,"Bots":0,"server_type":"Dedicated","server_os":"Linux","password":true,"vac":true,"version":"7742253","steam_id":85568392924866362,"keywords":["nocrits","nodmgspread","payload","uncletopia"],"game_id":440,"stv_port":27016,"stv_name":"Uncletopia | Chicago | 5 | All Maps | STV","players":null},{"server_id":37,"name":"Uncletopia | Chicago | 6 | All Maps","name_short":"chi-6","host":"chi-2.us.uncletopia.com","port":27025,"enabled":true,"region":"us-central","cc":"us","latitude":41.881832,"longitude":-87.62318,"reserved":0,"last_update":"0001-01-01T00:00:00Z","name_a2s":"Uncletopia | Chicago | 6 | All Maps","protocol":17,"map":"cp_sunshine","folder":"tf","game":"Team Fortress","app_id":440,"player_count":0,"max_players":24,"Bots":0,"server_type":"Dedicated","server_os":"Linux","password":true,"vac":true,"version":"7742253","steam_id":85568392924866363,"keywords":["cp","nocrits","nodmgspread","uncletopia"],"game_id":440,"stv_port":27026,"stv_name":"Uncletopia | Chicago | 6 | All Maps | STV","players":null},{"server_id":38,"name":"Uncletopia | Chicago | 7 | Stopwatch Beta","name_short":"chi-7","host":"chi-2.us.uncletopia.com","port":27035,"enabled":true,"region":"us-central","cc":"us","latitude":41.881832,"longitude":-87.62318,"reserved":0,"last_update":"0001-01-01T00:00:00Z","name_a2s":"Uncletopia | Chicago | 7 | Stopwatch Beta","protocol":17,"map":"koth_lakeside_final","folder":"tf","game":"Team Fortress","app_id":440,"player_count":0,"max_players":24,"Bots":0,"server_type":"Dedicated","server_os":"Linux","password":true,"vac":true,"version":"7742253","steam_id":85568392924866364,"keywords":["cp","nocrits","nodmgspread","uncletopia"],"game_id":440,"stv_port":27036,"stv_name":"Uncletopia | Chicago | 7 | Stopwatch Beta | STV","players":null},{"server_id":39,"name":"Uncletopia | Chicago | 8 | Community","name_short":"chi-8","host":"chi-2.us.uncletopia.com","port":27045,"enabled":true,"region":"us-central","cc":"us","latitude":41.881832,"longitude":-87.62318,"reserved":0,"last_update":"0001-01-01T00:00:00Z","name_a2s":"Uncletopia | Chicago | 8 | Community","protocol":17,"map":"koth_lakeside_final","folder":"tf","game":"Team Fortress","app_id":440,"player_count":0,"max_players":24,"Bots":0,"server_type":"Dedicated","server_os":"Linux","password":true,"vac":true,"version":"7742253","steam_id":85568392924866365,"keywords":["cp","nocrits","nodmgspread","uncletopia"],"game_id":440,"stv_port":27046,"stv_name":"Uncletopia | Chicago | 8 | Community | STV","players":null},{"server_id":8,"name":"Uncletopia | Dallas | 1 | All Maps","name_short":"dal-1","host":"dal-1.us.uncletopia.com","port":27015,"enabled":true,"region":"us-central","cc":"us","latitude":32.779167,"longitude":-96.80889,"reserved":0,"last_update":"0001-01-01T00:00:00Z","name_a2s":"Uncletopia | Dallas | 1 | All Maps","protocol":17,"map":"koth_viaduct","folder":"tf","game":"Team Fortress","app_id":440,"player_count":0,"max_players":24,"Bots":0,"server_type":"Dedicated","server_os":"Linux","password":true,"vac":true,"version":"7742253","steam_id":85568392924469986,"keywords":["cp","nocrits","nodmgspread","uncletopia"],"game_id":440,"stv_port":27016,"stv_name":"Uncletopia | Dallas | 1 | All Maps | STV","players":null},{"server_id":108,"name":"Uncletopia | Dallas | 2 | All Maps","name_short":"dal-2","host":"dal-1.us.uncletopia.com","port":27025,"enabled":true,"region":"us-central","cc":"us","latitude":32.779167,"longitude":-96.80889,"reserved":0,"last_update":"0001-01-01T00:00:00Z","name_a2s":"Uncletopia | Dallas | 2 | All Maps","protocol":17,"map":"koth_viaduct","folder":"tf","game":"Team Fortress","app_id":440,"player_count":0,"max_players":24,"Bots":0,"server_type":"Dedicated","server_os":"Linux","password":true,"vac":true,"version":"7742253","steam_id":85568392924469988,"keywords":["cp","nocrits","nodmgspread","uncletopia"],"game_id":440,"stv_port":27026,"stv_name":"Uncletopia | Dallas | 2 | All Maps | STV","players":null},{"server_id":5,"name":"Uncletopia | Frankfurt | 1 | All Maps","name_short":"frk-1","host":"frk-1.de.uncletopia.com","port":27015,"enabled":true,"region":"eu","cc":"de","latitude":50.110924,"longitude":8.682127,"reserved":0,"last_update":"0001-01-01T00:00:00Z","name_a2s":"Uncletopia | Frankfurt | 1 | All Maps","protocol":17,"map":"cp_snakewater_final1","folder":"tf","game":"Team Fortress","app_id":440,"player_count":0,"max_players":24,"Bots":0,"server_type":"Dedicated","server_os":"Linux","password":true,"vac":true,"version":"7742253","steam_id":85568392924469989,"keywords":["cp","nocrits","nodmgspread","uncletopia"],"game_id":440,"stv_port":27016,"stv_name":"Uncletopia | Frankfurt | 1 | All Maps | STV","players":null},{"server_id":110,"name":"Uncletopia | Frankfurt | 2 | All Maps","name_short":"frk-2","host":"frk-1.de.uncletopia.com","port":27025,"enabled":true,"region":"eu","cc":"de","latitude":50.110924,"longitude":8.682127,"reserved":0,"last_update":"0001-01-01T00:00:00Z","name_a2s":"Uncletopia | Frankfurt | 2 | All Maps","protocol":17,"map":"pl_frontier_final","folder":"tf","game":"Team Fortress","app_id":440,"player_count":24,"max_players":24,"Bots":0,"server_type":"Dedicated","server_os":"Linux","password":true,"vac":true,"version":"7742253","steam_id":85568392924469990,"keywords":["nocrits","nodmgspread","payload","uncletopia"],"game_id":440,"stv_port":27026,"stv_name":"Uncletopia | Frankfurt | 2 | All Maps | STV","players":[{"user_id":385,"name":"ducks","steam_id":76561198166148685,"connected_time":1902000000000,"state":"active","ping":48},{"user_id":395,"name":"Pipper","steam_id":76561197970326616,"connected_time":997000000000,"state":"active","ping":44},{"user_id":374,"name":"FluiDCobRa™","steam_id":76561198142461723,"connected_time":2689000000000,"state":"active","ping":88},{"user_id":386,"name":"obama","steam_id":76561198262187934,"connected_time":1803000000000,"state":"active","ping":96},{"user_id":408,"name":"Asocial","steam_id":76561198328594578,"connected_time":134000000000,"state":"active","ping":93},{"user_id":405,"name":"XPullaHiiri","steam_id":76561198031652375,"connected_time":442000000000,"state":"active","ping":76},{"user_id":401,"name":"clean carp","steam_id":76561198127053294,"connected_time":849000000000,"state":"active","ping":74},{"user_id":361,"name":"❤BezLyapchik❤","steam_id":76561199447261771,"connected_time":3366000000000,"state":"active","ping":89},{"user_id":402,"name":"Edla","steam_id":76561198062815315,"connected_time":839000000000,"state":"active","ping":100},{"user_id":381,"name":"v0rt3x","steam_id":76561198034695233,"connected_time":2434000000000,"state":"active","ping":62},{"user_id":409,"name":"The Fellow Feller","steam_id":76561198188864306,"connected_time":132000000000,"state":"active","ping":64},{"user_id":351,"name":":)","steam_id":76561198103988618,"connected_time":4247000000000,"state":"active","ping":70},{"user_id":410,"name":"The Black Scottish Spyclops","steam_id":76561198186644131,"connected_time":12000000000,"state":"spawning","ping":67},{"user_id":404,"name":"Samus_","steam_id":76561199010647409,"connected_time":651000000000,"state":"active","ping":80},{"user_id":362,"name":"TURBOCHIASSE","steam_id":76561198087713683,"connected_time":3303000000000,"state":"active","ping":63},{"user_id":394,"name":"101 000 tuns of democracy","steam_id":76561198218257120,"connected_time":1080000000000,"state":"active","ping":66},{"user_id":383,"name":"Dr.Sticky","steam_id":76561198041140857,"connected_time":2059000000000,"state":"active","ping":86},{"user_id":359,"name":"Poppy Stingray","steam_id":76561198049673783,"connected_time":3425000000000,"state":"active","ping":73},{"user_id":392,"name":"guiseppe","steam_id":76561198046129681,"connected_time":1126000000000,"state":"active","ping":94},{"user_id":407,"name":"Mr.Fosty","steam_id":76561198045212783,"connected_time":152000000000,"state":"active","ping":76},{"user_id":389,"name":"LordTrap.exe","steam_id":76561198318089716,"connected_time":1737000000000,"state":"active","ping":51},{"user_id":340,"name":"Andy","steam_id":76561198136364381,"connected_time":5915000000000,"state":"active","ping":80},{"user_id":346,"name":"Hoxton","steam_id":76561198129209505,"connected_time":5442000000000,"state":"active","ping":79},{"user_id":400,"name":"lofimonkeyjazz","steam_id":76561198117059662,"connected_time":887000000000,"state":"active","ping":78}]},{"server_id":308,"name":"Uncletopia | Frankfurt | 3 | All Maps","name_short":"frk-3","host":"frk-1.de.uncletopia.com","port":27035,"enabled":true,"region":"eu","cc":"de","latitude":50.110924,"longitude":8.682127,"reserved":0,"last_update":"0001-01-01T00:00:00Z","name_a2s":"Uncletopia | Frankfurt | 3 | All Maps","protocol":17,"map":"pl_barnblitz","folder":"tf","game":"Team Fortress","app_id":440,"player_count":24,"max_players":24,"Bots":0,"server_type":"Dedicated","server_os":"Linux","password":true,"vac":true,"version":"7742253","steam_id":85568392924504274,"keywords":["nocrits","nodmgspread","payload","uncletopia"],"game_id":440,"stv_port":27036,"stv_name":"Uncletopia | Frankfurt | 3 | All Maps | STV","players":[{"user_id":414,"name":"dick cock ballin","steam_id":76561198169823317,"connected_time":1877000000000,"state":"active","ping":97},{"user_id":378,"name":"Optimist 50","steam_id":76561198039631442,"connected_time":4526000000000,"state":"active","ping":74},{"user_id":440,"name":"kimmy","steam_id":76561199234051685,"connected_time":722000000000,"state":"active","ping":46},{"user_id":412,"name":"manure merchant","steam_id":76561198010109316,"connected_time":1917000000000,"state":"active","ping":59},{"user_id":446,"name":"Fish","steam_id":76561198182278770,"connected_time":596000000000,"state":"active","ping":76},{"user_id":428,"name":"SugipuLaur","steam_id":76561199138556623,"connected_time":1387000000000,"state":"active","ping":84},{"user_id":399,"name":"wads","steam_id":76561198175406562,"connected_time":2729000000000,"state":"active","ping":71},{"user_id":445,"name":"Soya Suki","steam_id":76561197998106435,"connected_time":646000000000,"state":"active","ping":45},{"user_id":417,"name":"orc slayer","steam_id":76561198282311780,"connected_time":1828000000000,"state":"active","ping":107},{"user_id":380,"name":"Mankor","steam_id":76561198020439322,"connected_time":4505000000000,"state":"active","ping":47},{"user_id":418,"name":"Landsknecht","steam_id":76561199293036742,"connected_time":1804000000000,"state":"active","ping":50},{"user_id":394,"name":"Chambersite","steam_id":76561198197022399,"connected_time":3075000000000,"state":"active","ping":64},{"user_id":432,"name":"Ankalagon","steam_id":76561198070327914,"connected_time":1113000000000,"state":"active","ping":48},{"user_id":450,"name":"NotFionn","steam_id":76561198890525176,"connected_time":101000000000,"state":"active","ping":93},{"user_id":444,"name":"Realist 40","steam_id":76561198052476979,"connected_time":672000000000,"state":"active","ping":89},{"user_id":437,"name":"Papa sniper","steam_id":76561198941117244,"connected_time":867000000000,"state":"active","ping":108},{"user_id":438,"name":"E","steam_id":76561198166340115,"connected_time":843000000000,"state":"active","ping":70},{"user_id":449,"name":"djent","steam_id":76561198324934874,"connected_time":468000000000,"state":"active","ping":86},{"user_id":439,"name":"EJDERIYA","steam_id":76561198347159701,"connected_time":842000000000,"state":"active","ping":89},{"user_id":433,"name":"SadnessTrain","steam_id":76561198051934482,"connected_time":1043000000000,"state":"active","ping":63},{"user_id":392,"name":"Wubba Lubba dub-dub","steam_id":76561198871342329,"connected_time":3560000000000,"state":"active","ping":108},{"user_id":430,"name":"Pastoss","steam_id":76561198379098260,"connected_time":1277000000000,"state":"active","ping":54},{"user_id":448,"name":"wouris","steam_id":76561198876188003,"connected_time":558000000000,"state":"active","ping":57},{"user_id":429,"name":"Dolcelatte","steam_id":76561198038501770,"connected_time":1360000000000,"state":"active","ping":58}]},{"server_id":309,"name":"Uncletopia | Frankfurt | 4 | All Maps","name_short":"frk-4","host":"frk-1.de.uncletopia.com","port":27045,"enabled":true,"region":"eu","cc":"de","latitude":50.110924,"longitude":8.682127,"reserved":0,"last_update":"0001-01-01T00:00:00Z","name_a2s":"Uncletopia | Frankfurt | 4 | All Maps","protocol":17,"map":"pl_badwater","folder":"tf","game":"Team Fortress","app_id":440,"player_count":23,"max_players":24,"Bots":0,"server_type":"Dedicated","server_os":"Linux","password":true,"vac":true,"version":"7742253","steam_id":85568392924504275,"keywords":["nocrits","nodmgspread","payload","uncletopia"],"game_id":440,"stv_port":27046,"stv_name":"Uncletopia | Frankfurt | 4 | All Maps | STV","players":[{"user_id":136,"name":"M E H","steam_id":76561198038436594,"connected_time":1611000000000,"state":"active","ping":68},{"user_id":152,"name":"adysky","steam_id":76561198049174208,"connected_time":503000000000,"state":"active","ping":46},{"user_id":12,"name":"The Drybone","steam_id":76561199229123721,"connected_time":9335000000000,"state":"active","ping":51},{"user_id":123,"name":"Drdarlekzzz","steam_id":76561198160141785,"connected_time":2326000000000,"state":"active","ping":56},{"user_id":163,"name":"Up my perse","steam_id":76561198048378956,"connected_time":16000000000,"state":"spawning","ping":966},{"user_id":151,"name":"M. Hulot","steam_id":76561197994284798,"connected_time":523000000000,"state":"active","ping":57},{"user_id":134,"name":"aaron","steam_id":76561198090143282,"connected_time":1809000000000,"state":"active","ping":60},{"user_id":150,"name":"EEEEEH","steam_id":76561198126717413,"connected_time":550000000000,"state":"active","ping":75},{"user_id":147,"name":"John Daly","steam_id":76561197993849325,"connected_time":1077000000000,"state":"active","ping":78},{"user_id":154,"name":"Henk_de_Patatman","steam_id":76561198070103191,"connected_time":427000000000,"state":"active","ping":51},{"user_id":155,"name":"SantiThePug #ReviveTheCaber","steam_id":76561199049615996,"connected_time":224000000000,"state":"active","ping":69},{"user_id":77,"name":"[G.E.W.P.] | Gr0t0s","steam_id":76561198157368331,"connected_time":5932000000000,"state":"active","ping":73},{"user_id":127,"name":"Shirogame","steam_id":76561198126154697,"connected_time":2251000000000,"state":"active","ping":65},{"user_id":126,"name":"bad at gaem","steam_id":76561198072373587,"connected_time":2282000000000,"state":"active","ping":73},{"user_id":156,"name":"D4nny","steam_id":76561198105028151,"connected_time":215000000000,"state":"active","ping":45},{"user_id":118,"name":"Mell","steam_id":76561198356521260,"connected_time":3298000000000,"state":"active","ping":80},{"user_id":149,"name":"Markerplier","steam_id":76561198875409640,"connected_time":819000000000,"state":"active","ping":64},{"user_id":162,"name":"Syd","steam_id":76561198020515027,"connected_time":80000000000,"state":"spawning","ping":134},{"user_id":95,"name":"tekt","steam_id":76561198044554387,"connected_time":4568000000000,"state":"active","ping":93},{"user_id":159,"name":"Dises Dr. Kollege","steam_id":76561198027697768,"connected_time":185000000000,"state":"active","ping":80},{"user_id":141,"name":"Dzan50","steam_id":76561198059758591,"connected_time":1533000000000,"state":"active","ping":83},{"user_id":153,"name":"somehow danced","steam_id":76561198128250460,"connected_time":495000000000,"state":"active","ping":95},{"user_id":161,"name":"System","steam_id":76561199442503973,"connected_time":129000000000,"state":"active","ping":46}]},{"server_id":310,"name":"Uncletopia | Frankfurt | 5 | All Maps","name_short":"frk-5","host":"frk-1.de.uncletopia.com","port":27055,"enabled":true,"region":"eu","cc":"de","latitude":50.110924,"longitude":8.682127,"reserved":0,"last_update":"0001-01-01T00:00:00Z","name_a2s":"Uncletopia | Frankfurt | 5 | All Maps","protocol":17,"map":"pl_wutville_event","folder":"tf","game":"Team Fortress","app_id":440,"player_count":24,"max_players":24,"Bots":0,"server_type":"Dedicated","server_os":"Linux","password":true,"vac":true,"version":"7742253","steam_id":85568392924504277,"keywords":["nocrits","nodmgspread","payload","uncletopia"],"game_id":440,"stv_port":27056,"stv_name":"Uncletopia | Frankfurt | 5 | All Maps | STV","players":[{"user_id":34,"name":"Faxter","steam_id":76561198011771605,"connected_time":2206000000000,"state":"active","ping":65},{"user_id":35,"name":"[DAH] Crusad3r04","steam_id":76561198138197113,"connected_time":2204000000000,"state":"active","ping":82},{"user_id":38,"name":"[DAH] O r a c l e","steam_id":76561198044057163,"connected_time":2170000000000,"state":"active","ping":44},{"user_id":37,"name":"Banion","steam_id":76561197973819480,"connected_time":2188000000000,"state":"active","ping":45},{"user_id":39,"name":"goodguy","steam_id":76561199048167724,"connected_time":2154000000000,"state":"active","ping":99},{"user_id":40,"name":"[DAH] THEMASTERPLEB","steam_id":76561198324839739,"connected_time":2143000000000,"state":"active","ping":210},{"user_id":41,"name":"FLiplip","steam_id":76561198846996160,"connected_time":2137000000000,"state":"active","ping":85},{"user_id":42,"name":"⛧Paublosan⛧","steam_id":76561198026309033,"connected_time":2121000000000,"state":"active","ping":60},{"user_id":52,"name":"Drakoni","steam_id":76561199366573695,"connected_time":2020000000000,"state":"active","ping":63},{"user_id":65,"name":"5tgbnmju765","steam_id":76561198070738689,"connected_time":1578000000000,"state":"active","ping":77},{"user_id":45,"name":"[DAH] Marco7","steam_id":76561198157665073,"connected_time":2080000000000,"state":"active","ping":65},{"user_id":55,"name":"[DAH] P E T E R","steam_id":76561199154450007,"connected_time":1958000000000,"state":"active","ping":52},{"user_id":48,"name":"No Heads?!","steam_id":76561198326033296,"connected_time":2057000000000,"state":"active","ping":102},{"user_id":75,"name":"M1UBBA","steam_id":76561198150597524,"connected_time":1134000000000,"state":"active","ping":51},{"user_id":50,"name":"BluGalaxian","steam_id":76561198134300479,"connected_time":2040000000000,"state":"active","ping":70},{"user_id":54,"name":"Cloudy","steam_id":76561198082293402,"connected_time":1975000000000,"state":"active","ping":54},{"user_id":56,"name":"hot texan builder","steam_id":76561198887446161,"connected_time":1912000000000,"state":"active","ping":130},{"user_id":67,"name":"DOMAIN","steam_id":76561199095640319,"connected_time":1541000000000,"state":"active","ping":81},{"user_id":81,"name":"Gordon Birdman","steam_id":76561198013382324,"connected_time":133000000000,"state":"active","ping":79},{"user_id":82,"name":"Eck","steam_id":76561198170101474,"connected_time":101000000000,"state":"active","ping":67},{"user_id":64,"name":"razetime","steam_id":76561198093904557,"connected_time":1686000000000,"state":"active","ping":183},{"user_id":73,"name":"Rambi","steam_id":76561199058078505,"connected_time":1176000000000,"state":"active","ping":151},{"user_id":69,"name":"Asperix","steam_id":76561198052537015,"connected_time":1520000000000,"state":"active","ping":90},{"user_id":72,"name":"Lille per♿","steam_id":76561198015094686,"connected_time":1262000000000,"state":"active","ping":58}]},{"server_id":311,"name":"Uncletopia | Frankfurt | 6 | All Maps","name_short":"frk-6","host":"frk-1.de.uncletopia.com","port":27065,"enabled":true,"region":"eu","cc":"de","latitude":50.110924,"longitude":8.682127,"reserved":0,"last_update":"0001-01-01T00:00:00Z","name_a2s":"Uncletopia | Frankfurt | 6 | All Maps","protocol":17,"map":"pl_frontier_final","folder":"tf","game":"Team Fortress","app_id":440,"player_count":24,"max_players":24,"Bots":0,"server_type":"Dedicated","server_os":"Linux","password":true,"vac":true,"version":"7742253","steam_id":85568392924504278,"keywords":["nocrits","nodmgspread","payload","uncletopia"],"game_id":440,"stv_port":27066,"stv_name":"Uncletopia | Frankfurt | 6 | All Maps | STV","players":[{"user_id":345,"name":"zheel","steam_id":76561198354135485,"connected_time":2357000000000,"state":"active","ping":66},{"user_id":360,"name":"Athomix","steam_id":76561198170108402,"connected_time":1030000000000,"state":"active","ping":110},{"user_id":358,"name":"Gwishin","steam_id":76561198257158275,"connected_time":1058000000000,"state":"active","ping":141},{"user_id":340,"name":"Ged","steam_id":76561198079288943,"connected_time":2518000000000,"state":"active","ping":109},{"user_id":378,"name":"goosi hoousi","steam_id":76561198024633116,"connected_time":162000000000,"state":"active","ping":100},{"user_id":333,"name":"Femboypawnguy","steam_id":76561198274894771,"connected_time":3328000000000,"state":"active","ping":56},{"user_id":366,"name":"Kestrel","steam_id":76561198144033005,"connected_time":696000000000,"state":"active","ping":61},{"user_id":346,"name":"spuugen hauer","steam_id":76561198004186922,"connected_time":2348000000000,"state":"active","ping":73},{"user_id":377,"name":"Sotviing","steam_id":76561198154311159,"connected_time":286000000000,"state":"active","ping":80},{"user_id":359,"name":"BRIDGEBURNER420","steam_id":76561198183949987,"connected_time":1055000000000,"state":"active","ping":69},{"user_id":330,"name":"PLUTO","steam_id":76561198312436128,"connected_time":3565000000000,"state":"active","ping":121},{"user_id":336,"name":"Duck_gaming","steam_id":76561198841587079,"connected_time":2668000000000,"state":"active","ping":58},{"user_id":361,"name":"kackboon","steam_id":76561198044189114,"connected_time":1022000000000,"state":"active","ping":62},{"user_id":362,"name":"Doriian","steam_id":76561198071438810,"connected_time":947000000000,"state":"active","ping":85},{"user_id":309,"name":"goktwoxd","steam_id":76561198065114415,"connected_time":4917000000000,"state":"active","ping":89},{"user_id":353,"name":"árvíztűrő tükörfúrógép","steam_id":76561198296643061,"connected_time":2259000000000,"state":"active","ping":69},{"user_id":342,"name":"Doctor Sex","steam_id":76561199027785550,"connected_time":2508000000000,"state":"active","ping":62},{"user_id":306,"name":"Stepoface","steam_id":76561198091569863,"connected_time":5730000000000,"state":"active","ping":61},{"user_id":375,"name":"ambatukam","steam_id":76561198175433731,"connected_time":518000000000,"state":"active","ping":82},{"user_id":376,"name":"lilleskutte","steam_id":76561198033164425,"connected_time":486000000000,"state":"active","ping":76},{"user_id":374,"name":"citronous","steam_id":76561198093290934,"connected_time":545000000000,"state":"active","ping":58},{"user_id":371,"name":"برهنه خوشحال","steam_id":76561198327135462,"connected_time":606000000000,"state":"active","ping":159},{"user_id":287,"name":"FaceShackle","steam_id":76561198038371397,"connected_time":7186000000000,"state":"active","ping":49},{"user_id":367,"name":"miev","steam_id":76561198078278737,"connected_time":689000000000,"state":"active","ping":81}]},{"server_id":23,"name":"Uncletopia | Frankfurt | 7 | Stopwatch Beta","name_short":"frk-7","host":"frk-1.de.uncletopia.com","port":27075,"enabled":true,"region":"eu","cc":"de","latitude":50.110924,"longitude":8.682127,"reserved":0,"last_update":"0001-01-01T00:00:00Z","name_a2s":"Uncletopia | Frankfurt | 7 | Stopwatch Beta","protocol":17,"map":"workshop/koth_clearcut_b15.ugc2107050255","folder":"tf","game":"Team Fortress","app_id":440,"player_count":25,"max_players":24,"Bots":0,"server_type":"Dedicated","server_os":"Linux","password":true,"vac":true,"version":"7742253","steam_id":85568392924742827,"keywords":["cp","nocrits","nodmgspread","uncletopia"],"game_id":440,"stv_port":27076,"stv_name":"Uncletopia | Frankfurt | 7 | Stopwatch Beta | STV","players":[{"user_id":307,"name":"le big mac","steam_id":76561199026378253,"connected_time":1605000000000,"state":"active","ping":51},{"user_id":337,"name":"azi","steam_id":76561198084056439,"connected_time":868000000000,"state":"active","ping":66},{"user_id":349,"name":"Vikep'S","steam_id":76561199002274689,"connected_time":516000000000,"state":"active","ping":88},{"user_id":282,"name":"PH4NTOMtry","steam_id":76561198979390263,"connected_time":2912000000000,"state":"active","ping":72},{"user_id":360,"name":"Canny8","steam_id":76561199142022395,"connected_time":244000000000,"state":"active","ping":58},{"user_id":297,"name":"Jojyn","steam_id":76561198044326930,"connected_time":1811000000000,"state":"active","ping":47},{"user_id":275,"name":"Borloxos","steam_id":76561198123110073,"connected_time":3514000000000,"state":"active","ping":60},{"user_id":344,"name":"Maximus","steam_id":76561198032472655,"connected_time":664000000000,"state":"active","ping":48},{"user_id":284,"name":"Funni duck","steam_id":76561198358450003,"connected_time":2579000000000,"state":"active","ping":101},{"user_id":345,"name":"Taben","steam_id":76561198382787045,"connected_time":664000000000,"state":"active","ping":102},{"user_id":288,"name":"The chumbler","steam_id":76561198999161827,"connected_time":2234000000000,"state":"active","ping":61},{"user_id":317,"name":"Grunf","steam_id":76561199006140585,"connected_time":1377000000000,"state":"active","ping":83},{"user_id":365,"name":"Neonlemurs","steam_id":76561198161147186,"connected_time":4000000000,"state":"spawning","ping":80},{"user_id":291,"name":"Whoopi Goldberg","steam_id":76561199378865926,"connected_time":2165000000000,"state":"active","ping":86},{"user_id":305,"name":"Gnome Man","steam_id":76561199047999402,"connected_time":1719000000000,"state":"active","ping":181},{"user_id":306,"name":"иgоrь","steam_id":76561199445563293,"connected_time":1719000000000,"state":"active","ping":89},{"user_id":347,"name":"camille","steam_id":76561199412527837,"connected_time":618000000000,"state":"active","ping":49},{"user_id":339,"name":"Microwave","steam_id":76561199466540837,"connected_time":788000000000,"state":"active","ping":64},{"user_id":364,"name":"Mr.Dies a lot","steam_id":76561199061602946,"connected_time":19000000000,"state":"spawning","ping":172},{"user_id":350,"name":"ɐǝ⅄","steam_id":76561198202113052,"connected_time":497000000000,"state":"active","ping":60},{"user_id":348,"name":"MR.BLOTTO","steam_id":76561198067920111,"connected_time":585000000000,"state":"active","ping":45},{"user_id":351,"name":"the joy of recycling","steam_id":76561198138509827,"connected_time":494000000000,"state":"active","ping":89},{"user_id":352,"name":"Garden Freeman","steam_id":76561199073314677,"connected_time":484000000000,"state":"active","ping":62},{"user_id":362,"name":"Pumello","steam_id":76561198143305625,"connected_time":129000000000,"state":"active","ping":115},{"user_id":358,"name":"Taez","steam_id":76561198261820803,"connected_time":348000000000,"state":"active","ping":67}]},{"server_id":24,"name":"Uncletopia | Frankfurt | 8 | Community","name_short":"frk-8","host":"frk-1.de.uncletopia.com","port":27085,"enabled":true,"region":"eu","cc":"de","latitude":50.110924,"longitude":8.682127,"reserved":0,"last_update":"0001-01-01T00:00:00Z","name_a2s":"Uncletopia | Frankfurt | 8 | Community","protocol":17,"map":"workshop/cp_logjam_rc12.ugc454812035","folder":"tf","game":"Team Fortress","app_id":440,"player_count":4,"max_players":24,"Bots":0,"server_type":"Dedicated","server_os":"Linux","password":true,"vac":true,"version":"7742253","steam_id":85568392924742828,"keywords":["cp","nocrits","nodmgspread","uncletopia"],"game_id":440,"stv_port":27086,"stv_name":"Uncletopia | Frankfurt | 8 | Community | STV","players":[{"user_id":22,"name":"___","steam_id":76561198189529773,"connected_time":372000000000,"state":"active","ping":57},{"user_id":25,"name":"goober123","steam_id":76561199113562633,"connected_time":72000000000,"state":"active","ping":149},{"user_id":26,"name":"President Tarantelloni","steam_id":76561198849447915,"connected_time":23000000000,"state":"spawning","ping":57},{"user_id":16,"name":"Dis Guy","steam_id":76561198363737206,"connected_time":1119000000000,"state":"active","ping":60}]},{"server_id":202,"name":"Uncletopia | Hong Kong | 1 | All Maps","name_short":"hgk-1","host":"hgk-1.hk.uncletopia.com","port":27015,"enabled":true,"region":"asia","cc":"hk","latitude":22.302711,"longitude":114.177216,"reserved":0,"last_update":"0001-01-01T00:00:00Z","name_a2s":"Uncletopia | Hong Kong | 1 | All Maps","protocol":17,"map":"pl_frontier_final","folder":"tf","game":"Team Fortress","app_id":440,"player_count":16,"max_players":24,"Bots":0,"server_type":"Dedicated","server_os":"Linux","password":true,"vac":true,"version":"7742253","steam_id":85568392924494504,"keywords":["nocrits","nodmgspread","payload","uncletopia"],"game_id":440,"stv_port":27016,"stv_name":"Uncletopia | Hong Kong | 1 | All Maps | STV","players":[{"user_id":863,"name":"LudE","steam_id":76561198828840546,"connected_time":2141000000000,"state":"active","ping":79},{"user_id":878,"name":"DUDE","steam_id":76561198017159562,"connected_time":66000000000,"state":"active","ping":126},{"user_id":844,"name":"lettuce at 58p","steam_id":76561199401283123,"connected_time":4748000000000,"state":"active","ping":83},{"user_id":877,"name":"rice-bowla","steam_id":76561199298089121,"connected_time":773000000000,"state":"active","ping":67},{"user_id":805,"name":"쿠키","steam_id":76561197997220367,"connected_time":8758000000000,"state":"active","ping":42},{"user_id":787,"name":"Smarks123","steam_id":76561198132170503,"connected_time":10007000000000,"state":"active","ping":76},{"user_id":862,"name":"母の肉団子","steam_id":76561198069561896,"connected_time":2932000000000,"state":"spawning","ping":141},{"user_id":874,"name":"AmaiToxic","steam_id":76561199122491157,"connected_time":1100000000000,"state":"active","ping":99},{"user_id":849,"name":"gilsomnia","steam_id":76561198830813639,"connected_time":4703000000000,"state":"spawning","ping":68},{"user_id":871,"name":"Mizore","steam_id":76561198346010083,"connected_time":1455000000000,"state":"active","ping":96},{"user_id":875,"name":"it' me","steam_id":76561199151427721,"connected_time":1042000000000,"state":"active","ping":122},{"user_id":861,"name":"Phou","steam_id":76561198322136756,"connected_time":3362000000000,"state":"active","ping":94},{"user_id":873,"name":"1673*","steam_id":76561198338911926,"connected_time":1364000000000,"state":"active","ping":58},{"user_id":852,"name":"Zacy","steam_id":76561198114841670,"connected_time":4532000000000,"state":"active","ping":67},{"user_id":630,"name":"Bertengkar","steam_id":76561198213031155,"connected_time":18518000000000,"state":"active","ping":96},{"user_id":841,"name":"Vortex Morez","steam_id":76561198833527091,"connected_time":4776000000000,"state":"active","ping":93}]},{"server_id":1,"name":"Uncletopia | Los Angeles | 1 | All Maps","name_short":"lax-1","host":"lax-1.us.uncletopia.com","port":27015,"enabled":true,"region":"us-west","cc":"us","latitude":33.94279,"longitude":-118.41004,"reserved":0,"last_update":"0001-01-01T00:00:00Z","name_a2s":"Uncletopia | Los Angeles | 1 | All Maps","protocol":17,"map":"cp_dustbowl","folder":"tf","game":"Team Fortress","app_id":440,"player_count":0,"max_players":24,"Bots":0,"server_type":"Dedicated","server_os":"Linux","password":true,"vac":true,"version":"7742253","steam_id":85568392924469991,"keywords":["cp","nocrits","nodmgspread","uncletopia"],"game_id":440,"stv_port":27016,"stv_name":"Uncletopia | Los Angeles | 1 | All Maps | STV","players":null},{"server_id":112,"name":"Uncletopia | Los Angeles | 2 | All Maps","name_short":"lax-2","host":"lax-1.us.uncletopia.com","port":27025,"enabled":true,"region":"us-west","cc":"us","latitude":33.94279,"longitude":-118.41004,"reserved":0,"last_update":"0001-01-01T00:00:00Z","name_a2s":"Uncletopia | Los Angeles | 2 | All Maps","protocol":17,"map":"pl_frontier_final","folder":"tf","game":"Team Fortress","app_id":440,"player_count":0,"max_players":24,"Bots":0,"server_type":"Dedicated","server_os":"Linux","password":true,"vac":true,"version":"7742253","steam_id":85568392924469992,"keywords":["nocrits","nodmgspread","payload","uncletopia"],"game_id":440,"stv_port":27026,"stv_name":"Uncletopia | Los Angeles | 2 | All Maps | STV","players":null},{"server_id":324,"name":"Uncletopia | Los Angeles | 3 | All Maps","name_short":"lax-3","host":"lax-1.us.uncletopia.com","port":27035,"enabled":true,"region":"us-west","cc":"us","latitude":33.94279,"longitude":-118.41004,"reserved":0,"last_update":"0001-01-01T00:00:00Z","name_a2s":"Uncletopia | Los Angeles | 3 | All Maps","protocol":17,"map":"cp_snakewater_final1","folder":"tf","game":"Team Fortress","app_id":440,"player_count":0,"max_players":24,"Bots":0,"server_type":"Dedicated","server_os":"Linux","password":true,"vac":true,"version":"7742253","steam_id":85568392924510198,"keywords":["cp","nocrits","nodmgspread","uncletopia"],"game_id":440,"stv_port":27036,"stv_name":"Uncletopia | Los Angeles | 3 | All Maps | STV","players":null},{"server_id":25,"name":"Uncletopia | Los Angeles | 4 | Stopwatch Beta","name_short":"lax-4","host":"lax-1.us.uncletopia.com","port":27045,"enabled":true,"region":"us-west","cc":"us","latitude":33.94279,"longitude":-118.41004,"reserved":0,"last_update":"0001-01-01T00:00:00Z","name_a2s":"Uncletopia | Los Angeles | 4 | Stopwatch Beta","protocol":17,"map":"pl_swiftwater_final1","folder":"tf","game":"Team Fortress","app_id":440,"player_count":0,"max_players":24,"Bots":0,"server_type":"Dedicated","server_os":"Linux","password":true,"vac":true,"version":"7742253","steam_id":85568392924510199,"keywords":["nocrits","nodmgspread","payload","uncletopia"],"game_id":440,"stv_port":27046,"stv_name":"Uncletopia | Los Angeles | 4 | Stopwatch Beta | STV","players":null},{"server_id":11,"name":"Uncletopia | London | 1 | All Maps","name_short":"lon-1","host":"lon-1.uk.uncletopia.com","port":27015,"enabled":true,"region":"eu","cc":"gb","latitude":51.509865,"longitude":-0.118092,"reserved":0,"last_update":"0001-01-01T00:00:00Z","name_a2s":"Uncletopia | London | 1 | All Maps","protocol":17,"map":"pl_pier","folder":"tf","game":"Team Fortress","app_id":440,"player_count":24,"max_players":24,"Bots":0,"server_type":"Dedicated","server_os":"Linux","password":true,"vac":true,"version":"7742253","steam_id":85568392924367362,"keywords":["nocrits","nodmgspread","payload","uncletopia"],"game_id":440,"stv_port":27016,"stv_name":"Uncletopia | London | 1 | All Maps | STV","players":[{"user_id":535,"name":"PistolShrimp","steam_id":76561199171648755,"connected_time":381000000000,"state":"active","ping":56},{"user_id":504,"name":"L.A. Palm Tree","steam_id":76561199289526521,"connected_time":2477000000000,"state":"active","ping":85},{"user_id":526,"name":"Boil em mash em","steam_id":76561198026508026,"connected_time":964000000000,"state":"active","ping":92},{"user_id":531,"name":"RoXeUr-KaMiKaZe","steam_id":76561197998204782,"connected_time":737000000000,"state":"active","ping":55},{"user_id":467,"name":"willus212","steam_id":76561199182615246,"connected_time":4535000000000,"state":"active","ping":87},{"user_id":441,"name":"tactical783","steam_id":76561199051688560,"connected_time":6329000000000,"state":"active","ping":63},{"user_id":524,"name":"robbob","steam_id":76561198137375391,"connected_time":1335000000000,"state":"active","ping":83},{"user_id":534,"name":"Ultimate Moose","steam_id":76561198167021781,"connected_time":520000000000,"state":"active","ping":63},{"user_id":529,"name":"Sacreshiea","steam_id":76561198169853697,"connected_time":766000000000,"state":"active","ping":70},{"user_id":481,"name":"luma","steam_id":76561198081649669,"connected_time":4202000000000,"state":"active","ping":78},{"user_id":530,"name":"BreadBubbles","steam_id":76561198174332826,"connected_time":764000000000,"state":"active","ping":57},{"user_id":527,"name":"Scrap","steam_id":76561199159785850,"connected_time":959000000000,"state":"active","ping":44},{"user_id":498,"name":"Mr Prince","steam_id":76561199006591691,"connected_time":3008000000000,"state":"active","ping":46},{"user_id":536,"name":"Zoagim","steam_id":76561198030315543,"connected_time":190000000000,"state":"active","ping":74},{"user_id":507,"name":"Tavish","steam_id":76561197971486686,"connected_time":2405000000000,"state":"active","ping":51},{"user_id":501,"name":"murderwow","steam_id":76561198024566944,"connected_time":2608000000000,"state":"active","ping":111},{"user_id":525,"name":"Posho","steam_id":76561198062396436,"connected_time":1330000000000,"state":"active","ping":41},{"user_id":532,"name":"Dexity","steam_id":76561198056130461,"connected_time":730000000000,"state":"active","ping":40},{"user_id":509,"name":"Darkmaen","steam_id":76561198060543390,"connected_time":2356000000000,"state":"active","ping":56},{"user_id":497,"name":"Frylock","steam_id":76561198050292560,"connected_time":3017000000000,"state":"active","ping":45},{"user_id":521,"name":"Frozen_egg","steam_id":76561198905911361,"connected_time":1461000000000,"state":"active","ping":85},{"user_id":482,"name":"20BB Raxor","steam_id":76561198239927434,"connected_time":4191000000000,"state":"active","ping":90},{"user_id":533,"name":"f l я n","steam_id":76561198079595755,"connected_time":699000000000,"state":"active","ping":58},{"user_id":520,"name":"Livestorm","steam_id":76561198366470072,"connected_time":1603000000000,"state":"active","ping":77}]},{"server_id":114,"name":"Uncletopia | London | 2 | All Maps","name_short":"lon-2","host":"lon-1.uk.uncletopia.com","port":27025,"enabled":true,"region":"eu","cc":"gb","latitude":51.509865,"longitude":-0.118092,"reserved":0,"last_update":"0001-01-01T00:00:00Z","name_a2s":"Uncletopia | London | 2 | All Maps","protocol":17,"map":"pl_frontier_final","folder":"tf","game":"Team Fortress","app_id":440,"player_count":24,"max_players":24,"Bots":0,"server_type":"Dedicated","server_os":"Linux","password":true,"vac":true,"version":"7742253","steam_id":85568392924470941,"keywords":["nocrits","nodmgspread","payload","uncletopia"],"game_id":440,"stv_port":27026,"stv_name":"Uncletopia | London | 2 | All Maps | STV","players":[{"user_id":199,"name":"AWJ ˆ-ˆ","steam_id":76561198053628243,"connected_time":1188000000000,"state":"active","ping":45},{"user_id":191,"name":"Zerfesh","steam_id":76561198117534358,"connected_time":1670000000000,"state":"active","ping":88},{"user_id":179,"name":"Titus","steam_id":76561198040144784,"connected_time":1952000000000,"state":"active","ping":46},{"user_id":206,"name":"Memesus","steam_id":76561199362236174,"connected_time":300000000000,"state":"active","ping":66},{"user_id":200,"name":"Noob_with_source","steam_id":76561198870362103,"connected_time":1170000000000,"state":"active","ping":59},{"user_id":181,"name":"Desmodau","steam_id":76561198059342621,"connected_time":1897000000000,"state":"active","ping":65},{"user_id":77,"name":"Silverstorm","steam_id":76561198118175267,"connected_time":8819000000000,"state":"active","ping":68},{"user_id":212,"name":"Jar","steam_id":76561198156384007,"connected_time":72000000000,"state":"active","ping":43},{"user_id":192,"name":"Crunchy","steam_id":76561198184973203,"connected_time":1576000000000,"state":"active","ping":59},{"user_id":205,"name":"jt7","steam_id":76561198073655162,"connected_time":315000000000,"state":"active","ping":80},{"user_id":139,"name":"[Sheep] Tomco","steam_id":76561198388549261,"connected_time":4737000000000,"state":"active","ping":53},{"user_id":111,"name":"Arx","steam_id":76561198182901217,"connected_time":6727000000000,"state":"active","ping":108},{"user_id":209,"name":"X45Y","steam_id":76561198112534025,"connected_time":249000000000,"state":"active","ping":46},{"user_id":213,"name":"Mannequin","steam_id":76561198128833974,"connected_time":31000000000,"state":"spawning","ping":61},{"user_id":162,"name":"Woj","steam_id":76561199003258257,"connected_time":4107000000000,"state":"active","ping":66},{"user_id":210,"name":"Lössö","steam_id":76561197994254413,"connected_time":207000000000,"state":"active","ping":75},{"user_id":155,"name":"poshto;))","steam_id":76561198106182078,"connected_time":4256000000000,"state":"active","ping":113},{"user_id":193,"name":"E1s (Neo-Kemalist)","steam_id":76561198894958917,"connected_time":1573000000000,"state":"active","ping":48},{"user_id":184,"name":"Bluecat11","steam_id":76561198062566771,"connected_time":1845000000000,"state":"active","ping":102},{"user_id":198,"name":"Phiphler","steam_id":76561197994055715,"connected_time":1216000000000,"state":"active","ping":66},{"user_id":208,"name":"SaltBoy","steam_id":76561198112561381,"connected_time":276000000000,"state":"active","ping":58},{"user_id":194,"name":"Never Über Me","steam_id":76561198140522687,"connected_time":1561000000000,"state":"active","ping":79},{"user_id":98,"name":"Madree","steam_id":76561199443143457,"connected_time":7528000000000,"state":"active","ping":106},{"user_id":202,"name":"oepidus","steam_id":76561198963841479,"connected_time":763000000000,"state":"active","ping":100}]},{"server_id":320,"name":"Uncletopia | London | 3 | All Maps","name_short":"lon-3","host":"lon-1.uk.uncletopia.com","port":27035,"enabled":true,"region":"eu","cc":"gb","latitude":51.509865,"longitude":-0.118092,"reserved":0,"last_update":"0001-01-01T00:00:00Z","name_a2s":"Uncletopia | London | 3 | All Maps","protocol":17,"map":"pl_snowycoast","folder":"tf","game":"Team Fortress","app_id":440,"player_count":24,"max_players":24,"Bots":0,"server_type":"Dedicated","server_os":"Linux","password":true,"vac":true,"version":"7742253","steam_id":85568392924510192,"keywords":["nocrits","nodmgspread","payload","uncletopia"],"game_id":440,"stv_port":27036,"stv_name":"Uncletopia | London | 3 | All Maps | STV","players":[{"user_id":276,"name":"Colgate","steam_id":76561198051925782,"connected_time":1663000000000,"state":"active","ping":83},{"user_id":296,"name":"blade","steam_id":76561199308850812,"connected_time":346000000000,"state":"active","ping":68},{"user_id":292,"name":"Average Bagel Enjoyer","steam_id":76561198084447725,"connected_time":418000000000,"state":"active","ping":57},{"user_id":287,"name":"John Hamm Sex(OFFICIAL)","steam_id":76561198060550083,"connected_time":877000000000,"state":"active","ping":53},{"user_id":298,"name":"MtnDew","steam_id":76561199100059743,"connected_time":194000000000,"state":"active","ping":112},{"user_id":295,"name":"Guy with squares as username","steam_id":76561198269524918,"connected_time":370000000000,"state":"active","ping":50},{"user_id":261,"name":"-makina","steam_id":76561198273042780,"connected_time":2797000000000,"state":"active","ping":82},{"user_id":300,"name":"Gay Porn Enjoyer","steam_id":76561198436817109,"connected_time":88000000000,"state":"active","ping":52},{"user_id":267,"name":"TryTane","steam_id":76561198133293111,"connected_time":2591000000000,"state":"active","ping":57},{"user_id":231,"name":"Hot Beverage Enjoyer","steam_id":76561198060638325,"connected_time":4734000000000,"state":"active","ping":50},{"user_id":243,"name":"Minimi","steam_id":76561198873850443,"connected_time":4219000000000,"state":"active","ping":41},{"user_id":293,"name":"LowLife","steam_id":76561198426235278,"connected_time":416000000000,"state":"active","ping":71},{"user_id":237,"name":"Pinkchup","steam_id":76561198106802803,"connected_time":4404000000000,"state":"active","ping":75},{"user_id":299,"name":"Cukros Szar","steam_id":76561198236304832,"connected_time":191000000000,"state":"active","ping":74},{"user_id":277,"name":"glyph","steam_id":76561197980736364,"connected_time":1550000000000,"state":"active","ping":89},{"user_id":280,"name":"MelvinIsANiceBoy","steam_id":76561198178415634,"connected_time":1467000000000,"state":"active","ping":60},{"user_id":279,"name":"Tank","steam_id":76561199059174576,"connected_time":1486000000000,"state":"active","ping":176},{"user_id":239,"name":"Koalified","steam_id":76561198095350290,"connected_time":4376000000000,"state":"active","ping":178},{"user_id":291,"name":"chachiply","steam_id":76561198316355509,"connected_time":449000000000,"state":"active","ping":65},{"user_id":241,"name":"Ixsus\u003c3","steam_id":76561198094756869,"connected_time":4362000000000,"state":"active","ping":66},{"user_id":273,"name":"AwterSix","steam_id":76561198042561678,"connected_time":2153000000000,"state":"active","ping":49},{"user_id":281,"name":"Breadcrab","steam_id":76561198015924039,"connected_time":1459000000000,"state":"active","ping":56},{"user_id":286,"name":"V","steam_id":76561198200704209,"connected_time":912000000000,"state":"active","ping":104},{"user_id":246,"name":"Pitmin_","steam_id":76561198005342133,"connected_time":4024000000000,"state":"active","ping":50}]},{"server_id":321,"name":"Uncletopia | London | 4 | All Maps","name_short":"lon-4","host":"lon-1.uk.uncletopia.com","port":27045,"enabled":true,"region":"eu","cc":"gb","latitude":51.509865,"longitude":-0.118092,"reserved":0,"last_update":"0001-01-01T00:00:00Z","name_a2s":"Uncletopia | London | 4 | All Maps","protocol":17,"map":"pl_upward","folder":"tf","game":"Team Fortress","app_id":440,"player_count":24,"max_players":24,"Bots":0,"server_type":"Dedicated","server_os":"Linux","password":true,"vac":true,"version":"7742253","steam_id":85568392924510193,"keywords":["nocrits","nodmgspread","payload","uncletopia"],"game_id":440,"stv_port":27046,"stv_name":"Uncletopia | London | 4 | All Maps | STV","players":[{"user_id":102,"name":"Marcellanus","steam_id":76561198311688530,"connected_time":1149000000000,"state":"active","ping":82},{"user_id":103,"name":"ivanmixo","steam_id":76561198160213989,"connected_time":1140000000000,"state":"active","ping":75},{"user_id":90,"name":"b33tl3","steam_id":76561198418417451,"connected_time":2510000000000,"state":"active","ping":43},{"user_id":33,"name":"Mr.Cupcake","steam_id":76561198152711174,"connected_time":5513000000000,"state":"active","ping":66},{"user_id":97,"name":"KLAMA  ❤","steam_id":76561198351549661,"connected_time":1798000000000,"state":"active","ping":75},{"user_id":51,"name":"Cazulas","steam_id":76561198027460283,"connected_time":4220000000000,"state":"active","ping":68},{"user_id":92,"name":"Sir Skyber","steam_id":76561198064440004,"connected_time":2393000000000,"state":"active","ping":102},{"user_id":48,"name":"TylowStar","steam_id":76561198357107806,"connected_time":4488000000000,"state":"active","ping":75},{"user_id":93,"name":"banrab","steam_id":76561198083615367,"connected_time":2358000000000,"state":"active","ping":39},{"user_id":109,"name":"Pabs :D","steam_id":76561198000016962,"connected_time":116000000000,"state":"active","ping":63},{"user_id":105,"name":"TETRAGRAMMATON","steam_id":76561198286085100,"connected_time":1120000000000,"state":"active","ping":95},{"user_id":107,"name":"Butt Hurling","steam_id":76561198093229786,"connected_time":313000000000,"state":"active","ping":83},{"user_id":108,"name":"тукку ирма","steam_id":76561197998715016,"connected_time":262000000000,"state":"active","ping":63},{"user_id":87,"name":"Erior","steam_id":76561198039462080,"connected_time":2781000000000,"state":"active","ping":84},{"user_id":88,"name":"Españaa","steam_id":76561198879587832,"connected_time":2739000000000,"state":"active","ping":78},{"user_id":101,"name":"Karsapaali","steam_id":76561198322322739,"connected_time":1176000000000,"state":"active","ping":89},{"user_id":81,"name":"Sakura","steam_id":76561198892631275,"connected_time":3151000000000,"state":"active","ping":34},{"user_id":79,"name":"the joy of recycling","steam_id":76561198415564349,"connected_time":3353000000000,"state":"active","ping":61},{"user_id":98,"name":"God's Goofiest Goober","steam_id":76561198103175187,"connected_time":1428000000000,"state":"active","ping":73},{"user_id":96,"name":"Zilouw","steam_id":76561198026596988,"connected_time":2036000000000,"state":"active","ping":59},{"user_id":82,"name":"Komolo","steam_id":76561198234497016,"connected_time":3140000000000,"state":"active","ping":58},{"user_id":106,"name":"risetime","steam_id":76561199232442508,"connected_time":384000000000,"state":"active","ping":89},{"user_id":83,"name":"outlaw","steam_id":76561198323805289,"connected_time":3096000000000,"state":"active","ping":31},{"user_id":99,"name":"IJCSTAB","steam_id":76561197993214945,"connected_time":1356000000000,"state":"active","ping":120}]},{"server_id":21,"name":"Uncletopia | London | 5 | All Maps","name_short":"lon-5","host":"lon-1.uk.uncletopia.com","port":27055,"enabled":true,"region":"eu","cc":"gb","latitude":51.509865,"longitude":-0.118092,"reserved":0,"last_update":"0001-01-01T00:00:00Z","name_a2s":"Uncletopia | London | 5 | All Maps","protocol":17,"map":"koth_highpass","folder":"tf","game":"Team Fortress","app_id":440,"player_count":0,"max_players":24,"Bots":0,"server_type":"Dedicated","server_os":"Linux","password":true,"vac":true,"version":"7742253","steam_id":85568392924742829,"keywords":["cp","nocrits","nodmgspread","uncletopia"],"game_id":440,"stv_port":27056,"stv_name":"Uncletopia | London | 5 | All Maps | STV","players":null},{"server_id":22,"name":"Uncletopia | London | 6 | All Maps","name_short":"lon-6","host":"lon-1.uk.uncletopia.com","port":27065,"enabled":true,"region":"eu","cc":"gb","latitude":51.509865,"longitude":-0.118092,"reserved":0,"last_update":"0001-01-01T00:00:00Z","name_a2s":"Uncletopia | London | 6 | All Maps","protocol":17,"map":"pl_badwater","folder":"tf","game":"Team Fortress","app_id":440,"player_count":24,"max_players":24,"Bots":0,"server_type":"Dedicated","server_os":"Linux","password":true,"vac":true,"version":"7742253","steam_id":85568392924742830,"keywords":["nocrits","nodmgspread","payload","uncletopia"],"game_id":440,"stv_port":27066,"stv_name":"Uncletopia | London | 6 | All Maps | STV","players":[{"user_id":184,"name":"Tywhip","steam_id":76561199207545191,"connected_time":4117000000000,"state":"active","ping":56},{"user_id":226,"name":"Kahvi","steam_id":76561198723244199,"connected_time":1101000000000,"state":"active","ping":74},{"user_id":173,"name":"kryhu","steam_id":76561198293327713,"connected_time":5032000000000,"state":"active","ping":76},{"user_id":179,"name":"Son Goku","steam_id":76561199383437138,"connected_time":4491000000000,"state":"active","ping":117},{"user_id":224,"name":"let me cook","steam_id":76561198010380786,"connected_time":1129000000000,"state":"active","ping":43},{"user_id":200,"name":"frost","steam_id":76561198167675482,"connected_time":3263000000000,"state":"active","ping":95},{"user_id":228,"name":"Oskuri","steam_id":76561198155956047,"connected_time":1076000000000,"state":"active","ping":78},{"user_id":219,"name":"SuperBob103","steam_id":76561199175360012,"connected_time":1607000000000,"state":"active","ping":49},{"user_id":223,"name":"🜏 Drepp","steam_id":76561197998867164,"connected_time":1171000000000,"state":"active","ping":72},{"user_id":212,"name":"toust","steam_id":76561199103417422,"connected_time":2259000000000,"state":"active","ping":52},{"user_id":225,"name":"Redkiller","steam_id":76561199453655288,"connected_time":1124000000000,"state":"active","ping":123},{"user_id":233,"name":"MightyMe","steam_id":76561197999342478,"connected_time":751000000000,"state":"active","ping":46},{"user_id":190,"name":"LeninPro1870","steam_id":76561199175688390,"connected_time":3695000000000,"state":"active","ping":91},{"user_id":191,"name":"Bill by Daylight","steam_id":76561199068338969,"connected_time":3685000000000,"state":"active","ping":50},{"user_id":202,"name":"tim nagle","steam_id":76561198206177349,"connected_time":3192000000000,"state":"active","ping":56},{"user_id":239,"name":"hondjo","steam_id":76561198119324108,"connected_time":373000000000,"state":"active","ping":57},{"user_id":241,"name":"big heavy is heavy heavy","steam_id":76561198300059652,"connected_time":146000000000,"state":"active","ping":61},{"user_id":207,"name":"A Cat","steam_id":76561198221549132,"connected_time":2943000000000,"state":"active","ping":44},{"user_id":215,"name":"NickiCheetah","steam_id":76561198980540766,"connected_time":2127000000000,"state":"active","ping":74},{"user_id":238,"name":"xfolo","steam_id":76561198219022400,"connected_time":517000000000,"state":"active","ping":39},{"user_id":227,"name":"Le Chevalier Pingouin","steam_id":76561198221355000,"connected_time":1084000000000,"state":"active","ping":39},{"user_id":234,"name":"Erozbey","steam_id":76561197983282491,"connected_time":711000000000,"state":"active","ping":93},{"user_id":237,"name":"america","steam_id":76561199212197300,"connected_time":624000000000,"state":"active","ping":47},{"user_id":206,"name":"Gearing Up","steam_id":76561198306413262,"connected_time":3089000000000,"state":"active","ping":61}]},{"server_id":40,"name":"Uncletopia | London | 7 | No Payload","name_short":"lon-7","host":"lon-1.uk.uncletopia.com","port":27075,"enabled":true,"region":"eu","cc":"gb","latitude":51.509865,"longitude":-0.118092,"reserved":0,"last_update":"0001-01-01T00:00:00Z","name_a2s":"Uncletopia | London | 7 | No Payload","protocol":17,"map":"cp_mercenarypark","folder":"tf","game":"Team Fortress","app_id":440,"player_count":4,"max_players":24,"Bots":0,"server_type":"Dedicated","server_os":"Linux","password":true,"vac":true,"version":"7742253","steam_id":85568392924964314,"keywords":["cp","nocrits","nodmgspread","uncletopia"],"game_id":440,"stv_port":27076,"stv_name":"Uncletopia | London | 7 | No Payload | STV","players":[{"user_id":21,"name":"ran is running","steam_id":76561199443185667,"connected_time":682000000000,"state":"active","ping":133},{"user_id":18,"name":"justin_ (f2p and real)","steam_id":76561198839843428,"connected_time":1605000000000,"state":"active","ping":121},{"user_id":24,"name":"svepitos","steam_id":76561198287351235,"connected_time":280000000000,"state":"active","ping":51},{"user_id":25,"name":"quadr","steam_id":76561198871716755,"connected_time":158000000000,"state":"active","ping":105}]},{"server_id":41,"name":"Uncletopia | London | 8 | Community","name_short":"lon-8","host":"lon-1.uk.uncletopia.com","port":27085,"enabled":true,"region":"eu","cc":"gb","latitude":51.509865,"longitude":-0.118092,"reserved":0,"last_update":"0001-01-01T00:00:00Z","name_a2s":"Uncletopia | London | 8 | Community","protocol":17,"map":"workshop/koth_ramjam_rc1.ugc459778887","folder":"tf","game":"Team Fortress","app_id":440,"player_count":0,"max_players":24,"Bots":0,"server_type":"Dedicated","server_os":"Linux","password":true,"vac":true,"version":"7742253","steam_id":85568392924964315,"keywords":["cp","nocrits","nodmgspread","uncletopia"],"game_id":440,"stv_port":27086,"stv_name":"Uncletopia | London | 8 | Community | STV","players":null},{"server_id":300,"name":"Uncletopia | Montréal | 1 | All Maps","name_short":"mtl-1","host":"mtl-1.ca.uncletopia.com","port":27015,"enabled":true,"region":"us-east","cc":"ca","latitude":45.50889,"longitude":-73.56167,"reserved":0,"last_update":"0001-01-01T00:00:00Z","name_a2s":"Uncletopia | Montréal | 1 | All Maps","protocol":17,"map":"cp_snakewater_final1","folder":"tf","game":"Team Fortress","app_id":440,"player_count":0,"max_players":24,"Bots":0,"server_type":"Dedicated","server_os":"Linux","password":true,"vac":true,"version":"7742253","steam_id":85568392924500087,"keywords":["cp","nocrits","nodmgspread","uncletopia"],"game_id":440,"stv_port":27016,"stv_name":"Uncletopia | Montréal | 1 | All Maps | STV","players":null},{"server_id":301,"name":"Uncletopia | Montréal | 2 | All Maps","name_short":"mtl-2","host":"mtl-1.ca.uncletopia.com","port":27025,"enabled":true,"region":"us-east","cc":"ca","latitude":45.50889,"longitude":-73.56167,"reserved":0,"last_update":"0001-01-01T00:00:00Z","name_a2s":"Uncletopia | Montréal | 2 | All Maps","protocol":17,"map":"koth_highpass","folder":"tf","game":"Team Fortress","app_id":440,"player_count":0,"max_players":24,"Bots":0,"server_type":"Dedicated","server_os":"Linux","password":true,"vac":true,"version":"7742253","steam_id":85568392924500088,"keywords":["cp","nocrits","nodmgspread","uncletopia"],"game_id":440,"stv_port":27026,"stv_name":"Uncletopia | Montréal | 2 | All Maps | STV","players":null},{"server_id":302,"name":"Uncletopia | Montréal | 3 | All Maps","name_short":"mtl-3","host":"mtl-1.ca.uncletopia.com","port":27035,"enabled":true,"region":"us-east","cc":"ca","latitude":45.50889,"longitude":-73.56167,"reserved":0,"last_update":"0001-01-01T00:00:00Z","name_a2s":"Uncletopia | Montréal | 3 | All Maps","protocol":17,"map":"cp_mountainlab","folder":"tf","game":"Team Fortress","app_id":440,"player_count":0,"max_players":24,"Bots":0,"server_type":"Dedicated","server_os":"Linux","password":true,"vac":true,"version":"7742253","steam_id":85568392924500089,"keywords":["cp","nocrits","nodmgspread","uncletopia"],"game_id":440,"stv_port":27036,"stv_name":"Uncletopia | Montréal | 3 | All Maps | STV","players":null},{"server_id":303,"name":"Uncletopia | Montréal | 4 | No Payload","name_short":"mtl-4","host":"mtl-1.ca.uncletopia.com","port":27045,"enabled":true,"region":"us-east","cc":"ca","latitude":45.50889,"longitude":-73.56167,"reserved":0,"last_update":"0001-01-01T00:00:00Z","name_a2s":"Uncletopia | Montréal | 4 | No Payload","protocol":17,"map":"cp_snakewater_final1","folder":"tf","game":"Team Fortress","app_id":440,"player_count":0,"max_players":24,"Bots":0,"server_type":"Dedicated","server_os":"Linux","password":true,"vac":true,"version":"7742253","steam_id":85568392924500090,"keywords":["cp","nocrits","nodmgspread","uncletopia"],"game_id":440,"stv_port":27046,"stv_name":"Uncletopia | Montréal | 4 | No Payload | STV","players":null},{"server_id":13,"name":"Uncletopia | New York City | 1 | All Maps","name_short":"nyc-1","host":"nyc-1.us.uncletopia.com","port":27015,"enabled":true,"region":"us-east","cc":"us","latitude":40.73061,"longitude":-73.93524,"reserved":0,"last_update":"0001-01-01T00:00:00Z","name_a2s":"Uncletopia | New York City | 1 | All Maps","protocol":17,"map":"cp_mountainlab","folder":"tf","game":"Team Fortress","app_id":440,"player_count":0,"max_players":24,"Bots":0,"server_type":"Dedicated","server_os":"Linux","password":true,"vac":true,"version":"7742253","steam_id":85568392924469993,"keywords":["cp","nocrits","nodmgspread","uncletopia"],"game_id":440,"stv_port":27016,"stv_name":"Uncletopia | New York City | 1 | All Maps | STV","players":null},{"server_id":14,"name":"Uncletopia | New York City | 2 | All Maps","name_short":"nyc-2","host":"nyc-1.us.uncletopia.com","port":27025,"enabled":true,"region":"us-east","cc":"us","latitude":40.73061,"longitude":-73.93524,"reserved":0,"last_update":"0001-01-01T00:00:00Z","name_a2s":"Uncletopia | New York City | 2 | All Maps","protocol":17,"map":"cp_altitude","folder":"tf","game":"Team Fortress","app_id":440,"player_count":0,"max_players":24,"Bots":0,"server_type":"Dedicated","server_os":"Linux","password":true,"vac":true,"version":"7742253","steam_id":85568392924469994,"keywords":["cp","nocrits","nodmgspread","uncletopia"],"game_id":440,"stv_port":27026,"stv_name":"Uncletopia | New York City | 2 | All Maps | STV","players":null},{"server_id":15,"name":"Uncletopia | New York City | 3 | Stopwatch Beta","name_short":"nyc-3","host":"nyc-1.us.uncletopia.com","port":27035,"enabled":true,"region":"us-east","cc":"us","latitude":40.73061,"longitude":-73.93524,"reserved":0,"last_update":"0001-01-01T00:00:00Z","name_a2s":"Uncletopia | New York City | 3 | Stopwatch Beta","protocol":17,"map":"pl_pier","folder":"tf","game":"Team Fortress","app_id":440,"player_count":0,"max_players":24,"Bots":0,"server_type":"Dedicated","server_os":"Linux","password":true,"vac":true,"version":"7742253","steam_id":85568392924742820,"keywords":["nocrits","nodmgspread","payload","uncletopia"],"game_id":440,"stv_port":27036,"stv_name":"Uncletopia | New York City | 3 | Stopwatch Beta | STV","players":null},{"server_id":16,"name":"Uncletopia | New York City | 4 | Community","name_short":"nyc-4","host":"nyc-1.us.uncletopia.com","port":27045,"enabled":true,"region":"us-east","cc":"us","latitude":40.73061,"longitude":-73.93524,"reserved":0,"last_update":"0001-01-01T00:00:00Z","name_a2s":"Uncletopia | New York City | 4 | Community","protocol":17,"map":"koth_viaduct","folder":"tf","game":"Team Fortress","app_id":440,"player_count":0,"max_players":24,"Bots":0,"server_type":"Dedicated","server_os":"Linux","password":true,"vac":true,"version":"7742253","steam_id":85568392924742821,"keywords":["cp","nocrits","nodmgspread","uncletopia"],"game_id":440,"stv_port":27046,"stv_name":"Uncletopia | New York City | 4 | Community | STV","players":null},{"server_id":142,"name":"Uncletopia | São Paulo | 1 | All Maps","name_short":"sao-1","host":"sao-1.br.uncletopia.com","port":27015,"enabled":true,"region":"sa","cc":"br","latitude":-23.533773,"longitude":-46.62529,"reserved":0,"last_update":"0001-01-01T00:00:00Z","name_a2s":"Uncletopia | São Paulo | 1 | All Maps","protocol":17,"map":"koth_viaduct","folder":"tf","game":"Team Fortress","app_id":440,"player_count":0,"max_players":24,"Bots":0,"server_type":"Dedicated","server_os":"Linux","password":true,"vac":true,"version":"7742253","steam_id":85568392924469996,"keywords":["cp","nocrits","nodmgspread","uncletopia"],"game_id":440,"stv_port":27016,"stv_name":"Uncletopia | São Paulo | 1 | All Maps | STV","players":null},{"server_id":143,"name":"Uncletopia | São Paulo | 2 | All Maps","name_short":"sao-2","host":"sao-2.br.uncletopia.com","port":27015,"enabled":true,"region":"sa","cc":"br","latitude":-23.533773,"longitude":-46.62529,"reserved":0,"last_update":"0001-01-01T00:00:00Z","name_a2s":"Uncletopia | São Paulo | 2 | All Maps","protocol":17,"map":"koth_viaduct","folder":"tf","game":"Team Fortress","app_id":440,"player_count":0,"max_players":24,"Bots":0,"server_type":"Dedicated","server_os":"Linux","password":true,"vac":true,"version":"7742253","steam_id":85568392924485349,"keywords":["cp","nocrits","nodmgspread","uncletopia"],"game_id":440,"stv_port":27016,"stv_name":"Uncletopia | São Paulo | 2 | All Maps | STV","players":null},{"server_id":7,"name":"Uncletopia | Seattle | 1 | All Maps","name_short":"sea-1","host":"sea-1.us.uncletopia.com","port":27015,"enabled":true,"region":"us-west","cc":"us","latitude":47.608013,"longitude":-122.33517,"reserved":0,"last_update":"0001-01-01T00:00:00Z","name_a2s":"Uncletopia | Seattle | 1 | All Maps","protocol":17,"map":"pl_frontier_final","folder":"tf","game":"Team Fortress","app_id":440,"player_count":0,"max_players":24,"Bots":0,"server_type":"Dedicated","server_os":"Linux","password":true,"vac":true,"version":"7742253","steam_id":85568392924469997,"keywords":["nocrits","nodmgspread","payload","uncletopia"],"game_id":440,"stv_port":27016,"stv_name":"Uncletopia | Seattle | 1 | All Maps | STV","players":null},{"server_id":119,"name":"Uncletopia | Seattle | 2 | All Maps","name_short":"sea-2","host":"sea-1.us.uncletopia.com","port":27025,"enabled":true,"region":"us-west","cc":"us","latitude":47.608013,"longitude":-122.33517,"reserved":0,"last_update":"0001-01-01T00:00:00Z","name_a2s":"Uncletopia | Seattle | 2 | All Maps","protocol":17,"map":"pl_badwater","folder":"tf","game":"Team Fortress","app_id":440,"player_count":24,"max_players":24,"Bots":0,"server_type":"Dedicated","server_os":"Linux","password":true,"vac":true,"version":"7742253","steam_id":85568392924469998,"keywords":["nocrits","nodmgspread","payload","uncletopia"],"game_id":440,"stv_port":27026,"stv_name":"Uncletopia | Seattle | 2 | All Maps | STV","players":[{"user_id":3,"name":"Malmart_Employee","steam_id":76561198320388704,"connected_time":8295000000000,"state":"active","ping":50},{"user_id":80,"name":"Porsy","steam_id":76561198041850843,"connected_time":152000000000,"state":"active","ping":101},{"user_id":5,"name":"ImFr0sty","steam_id":76561199441249487,"connected_time":8293000000000,"state":"active","ping":124},{"user_id":74,"name":"Tom","steam_id":76561198070630154,"connected_time":572000000000,"state":"active","ping":77},{"user_id":79,"name":"Ruby","steam_id":76561198953084101,"connected_time":187000000000,"state":"active","ping":80},{"user_id":67,"name":"tobrehto","steam_id":76561198097544038,"connected_time":1383000000000,"state":"active","ping":89},{"user_id":69,"name":"cyclops","steam_id":76561197970370198,"connected_time":1350000000000,"state":"active","ping":102},{"user_id":10,"name":"aisu","steam_id":76561198043768507,"connected_time":8286000000000,"state":"active","ping":90},{"user_id":73,"name":"a chicken","steam_id":76561198313121580,"connected_time":689000000000,"state":"active","ping":89},{"user_id":55,"name":"barbara","steam_id":76561198072417792,"connected_time":3525000000000,"state":"active","ping":104},{"user_id":72,"name":"Shark Sandwich","steam_id":76561198025007938,"connected_time":972000000000,"state":"active","ping":90},{"user_id":64,"name":"ShermanJumbo","steam_id":76561198020054307,"connected_time":2412000000000,"state":"active","ping":79},{"user_id":82,"name":"ᕕ( ᐛ )ᕗ","steam_id":76561198110033681,"connected_time":96000000000,"state":"active","ping":105},{"user_id":36,"name":"DODOOOM(NO SOUND)","steam_id":76561198985082462,"connected_time":6545000000000,"state":"active","ping":182},{"user_id":57,"name":"the average pyro main","steam_id":76561198882421166,"connected_time":2905000000000,"state":"active","ping":136},{"user_id":83,"name":"K.A.R.M.A.","steam_id":76561198240750142,"connected_time":88000000000,"state":"active","ping":82},{"user_id":78,"name":"BuzzyBee!","steam_id":76561198362786375,"connected_time":484000000000,"state":"active","ping":84},{"user_id":70,"name":"Bait","steam_id":76561198336489647,"connected_time":1137000000000,"state":"active","ping":108},{"user_id":60,"name":"Tim the Enchanter","steam_id":76561197970503120,"connected_time":2742000000000,"state":"active","ping":102},{"user_id":66,"name":"overgrown teakettle","steam_id":76561198059041027,"connected_time":2143000000000,"state":"active","ping":60},{"user_id":76,"name":"Kiwimpediment","steam_id":76561198322781400,"connected_time":548000000000,"state":"active","ping":130},{"user_id":39,"name":"Aeris","steam_id":76561198287271028,"connected_time":6427000000000,"state":"active","ping":99},{"user_id":77,"name":"Log4nb43","steam_id":76561198371911794,"connected_time":530000000000,"state":"active","ping":108},{"user_id":68,"name":"Kirbothebrony","steam_id":76561198971911330,"connected_time":1374000000000,"state":"active","ping":116}]},{"server_id":406,"name":"Uncletopia | Seattle | 3 | Stopwatch Beta","name_short":"sea-3","host":"sea-1.us.uncletopia.com","port":27035,"enabled":true,"region":"us-west","cc":"us","latitude":47.608013,"longitude":-122.33517,"reserved":0,"last_update":"0001-01-01T00:00:00Z","name_a2s":"Uncletopia | Seattle | 3 | Stopwatch Beta","protocol":17,"map":"cp_altitude","folder":"tf","game":"Team Fortress","app_id":440,"player_count":0,"max_players":24,"Bots":0,"server_type":"Dedicated","server_os":"Linux","password":true,"vac":true,"version":"7742253","steam_id":85568392924515217,"keywords":["cp","nocrits","nodmgspread","uncletopia"],"game_id":440,"stv_port":27036,"stv_name":"Uncletopia | Seattle | 3 | Stopwatch Beta | STV","players":null},{"server_id":17,"name":"Uncletopia | San Francisco | 1 | All Maps","name_short":"sfo-1","host":"sfo-1.us.uncletopia.com","port":27015,"enabled":true,"region":"us-west","cc":"us","latitude":37.77397,"longitude":-122.4313,"reserved":0,"last_update":"0001-01-01T00:00:00Z","name_a2s":"Uncletopia | San Francisco | 1 | All Maps","protocol":17,"map":"pl_snowycoast","folder":"tf","game":"Team Fortress","app_id":440,"player_count":0,"max_players":24,"Bots":0,"server_type":"Dedicated","server_os":"Linux","password":true,"vac":true,"version":"7742253","steam_id":85568392924469999,"keywords":["nocrits","nodmgspread","payload","uncletopia"],"game_id":440,"stv_port":27016,"stv_name":"Uncletopia | San Francisco | 1 | All Maps | STV","players":null},{"server_id":18,"name":"Uncletopia | San Francisco | 2 | All Maps","name_short":"sfo-2","host":"sfo-1.us.uncletopia.com","port":27025,"enabled":true,"region":"us-west","cc":"us","latitude":37.77397,"longitude":-122.4313,"reserved":0,"last_update":"0001-01-01T00:00:00Z","name_a2s":"Uncletopia | San Francisco | 2 | All Maps","protocol":17,"map":"cp_altitude","folder":"tf","game":"Team Fortress","app_id":440,"player_count":0,"max_players":24,"Bots":0,"server_type":"Dedicated","server_os":"Linux","password":true,"vac":true,"version":"7742253","steam_id":85568392924470000,"keywords":["cp","nocrits","nodmgspread","uncletopia"],"game_id":440,"stv_port":27026,"stv_name":"Uncletopia | San Francisco | 2 | All Maps | STV","players":null},{"server_id":19,"name":"Uncletopia | San Francisco | 3 | Stopwatch Beta","name_short":"sfo-3","host":"sfo-1.us.uncletopia.com","port":27035,"enabled":true,"region":"us-west","cc":"us","latitude":37.77397,"longitude":-122.4313,"reserved":0,"last_update":"0001-01-01T00:00:00Z","name_a2s":"Uncletopia | San Francisco | 3 | Stopwatch Beta","protocol":17,"map":"cp_snakewater_final1","folder":"tf","game":"Team Fortress","app_id":440,"player_count":0,"max_players":24,"Bots":0,"server_type":"Dedicated","server_os":"Linux","password":true,"vac":true,"version":"7742253","steam_id":85568392924742824,"keywords":["cp","nocrits","nodmgspread","uncletopia"],"game_id":440,"stv_port":27036,"stv_name":"Uncletopia | San Francisco | 3 | Stopwatch Beta | STV","players":null},{"server_id":20,"name":"Uncletopia | San Francisco | 4 | Community","name_short":"sfo-4","host":"sfo-1.us.uncletopia.com","port":27045,"enabled":true,"region":"us-west","cc":"us","latitude":37.77397,"longitude":-122.4313,"reserved":0,"last_update":"0001-01-01T00:00:00Z","name_a2s":"Uncletopia | San Francisco | 4 | Community","protocol":17,"map":"cp_dustbowl","folder":"tf","game":"Team Fortress","app_id":440,"player_count":0,"max_players":24,"Bots":0,"server_type":"Dedicated","server_os":"Linux","password":true,"vac":true,"version":"7742253","steam_id":85568392924742826,"keywords":["cp","nocrits","nodmgspread","uncletopia"],"game_id":440,"stv_port":27046,"stv_name":"Uncletopia | San Francisco | 4 | Community | STV","players":null},{"server_id":141,"name":"Uncletopia | Sydney | 1 | All Maps","name_short":"syd-1","host":"syd-1.au.uncletopia.com","port":27015,"enabled":true,"region":"au","cc":"au","latitude":-33.865143,"longitude":151.2099,"reserved":0,"last_update":"0001-01-01T00:00:00Z","name_a2s":"Uncletopia | Sydney | 1 | All Maps","protocol":17,"map":"pl_upward","folder":"tf","game":"Team Fortress","app_id":440,"player_count":0,"max_players":24,"Bots":0,"server_type":"Dedicated","server_os":"Linux","password":true,"vac":true,"version":"7742253","steam_id":85568392924470001,"keywords":["nocrits","nodmgspread","payload","uncletopia"],"game_id":440,"stv_port":27016,"stv_name":"Uncletopia | Sydney | 1 | All Maps | STV","players":null},{"server_id":123,"name":"Uncletopia | Sydney | 2 | All Maps","name_short":"syd-2","host":"syd-1.au.uncletopia.com","port":27025,"enabled":true,"region":"au","cc":"au","latitude":-33.865143,"longitude":151.2099,"reserved":0,"last_update":"0001-01-01T00:00:00Z","name_a2s":"Uncletopia | Sydney | 2 | All Maps","protocol":17,"map":"pl_borneo","folder":"tf","game":"Team Fortress","app_id":440,"player_count":0,"max_players":24,"Bots":0,"server_type":"Dedicated","server_os":"Linux","password":true,"vac":true,"version":"7742253","steam_id":85568392924470002,"keywords":["nocrits","nodmgspread","payload","uncletopia"],"game_id":440,"stv_port":27026,"stv_name":"Uncletopia | Sydney | 2 | All Maps | STV","players":null},{"server_id":395,"name":"Uncletopia | Sydney | 3 | All Maps","name_short":"syd-3","host":"syd-1.au.uncletopia.com","port":27035,"enabled":true,"region":"au","cc":"au","latitude":-33.865143,"longitude":151.2099,"reserved":0,"last_update":"0001-01-01T00:00:00Z","name_a2s":"Uncletopia | Sydney | 3 | All Maps","protocol":17,"map":"koth_sawmill","folder":"tf","game":"Team Fortress","app_id":440,"player_count":0,"max_players":24,"Bots":0,"server_type":"Dedicated","server_os":"Linux","password":true,"vac":true,"version":"7742253","steam_id":85568392925194467,"keywords":["cp","nocrits","nodmgspread","uncletopia"],"game_id":440,"stv_port":27036,"stv_name":"Uncletopia | Sydney | 3 | All Maps | STV","players":null},{"server_id":396,"name":"Uncletopia | Sydney | 4 | All Maps","name_short":"syd-4","host":"syd-1.au.uncletopia.com","port":27045,"enabled":true,"region":"au","cc":"au","latitude":-33.865143,"longitude":151.2099,"reserved":0,"last_update":"0001-01-01T00:00:00Z","name_a2s":"Uncletopia | Sydney | 4 | All Maps","protocol":17,"map":"koth_lakeside_final","folder":"tf","game":"Team Fortress","app_id":440,"player_count":0,"max_players":24,"Bots":0,"server_type":"Dedicated","server_os":"Linux","password":true,"vac":true,"version":"7742253","steam_id":85568392925397958,"keywords":["cp","nocrits","nodmgspread","uncletopia"],"game_id":440,"stv_port":27046,"stv_name":"Uncletopia | Sydney | 4 | All Maps | STV","players":null},{"server_id":58,"name":"Uncletopia | Sydney | 5 | Stopwatch Beta","name_short":"syd-5","host":"syd-1.au.uncletopia.com","port":27055,"enabled":true,"region":"au","cc":"au","latitude":-33.865143,"longitude":151.2099,"reserved":0,"last_update":"0001-01-01T00:00:00Z","name_a2s":"Uncletopia | Sydney | 5 | Stopwatch Beta","protocol":17,"map":"workshop/koth_bagel_rc5.ugc2514036946","folder":"tf","game":"Team Fortress","app_id":440,"player_count":0,"max_players":24,"Bots":0,"server_type":"Dedicated","server_os":"Linux","password":true,"vac":true,"version":"7742253","steam_id":85568392925397959,"keywords":["cp","nocrits","nodmgspread","uncletopia"],"game_id":440,"stv_port":27056,"stv_name":"Uncletopia | Sydney | 5 | Stopwatch Beta | STV","players":null},{"server_id":59,"name":"Uncletopia | Sydney | 6 | Community","name_short":"syd-6","host":"syd-1.au.uncletopia.com","port":27065,"enabled":true,"region":"au","cc":"au","latitude":-33.865143,"longitude":151.2099,"reserved":0,"last_update":"0001-01-01T00:00:00Z","name_a2s":"Uncletopia | Sydney | 6 | Community","protocol":17,"map":"workshop/koth_ramjam_rc1.ugc459778887","folder":"tf","game":"Team Fortress","app_id":440,"player_count":0,"max_players":24,"Bots":0,"server_type":"Dedicated","server_os":"Linux","password":true,"vac":true,"version":"7742253","steam_id":85568392925397960,"keywords":["cp","nocrits","nodmgspread","uncletopia"],"game_id":440,"stv_port":27066,"stv_name":"Uncletopia | Sydney | 6 | Community | STV","players":null},{"server_id":49,"name":"Uncletopia | Warsaw | 1 | All Maps","name_short":"waw-1","host":"waw-1.pl.uncletopia.com","port":27015,"enabled":true,"region":"eu","cc":"pl","latitude":52.2297,"longitude":21.017532,"reserved":0,"last_update":"0001-01-01T00:00:00Z","name_a2s":"","protocol":0,"map":"","folder":"","game":"","app_id":0,"player_count":0,"max_players":0,"Bots":0,"server_type":"","server_os":"","password":false,"vac":false,"version":"","steam_id":0,"keywords":null,"game_id":0,"stv_port":0,"stv_name":"","players":null},{"server_id":50,"name":"Uncletopia | Warsaw | 2 | All Maps","name_short":"waw-2","host":"waw-1.pl.uncletopia.com","port":27025,"enabled":true,"region":"eu","cc":"pl","latitude":52.2297,"longitude":21.017532,"reserved":0,"last_update":"0001-01-01T00:00:00Z","name_a2s":"Uncletopia | Warsaw | 2 | All Maps","protocol":17,"map":"cp_process_final","folder":"tf","game":"Team Fortress","app_id":440,"player_count":0,"max_players":24,"Bots":0,"server_type":"Dedicated","server_os":"Linux","password":true,"vac":true,"version":"7742253","steam_id":85568392925397851,"keywords":["cp","nocrits","nodmgspread","uncletopia"],"game_id":440,"stv_port":27026,"stv_name":"Uncletopia | Warsaw | 2 | All Maps | STV","players":null},{"server_id":51,"name":"Uncletopia | Warsaw | 3 | All Maps","name_short":"waw-3","host":"waw-1.pl.uncletopia.com","port":27035,"enabled":true,"region":"eu","cc":"pl","latitude":52.2297,"longitude":21.017532,"reserved":0,"last_update":"0001-01-01T00:00:00Z","name_a2s":"Uncletopia | Warsaw | 3 | All Maps","protocol":17,"map":"koth_lakeside_final","folder":"tf","game":"Team Fortress","app_id":440,"player_count":0,"max_players":24,"Bots":0,"server_type":"Dedicated","server_os":"Linux","password":true,"vac":true,"version":"7742253","steam_id":85568392925397852,"keywords":["cp","nocrits","nodmgspread","uncletopia"],"game_id":440,"stv_port":27036,"stv_name":"Uncletopia | Warsaw | 3 | All Maps | STV","players":null},{"server_id":52,"name":"Uncletopia | Warsaw | 4 | All Maps","name_short":"waw-4","host":"waw-1.pl.uncletopia.com","port":27045,"enabled":true,"region":"eu","cc":"pl","latitude":52.2297,"longitude":21.017532,"reserved":0,"last_update":"0001-01-01T00:00:00Z","name_a2s":"Uncletopia | Warsaw | 4 | All Maps","protocol":17,"map":"pl_frontier_final","folder":"tf","game":"Team Fortress","app_id":440,"player_count":0,"max_players":24,"Bots":0,"server_type":"Dedicated","server_os":"Linux","password":true,"vac":true,"version":"7742253","steam_id":85568392925397853,"keywords":["nocrits","nodmgspread","payload","uncletopia"],"game_id":440,"stv_port":27046,"stv_name":"Uncletopia | Warsaw | 4 | All Maps | STV","players":null},{"server_id":53,"name":"Uncletopia | Warsaw | 5 | Stopwatch Beta","name_short":"waw-5","host":"waw-1.pl.uncletopia.com","port":27055,"enabled":true,"region":"eu","cc":"pl","latitude":52.2297,"longitude":21.017532,"reserved":0,"last_update":"0001-01-01T00:00:00Z","name_a2s":"Uncletopia | Warsaw | 5 | Stopwatch Beta","protocol":17,"map":"pl_swiftwater_final1","folder":"tf","game":"Team Fortress","app_id":440,"player_count":0,"max_players":24,"Bots":0,"server_type":"Dedicated","server_os":"Linux","password":true,"vac":true,"version":"7742253","steam_id":85568392925397854,"keywords":["nocrits","nodmgspread","payload","uncletopia"],"game_id":440,"stv_port":27056,"stv_name":"Uncletopia | Warsaw | 5 | Stopwatch Beta | STV","players":null},{"server_id":54,"name":"Uncletopia | Warsaw | 6 | Community","name_short":"waw-6","host":"waw-1.pl.uncletopia.com","port":27065,"enabled":true,"region":"eu","cc":"pl","latitude":52.2297,"longitude":21.017532,"reserved":0,"last_update":"0001-01-01T00:00:00Z","name_a2s":"Uncletopia | Warsaw | 6 | Community","protocol":17,"map":"koth_highpass","folder":"tf","game":"Team Fortress","app_id":440,"player_count":0,"max_players":24,"Bots":0,"server_type":"Dedicated","server_os":"Linux","password":true,"vac":true,"version":"7742253","steam_id":85568392925397856,"keywords":["cp","nocrits","nodmgspread","uncletopia"],"game_id":440,"stv_port":27066,"stv_name":"Uncletopia | Warsaw | 6 | Community | STV","players":null}]}