{"status":true,"message":"","result":[{"server_id":9,"name":"Uncletopia | Atlanta | 1 | All Maps","name_short":"atl-1","host":"atl-1.us.uncletopia.com","port":27015,"enabled":true,"region":"us-east","cc":"us","latitude":33.753746,"longitude":-84.38633,"reserved":0,"last_update":"0001-01-01T00:00:00Z","name_a2s":"Uncletopia | Atlanta | 1 | All Maps","protocol":17,"map":"pl_badwater","folder":"tf","game":"Team Fortress","app_id":440,"player_count":24,"max_players":24,"Bots":0,"server_type":"Dedicated","server_os":"Linux","password":true,"vac":true,"version":"7742253","steam_id":85568392924469982,"keywords":["nocrits","nodmgspread","payload","uncletopia"],"game_id":440,"stv_port":27016,"stv_name":"Uncletopia | Atlanta | 1 | All Maps | STV","players":[{"user_id":139,"name":"Iycedrem","steam_id":76561198000605300,"connected_time":2905000000000,"state":"active","ping":87},{"user_id":160,"name":"Marble Pie Gaming","steam_id":76561198402101154,"connected_time":101000000000,"state":"active","ping":77},{"user_id":81,"name":"Summon Ketamine Ape","steam_id":76561198143132686,"connected_time":8454000000000,"state":"active","ping":101},{"user_id":159,"name":"rainingmudkips","steam_id":76561198018010854,"connected_time":142000000000,"state":"active","ping":91},{"user_id":104,"name":"yomokha lft","steam_id":76561198063175935,"connected_time":6795000000000,"state":"active","ping":57},{"user_id":157,"name":"Warlock","steam_id":76561198801747883,"connected_time":151000000000,"state":"active","ping":98},{"user_id":161,"name":"ATL1 | SparkStorm","steam_id":76561198095817025,"connected_time":92000000000,"state":"active","ping":34},{"user_id":158,"name":"Lost (15)","steam_id":76561198093713427,"connected_time":148000000000,"state":"active","ping":83},{"user_id":156,"name":"the-willy12","steam_id":76561199145029672,"connected_time":678000000000,"state":"active","ping":80},{"user_id":116,"name":"Silm Shady","steam_id":76561198820288056,"connected_time":4609000000000,"state":"active","ping":75},{"user_id":98,"name":"Gromble","steam_id":76561198148876897,"connected_time":7525000000000,"state":"active","ping":63},{"user_id":145,"name":"Gimpy","steam_id":76561198981867692,"connected_time":1380000000000,"state":"active","ping":68},{"user_id":147,"name":"MrActionJaxon","steam_id":76561198093549908,"connected_time":1096000000000,"state":"active","ping":82},{"user_id":152,"name":"Strang","steam_id":76561198046936399,"connected_time":712000000000,"state":"active","ping":73},{"user_id":150,"name":"jumping.sprite","steam_id":76561198957748099,"connected_time":1046000000000,"state":"active","ping":58},{"user_id":142,"name":"‚òÖ‚òÖ‚òÜ‚òÜ‚òÜ","steam_id":76561198198984282,"connected_time":2625000000000,"state":"active","ping":78},{"user_id":144,"name":"hi","steam_id":76561199441787165,"connected_time":1688000000000,"state":"active","ping":85},{"user_id":153,"name":"Bandicario","steam_id":76561198432036026,"connected_time":710000000000,"state":"active","ping":49},{"user_id":151,"name":"TRHD_Pharaxer","steam_id":76561198051236069,"connected_time":961000000000,"state":"active","ping":145},{"user_id":124,"name":"boobies.","steam_id":76561198197058638,"connected_time":3811000000000,"state":"active","ping":62},{"user_id":140,"name":"‚ô•Ranman‚ô•Femboy‚ô•","steam_id":76561198042144492,"connected_time":2828000000000,"state":"active","ping":45},{"user_id":146,"name":"SnakeEyes505","steam_id":76561198267634428,"connected_time":1110000000000,"state":"active","ping":92},{"user_id":113,"name":"new year new personality","steam_id":76561198016121536,"connected_time":5267000000000,"state":"active","ping":76},{"user_id":50,"name":"ATL1 | Mayhem","steam_id":76561199246637881,"connected_time":11151000000000,"state":"active","ping":59}]},{"server_id":400,"name":"Uncletopia | Atlanta | 3 | Stopwatch Beta","name_short":"atl-3","host":"atl-1.us.uncletopia.com","port":27035,"enabled":true,"region":"us-east","cc":"us","latitude":33.753746,"longitude":-84.38633,"reserved":0,"last_update":"0001-01-01T00:00:00Z","name_a2s":"Uncletopia | Atlanta | 3 | Stopwatch Beta","protocol":17,"map":"workshop/pl_badwater_pro_v12.ugc2142942074","folder":"tf","game":"Team Fortress","app_id":440,"player_count":0,"max_players":24,"Bots":0,"server_type":"Dedicated","server_os":"Linux","password":true,"vac":true,"version":"7742253","steam_id":85568392924515187,"keywords":["nocrits","nodmgspread","payload","uncletopia"],"game_id":440,"stv_port":27036,"stv_name":"Uncletopia | Atlanta | 3 | Stopwatch Beta | STV","players":null},{"server_id":401,"name":"Uncletopia | Atlanta | 4 | No Payload","name_short":"atl-4","host":"atl-1.us.uncletopia.com","port":27045,"enabled":true,"region":"us-east","cc":"us","latitude":33.753746,"longitude":-84.38633,"reserved":0,"last_update":"0001-01-01T00:00:00Z","name_a2s":"Uncletopia | Atlanta | 4 | No Payload","protocol":17,"map":"pl_pier","folder":"tf","game":"Team Fortress","app_id":440,"player_count":0,"max_players":24,"Bots":0,"server_type":"Dedicated","server_os":"Linux","password":true,"vac":true,"version":"7723704","steam_id":85568392924515188,"keywords":["nocrits","nodmgspread","payload","uncletopia"],"game_id":440,"stv_port":27046,"stv_name":"Uncletopia | Atlanta | 4 | No Payload | STV","players":null},{"server_id":2,"name":"Uncletopia | Chicago | 1 | All Maps","name_short":"chi-1","host":"chi-1.us.uncletopia.com","port":27015,"enabled":true,"region":"us-central","cc":"us","latitude":41.881832,"longitude":-87.62318,"reserved":0,"last_update":"0001-01-01T00:00:00Z","name_a2s":"Uncletopia | Chicago | 1 | All Maps","protocol":17,"map":"pl_swiftwater_final1","folder":"tf","game":"Team Fortress","app_id":440,"player_count":24,"max_players":24,"Bots":0,"server_type":"Dedicated","server_os":"Linux","password":true,"vac":true,"version":"7742253","steam_id":85568392924469984,"keywords":["nocrits","nodmgspread","payload","uncletopia"],"game_id":440,"stv_port":27016,"stv_name":"Uncletopia | Chicago | 1 | All Maps | STV","players":[{"user_id":230,"name":"Dude Named Bob","steam_id":76561198310448093,"connected_time":5460000000000,"state":"active","ping":45},{"user_id":261,"name":"Mad Cow‚Äª","steam_id":76561198132498594,"connected_time":2955000000000,"state":"active","ping":56},{"user_id":239,"name":"boofgall319","steam_id":76561199122095813,"connected_time":4977000000000,"state":"active","ping":69},{"user_id":280,"name":"Female Gamer","steam_id":76561199366482682,"connected_time":1196000000000,"state":"active","ping":98},{"user_id":289,"name":"102","steam_id":76561198051928674,"connected_time":347000000000,"state":"active","ping":53},{"user_id":282,"name":"Iggy Dogg","steam_id":76561198059602545,"connected_time":595000000000,"state":"active","ping":47},{"user_id":165,"name":"SuperJagops","steam_id":76561198034689716,"connected_time":11786000000000,"state":"active","ping":58},{"user_id":290,"name":"DeadErebus","steam_id":76561198286117045,"connected_time":335000000000,"state":"active","ping":33},{"user_id":284,"name":"‚òº friendo","steam_id":76561198074180953,"connected_time":593000000000,"state":"active","ping":70},{"user_id":292,"name":"guyinatophat51","steam_id":76561198180230694,"connected_time":273000000000,"state":"active","ping":74},{"user_id":263,"name":"WX-78","steam_id":76561199117263527,"connected_time":2849000000000,"state":"active","ping":39},{"user_id":291,"name":"Owl Pacino","steam_id":76561197979970666,"connected_time":285000000000,"state":"active","ping":53},{"user_id":286,"name":"Oreo","steam_id":76561198356985610,"connected_time":538000000000,"state":"active","ping":84},{"user_id":112,"name":"James Bondage","steam_id":76561198077647318,"connected_time":15786000000000,"state":"active","ping":63},{"user_id":270,"name":"upside down cat","steam_id":76561198028288349,"connected_time":1832000000000,"state":"active","ping":81},{"user_id":269,"name":"three three","steam_id":76561198177354155,"connected_time":2073000000000,"state":"active","ping":53},{"user_id":293,"name":"Andrew","steam_id":76561198070615190,"connected_time":267000000000,"state":"active","ping":60},{"user_id":288,"name":"caption cool","steam_id":76561197990612056,"connected_time":389000000000,"state":"active","ping":47},{"user_id":272,"name":"TeeTree","steam_id":76561198862307874,"connected_time":1666000000000,"state":"active","ping":63},{"user_id":295,"name":"Terium","steam_id":76561198331234327,"connected_time":149000000000,"state":"active","ping":55},{"user_id":253,"name":"dr peppah chug!","steam_id":76561198068835693,"connected_time":3762000000000,"state":"active","ping":84},{"user_id":260,"name":"indi","steam_id":76561198045917538,"connected_time":3068000000000,"state":"active","ping":47},{"user_id":276,"name":"Hobity","steam_id":76561198135386781,"connected_time":1614000000000,"state":"active","ping":73},{"user_id":279,"name":"ColonelKermit","steam_id":76561198318215660,"connected_time":1313000000000,"state":"active","ping":60}]},{"server_id":106,"name":"Uncletopia | Chicago | 2 | All Maps","name_short":"chi-2","host":"chi-1.us.uncletopia.com","port":27025,"enabled":true,"region":"us-central","cc":"us","latitude":41.881832,"longitude":-87.62318,"reserved":0,"last_update":"0001-01-01T00:00:00Z","name_a2s":"Uncletopia | Chicago | 2 | All Maps","protocol":17,"map":"koth_nucleus","folder":"tf","game":"Team Fortress","app_id":440,"player_count":24,"max_players":24,"Bots":0,"server_type":"Dedicated","server_os":"Linux","password":true,"vac":true,"version":"7742253","steam_id":85568392924469985,"keywords":["cp","nocrits","nodmgspread","uncletopia"],"game_id":440,"stv_port":27026,"stv_name":"Uncletopia | Chicago | 2 | All Maps | STV","players":[{"user_id":59,"name":"Bobato Chaps","steam_id":76561198065103552,"connected_time":11871000000000,"state":"active","ping":66},{"user_id":172,"name":"A Successful Businessman","steam_id":76561198031611806,"connected_time":2113000000000,"state":"active","ping":63},{"user_id":197,"name":"ee err","steam_id":76561197986847586,"connected_time":270000000000,"state":"active","ping":61},{"user_id":174,"name":"WhippedHook","steam_id":76561198069581138,"connected_time":2064000000000,"state":"active","ping":70},{"user_id":189,"name":"FiveHoursLater...","steam_id":76561198092608339,"connected_time":924000000000,"state":"active","ping":103},{"user_id":180,"name":"NautilusShell","steam_id":76561198061289498,"connected_time":1781000000000,"state":"active","ping":65},{"user_id":193,"name":"ch","steam_id":76561198012566405,"connected_time":547000000000,"state":"active","ping":64},{"user_id":182,"name":"bad dragon Lube","steam_id":76561199068636836,"connected_time":1706000000000,"state":"active","ping":60},{"user_id":88,"name":"Rappitor","steam_id":76561198105613110,"connected_time":9376000000000,"state":"active","ping":58},{"user_id":200,"name":"Patrick Basement","steam_id":76561198194562230,"connected_time":136000000000,"state":"active","ping":159},{"user_id":186,"name":"Koishi","steam_id":76561198054541054,"connected_time":1000000000000,"state":"active","ping":54},{"user_id":191,"name":"Rex","steam_id":76561198138365053,"connected_time":901000000000,"state":"active","ping":128},{"user_id":145,"name":"Furry Saul Goodman","steam_id":76561198069580305,"connected_time":3761000000000,"state":"active","ping":59},{"user_id":185,"name":"Refurbished Condom","steam_id":76561198060342804,"connected_time":1190000000000,"state":"active","ping":66},{"user_id":199,"name":"dinomikk09","steam_id":76561198337514637,"connected_time":176000000000,"state":"active","ping":63},{"user_id":155,"name":"Chimpish","steam_id":76561199263493270,"connected_time":2695000000000,"state":"active","ping":85},{"user_id":183,"name":"ZBaldTop","steam_id":76561199396318132,"connected_time":1683000000000,"state":"active","ping":46},{"user_id":156,"name":"SlowCantReach","steam_id":76561198337146021,"connected_time":2683000000000,"state":"active","ping":72},{"user_id":195,"name":"ÔºîÔºê Ôº¶Ôº∞Ôº≥","steam_id":76561198272394965,"connected_time":328000000000,"state":"active","ping":145},{"user_id":151,"name":"Etcetera","steam_id":76561198069367687,"connected_time":3576000000000,"state":"active","ping":63},{"user_id":165,"name":"Snake Handler","steam_id":76561198027198306,"connected_time":2509000000000,"state":"active","ping":59},{"user_id":198,"name":"catboy phroliax","steam_id":76561198207075529,"connected_time":244000000000,"state":"active","ping":96},{"user_id":167,"name":"Ether","steam_id":76561198054806528,"connected_time":2507000000000,"state":"active","ping":68},{"user_id":110,"name":"forklift circumcised","steam_id":76561198278756087,"connected_time":7040000000000,"state":"active","ping":88}]},{"server_id":402,"name":"Uncletopia | Chicago | 3 | All Maps","name_short":"chi-3","host":"chi-1.us.uncletopia.com","port":27035,"enabled":true,"region":"us-central","cc":"us","latitude":41.881832,"longitude":-87.62318,"reserved":0,"last_update":"0001-01-01T00:00:00Z","name_a2s":"Uncletopia | Chicago | 3 | All Maps","protocol":17,"map":"pl_badwater","folder":"tf","game":"Team Fortress","app_id":440,"player_count":24,"max_players":24,"Bots":0,"server_type":"Dedicated","server_os":"Linux","password":true,"vac":true,"version":"7742253","steam_id":85568392924515191,"keywords":["nocrits","nodmgspread","payload","uncletopia"],"game_id":440,"stv_port":27036,"stv_name":"Uncletopia | Chicago | 3 | All Maps | STV","players":[{"user_id":102,"name":"Mr. Sandman","steam_id":76561198065870487,"connected_time":1482000000000,"state":"active","ping":50},{"user_id":111,"name":"Gravee","steam_id":76561197999283582,"connected_time":169000000000,"state":"active","ping":30},{"user_id":105,"name":"JayK","steam_id":76561198046277492,"connected_time":1350000000000,"state":"active","ping":69},{"user_id":65,"name":"Funny Skeleton Man","steam_id":76561198264262564,"connected_time":4284000000000,"state":"active","ping":67},{"user_id":113,"name":"NoBoreGaming","steam_id":76561198044244547,"connected_time":98000000000,"state":"active","ping":76},{"user_id":40,"name":"Jones Brand Soda","steam_id":76561198049553885,"connected_time":5875000000000,"state":"active","ping":84},{"user_id":112,"name":"Jrodmpeg","steam_id":76561198046574236,"connected_time":165000000000,"state":"active","ping":64},{"user_id":19,"name":"Heroofchaos","steam_id":76561199106660090,"connected_time":7029000000000,"state":"active","ping":67},{"user_id":106,"name":"amnyak","steam_id":76561198165831950,"connected_time":1310000000000,"state":"active","ping":78},{"user_id":58,"name":"Assilio","steam_id":76561198371102414,"connected_time":5420000000000,"state":"active","ping":73},{"user_id":33,"name":"C0SMIC PLAGU3","steam_id":76561198051958643,"connected_time":6133000000000,"state":"active","ping":75},{"user_id":114,"name":"Proct","steam_id":76561198033652856,"connected_time":71000000000,"state":"active","ping":45},{"user_id":99,"name":"Diktoulong","steam_id":76561198170613135,"connected_time":1605000000000,"state":"active","ping":335},{"user_id":75,"name":"Horus","steam_id":76561198166215370,"connected_time":2839000000000,"state":"active","ping":103},{"user_id":68,"name":"Ronin Grinch","steam_id":76561198041439581,"connected_time":3984000000000,"state":"active","ping":74},{"user_id":97,"name":"EL CHUPA NIBRE","steam_id":76561199135644119,"connected_time":1869000000000,"state":"active","ping":45},{"user_id":101,"name":"Rin \"Hindwing\" Redtail","steam_id":76561199074865638,"connected_time":1492000000000,"state":"active","ping":69},{"user_id":60,"name":"trasho","steam_id":76561198066867150,"connected_time":5149000000000,"state":"active","ping":61},{"user_id":62,"name":"years","steam_id":76561197994098627,"connected_time":4326000000000,"state":"active","ping":111},{"user_id":86,"name":"LerN","steam_id":76561198083463877,"connected_time":2420000000000,"state":"active","ping":57},{"user_id":115,"name":"no wtf not that","steam_id":76561198461518382,"connected_time":56000000000,"state":"spawning","ping":75},{"user_id":110,"name":"coffeeghost","steam_id":76561198155142385,"connected_time":217000000000,"state":"active","ping":81},{"user_id":88,"name":"no","steam_id":76561198248853140,"connected_time":2400000000000,"state":"active","ping":49},{"user_id":104,"name":"KOOSTIFF","steam_id":76561198053727976,"connected_time":1473000000000,"state":"active","ping":62}]},{"server_id":403,"name":"Uncletopia | Chicago | 4 | All Maps","name_short":"chi-4","host":"chi-1.us.uncletopia.com","port":27045,"enabled":true,"region":"us-central","cc":"us","latitude":41.881832,"longitude":-87.62318,"reserved":0,"last_update":"0001-01-01T00:00:00Z","name_a2s":"Uncletopia | Chicago | 4 | All Maps","protocol":17,"map":"koth_lakeside_final","folder":"tf","game":"Team Fortress","app_id":440,"player_count":0,"max_players":24,"Bots":0,"server_type":"Dedicated","server_os":"Linux","password":true,"vac":true,"version":"7742253","steam_id":85568392924515193,"keywords":["cp","nocrits","nodmgspread","uncletopia"],"game_id":440,"stv_port":27046,"stv_name":"Uncletopia | Chicago | 4 | All Maps | STV","players":null},{"server_id":36,"name":"Uncletopia | Chicago | 5 | All Maps","name_short":"chi-5","host":"chi-2.us.uncletopia.com","port":27015,"enabled":true,"region":"us-central","cc":"us","latitude":41.881832,"longitude":-87.62318,"reserved":0,"last_update":"0001-01-01T00:00:00Z","name_a2s":"Uncletopia | Chicago | 5 | All Maps","protocol":17,"map":"koth_highpass","folder":"tf","game":"Team Fortress","app_id":440,"player_count":0,"max_players":24,"Bots":0,"server_type":"Dedicated","server_os":"Linux","password":true,"vac":true,"version":"7742253","steam_id":85568392924866362,"keywords":["cp","nocrits","nodmgspread","uncletopia"],"game_id":440,"stv_port":27016,"stv_name":"Uncletopia | Chicago | 5 | All Maps | STV","players":null},{"server_id":37,"name":"Uncletopia | Chicago | 6 | All Maps","name_short":"chi-6","host":"chi-2.us.uncletopia.com","port":27025,"enabled":true,"region":"us-central","cc":"us","latitude":41.881832,"longitude":-87.62318,"reserved":0,"last_update":"0001-01-01T00:00:00Z","name_a2s":"Uncletopia | Chicago | 6 | All Maps","protocol":17,"map":"koth_highpass","folder":"tf","game":"Team Fortress","app_id":440,"player_count":24,"max_players":24,"Bots":0,"server_type":"Dedicated","server_os":"Linux","password":true,"vac":true,"version":"7742253","steam_id":85568392924866363,"keywords":["cp","nocrits","nodmgspread","uncletopia"],"game_id":440,"stv_port":27026,"stv_name":"Uncletopia | Chicago | 6 | All Maps | STV","players":[{"user_id":32,"name":"Friend","steam_id":76561198156746320,"connected_time":621000000000,"state":"active","ping":43},{"user_id":14,"name":"Goku‚Ñ¢ From Disney¬©","steam_id":76561198015327152,"connected_time":1093000000000,"state":"active","ping":62},{"user_id":19,"name":"GW4D","steam_id":76561198268791283,"connected_time":870000000000,"state":"active","ping":103},{"user_id":13,"name":"Zin","steam_id":76561198079763004,"connected_time":1151000000000,"state":"active","ping":71},{"user_id":15,"name":"Weshmek","steam_id":76561198009950743,"connected_time":1037000000000,"state":"active","ping":55},{"user_id":16,"name":"AmirKhaan","steam_id":76561198992403254,"connected_time":1008000000000,"state":"active","ping":64},{"user_id":17,"name":"catgirl giantess in heat","steam_id":76561198439042583,"connected_time":932000000000,"state":"active","ping":86},{"user_id":18,"name":"Kinbo2487","steam_id":76561198184714198,"connected_time":906000000000,"state":"active","ping":77},{"user_id":20,"name":"Sticky","steam_id":76561198031581547,"connected_time":769000000000,"state":"active","ping":92},{"user_id":40,"name":"malkshake, flattener","steam_id":76561198031977478,"connected_time":242000000000,"state":"active","ping":53},{"user_id":22,"name":"nalezinik","steam_id":76561198030026119,"connected_time":759000000000,"state":"active","ping":61},{"user_id":23,"name":"glorpious maximous","steam_id":76561198182710758,"connected_time":740000000000,"state":"active","ping":61},{"user_id":24,"name":"2 bit catgirl","steam_id":76561198399936004,"connected_time":726000000000,"state":"active","ping":59},{"user_id":41,"name":"lucas","steam_id":76561198251798684,"connected_time":191000000000,"state":"active","ping":106},{"user_id":39,"name":"blink_137","steam_id":76561198375970016,"connected_time":342000000000,"state":"active","ping":85},{"user_id":42,"name":"TeleSoda","steam_id":76561198343048750,"connected_time":35000000000,"state":"active","ping":65},{"user_id":28,"name":"moodi catgirl","steam_id":76561198124028045,"connected_time":676000000000,"state":"active","ping":71},{"user_id":29,"name":"dwwojcik","steam_id":76561198084403136,"connected_time":661000000000,"state":"active","ping":46},{"user_id":30,"name":"Porvolt","steam_id":76561198101366567,"connected_time":655000000000,"state":"active","ping":47},{"user_id":31,"name":"not butter","steam_id":76561198100503104,"connected_time":647000000000,"state":"active","ping":89},{"user_id":33,"name":"manbearswineflu","steam_id":76561198083945137,"connected_time":594000000000,"state":"active","ping":55},{"user_id":36,"name":"Beanboi","steam_id":76561198977881677,"connected_time":517000000000,"state":"active","ping":58},{"user_id":37,"name":"Gordon Freemason","steam_id":76561199249733628,"connected_time":501000000000,"state":"active","ping":87}]},{"server_id":38,"name":"Uncletopia | Chicago | 7 | Stopwatch Beta","name_short":"chi-7","host":"chi-2.us.uncletopia.com","port":27035,"enabled":true,"region":"us-central","cc":"us","latitude":41.881832,"longitude":-87.62318,"reserved":0,"last_update":"0001-01-01T00:00:00Z","name_a2s":"Uncletopia | Chicago | 7 | Stopwatch Beta","protocol":17,"map":"workshop/koth_ashville_final.ugc2130459942","folder":"tf","game":"Team Fortress","app_id":440,"player_count":0,"max_players":24,"Bots":0,"server_type":"Dedicated","server_os":"Linux","password":true,"vac":true,"version":"7742253","steam_id":85568392924866364,"keywords":["cp","nocrits","nodmgspread","uncletopia"],"game_id":440,"stv_port":27036,"stv_name":"Uncletopia | Chicago | 7 | Stopwatch Beta | STV","players":null},{"server_id":39,"name":"Uncletopia | Chicago | 8 | Community","name_short":"chi-8","host":"chi-2.us.uncletopia.com","port":27045,"enabled":true,"region":"us-central","cc":"us","latitude":41.881832,"longitude":-87.62318,"reserved":0,"last_update":"0001-01-01T00:00:00Z","name_a2s":"Uncletopia | Chicago | 8 | Community","protocol":17,"map":"koth_lakeside_final","folder":"tf","game":"Team Fortress","app_id":440,"player_count":0,"max_players":24,"Bots":0,"server_type":"Dedicated","server_os":"Linux","password":true,"vac":true,"version":"7742253","steam_id":85568392924866365,"keywords":["cp","nocrits","nodmgspread","uncletopia"],"game_id":440,"stv_port":27046,"stv_name":"Uncletopia | Chicago | 8 | Community | STV","players":null},{"server_id":8,"name":"Uncletopia | Dallas | 1 | All Maps","name_short":"dal-1","host":"dal-1.us.uncletopia.com","port":27015,"enabled":true,"region":"us-central","cc":"us","latitude":32.779167,"longitude":-96.80889,"reserved":0,"last_update":"0001-01-01T00:00:00Z","name_a2s":"Uncletopia | Dallas | 1 | All Maps","protocol":17,"map":"pl_thundermountain","folder":"tf","game":"Team Fortress","app_id":440,"player_count":23,"max_players":24,"Bots":0,"server_type":"Dedicated","server_os":"Linux","password":true,"vac":true,"version":"7742253","steam_id":85568392924469986,"keywords":["nocrits","nodmgspread","payload","uncletopia"],"game_id":440,"stv_port":27016,"stv_name":"Uncletopia | Dallas | 1 | All Maps | STV","players":[{"user_id":134,"name":"vitasovic","steam_id":76561198093696721,"connected_time":1520000000000,"state":"active","ping":183},{"user_id":109,"name":"Kinnyboo (GIRLBOSS ARC)","steam_id":76561198818192768,"connected_time":2524000000000,"state":"active","ping":56},{"user_id":154,"name":"MR.meeseeks","steam_id":76561198294943420,"connected_time":644000000000,"state":"active","ping":124},{"user_id":121,"name":"ZetaKai1219 #SaveTF2","steam_id":76561198065844559,"connected_time":1903000000000,"state":"active","ping":74},{"user_id":151,"name":"Trash Man","steam_id":76561198874518834,"connected_time":813000000000,"state":"active","ping":81},{"user_id":156,"name":"Wolf with a flashlight","steam_id":76561197999816472,"connected_time":327000000000,"state":"active","ping":69},{"user_id":132,"name":"dakota__","steam_id":76561198076596506,"connected_time":1806000000000,"state":"active","ping":91},{"user_id":158,"name":"Helen Keller","steam_id":76561198947654861,"connected_time":112000000000,"state":"active","ping":176},{"user_id":146,"name":"SoapKnight","steam_id":76561198993730843,"connected_time":929000000000,"state":"active","ping":106},{"user_id":157,"name":"Void","steam_id":76561198308290211,"connected_time":197000000000,"state":"active","ping":95},{"user_id":139,"name":"the first brood in a trenchcoat","steam_id":76561198028396095,"connected_time":1143000000000,"state":"active","ping":40},{"user_id":159,"name":"cave full of snakes","steam_id":76561199084459911,"connected_time":81000000000,"state":"active","ping":92},{"user_id":147,"name":"ImmenseWraith","steam_id":76561198963757884,"connected_time":924000000000,"state":"active","ping":70},{"user_id":153,"name":"cdoy","steam_id":76561198847749278,"connected_time":706000000000,"state":"active","ping":45},{"user_id":105,"name":"Maranata","steam_id":76561198830158092,"connected_time":2639000000000,"state":"active","ping":82},{"user_id":128,"name":"Undertale Genocide Route","steam_id":76561199024798011,"connected_time":1844000000000,"state":"active","ping":54},{"user_id":129,"name":"Arishem","steam_id":76561198183269215,"connected_time":1841000000000,"state":"active","ping":94},{"user_id":107,"name":"dan","steam_id":76561198061589465,"connected_time":2586000000000,"state":"active","ping":90},{"user_id":53,"name":"DerpyNinja31","steam_id":76561198128976409,"connected_time":5933000000000,"state":"active","ping":65},{"user_id":155,"name":"The Krinkler","steam_id":76561198020308956,"connected_time":403000000000,"state":"active","ping":68},{"user_id":160,"name":"Eldritch Curio.üëÅ","steam_id":76561198044669027,"connected_time":81000000000,"state":"active","ping":97},{"user_id":115,"name":"Mcfighter2","steam_id":76561198168073956,"connected_time":2364000000000,"state":"active","ping":81},{"user_id":55,"name":"Greg Boberton 2012","steam_id":76561198983566026,"connected_time":5917000000000,"state":"active","ping":89}]},{"server_id":108,"name":"Uncletopia | Dallas | 2 | All Maps","name_short":"dal-2","host":"dal-1.us.uncletopia.com","port":27025,"enabled":true,"region":"us-central","cc":"us","latitude":32.779167,"longitude":-96.80889,"reserved":0,"last_update":"0001-01-01T00:00:00Z","name_a2s":"Uncletopia | Dallas | 2 | All Maps","protocol":17,"map":"pl_badwater","folder":"tf","game":"Team Fortress","app_id":440,"player_count":24,"max_players":24,"Bots":0,"server_type":"Dedicated","server_os":"Linux","password":true,"vac":true,"version":"7742253","steam_id":85568392924469988,"keywords":["nocrits","nodmgspread","payload","uncletopia"],"game_id":440,"stv_port":27026,"stv_name":"Uncletopia | Dallas | 2 | All Maps | STV","players":[{"user_id":95,"name":"Clanker","steam_id":76561198164315915,"connected_time":481000000000,"state":"active","ping":78},{"user_id":80,"name":"FunGi","steam_id":76561198881418662,"connected_time":1824000000000,"state":"active","ping":75},{"user_id":30,"name":"hunteddestiny","steam_id":76561199001622749,"connected_time":3938000000000,"state":"active","ping":62},{"user_id":96,"name":"SolmonFish","steam_id":76561198942169006,"connected_time":467000000000,"state":"active","ping":101},{"user_id":60,"name":"ArmaViviente","steam_id":76561198084098079,"connected_time":2775000000000,"state":"active","ping":81},{"user_id":99,"name":"SLiPpeRyJoe.nosound","steam_id":76561197977206359,"connected_time":255000000000,"state":"active","ping":89},{"user_id":100,"name":"CrowbarCat","steam_id":76561198197755101,"connected_time":79000000000,"state":"active","ping":92},{"user_id":38,"name":"who ate the cheese","steam_id":76561198275408467,"connected_time":3453000000000,"state":"active","ping":48},{"user_id":84,"name":"BigBubble42","steam_id":76561198136286123,"connected_time":1731000000000,"state":"active","ping":30},{"user_id":48,"name":"Skyrim killable children mod","steam_id":76561198862836173,"connected_time":3201000000000,"state":"active","ping":74},{"user_id":92,"name":"They could be starlings","steam_id":76561198441020995,"connected_time":969000000000,"state":"active","ping":116},{"user_id":97,"name":"Kdash","steam_id":76561198043829155,"connected_time":436000000000,"state":"active","ping":48},{"user_id":94,"name":"jcghost2468","steam_id":76561199028055615,"connected_time":527000000000,"state":"active","ping":84},{"user_id":64,"name":"Reclipser","steam_id":76561198093697554,"connected_time":2539000000000,"state":"active","ping":61},{"user_id":85,"name":"pin√¶pple","steam_id":76561198167075606,"connected_time":1714000000000,"state":"active","ping":76},{"user_id":86,"name":"The Punk","steam_id":76561198079451856,"connected_time":1577000000000,"state":"active","ping":68},{"user_id":98,"name":"Robomandude","steam_id":76561198043909566,"connected_time":401000000000,"state":"active","ping":60},{"user_id":71,"name":"Only One Jhakobi","steam_id":76561197993641141,"connected_time":2339000000000,"state":"active","ping":83},{"user_id":81,"name":"Allan_","steam_id":76561198975597174,"connected_time":1815000000000,"state":"active","ping":58},{"user_id":74,"name":"B U L B U S 4K","steam_id":76561198095103255,"connected_time":2169000000000,"state":"active","ping":94},{"user_id":56,"name":"neet","steam_id":76561197968115168,"connected_time":3019000000000,"state":"active","ping":75},{"user_id":102,"name":"hi","steam_id":76561198118498882,"connected_time":2000000000,"state":"spawning","ping":82},{"user_id":93,"name":"Riff","steam_id":76561198066921423,"connected_time":933000000000,"state":"active","ping":64},{"user_id":75,"name":"galad.game","steam_id":76561198336324159,"connected_time":2116000000000,"state":"active","ping":170}]},{"server_id":5,"name":"Uncletopia | Frankfurt | 1 | All Maps","name_short":"frk-1","host":"frk-1.de.uncletopia.com","port":27015,"enabled":true,"region":"eu","cc":"de","latitude":50.110924,"longitude":8.682127,"reserved":0,"last_update":"0001-01-01T00:00:00Z","name_a2s":"Uncletopia | Frankfurt | 1 | All Maps","protocol":17,"map":"cp_altitude","folder":"tf","game":"Team Fortress","app_id":440,"player_count":24,"max_players":24,"Bots":0,"server_type":"Dedicated","server_os":"Linux","password":true,"vac":true,"version":"7742253","steam_id":85568392924469989,"keywords":["cp","nocrits","nodmgspread","uncletopia"],"game_id":440,"stv_port":27016,"stv_name":"Uncletopia | Frankfurt | 1 | All Maps | STV","players":[{"user_id":466,"name":"TheShadowScribe","steam_id":76561199037525945,"connected_time":2246000000000,"state":"active","ping":82},{"user_id":512,"name":"Despair","steam_id":76561198259487481,"connected_time":694000000000,"state":"active","ping":67},{"user_id":507,"name":"huge ornate salt shaker","steam_id":76561198104896547,"connected_time":838000000000,"state":"active","ping":67},{"user_id":486,"name":"BonnieDrag","steam_id":76561199149216429,"connected_time":1362000000000,"state":"active","ping":78},{"user_id":510,"name":"TaKuni","steam_id":76561198013410331,"connected_time":769000000000,"state":"active","ping":63},{"user_id":517,"name":"Heavy like a Brinks truck","steam_id":76561198197304886,"connected_time":185000000000,"state":"active","ping":108},{"user_id":488,"name":"Dieu-Sama","steam_id":76561198002075862,"connected_time":1275000000000,"state":"active","ping":64},{"user_id":496,"name":"Gandalf","steam_id":76561199072668363,"connected_time":1056000000000,"state":"active","ping":73},{"user_id":484,"name":"Mr. Klauk","steam_id":76561199085666301,"connected_time":1515000000000,"state":"active","ping":169},{"user_id":511,"name":"camion","steam_id":76561199230091758,"connected_time":718000000000,"state":"active","ping":49},{"user_id":519,"name":"Festive Benn","steam_id":76561199024168373,"connected_time":75000000000,"state":"active","ping":191},{"user_id":506,"name":"gio","steam_id":76561198219185620,"connected_time":850000000000,"state":"active","ping":99},{"user_id":491,"name":"FJADL","steam_id":76561198237008214,"connected_time":1192000000000,"state":"active","ping":57},{"user_id":499,"name":"Babwin","steam_id":76561197985860528,"connected_time":1004000000000,"state":"active","ping":77},{"user_id":485,"name":"!raven","steam_id":76561198320336543,"connected_time":1493000000000,"state":"active","ping":93},{"user_id":518,"name":"Landsknecht","steam_id":76561199293036742,"connected_time":171000000000,"state":"active","ping":52},{"user_id":478,"name":"KingVoker","steam_id":76561198039602539,"connected_time":1980000000000,"state":"active","ping":74},{"user_id":480,"name":"paguro","steam_id":76561198119560871,"connected_time":1779000000000,"state":"active","ping":72},{"user_id":442,"name":"Keelan","steam_id":76561198013665543,"connected_time":5409000000000,"state":"active","ping":79},{"user_id":514,"name":"Carol Olston","steam_id":76561198080257273,"connected_time":627000000000,"state":"active","ping":59},{"user_id":515,"name":"_Yanushi_","steam_id":76561198431418662,"connected_time":624000000000,"state":"active","ping":73},{"user_id":503,"name":"Bromine Drinker","steam_id":76561199209895540,"connected_time":882000000000,"state":"active","ping":75},{"user_id":516,"name":"Totally Something","steam_id":76561198916824935,"connected_time":620000000000,"state":"active","ping":73},{"user_id":509,"name":"Mr.Fosty","steam_id":76561198045212783,"connected_time":809000000000,"state":"active","ping":83}]},{"server_id":110,"name":"Uncletopia | Frankfurt | 2 | All Maps","name_short":"frk-2","host":"frk-1.de.uncletopia.com","port":27025,"enabled":true,"region":"eu","cc":"de","latitude":50.110924,"longitude":8.682127,"reserved":0,"last_update":"0001-01-01T00:00:00Z","name_a2s":"Uncletopia | Frankfurt | 2 | All Maps","protocol":17,"map":"pl_borneo","folder":"tf","game":"Team Fortress","app_id":440,"player_count":24,"max_players":24,"Bots":0,"server_type":"Dedicated","server_os":"Linux","password":true,"vac":true,"version":"7742253","steam_id":85568392924469990,"keywords":["nocrits","nodmgspread","payload","uncletopia"],"game_id":440,"stv_port":27026,"stv_name":"Uncletopia | Frankfurt | 2 | All Maps | STV","players":[{"user_id":423,"name":"kawi","steam_id":76561198237588932,"connected_time":1454000000000,"state":"active","ping":52},{"user_id":348,"name":"frying pan (real)","steam_id":76561198875409640,"connected_time":7014000000000,"state":"active","ping":64},{"user_id":420,"name":"chair 2.0","steam_id":76561199233470150,"connected_time":1474000000000,"state":"active","ping":51},{"user_id":422,"name":"saul","steam_id":76561198331093272,"connected_time":1458000000000,"state":"active","ping":65},{"user_id":431,"name":"Alin","steam_id":76561198059679991,"connected_time":626000000000,"state":"active","ping":90},{"user_id":380,"name":"triangle","steam_id":76561198046838168,"connected_time":4604000000000,"state":"active","ping":47},{"user_id":429,"name":"Brick Top","steam_id":76561198035586064,"connected_time":1231000000000,"state":"active","ping":72},{"user_id":434,"name":"Okonell[HUN]","steam_id":76561198032216617,"connected_time":546000000000,"state":"active","ping":80},{"user_id":406,"name":"Clitorina","steam_id":76561198077570815,"connected_time":2911000000000,"state":"active","ping":55},{"user_id":435,"name":"Taskyy","steam_id":76561198134901175,"connected_time":215000000000,"state":"active","ping":78},{"user_id":426,"name":"Towercat","steam_id":76561198013141793,"connected_time":1422000000000,"state":"active","ping":56},{"user_id":432,"name":"wewli","steam_id":76561199005742648,"connected_time":619000000000,"state":"active","ping":81},{"user_id":395,"name":"Gordon Birdman","steam_id":76561198013382324,"connected_time":4113000000000,"state":"active","ping":74},{"user_id":419,"name":"thoMaS","steam_id":76561198153493306,"connected_time":1713000000000,"state":"active","ping":62},{"user_id":400,"name":"dansci","steam_id":76561198269530717,"connected_time":3331000000000,"state":"active","ping":154},{"user_id":365,"name":"Coac","steam_id":76561198085265740,"connected_time":6300000000000,"state":"active","ping":61},{"user_id":418,"name":"Stepoface","steam_id":76561198091569863,"connected_time":1869000000000,"state":"active","ping":53},{"user_id":417,"name":"Mathieu.","steam_id":76561198039268163,"connected_time":2028000000000,"state":"active","ping":63},{"user_id":383,"name":"‚úß Luigi Time ‚úß","steam_id":76561198026903673,"connected_time":4504000000000,"state":"active","ping":57},{"user_id":428,"name":"del2o","steam_id":76561199072601822,"connected_time":1407000000000,"state":"active","ping":110},{"user_id":403,"name":"Squishy","steam_id":76561198124618876,"connected_time":3123000000000,"state":"active","ping":118},{"user_id":328,"name":"ÍßÅ‡ºíXenon‡ºíÍßÇ","steam_id":76561198120502313,"connected_time":8705000000000,"state":"active","ping":75},{"user_id":433,"name":"toast","steam_id":76561198333504114,"connected_time":598000000000,"state":"active","ping":67},{"user_id":369,"name":"[Sheep] Tomco","steam_id":76561198388549261,"connected_time":5600000000000,"state":"active","ping":63}]},{"server_id":308,"name":"Uncletopia | Frankfurt | 3 | All Maps","name_short":"frk-3","host":"frk-1.de.uncletopia.com","port":27035,"enabled":true,"region":"eu","cc":"de","latitude":50.110924,"longitude":8.682127,"reserved":0,"last_update":"0001-01-01T00:00:00Z","name_a2s":"Uncletopia | Frankfurt | 3 | All Maps","protocol":17,"map":"pl_upward","folder":"tf","game":"Team Fortress","app_id":440,"player_count":24,"max_players":24,"Bots":0,"server_type":"Dedicated","server_os":"Linux","password":true,"vac":true,"version":"7742253","steam_id":85568392924504274,"keywords":["nocrits","nodmgspread","payload","uncletopia"],"game_id":440,"stv_port":27036,"stv_name":"Uncletopia | Frankfurt | 3 | All Maps | STV","players":[{"user_id":194,"name":"Mario3ghj","steam_id":76561198069804561,"connected_time":1208000000000,"state":"active","ping":92},{"user_id":193,"name":"Arturias","steam_id":76561198188720263,"connected_time":1213000000000,"state":"active","ping":56},{"user_id":215,"name":"Kobeni car ( :D )","steam_id":76561199052772727,"connected_time":148000000000,"state":"active","ping":81},{"user_id":174,"name":"Kaz","steam_id":76561198044844041,"connected_time":2144000000000,"state":"active","ping":78},{"user_id":210,"name":"Caliban","steam_id":76561197999696839,"connected_time":462000000000,"state":"active","ping":99},{"user_id":183,"name":"Allmathaur","steam_id":76561199405602290,"connected_time":1967000000000,"state":"active","ping":92},{"user_id":182,"name":"Gempooh","steam_id":76561198098463950,"connected_time":1994000000000,"state":"active","ping":90},{"user_id":211,"name":"Zateske","steam_id":76561198047446276,"connected_time":435000000000,"state":"active","ping":59},{"user_id":209,"name":"Mongoose","steam_id":76561199125198593,"connected_time":699000000000,"state":"active","ping":69},{"user_id":212,"name":"Poopy_Joe","steam_id":76561198096839348,"connected_time":423000000000,"state":"active","ping":50},{"user_id":199,"name":"Cake","steam_id":76561199092422645,"connected_time":1119000000000,"state":"active","ping":136},{"user_id":167,"name":"CiVillain","steam_id":76561198059617732,"connected_time":2479000000000,"state":"active","ping":70},{"user_id":200,"name":"[ASN]","steam_id":76561198211450236,"connected_time":1103000000000,"state":"active","ping":59},{"user_id":179,"name":"FaceShackle","steam_id":76561198038371397,"connected_time":2012000000000,"state":"active","ping":41},{"user_id":213,"name":"beeb","steam_id":76561198033460021,"connected_time":418000000000,"state":"active","ping":93},{"user_id":205,"name":"Antimation","steam_id":76561198125649544,"connected_time":1050000000000,"state":"active","ping":61},{"user_id":203,"name":"PANDA","steam_id":76561199427049115,"connected_time":1059000000000,"state":"active","ping":73},{"user_id":171,"name":"telecaster cowboy","steam_id":76561198030155915,"connected_time":2427000000000,"state":"active","ping":75},{"user_id":204,"name":"Matafas","steam_id":76561198071687855,"connected_time":1059000000000,"state":"active","ping":95},{"user_id":214,"name":"WinsomeYapper9","steam_id":76561199275285546,"connected_time":412000000000,"state":"active","ping":100},{"user_id":206,"name":"Tumppi","steam_id":76561198101197482,"connected_time":1031000000000,"state":"active","ping":104},{"user_id":207,"name":"Benpl","steam_id":76561198084890757,"connected_time":1030000000000,"state":"active","ping":64},{"user_id":191,"name":"Oceanic | tuesday maybe","steam_id":76561197979741827,"connected_time":1266000000000,"state":"active","ping":60},{"user_id":170,"name":"DigyB","steam_id":76561198014442345,"connected_time":2438000000000,"state":"active","ping":73}]},{"server_id":309,"name":"Uncletopia | Frankfurt | 4 | All Maps","name_short":"frk-4","host":"frk-1.de.uncletopia.com","port":27045,"enabled":true,"region":"eu","cc":"de","latitude":50.110924,"longitude":8.682127,"reserved":0,"last_update":"0001-01-01T00:00:00Z","name_a2s":"Uncletopia | Frankfurt | 4 | All Maps","protocol":17,"map":"pl_wutville_event","folder":"tf","game":"Team Fortress","app_id":440,"player_count":24,"max_players":24,"Bots":0,"server_type":"Dedicated","server_os":"Linux","password":true,"vac":true,"version":"7742253","steam_id":85568392924504275,"keywords":["nocrits","nodmgspread","payload","uncletopia"],"game_id":440,"stv_port":27046,"stv_name":"Uncletopia | Frankfurt | 4 | All Maps | STV","players":[{"user_id":222,"name":"Fan","steam_id":76561198210792815,"connected_time":2813000000000,"state":"active","ping":70},{"user_id":220,"name":"the guy from spy kids 3-d","steam_id":76561198860559249,"connected_time":2920000000000,"state":"active","ping":86},{"user_id":208,"name":"Uselss Joe","steam_id":76561198275853629,"connected_time":3776000000000,"state":"active","ping":50},{"user_id":253,"name":"hulluheppu1","steam_id":76561198093458326,"connected_time":152000000000,"state":"active","ping":65},{"user_id":254,"name":"Kratac","steam_id":76561198026239462,"connected_time":136000000000,"state":"active","ping":51},{"user_id":255,"name":"nop 21","steam_id":76561198331641220,"connected_time":135000000000,"state":"active","ping":59},{"user_id":224,"name":"Oskuri","steam_id":76561198155956047,"connected_time":2791000000000,"state":"active","ping":54},{"user_id":134,"name":"/HartBeet/","steam_id":76561198321785662,"connected_time":8737000000000,"state":"active","ping":81},{"user_id":160,"name":"FruityCrits","steam_id":76561198373779833,"connected_time":6742000000000,"state":"active","ping":48},{"user_id":248,"name":"thisisthewhat","steam_id":76561199407448443,"connected_time":960000000000,"state":"active","ping":68},{"user_id":187,"name":"chicanery","steam_id":76561198130794936,"connected_time":5671000000000,"state":"active","ping":78},{"user_id":219,"name":"dick cheese","steam_id":76561197996692535,"connected_time":2978000000000,"state":"active","ping":69},{"user_id":193,"name":"SkippityScopity","steam_id":76561198801187351,"connected_time":4396000000000,"state":"active","ping":57},{"user_id":244,"name":"man","steam_id":76561198180795281,"connected_time":1082000000000,"state":"active","ping":46},{"user_id":225,"name":"Grigori Rasputin","steam_id":76561198070810812,"connected_time":2776000000000,"state":"active","ping":93},{"user_id":251,"name":"JohkupohkuXD","steam_id":76561198391108762,"connected_time":342000000000,"state":"active","ping":85},{"user_id":157,"name":"Reniculous","steam_id":76561199214769940,"connected_time":7109000000000,"state":"active","ping":165},{"user_id":200,"name":"MSPaintbrush","steam_id":76561198119987705,"connected_time":4138000000000,"state":"active","ping":51},{"user_id":226,"name":"Nope","steam_id":76561198069066522,"connected_time":2705000000000,"state":"active","ping":69},{"user_id":256,"name":"H A P P Y","steam_id":76561198310047963,"connected_time":106000000000,"state":"active","ping":60},{"user_id":259,"name":"Saul Goodsex","steam_id":76561198173218318,"connected_time":16000000000,"state":"spawning","ping":52},{"user_id":258,"name":"‚òÉ Kkasper ‚òÉ","steam_id":76561199121845047,"connected_time":84000000000,"state":"active","ping":49},{"user_id":246,"name":"JustMayor","steam_id":76561198050515503,"connected_time":1009000000000,"state":"active","ping":59},{"user_id":260,"name":"SoldierSo1o","steam_id":76561199109522950,"connected_time":3000000000,"state":"spawning","ping":86}]},{"server_id":310,"name":"Uncletopia | Frankfurt | 5 | All Maps","name_short":"frk-5","host":"frk-1.de.uncletopia.com","port":27055,"enabled":true,"region":"eu","cc":"de","latitude":50.110924,"longitude":8.682127,"reserved":0,"last_update":"0001-01-01T00:00:00Z","name_a2s":"Uncletopia | Frankfurt | 5 | All Maps","protocol":17,"map":"pl_borneo","folder":"tf","game":"Team Fortress","app_id":440,"player_count":24,"max_players":24,"Bots":0,"server_type":"Dedicated","server_os":"Linux","password":true,"vac":true,"version":"7742253","steam_id":85568392924504277,"keywords":["nocrits","nodmgspread","payload","uncletopia"],"game_id":440,"stv_port":27056,"stv_name":"Uncletopia | Frankfurt | 5 | All Maps | STV","players":[{"user_id":385,"name":"Marley","steam_id":76561198045380078,"connected_time":791000000000,"state":"active","ping":70},{"user_id":392,"name":"Monke","steam_id":76561198066994468,"connected_time":413000000000,"state":"active","ping":63},{"user_id":375,"name":"the joy of recycling","steam_id":76561198415564349,"connected_time":1503000000000,"state":"active","ping":63},{"user_id":396,"name":"bkktrans","steam_id":76561198264393359,"connected_time":190000000000,"state":"active","ping":51},{"user_id":388,"name":"nobody","steam_id":76561198180637374,"connected_time":776000000000,"state":"active","ping":85},{"user_id":357,"name":"Hey, I¬¥m Andy!","steam_id":76561198060337777,"connected_time":2189000000000,"state":"active","ping":68},{"user_id":379,"name":"Sigmar's Weakest Soldier","steam_id":76561198320506848,"connected_time":1047000000000,"state":"active","ping":48},{"user_id":381,"name":"Doriian","steam_id":76561198071438810,"connected_time":996000000000,"state":"active","ping":78},{"user_id":376,"name":"bubblojoe","steam_id":76561198044534119,"connected_time":1104000000000,"state":"active","ping":67},{"user_id":353,"name":"Arcticpyro","steam_id":76561198010708923,"connected_time":2609000000000,"state":"active","ping":91},{"user_id":395,"name":"Gorlami","steam_id":76561198139623088,"connected_time":265000000000,"state":"active","ping":77},{"user_id":384,"name":"Walter Griffin","steam_id":76561199415989636,"connected_time":805000000000,"state":"active","ping":100},{"user_id":386,"name":"New_SteFano_","steam_id":76561198448642353,"connected_time":788000000000,"state":"active","ping":81},{"user_id":344,"name":".quickfast.","steam_id":76561199438900919,"connected_time":3824000000000,"state":"active","ping":66},{"user_id":328,"name":"A Succulent Chinese Meal","steam_id":76561198069472440,"connected_time":4399000000000,"state":"active","ping":90},{"user_id":360,"name":"Kotlet schabowy","steam_id":76561198048983509,"connected_time":2111000000000,"state":"active","ping":62},{"user_id":390,"name":"panakid","steam_id":76561198364121077,"connected_time":752000000000,"state":"active","ping":97},{"user_id":372,"name":"Zelmor","steam_id":76561197997708311,"connected_time":1609000000000,"state":"active","ping":58},{"user_id":393,"name":"Per√§miehen√§","steam_id":76561197968945306,"connected_time":372000000000,"state":"active","ping":75},{"user_id":366,"name":"pepper","steam_id":76561198059782462,"connected_time":1690000000000,"state":"active","ping":58},{"user_id":367,"name":"Jedi Knight","steam_id":76561198039030709,"connected_time":1688000000000,"state":"active","ping":65},{"user_id":397,"name":"Œª Overwatch Elite Œª","steam_id":76561197985317035,"connected_time":177000000000,"state":"active","ping":53},{"user_id":369,"name":"jef","steam_id":76561198979230556,"connected_time":1663000000000,"state":"active","ping":60},{"user_id":389,"name":"Leviopterix","steam_id":76561198172397734,"connected_time":775000000000,"state":"active","ping":62}]},{"server_id":311,"name":"Uncletopia | Frankfurt | 6 | All Maps","name_short":"frk-6","host":"frk-1.de.uncletopia.com","port":27065,"enabled":true,"region":"eu","cc":"de","latitude":50.110924,"longitude":8.682127,"reserved":0,"last_update":"0001-01-01T00:00:00Z","name_a2s":"Uncletopia | Frankfurt | 6 | All Maps","protocol":17,"map":"pl_hoodoo_final","folder":"tf","game":"Team Fortress","app_id":440,"player_count":24,"max_players":24,"Bots":0,"server_type":"Dedicated","server_os":"Linux","password":true,"vac":true,"version":"7742253","steam_id":85568392924504278,"keywords":["nocrits","nodmgspread","payload","uncletopia"],"game_id":440,"stv_port":27066,"stv_name":"Uncletopia | Frankfurt | 6 | All Maps | STV","players":[{"user_id":155,"name":"Hexagon","steam_id":76561198151205758,"connected_time":9180000000000,"state":"active","ping":51},{"user_id":272,"name":"Nate","steam_id":76561198022122387,"connected_time":1184000000000,"state":"active","ping":92},{"user_id":194,"name":"citronous","steam_id":76561198093290934,"connected_time":6509000000000,"state":"active","ping":60},{"user_id":267,"name":"Toasty5050","steam_id":76561198073540881,"connected_time":1274000000000,"state":"active","ping":44},{"user_id":280,"name":"foo","steam_id":76561198042000263,"connected_time":658000000000,"state":"active","ping":70},{"user_id":233,"name":"Ferenc","steam_id":76561199042905250,"connected_time":3710000000000,"state":"active","ping":62},{"user_id":268,"name":"s a i","steam_id":76561197970379754,"connected_time":1261000000000,"state":"active","ping":55},{"user_id":244,"name":"Mr. Mundy","steam_id":76561198132008918,"connected_time":2958000000000,"state":"active","ping":73},{"user_id":288,"name":"Uriri","steam_id":76561198085588686,"connected_time":360000000000,"state":"active","ping":81},{"user_id":284,"name":"Tanner Jarring","steam_id":76561198172024365,"connected_time":507000000000,"state":"active","ping":154},{"user_id":278,"name":"SirNeeco \u003c3","steam_id":76561198103014203,"connected_time":750000000000,"state":"active","ping":60},{"user_id":277,"name":"ok","steam_id":76561198044451693,"connected_time":811000000000,"state":"active","ping":108},{"user_id":271,"name":"Rimx","steam_id":76561198053034840,"connected_time":1190000000000,"state":"active","ping":93},{"user_id":275,"name":"Himbeermilch","steam_id":76561198303198090,"connected_time":874000000000,"state":"active","ping":58},{"user_id":286,"name":"asdl√¶kasd","steam_id":76561198870764276,"connected_time":453000000000,"state":"active","ping":76},{"user_id":281,"name":"manliest tf2 player","steam_id":76561198209360887,"connected_time":558000000000,"state":"active","ping":64},{"user_id":283,"name":"tom cruise jr","steam_id":76561198349062110,"connected_time":555000000000,"state":"active","ping":79},{"user_id":180,"name":"doubletwist","steam_id":76561198062571317,"connected_time":7702000000000,"state":"active","ping":89},{"user_id":242,"name":"henoadam","steam_id":76561198151350377,"connected_time":3354000000000,"state":"active","ping":64},{"user_id":264,"name":"Deeber","steam_id":76561198043957106,"connected_time":1644000000000,"state":"active","ping":59},{"user_id":289,"name":"the rizzler","steam_id":76561198070664114,"connected_time":51000000000,"state":"active","ping":70},{"user_id":229,"name":"QuestionMark","steam_id":76561199020079040,"connected_time":4081000000000,"state":"active","ping":119},{"user_id":257,"name":"Dondonz","steam_id":76561198111407893,"connected_time":2180000000000,"state":"active","ping":63},{"user_id":218,"name":"Nick","steam_id":76561198036109469,"connected_time":4355000000000,"state":"active","ping":96}]},{"server_id":23,"name":"Uncletopia | Frankfurt | 7 | Stopwatch Beta","name_short":"frk-7","host":"frk-1.de.uncletopia.com","port":27075,"enabled":true,"region":"eu","cc":"de","latitude":50.110924,"longitude":8.682127,"reserved":0,"last_update":"0001-01-01T00:00:00Z","name_a2s":"Uncletopia | Frankfurt | 7 | Stopwatch Beta","protocol":17,"map":"workshop/koth_ramjam_rc1.ugc459778887","folder":"tf","game":"Team Fortress","app_id":440,"player_count":0,"max_players":24,"Bots":0,"server_type":"Dedicated","server_os":"Linux","password":true,"vac":true,"version":"7742253","steam_id":85568392924742827,"keywords":["cp","nocrits","nodmgspread","uncletopia"],"game_id":440,"stv_port":27076,"stv_name":"Uncletopia | Frankfurt | 7 | Stopwatch Beta | STV","players":null},{"server_id":24,"name":"Uncletopia | Frankfurt | 8 | Community","name_short":"frk-8","host":"frk-1.de.uncletopia.com","port":27085,"enabled":true,"region":"eu","cc":"de","latitude":50.110924,"longitude":8.682127,"reserved":0,"last_update":"0001-01-01T00:00:00Z","name_a2s":"Uncletopia | Frankfurt | 8 | Community","protocol":17,"map":"workshop/koth_slaughter_rc1.ugc1712845210","folder":"tf","game":"Team Fortress","app_id":440,"player_count":24,"max_players":24,"Bots":0,"server_type":"Dedicated","server_os":"Linux","password":true,"vac":true,"version":"7742253","steam_id":85568392924742828,"keywords":["cp","nocrits","nodmgspread","uncletopia"],"game_id":440,"stv_port":27086,"stv_name":"Uncletopia | Frankfurt | 8 | Community | STV","players":[{"user_id":153,"name":"Vel0city","steam_id":76561198049687798,"connected_time":2721000000000,"state":"active","ping":53},{"user_id":187,"name":"TheFox.tf","steam_id":76561197996851702,"connected_time":669000000000,"state":"active","ping":69},{"user_id":172,"name":"Fat Pigeon","steam_id":76561198817940142,"connected_time":1259000000000,"state":"active","ping":57},{"user_id":173,"name":"Preyzen","steam_id":76561199043448824,"connected_time":1254000000000,"state":"active","ping":61},{"user_id":188,"name":"RedByte","steam_id":76561198056303045,"connected_time":660000000000,"state":"active","ping":71},{"user_id":178,"name":"Krof enjoyer","steam_id":76561199101777637,"connected_time":1029000000000,"state":"active","ping":74},{"user_id":193,"name":"Lyla \u003c3","steam_id":76561198356692614,"connected_time":517000000000,"state":"active","ping":148},{"user_id":196,"name":"htraB","steam_id":76561198043122677,"connected_time":451000000000,"state":"active","ping":61},{"user_id":194,"name":"wz50racer","steam_id":76561198076388927,"connected_time":489000000000,"state":"active","ping":73},{"user_id":197,"name":"ENGY","steam_id":76561198018158428,"connected_time":435000000000,"state":"active","ping":86},{"user_id":175,"name":"LasagnaLarry22","steam_id":76561198089478290,"connected_time":1182000000000,"state":"active","ping":55},{"user_id":137,"name":"dispenser (vibegoose)","steam_id":76561199065362078,"connected_time":3163000000000,"state":"active","ping":59},{"user_id":195,"name":"SparklyCherries","steam_id":76561198102969924,"connected_time":486000000000,"state":"active","ping":81},{"user_id":159,"name":"Jonathan","steam_id":76561198087988880,"connected_time":2045000000000,"state":"active","ping":54},{"user_id":203,"name":"Temmie","steam_id":76561198047296682,"connected_time":235000000000,"state":"active","ping":60},{"user_id":176,"name":"Zero (Orbital Gear Mastermind)","steam_id":76561198017416816,"connected_time":1166000000000,"state":"active","ping":60},{"user_id":199,"name":"MAJAX","steam_id":76561198254828632,"connected_time":389000000000,"state":"active","ping":55},{"user_id":155,"name":"Commander Boreale","steam_id":76561198118938257,"connected_time":2634000000000,"state":"active","ping":90},{"user_id":200,"name":"„ÉÜ„Ç§„É´„Çπ","steam_id":76561198022403271,"connected_time":389000000000,"state":"active","ping":45},{"user_id":184,"name":"Dzan50","steam_id":76561198059758591,"connected_time":833000000000,"state":"active","ping":94},{"user_id":206,"name":"GRAD0407","steam_id":76561199177185759,"connected_time":30000000000,"state":"active","ping":87},{"user_id":191,"name":"lolmurphyy","steam_id":76561198143068715,"connected_time":634000000000,"state":"active","ping":56},{"user_id":205,"name":"FiX_","steam_id":76561197979015714,"connected_time":153000000000,"state":"active","ping":66},{"user_id":156,"name":"BROOMSTER","steam_id":76561198344833818,"connected_time":2519000000000,"state":"active","ping":75}]},{"server_id":202,"name":"Uncletopia | Hong Kong | 1 | All Maps","name_short":"hgk-1","host":"hgk-1.hk.uncletopia.com","port":27015,"enabled":true,"region":"asia","cc":"hk","latitude":22.302711,"longitude":114.177216,"reserved":0,"last_update":"0001-01-01T00:00:00Z","name_a2s":"Uncletopia | Hong Kong | 1 | All Maps","protocol":17,"map":"plr_hightower","folder":"tf","game":"Team Fortress","app_id":440,"player_count":0,"max_players":24,"Bots":0,"server_type":"Dedicated","server_os":"Linux","password":true,"vac":true,"version":"7742253","steam_id":85568392924494504,"keywords":["nocrits","nodmgspread","payload","uncletopia"],"game_id":440,"stv_port":27016,"stv_name":"Uncletopia | Hong Kong | 1 | All Maps | STV","players":null},{"server_id":1,"name":"Uncletopia | Los Angeles | 1 | All Maps","name_short":"lax-1","host":"lax-1.us.uncletopia.com","port":27015,"enabled":true,"region":"us-west","cc":"us","latitude":33.94279,"longitude":-118.41004,"reserved":0,"last_update":"0001-01-01T00:00:00Z","name_a2s":"Uncletopia | Los Angeles | 1 | All Maps","protocol":17,"map":"pl_snowycoast","folder":"tf","game":"Team Fortress","app_id":440,"player_count":0,"max_players":24,"Bots":0,"server_type":"Dedicated","server_os":"Linux","password":true,"vac":true,"version":"7742253","steam_id":85568392924469991,"keywords":["nocrits","nodmgspread","payload","uncletopia"],"game_id":440,"stv_port":27016,"stv_name":"Uncletopia | Los Angeles | 1 | All Maps | STV","players":null},{"server_id":112,"name":"Uncletopia | Los Angeles | 2 | All Maps","name_short":"lax-2","host":"lax-1.us.uncletopia.com","port":27025,"enabled":true,"region":"us-west","cc":"us","latitude":33.94279,"longitude":-118.41004,"reserved":0,"last_update":"0001-01-01T00:00:00Z","name_a2s":"Uncletopia | Los Angeles | 2 | All Maps","protocol":17,"map":"pl_snowycoast","folder":"tf","game":"Team Fortress","app_id":440,"player_count":0,"max_players":24,"Bots":0,"server_type":"Dedicated","server_os":"Linux","password":true,"vac":true,"version":"7742253","steam_id":85568392924469992,"keywords":["nocrits","nodmgspread","payload","uncletopia"],"game_id":440,"stv_port":27026,"stv_name":"Uncletopia | Los Angeles | 2 | All Maps | STV","players":null},{"server_id":324,"name":"Uncletopia | Los Angeles | 3 | All Maps","name_short":"lax-3","host":"lax-1.us.uncletopia.com","port":27035,"enabled":true,"region":"us-west","cc":"us","latitude":33.94279,"longitude":-118.41004,"reserved":0,"last_update":"0001-01-01T00:00:00Z","name_a2s":"Uncletopia | Los Angeles | 3 | All Maps","protocol":17,"map":"cp_snakewater_final1","folder":"tf","game":"Team Fortress","app_id":440,"player_count":0,"max_players":24,"Bots":0,"server_type":"Dedicated","server_os":"Linux","password":true,"vac":true,"version":"7742253","steam_id":85568392924510198,"keywords":["cp","nocrits","nodmgspread","uncletopia"],"game_id":440,"stv_port":27036,"stv_name":"Uncletopia | Los Angeles | 3 | All Maps | STV","players":null},{"server_id":25,"name":"Uncletopia | Los Angeles | 4 | Stopwatch Beta","name_short":"lax-4","host":"lax-1.us.uncletopia.com","port":27045,"enabled":true,"region":"us-west","cc":"us","latitude":33.94279,"longitude":-118.41004,"reserved":0,"last_update":"0001-01-01T00:00:00Z","name_a2s":"Uncletopia | Los Angeles | 4 | Stopwatch Beta","protocol":17,"map":"workshop/koth_product_final.ugc454272353","folder":"tf","game":"Team Fortress","app_id":440,"player_count":0,"max_players":24,"Bots":0,"server_type":"Dedicated","server_os":"Linux","password":true,"vac":true,"version":"7742253","steam_id":85568392924510199,"keywords":["cp","nocrits","nodmgspread","uncletopia"],"game_id":440,"stv_port":27046,"stv_name":"Uncletopia | Los Angeles | 4 | Stopwatch Beta | STV","players":null},{"server_id":11,"name":"Uncletopia | London | 1 | All Maps","name_short":"lon-1","host":"lon-1.uk.uncletopia.com","port":27015,"enabled":true,"region":"eu","cc":"gb","latitude":51.509865,"longitude":-0.118092,"reserved":0,"last_update":"0001-01-01T00:00:00Z","name_a2s":"Uncletopia | London | 1 | All Maps","protocol":17,"map":"pl_frontier_final","folder":"tf","game":"Team Fortress","app_id":440,"player_count":24,"max_players":24,"Bots":0,"server_type":"Dedicated","server_os":"Linux","password":true,"vac":true,"version":"7742253","steam_id":85568392924367362,"keywords":["nocrits","nodmgspread","payload","uncletopia"],"game_id":440,"stv_port":27016,"stv_name":"Uncletopia | London | 1 | All Maps | STV","players":[{"user_id":550,"name":"eeeeee","steam_id":76561198427092596,"connected_time":992000000000,"state":"active","ping":121},{"user_id":519,"name":"Xydran","steam_id":76561198042397402,"connected_time":3048000000000,"state":"active","ping":73},{"user_id":561,"name":"Dr. Allamatt","steam_id":76561198118058482,"connected_time":245000000000,"state":"active","ping":70},{"user_id":545,"name":"Talonair","steam_id":76561198043630003,"connected_time":1269000000000,"state":"active","ping":52},{"user_id":559,"name":"kavun","steam_id":76561198023461869,"connected_time":326000000000,"state":"active","ping":85},{"user_id":520,"name":"[Insert Oneshot refrence here]","steam_id":76561198951206047,"connected_time":3046000000000,"state":"active","ping":88},{"user_id":514,"name":"Kosher Twink","steam_id":76561198397024973,"connected_time":3212000000000,"state":"active","ping":36},{"user_id":432,"name":"Katie","steam_id":76561198056193753,"connected_time":9316000000000,"state":"active","ping":36},{"user_id":552,"name":"DropShot","steam_id":76561198042476724,"connected_time":846000000000,"state":"active","ping":92},{"user_id":463,"name":"Kahvi","steam_id":76561198723244199,"connected_time":8048000000000,"state":"active","ping":74},{"user_id":533,"name":"homeinvasion$","steam_id":76561199111905021,"connected_time":2344000000000,"state":"active","ping":113},{"user_id":555,"name":"Hermitcrack","steam_id":76561198149216441,"connected_time":522000000000,"state":"active","ping":89},{"user_id":529,"name":"Hlib","steam_id":76561199183397939,"connected_time":2680000000000,"state":"active","ping":71},{"user_id":547,"name":"Sushi_Rumor","steam_id":76561198219891817,"connected_time":1057000000000,"state":"active","ping":86},{"user_id":508,"name":"Hydro","steam_id":76561199081791855,"connected_time":3734000000000,"state":"active","ping":64},{"user_id":503,"name":"Ross","steam_id":76561198965967986,"connected_time":3969000000000,"state":"active","ping":62},{"user_id":556,"name":"Morgulan","steam_id":76561198046564543,"connected_time":501000000000,"state":"active","ping":61},{"user_id":558,"name":"Bumblebee","steam_id":76561198033551105,"connected_time":431000000000,"state":"active","ping":67},{"user_id":530,"name":"nudjura","steam_id":76561198281986139,"connected_time":2529000000000,"state":"active","ping":40},{"user_id":497,"name":"glyph","steam_id":76561197980736364,"connected_time":4705000000000,"state":"active","ping":84},{"user_id":522,"name":"Fluffy","steam_id":76561198084447725,"connected_time":3041000000000,"state":"active","ping":59},{"user_id":502,"name":"gary","steam_id":76561198051623751,"connected_time":4032000000000,"state":"active","ping":67},{"user_id":544,"name":"Tafrum","steam_id":76561198053868147,"connected_time":1331000000000,"state":"active","ping":89},{"user_id":513,"name":"Jakearooney","steam_id":76561198137205424,"connected_time":3302000000000,"state":"active","ping":62}]},{"server_id":114,"name":"Uncletopia | London | 2 | All Maps","name_short":"lon-2","host":"lon-1.uk.uncletopia.com","port":27025,"enabled":true,"region":"eu","cc":"gb","latitude":51.509865,"longitude":-0.118092,"reserved":0,"last_update":"0001-01-01T00:00:00Z","name_a2s":"Uncletopia | London | 2 | All Maps","protocol":17,"map":"pl_barnblitz","folder":"tf","game":"Team Fortress","app_id":440,"player_count":24,"max_players":24,"Bots":0,"server_type":"Dedicated","server_os":"Linux","password":true,"vac":true,"version":"7742253","steam_id":85568392924470941,"keywords":["nocrits","nodmgspread","payload","uncletopia"],"game_id":440,"stv_port":27026,"stv_name":"Uncletopia | London | 2 | All Maps | STV","players":[{"user_id":282,"name":"B4R10N","steam_id":76561198047167954,"connected_time":5090000000000,"state":"active","ping":38},{"user_id":281,"name":"Pinroe","steam_id":76561198968160899,"connected_time":5139000000000,"state":"active","ping":65},{"user_id":248,"name":"Barry","steam_id":76561198351154533,"connected_time":7601000000000,"state":"active","ping":58},{"user_id":334,"name":"SuportSub99","steam_id":76561198127688900,"connected_time":1488000000000,"state":"active","ping":43},{"user_id":333,"name":"Ôº¥rendyÔº¨emon","steam_id":76561198158957324,"connected_time":1560000000000,"state":"active","ping":50},{"user_id":329,"name":"Mr_Pulse_","steam_id":76561198095001602,"connected_time":2189000000000,"state":"active","ping":105},{"user_id":336,"name":"U F Onion","steam_id":76561198843305350,"connected_time":1310000000000,"state":"active","ping":92},{"user_id":331,"name":"PWizard","steam_id":76561198026458489,"connected_time":1687000000000,"state":"active","ping":80},{"user_id":296,"name":"Mono","steam_id":76561198114569493,"connected_time":4608000000000,"state":"active","ping":45},{"user_id":316,"name":"Bounter","steam_id":76561198072614188,"connected_time":3406000000000,"state":"active","ping":75},{"user_id":332,"name":"Dominus.","steam_id":76561199065917088,"connected_time":1679000000000,"state":"active","ping":61},{"user_id":307,"name":"Noob_with_source","steam_id":76561198870362103,"connected_time":3636000000000,"state":"active","ping":59},{"user_id":346,"name":"el pro74638882","steam_id":76561198203486600,"connected_time":419000000000,"state":"active","ping":47},{"user_id":318,"name":"dogwater69","steam_id":76561198058366676,"connected_time":3356000000000,"state":"active","ping":75},{"user_id":322,"name":"I want my dog back","steam_id":76561198318748304,"connected_time":3098000000000,"state":"active","ping":138},{"user_id":325,"name":"Izzermann","steam_id":76561199100131945,"connected_time":2981000000000,"state":"active","ping":49},{"user_id":291,"name":"Polaris","steam_id":76561198007076931,"connected_time":4849000000000,"state":"active","ping":60},{"user_id":264,"name":"rat performance","steam_id":76561198065854668,"connected_time":7090000000000,"state":"active","ping":45},{"user_id":301,"name":"Matth3wksy","steam_id":76561199028063968,"connected_time":4368000000000,"state":"active","ping":47},{"user_id":319,"name":"finger","steam_id":76561198032101031,"connected_time":3320000000000,"state":"active","ping":83},{"user_id":328,"name":"WinTŒµR","steam_id":76561198025271751,"connected_time":2422000000000,"state":"active","ping":53},{"user_id":288,"name":"Great recession of 2008","steam_id":76561198881151562,"connected_time":4909000000000,"state":"active","ping":72},{"user_id":326,"name":"Combat Wombat","steam_id":76561197994720068,"connected_time":2803000000000,"state":"active","ping":56},{"user_id":314,"name":"jorogumo","steam_id":76561198838277022,"connected_time":3468000000000,"state":"active","ping":78}]},{"server_id":320,"name":"Uncletopia | London | 3 | All Maps","name_short":"lon-3","host":"lon-1.uk.uncletopia.com","port":27035,"enabled":true,"region":"eu","cc":"gb","latitude":51.509865,"longitude":-0.118092,"reserved":0,"last_update":"0001-01-01T00:00:00Z","name_a2s":"Uncletopia | London | 3 | All Maps","protocol":17,"map":"pl_upward","folder":"tf","game":"Team Fortress","app_id":440,"player_count":24,"max_players":24,"Bots":0,"server_type":"Dedicated","server_os":"Linux","password":true,"vac":true,"version":"7742253","steam_id":85568392924510192,"keywords":["nocrits","nodmgspread","payload","uncletopia"],"game_id":440,"stv_port":27036,"stv_name":"Uncletopia | London | 3 | All Maps | STV","players":[{"user_id":390,"name":"lyra","steam_id":76561198043601838,"connected_time":8766000000000,"state":"active","ping":67},{"user_id":479,"name":"„Åô LightFlight „Åó","steam_id":76561198079007530,"connected_time":2693000000000,"state":"active","ping":47},{"user_id":392,"name":"breakfast","steam_id":76561198106049954,"connected_time":8709000000000,"state":"active","ping":74},{"user_id":498,"name":"=flashpoint=","steam_id":76561197976774456,"connected_time":972000000000,"state":"active","ping":45},{"user_id":491,"name":"big hoops","steam_id":76561198004703799,"connected_time":1691000000000,"state":"active","ping":45},{"user_id":499,"name":"StabbyKnife","steam_id":76561198094010004,"connected_time":739000000000,"state":"active","ping":89},{"user_id":508,"name":"Tickleshits","steam_id":76561198159197241,"connected_time":290000000000,"state":"active","ping":134},{"user_id":505,"name":"rolling_tim","steam_id":76561198373668332,"connected_time":323000000000,"state":"active","ping":64},{"user_id":447,"name":"bro.","steam_id":76561198053394831,"connected_time":4409000000000,"state":"active","ping":71},{"user_id":490,"name":"Daoloth, Render of the Veils","steam_id":76561198115106008,"connected_time":1715000000000,"state":"active","ping":56},{"user_id":466,"name":"Joel!","steam_id":76561198155422742,"connected_time":3418000000000,"state":"active","ping":41},{"user_id":471,"name":"ECS","steam_id":76561198058910121,"connected_time":3142000000000,"state":"active","ping":46},{"user_id":512,"name":"End","steam_id":76561198332429328,"connected_time":100000000000,"state":"active","ping":31},{"user_id":497,"name":"G6 sherlock","steam_id":76561198802967796,"connected_time":1274000000000,"state":"active","ping":112},{"user_id":423,"name":"John Daly","steam_id":76561197993849325,"connected_time":7014000000000,"state":"active","ping":64},{"user_id":506,"name":"disposablesuperbread","steam_id":76561199074703607,"connected_time":316000000000,"state":"active","ping":94},{"user_id":500,"name":"Lunar","steam_id":76561199077495290,"connected_time":706000000000,"state":"active","ping":69},{"user_id":495,"name":"Toon","steam_id":76561198065421595,"connected_time":1452000000000,"state":"active","ping":66},{"user_id":507,"name":"moodbreaker","steam_id":76561198130996058,"connected_time":306000000000,"state":"active","ping":70},{"user_id":513,"name":"Mathias","steam_id":76561198148921851,"connected_time":66000000000,"state":"active","ping":58},{"user_id":503,"name":"TheBeardedM1G","steam_id":76561198040208946,"connected_time":370000000000,"state":"active","ping":45},{"user_id":496,"name":"SimplePig","steam_id":76561198071862153,"connected_time":1299000000000,"state":"active","ping":109},{"user_id":510,"name":"BobTheBox","steam_id":76561198080894136,"connected_time":255000000000,"state":"active","ping":60},{"user_id":511,"name":"crafteen","steam_id":76561198362185755,"connected_time":253000000000,"state":"active","ping":50}]},{"server_id":321,"name":"Uncletopia | London | 4 | All Maps","name_short":"lon-4","host":"lon-1.uk.uncletopia.com","port":27045,"enabled":true,"region":"eu","cc":"gb","latitude":51.509865,"longitude":-0.118092,"reserved":0,"last_update":"0001-01-01T00:00:00Z","name_a2s":"Uncletopia | London | 4 | All Maps","protocol":17,"map":"pl_badwater","folder":"tf","game":"Team Fortress","app_id":440,"player_count":24,"max_players":24,"Bots":0,"server_type":"Dedicated","server_os":"Linux","password":true,"vac":true,"version":"7742253","steam_id":85568392924510193,"keywords":["nocrits","nodmgspread","payload","uncletopia"],"game_id":440,"stv_port":27046,"stv_name":"Uncletopia | London | 4 | All Maps | STV","players":[{"user_id":320,"name":"Clickin","steam_id":76561198096006599,"connected_time":292000000000,"state":"active","ping":105},{"user_id":318,"name":"–∏–≤–∞–Ω","steam_id":76561198072730591,"connected_time":787000000000,"state":"active","ping":62},{"user_id":319,"name":"kotamine","steam_id":76561198068907991,"connected_time":504000000000,"state":"active","ping":74},{"user_id":315,"name":"Joshwa04","steam_id":76561198218516103,"connected_time":1123000000000,"state":"active","ping":62},{"user_id":254,"name":"+=={:::::::::::::::::\u003e","steam_id":76561199210404349,"connected_time":3838000000000,"state":"active","ping":54},{"user_id":283,"name":"British Disapproval","steam_id":76561198001375260,"connected_time":2471000000000,"state":"active","ping":54},{"user_id":271,"name":"Jeffenthropus","steam_id":76561198134204248,"connected_time":3579000000000,"state":"active","ping":116},{"user_id":285,"name":"Bia≈Çy","steam_id":76561197996016988,"connected_time":2426000000000,"state":"active","ping":75},{"user_id":299,"name":"airshotter","steam_id":76561198154406495,"connected_time":2040000000000,"state":"active","ping":45},{"user_id":286,"name":"DocTwoEight","steam_id":76561198153488940,"connected_time":2334000000000,"state":"active","ping":75},{"user_id":296,"name":"Wraith","steam_id":76561198071015257,"connected_time":2114000000000,"state":"active","ping":50},{"user_id":258,"name":"E","steam_id":76561198166340115,"connected_time":3805000000000,"state":"active","ping":48},{"user_id":317,"name":"Koda","steam_id":76561198142696299,"connected_time":860000000000,"state":"active","ping":45},{"user_id":300,"name":"Slimeby","steam_id":76561198353438688,"connected_time":1967000000000,"state":"active","ping":232},{"user_id":309,"name":"Vezage","steam_id":76561198064916164,"connected_time":1461000000000,"state":"active","ping":75},{"user_id":310,"name":"–ò–Ω—Å–ø–µ–∫—Ç–æ—Ä –ê—Ç–∞—Å","steam_id":76561199175688390,"connected_time":1416000000000,"state":"active","ping":88},{"user_id":164,"name":"Blyatwork","steam_id":76561198825379598,"connected_time":9858000000000,"state":"active","ping":49},{"user_id":302,"name":"Biscuitbox","steam_id":76561198448396620,"connected_time":1781000000000,"state":"active","ping":46},{"user_id":265,"name":"HudRud","steam_id":76561198048378956,"connected_time":3723000000000,"state":"active","ping":94},{"user_id":290,"name":"average f2p","steam_id":76561199136308055,"connected_time":2253000000000,"state":"active","ping":47},{"user_id":297,"name":"sondi","steam_id":76561198045466209,"connected_time":2076000000000,"state":"active","ping":75},{"user_id":304,"name":"Lessoz","steam_id":76561199211572036,"connected_time":1492000000000,"state":"active","ping":82},{"user_id":316,"name":"trigarant","steam_id":76561198061118634,"connected_time":993000000000,"state":"active","ping":178},{"user_id":314,"name":"lowcostfish.co.uk","steam_id":76561198126022039,"connected_time":1195000000000,"state":"active","ping":47}]},{"server_id":21,"name":"Uncletopia | London | 5 | All Maps","name_short":"lon-5","host":"lon-1.uk.uncletopia.com","port":27055,"enabled":true,"region":"eu","cc":"gb","latitude":51.509865,"longitude":-0.118092,"reserved":0,"last_update":"0001-01-01T00:00:00Z","name_a2s":"Uncletopia | London | 5 | All Maps","protocol":17,"map":"pl_frontier_final","folder":"tf","game":"Team Fortress","app_id":440,"player_count":4,"max_players":24,"Bots":0,"server_type":"Dedicated","server_os":"Linux","password":true,"vac":true,"version":"7742253","steam_id":85568392924742829,"keywords":["nocrits","nodmgspread","payload","uncletopia"],"game_id":440,"stv_port":27056,"stv_name":"Uncletopia | London | 5 | All Maps | STV","players":[{"user_id":11,"name":"AforeKingDwarf","steam_id":76561198043562926,"connected_time":225000000000,"state":"active","ping":37},{"user_id":9,"name":"Kyeel_Smeel","steam_id":76561199164471622,"connected_time":823000000000,"state":"active","ping":70},{"user_id":10,"name":"Alec_76a","steam_id":76561198054305165,"connected_time":772000000000,"state":"active","ping":69},{"user_id":12,"name":"t1dkek","steam_id":76561199073477083,"connected_time":136000000000,"state":"active","ping":80}]},{"server_id":22,"name":"Uncletopia | London | 6 | All Maps","name_short":"lon-6","host":"lon-1.uk.uncletopia.com","port":27065,"enabled":true,"region":"eu","cc":"gb","latitude":51.509865,"longitude":-0.118092,"reserved":0,"last_update":"0001-01-01T00:00:00Z","name_a2s":"Uncletopia | London | 6 | All Maps","protocol":17,"map":"koth_lakeside_final","folder":"tf","game":"Team Fortress","app_id":440,"player_count":0,"max_players":24,"Bots":0,"server_type":"Dedicated","server_os":"Linux","password":true,"vac":true,"version":"7742253","steam_id":85568392924742830,"keywords":["cp","nocrits","nodmgspread","uncletopia"],"game_id":440,"stv_port":27066,"stv_name":"Uncletopia | London | 6 | All Maps | STV","players":null},{"server_id":40,"name":"Uncletopia | London | 7 | No Payload","name_short":"lon-7","host":"lon-1.uk.uncletopia.com","port":27075,"enabled":true,"region":"eu","cc":"gb","latitude":51.509865,"longitude":-0.118092,"reserved":0,"last_update":"0001-01-01T00:00:00Z","name_a2s":"Uncletopia | London | 7 | No Payload","protocol":17,"map":"koth_badlands","folder":"tf","game":"Team Fortress","app_id":440,"player_count":0,"max_players":24,"Bots":0,"server_type":"Dedicated","server_os":"Linux","password":true,"vac":true,"version":"7742253","steam_id":85568392924964314,"keywords":["cp","nocrits","nodmgspread","uncletopia"],"game_id":440,"stv_port":27076,"stv_name":"Uncletopia | London | 7 | No Payload | STV","players":null},{"server_id":41,"name":"Uncletopia | London | 8 | Community","name_short":"lon-8","host":"lon-1.uk.uncletopia.com","port":27085,"enabled":true,"region":"eu","cc":"gb","latitude":51.509865,"longitude":-0.118092,"reserved":0,"last_update":"0001-01-01T00:00:00Z","name_a2s":"Uncletopia | London | 8 | Community","protocol":17,"map":"workshop/pl_vigil_rc9.ugc1266210012","folder":"tf","game":"Team Fortress","app_id":440,"player_count":0,"max_players":24,"Bots":0,"server_type":"Dedicated","server_os":"Linux","password":true,"vac":true,"version":"7742253","steam_id":85568392924964315,"keywords":["nocrits","nodmgspread","payload","uncletopia"],"game_id":440,"stv_port":27086,"stv_name":"Uncletopia | London | 8 | Community | STV","players":null},{"server_id":300,"name":"Uncletopia | Montr√©al | 1 | All Maps","name_short":"mtl-1","host":"mtl-1.ca.uncletopia.com","port":27015,"enabled":true,"region":"us-east","cc":"ca","latitude":45.50889,"longitude":-73.56167,"reserved":0,"last_update":"0001-01-01T00:00:00Z","name_a2s":"Uncletopia | Montr√©al | 1 | All Maps","protocol":17,"map":"pl_snowycoast","folder":"tf","game":"Team Fortress","app_id":440,"player_count":0,"max_players":24,"Bots":0,"server_type":"Dedicated","server_os":"Linux","password":true,"vac":true,"version":"7742253","steam_id":85568392924500087,"keywords":["nocrits","nodmgspread","payload","uncletopia"],"game_id":440,"stv_port":27016,"stv_name":"Uncletopia | Montr√©al | 1 | All Maps | STV","players":null},{"server_id":301,"name":"Uncletopia | Montr√©al | 2 | All Maps","name_short":"mtl-2","host":"mtl-1.ca.uncletopia.com","port":27025,"enabled":true,"region":"us-east","cc":"ca","latitude":45.50889,"longitude":-73.56167,"reserved":0,"last_update":"0001-01-01T00:00:00Z","name_a2s":"Uncletopia | Montr√©al | 2 | All Maps","protocol":17,"map":"koth_highpass","folder":"tf","game":"Team Fortress","app_id":440,"player_count":0,"max_players":24,"Bots":0,"server_type":"Dedicated","server_os":"Linux","password":true,"vac":true,"version":"7742253","steam_id":85568392924500088,"keywords":["cp","nocrits","nodmgspread","uncletopia"],"game_id":440,"stv_port":27026,"stv_name":"Uncletopia | Montr√©al | 2 | All Maps | STV","players":null},{"server_id":302,"name":"Uncletopia | Montr√©al | 3 | All Maps","name_short":"mtl-3","host":"mtl-1.ca.uncletopia.com","port":27035,"enabled":true,"region":"us-east","cc":"ca","latitude":45.50889,"longitude":-73.56167,"reserved":0,"last_update":"0001-01-01T00:00:00Z","name_a2s":"Uncletopia | Montr√©al | 3 | All Maps","protocol":17,"map":"cp_mountainlab","folder":"tf","game":"Team Fortress","app_id":440,"player_count":0,"max_players":24,"Bots":0,"server_type":"Dedicated","server_os":"Linux","password":true,"vac":true,"version":"7742253","steam_id":85568392924500089,"keywords":["cp","nocrits","nodmgspread","uncletopia"],"game_id":440,"stv_port":27036,"stv_name":"Uncletopia | Montr√©al | 3 | All Maps | STV","players":null},{"server_id":303,"name":"Uncletopia | Montr√©al | 4 | No Payload","name_short":"mtl-4","host":"mtl-1.ca.uncletopia.com","port":27045,"enabled":true,"region":"us-east","cc":"ca","latitude":45.50889,"longitude":-73.56167,"reserved":0,"last_update":"0001-01-01T00:00:00Z","name_a2s":"Uncletopia | Montr√©al | 4 | No Payload","protocol":17,"map":"cp_snakewater_final1","folder":"tf","game":"Team Fortress","app_id":440,"player_count":0,"max_players":24,"Bots":0,"server_type":"Dedicated","server_os":"Linux","password":true,"vac":true,"version":"7742253","steam_id":85568392924500090,"keywords":["cp","nocrits","nodmgspread","uncletopia"],"game_id":440,"stv_port":27046,"stv_name":"Uncletopia | Montr√©al | 4 | No Payload | STV","players":null},{"server_id":13,"name":"Uncletopia | New York City | 1 | All Maps","name_short":"nyc-1","host":"nyc-1.us.uncletopia.com","port":27015,"enabled":true,"region":"us-east","cc":"us","latitude":40.73061,"longitude":-73.93524,"reserved":0,"last_update":"0001-01-01T00:00:00Z","name_a2s":"Uncletopia | New York City | 1 | All Maps","protocol":17,"map":"cp_steel","folder":"tf","game":"Team Fortress","app_id":440,"player_count":23,"max_players":24,"Bots":0,"server_type":"Dedicated","server_os":"Linux","password":true,"vac":true,"version":"7742253","steam_id":85568392924469993,"keywords":["cp","nocrits","nodmgspread","uncletopia"],"game_id":440,"stv_port":27016,"stv_name":"Uncletopia | New York City | 1 | All Maps | STV","players":[{"user_id":7,"name":"Gitgudgame","steam_id":76561198354761942,"connected_time":12043000000000,"state":"active","ping":57},{"user_id":148,"name":"Weird","steam_id":76561199082362722,"connected_time":355000000000,"state":"active","ping":98},{"user_id":120,"name":"Inevitable","steam_id":76561198210050169,"connected_time":3382000000000,"state":"active","ping":51},{"user_id":13,"name":"Japanese Rabbit Enthusiast","steam_id":76561199134895220,"connected_time":11401000000000,"state":"active","ping":56},{"user_id":141,"name":"PzVIIIMaus","steam_id":76561198346559365,"connected_time":486000000000,"state":"active","ping":62},{"user_id":121,"name":"Thurricane","steam_id":76561198410724666,"connected_time":3379000000000,"state":"active","ping":49},{"user_id":156,"name":"Walmart Employee","steam_id":76561198840373909,"connected_time":7000000000,"state":"spawning","ping":115},{"user_id":125,"name":"J. Lightning","steam_id":76561198147148998,"connected_time":2239000000000,"state":"active","ping":71},{"user_id":142,"name":"jnv1013","steam_id":76561198965549228,"connected_time":484000000000,"state":"active","ping":54},{"user_id":152,"name":"VixianUwU","steam_id":76561198948815060,"connected_time":211000000000,"state":"active","ping":98},{"user_id":136,"name":"vortexgamer","steam_id":76561197999435527,"connected_time":941000000000,"state":"active","ping":110},{"user_id":110,"name":"beli-ben","steam_id":76561199230045254,"connected_time":4853000000000,"state":"active","ping":133},{"user_id":153,"name":"Mablinlok","steam_id":76561197992718242,"connected_time":208000000000,"state":"active","ping":72},{"user_id":143,"name":"straws","steam_id":76561199035698543,"connected_time":477000000000,"state":"active","ping":105},{"user_id":155,"name":"Toygar","steam_id":76561198023679830,"connected_time":147000000000,"state":"active","ping":75},{"user_id":140,"name":"B. Comet","steam_id":76561198058235498,"connected_time":577000000000,"state":"active","ping":170},{"user_id":127,"name":"Syrix","steam_id":76561198017328672,"connected_time":2235000000000,"state":"active","ping":91},{"user_id":151,"name":"Samus","steam_id":76561198121933439,"connected_time":324000000000,"state":"active","ping":68},{"user_id":145,"name":"aimee","steam_id":76561198834309212,"connected_time":434000000000,"state":"active","ping":57},{"user_id":131,"name":"PizzaPasta","steam_id":76561199125109082,"connected_time":1368000000000,"state":"active","ping":63},{"user_id":93,"name":"Deej","steam_id":76561198121162429,"connected_time":6471000000000,"state":"active","ping":52},{"user_id":150,"name":"Wiggee","steam_id":76561197972792989,"connected_time":346000000000,"state":"active","ping":84},{"user_id":96,"name":"A Rhino with Coronavirus","steam_id":76561197999451366,"connected_time":6252000000000,"state":"active","ping":92}]},{"server_id":14,"name":"Uncletopia | New York City | 2 | All Maps","name_short":"nyc-2","host":"nyc-1.us.uncletopia.com","port":27025,"enabled":true,"region":"us-east","cc":"us","latitude":40.73061,"longitude":-73.93524,"reserved":0,"last_update":"0001-01-01T00:00:00Z","name_a2s":"Uncletopia | New York City | 2 | All Maps","protocol":17,"map":"pl_badwater","folder":"tf","game":"Team Fortress","app_id":440,"player_count":24,"max_players":24,"Bots":0,"server_type":"Dedicated","server_os":"Linux","password":true,"vac":true,"version":"7742253","steam_id":85568392924469994,"keywords":["nocrits","nodmgspread","payload","uncletopia"],"game_id":440,"stv_port":27026,"stv_name":"Uncletopia | New York City | 2 | All Maps | STV","players":[{"user_id":66,"name":"Loogey03","steam_id":76561198155483586,"connected_time":1638000000000,"state":"active","ping":77},{"user_id":61,"name":"carrion goat she/it","steam_id":76561198262064871,"connected_time":2235000000000,"state":"active","ping":45},{"user_id":46,"name":"Sleepy Billy","steam_id":76561198083798918,"connected_time":2933000000000,"state":"active","ping":59},{"user_id":73,"name":"Pink haired slut enjoyer","steam_id":76561198080775103,"connected_time":1095000000000,"state":"active","ping":98},{"user_id":20,"name":"cremeoner","steam_id":76561198372332251,"connected_time":4157000000000,"state":"active","ping":32},{"user_id":84,"name":"Monsterjessy","steam_id":76561198035630985,"connected_time":291000000000,"state":"active","ping":69},{"user_id":47,"name":"Ubadiah","steam_id":76561198329996885,"connected_time":2856000000000,"state":"active","ping":38},{"user_id":23,"name":"crunchy and spicy wasp snack","steam_id":76561199322728703,"connected_time":4107000000000,"state":"active","ping":52},{"user_id":85,"name":"Withur From My Singing Monsters","steam_id":76561198272471440,"connected_time":282000000000,"state":"active","ping":81},{"user_id":89,"name":"Yonn","steam_id":76561198274242643,"connected_time":8000000000,"state":"spawning","ping":134},{"user_id":48,"name":"BrotherGrowly","steam_id":76561198086663043,"connected_time":2849000000000,"state":"active","ping":87},{"user_id":62,"name":"15 INCH TGIRL SCHLONG","steam_id":76561198122059018,"connected_time":1967000000000,"state":"active","ping":74},{"user_id":49,"name":"Soup Dumpling","steam_id":76561197971352904,"connected_time":2828000000000,"state":"active","ping":42},{"user_id":31,"name":"GuyGoom","steam_id":76561198254522178,"connected_time":3951000000000,"state":"active","ping":68},{"user_id":76,"name":"balls itch","steam_id":76561198337692867,"connected_time":554000000000,"state":"active","ping":73},{"user_id":74,"name":"LocaKola","steam_id":76561198173435430,"connected_time":893000000000,"state":"active","ping":50},{"user_id":88,"name":"fudo myoo","steam_id":76561198456258164,"connected_time":160000000000,"state":"active","ping":71},{"user_id":69,"name":"Sean","steam_id":76561198011422340,"connected_time":1601000000000,"state":"active","ping":87},{"user_id":51,"name":"TheWallaby","steam_id":76561198948037546,"connected_time":2772000000000,"state":"active","ping":51},{"user_id":52,"name":"hecca_oof","steam_id":76561199226471681,"connected_time":2706000000000,"state":"active","ping":163},{"user_id":80,"name":"@rthur","steam_id":76561198010152299,"connected_time":453000000000,"state":"active","ping":122},{"user_id":53,"name":"NotAChanceLmao","steam_id":76561199466717297,"connected_time":2596000000000,"state":"active","ping":79},{"user_id":77,"name":"Laft","steam_id":76561198364501558,"connected_time":534000000000,"state":"active","ping":49},{"user_id":78,"name":"e","steam_id":76561198131245396,"connected_time":522000000000,"state":"active","ping":69}]},{"server_id":15,"name":"Uncletopia | New York City | 3 | Stopwatch Beta","name_short":"nyc-3","host":"nyc-1.us.uncletopia.com","port":27035,"enabled":true,"region":"us-east","cc":"us","latitude":40.73061,"longitude":-73.93524,"reserved":0,"last_update":"0001-01-01T00:00:00Z","name_a2s":"Uncletopia | New York City | 3 | Stopwatch Beta","protocol":17,"map":"pl_pier","folder":"tf","game":"Team Fortress","app_id":440,"player_count":0,"max_players":24,"Bots":0,"server_type":"Dedicated","server_os":"Linux","password":true,"vac":true,"version":"7742253","steam_id":85568392924742820,"keywords":["nocrits","nodmgspread","payload","uncletopia"],"game_id":440,"stv_port":27036,"stv_name":"Uncletopia | New York City | 3 | Stopwatch Beta | STV","players":null},{"server_id":16,"name":"Uncletopia | New York City | 4 | Community","name_short":"nyc-4","host":"nyc-1.us.uncletopia.com","port":27045,"enabled":true,"region":"us-east","cc":"us","latitude":40.73061,"longitude":-73.93524,"reserved":0,"last_update":"0001-01-01T00:00:00Z","name_a2s":"Uncletopia | New York City | 4 | Community","protocol":17,"map":"workshop/koth_ashville_final.ugc2130459942","folder":"tf","game":"Team Fortress","app_id":440,"player_count":0,"max_players":24,"Bots":0,"server_type":"Dedicated","server_os":"Linux","password":true,"vac":true,"version":"7742253","steam_id":85568392924742821,"keywords":["cp","nocrits","nodmgspread","uncletopia"],"game_id":440,"stv_port":27046,"stv_name":"Uncletopia | New York City | 4 | Community | STV","players":null},{"server_id":142,"name":"Uncletopia | S√£o Paulo | 1 | All Maps","name_short":"sao-1","host":"sao-1.br.uncletopia.com","port":27015,"enabled":true,"region":"sa","cc":"br","latitude":-23.533773,"longitude":-46.62529,"reserved":0,"last_update":"0001-01-01T00:00:00Z","name_a2s":"Uncletopia | S√£o Paulo | 1 | All Maps","protocol":17,"map":"koth_viaduct","folder":"tf","game":"Team Fortress","app_id":440,"player_count":2,"max_players":24,"Bots":0,"server_type":"Dedicated","server_os":"Linux","password":true,"vac":true,"version":"7742253","steam_id":85568392924469996,"keywords":["cp","nocrits","nodmgspread","uncletopia"],"game_id":440,"stv_port":27016,"stv_name":"Uncletopia | S√£o Paulo | 1 | All Maps | STV","players":[{"user_id":18,"name":"Engineer Gaming","steam_id":76561198255597484,"connected_time":401000000000,"state":"active","ping":179},{"user_id":19,"name":"Strong","steam_id":76561198110369097,"connected_time":373000000000,"state":"active","ping":168}]},{"server_id":143,"name":"Uncletopia | S√£o Paulo | 2 | All Maps","name_short":"sao-2","host":"sao-2.br.uncletopia.com","port":27015,"enabled":true,"region":"sa","cc":"br","latitude":-23.533773,"longitude":-46.62529,"reserved":0,"last_update":"0001-01-01T00:00:00Z","name_a2s":"Uncletopia | S√£o Paulo | 2 | All Maps","protocol":17,"map":"koth_viaduct","folder":"tf","game":"Team Fortress","app_id":440,"player_count":0,"max_players":24,"Bots":0,"server_type":"Dedicated","server_os":"Linux","password":true,"vac":true,"version":"7742253","steam_id":85568392924485349,"keywords":["cp","nocrits","nodmgspread","uncletopia"],"game_id":440,"stv_port":27016,"stv_name":"Uncletopia | S√£o Paulo | 2 | All Maps | STV","players":null},{"server_id":7,"name":"Uncletopia | Seattle | 1 | All Maps","name_short":"sea-1","host":"sea-1.us.uncletopia.com","port":27015,"enabled":true,"region":"us-west","cc":"us","latitude":47.608013,"longitude":-122.33517,"reserved":0,"last_update":"0001-01-01T00:00:00Z","name_a2s":"Uncletopia | Seattle | 1 | All Maps","protocol":17,"map":"pl_badwater","folder":"tf","game":"Team Fortress","app_id":440,"player_count":24,"max_players":24,"Bots":0,"server_type":"Dedicated","server_os":"Linux","password":true,"vac":true,"version":"7742253","steam_id":85568392924469997,"keywords":["nocrits","nodmgspread","payload","uncletopia"],"game_id":440,"stv_port":27016,"stv_name":"Uncletopia | Seattle | 1 | All Maps | STV","players":[{"user_id":121,"name":"Trooper5k","steam_id":76561198308230713,"connected_time":330000000000,"state":"active","ping":48},{"user_id":99,"name":"p9 thunderous prophet","steam_id":76561198131166135,"connected_time":1453000000000,"state":"active","ping":34},{"user_id":62,"name":"Jay","steam_id":76561198148464582,"connected_time":3489000000000,"state":"active","ping":85},{"user_id":130,"name":"no vc no c","steam_id":76561197989503095,"connected_time":1000000000,"state":"spawning","ping":119},{"user_id":23,"name":"hoOmIN","steam_id":76561198334947079,"connected_time":6180000000000,"state":"active","ping":73},{"user_id":102,"name":"MFIN HOG CRANKER","steam_id":76561198046073848,"connected_time":1357000000000,"state":"active","ping":45},{"user_id":113,"name":"Dr. Harold coomer Phd","steam_id":76561197999158580,"connected_time":754000000000,"state":"active","ping":58},{"user_id":92,"name":"The Caretaker","steam_id":76561198125241411,"connected_time":1939000000000,"state":"active","ping":107},{"user_id":119,"name":"non_ai","steam_id":76561198270951938,"connected_time":426000000000,"state":"active","ping":116},{"user_id":111,"name":"KeepTheChangeYaFilthyAnimal","steam_id":76561197961107982,"connected_time":968000000000,"state":"active","ping":88},{"user_id":122,"name":"Tracker","steam_id":76561197993664307,"connected_time":309000000000,"state":"active","ping":92},{"user_id":120,"name":"alice's adventures in pyroland","steam_id":76561198325306660,"connected_time":419000000000,"state":"active","ping":72},{"user_id":100,"name":"HanakoToast","steam_id":76561198045233131,"connected_time":1430000000000,"state":"active","ping":96},{"user_id":107,"name":"The World Is Changing‚Ñ¢","steam_id":76561198042952845,"connected_time":1202000000000,"state":"active","ping":47},{"user_id":86,"name":"sammy","steam_id":76561199001307670,"connected_time":2201000000000,"state":"active","ping":53},{"user_id":124,"name":"Crake","steam_id":76561198001959071,"connected_time":230000000000,"state":"active","ping":49},{"user_id":125,"name":"mozzie","steam_id":76561198233647680,"connected_time":215000000000,"state":"active","ping":60},{"user_id":126,"name":"aphexgwen","steam_id":76561198061497429,"connected_time":202000000000,"state":"active","ping":90},{"user_id":128,"name":"sara","steam_id":76561198283462369,"connected_time":120000000000,"state":"active","ping":86},{"user_id":129,"name":"Hot cheeto up my left nostril","steam_id":76561199103766971,"connected_time":57000000000,"state":"active","ping":114},{"user_id":112,"name":"self sufficient kitten","steam_id":76561197960592612,"connected_time":810000000000,"state":"active","ping":45},{"user_id":116,"name":"Dimple","steam_id":76561198980324190,"connected_time":639000000000,"state":"active","ping":59},{"user_id":90,"name":"Themasterman75","steam_id":76561199385573293,"connected_time":2088000000000,"state":"active","ping":69},{"user_id":91,"name":"General Fisticuffs","steam_id":76561198255721392,"connected_time":2047000000000,"state":"active","ping":111}]},{"server_id":119,"name":"Uncletopia | Seattle | 2 | All Maps","name_short":"sea-2","host":"sea-1.us.uncletopia.com","port":27025,"enabled":true,"region":"us-west","cc":"us","latitude":47.608013,"longitude":-122.33517,"reserved":0,"last_update":"0001-01-01T00:00:00Z","name_a2s":"Uncletopia | Seattle | 2 | All Maps","protocol":17,"map":"koth_cascade","folder":"tf","game":"Team Fortress","app_id":440,"player_count":0,"max_players":24,"Bots":0,"server_type":"Dedicated","server_os":"Linux","password":true,"vac":true,"version":"7742253","steam_id":85568392924469998,"keywords":["cp","nocrits","nodmgspread","uncletopia"],"game_id":440,"stv_port":27026,"stv_name":"Uncletopia | Seattle | 2 | All Maps | STV","players":null},{"server_id":406,"name":"Uncletopia | Seattle | 3 | Stopwatch Beta","name_short":"sea-3","host":"sea-1.us.uncletopia.com","port":27035,"enabled":true,"region":"us-west","cc":"us","latitude":47.608013,"longitude":-122.33517,"reserved":0,"last_update":"0001-01-01T00:00:00Z","name_a2s":"Uncletopia | Seattle | 3 | Stopwatch Beta","protocol":17,"map":"workshop/koth_ramjam_rc1.ugc459778887","folder":"tf","game":"Team Fortress","app_id":440,"player_count":0,"max_players":24,"Bots":0,"server_type":"Dedicated","server_os":"Linux","password":true,"vac":true,"version":"7742253","steam_id":85568392924515217,"keywords":["cp","nocrits","nodmgspread","uncletopia"],"game_id":440,"stv_port":27036,"stv_name":"Uncletopia | Seattle | 3 | Stopwatch Beta | STV","players":null},{"server_id":17,"name":"Uncletopia | San Francisco | 1 | All Maps","name_short":"sfo-1","host":"sfo-1.us.uncletopia.com","port":27015,"enabled":true,"region":"us-west","cc":"us","latitude":37.77397,"longitude":-122.4313,"reserved":0,"last_update":"0001-01-01T00:00:00Z","name_a2s":"Uncletopia | San Francisco | 1 | All Maps","protocol":17,"map":"pl_snowycoast","folder":"tf","game":"Team Fortress","app_id":440,"player_count":0,"max_players":24,"Bots":0,"server_type":"Dedicated","server_os":"Linux","password":true,"vac":true,"version":"7742253","steam_id":85568392924469999,"keywords":["nocrits","nodmgspread","payload","uncletopia"],"game_id":440,"stv_port":27016,"stv_name":"Uncletopia | San Francisco | 1 | All Maps | STV","players":null},{"server_id":18,"name":"Uncletopia | San Francisco | 2 | All Maps","name_short":"sfo-2","host":"sfo-1.us.uncletopia.com","port":27025,"enabled":true,"region":"us-west","cc":"us","latitude":37.77397,"longitude":-122.4313,"reserved":0,"last_update":"0001-01-01T00:00:00Z","name_a2s":"Uncletopia | San Francisco | 2 | All Maps","protocol":17,"map":"pl_borneo","folder":"tf","game":"Team Fortress","app_id":440,"player_count":0,"max_players":24,"Bots":0,"server_type":"Dedicated","server_os":"Linux","password":true,"vac":true,"version":"7742253","steam_id":85568392924470000,"keywords":["nocrits","nodmgspread","payload","uncletopia"],"game_id":440,"stv_port":27026,"stv_name":"Uncletopia | San Francisco | 2 | All Maps | STV","players":null},{"server_id":19,"name":"Uncletopia | San Francisco | 3 | Stopwatch Beta","name_short":"sfo-3","host":"sfo-1.us.uncletopia.com","port":27035,"enabled":true,"region":"us-west","cc":"us","latitude":37.77397,"longitude":-122.4313,"reserved":0,"last_update":"0001-01-01T00:00:00Z","name_a2s":"Uncletopia | San Francisco | 3 | Stopwatch Beta","protocol":17,"map":"cp_snakewater_final1","folder":"tf","game":"Team Fortress","app_id":440,"player_count":0,"max_players":24,"Bots":0,"server_type":"Dedicated","server_os":"Linux","password":true,"vac":true,"version":"7742253","steam_id":85568392924742824,"keywords":["cp","nocrits","nodmgspread","uncletopia"],"game_id":440,"stv_port":27036,"stv_name":"Uncletopia | San Francisco | 3 | Stopwatch Beta | STV","players":null},{"server_id":20,"name":"Uncletopia | San Francisco | 4 | Community","name_short":"sfo-4","host":"sfo-1.us.uncletopia.com","port":27045,"enabled":true,"region":"us-west","cc":"us","latitude":37.77397,"longitude":-122.4313,"reserved":0,"last_update":"0001-01-01T00:00:00Z","name_a2s":"Uncletopia | San Francisco | 4 | Community","protocol":17,"map":"workshop/koth_bagel_rc5.ugc2514036946","folder":"tf","game":"Team Fortress","app_id":440,"player_count":0,"max_players":24,"Bots":0,"server_type":"Dedicated","server_os":"Linux","password":true,"vac":true,"version":"7742253","steam_id":85568392924742826,"keywords":["cp","nocrits","nodmgspread","uncletopia"],"game_id":440,"stv_port":27046,"stv_name":"Uncletopia | San Francisco | 4 | Community | STV","players":null},{"server_id":141,"name":"Uncletopia | Sydney | 1 | All Maps","name_short":"syd-1","host":"syd-1.au.uncletopia.com","port":27015,"enabled":true,"region":"au","cc":"au","latitude":-33.865143,"longitude":151.2099,"reserved":0,"last_update":"0001-01-01T00:00:00Z","name_a2s":"Uncletopia | Sydney | 1 | All Maps","protocol":17,"map":"cp_dustbowl","folder":"tf","game":"Team Fortress","app_id":440,"player_count":0,"max_players":24,"Bots":0,"server_type":"Dedicated","server_os":"Linux","password":true,"vac":true,"version":"7742253","steam_id":85568392924470001,"keywords":["cp","nocrits","nodmgspread","uncletopia"],"game_id":440,"stv_port":27016,"stv_name":"Uncletopia | Sydney | 1 | All Maps | STV","players":null},{"server_id":123,"name":"Uncletopia | Sydney | 2 | All Maps","name_short":"syd-2","host":"syd-1.au.uncletopia.com","port":27025,"enabled":true,"region":"au","cc":"au","latitude":-33.865143,"longitude":151.2099,"reserved":0,"last_update":"0001-01-01T00:00:00Z","name_a2s":"Uncletopia | Sydney | 2 | All Maps","protocol":17,"map":"koth_viaduct","folder":"tf","game":"Team Fortress","app_id":440,"player_count":0,"max_players":24,"Bots":0,"server_type":"Dedicated","server_os":"Linux","password":true,"vac":true,"version":"7742253","steam_id":85568392924470002,"keywords":["cp","nocrits","nodmgspread","uncletopia"],"game_id":440,"stv_port":27026,"stv_name":"Uncletopia | Sydney | 2 | All Maps | STV","players":null},{"server_id":395,"name":"Uncletopia | Sydney | 3 | All Maps","name_short":"syd-3","host":"syd-1.au.uncletopia.com","port":27035,"enabled":true,"region":"au","cc":"au","latitude":-33.865143,"longitude":151.2099,"reserved":0,"last_update":"0001-01-01T00:00:00Z","name_a2s":"Uncletopia | Sydney | 3 | All Maps","protocol":17,"map":"koth_cascade","folder":"tf","game":"Team Fortress","app_id":440,"player_count":0,"max_players":24,"Bots":0,"server_type":"Dedicated","server_os":"Linux","password":true,"vac":true,"version":"7742253","steam_id":85568392925194467,"keywords":["cp","nocrits","nodmgspread","uncletopia"],"game_id":440,"stv_port":27036,"stv_name":"Uncletopia | Sydney | 3 | All Maps | STV","players":null},{"server_id":396,"name":"Uncletopia | Sydney | 4 | All Maps","name_short":"syd-4","host":"syd-1.au.uncletopia.com","port":27045,"enabled":true,"region":"au","cc":"au","latitude":-33.865143,"longitude":151.2099,"reserved":0,"last_update":"0001-01-01T00:00:00Z","name_a2s":"Uncletopia | Sydney | 4 | All Maps","protocol":17,"map":"koth_viaduct","folder":"tf","game":"Team Fortress","app_id":440,"player_count":0,"max_players":24,"Bots":0,"server_type":"Dedicated","server_os":"Linux","password":true,"vac":true,"version":"7742253","steam_id":85568392925397958,"keywords":["cp","nocrits","nodmgspread","uncletopia"],"game_id":440,"stv_port":27046,"stv_name":"Uncletopia | Sydney | 4 | All Maps | STV","players":null},{"server_id":58,"name":"Uncletopia | Sydney | 5 | Stopwatch Beta","name_short":"syd-5","host":"syd-1.au.uncletopia.com","port":27055,"enabled":true,"region":"au","cc":"au","latitude":-33.865143,"longitude":151.2099,"reserved":0,"last_update":"0001-01-01T00:00:00Z","name_a2s":"Uncletopia | Sydney | 5 | Stopwatch Beta","protocol":17,"map":"koth_highpass","folder":"tf","game":"Team Fortress","app_id":440,"player_count":0,"max_players":24,"Bots":0,"server_type":"Dedicated","server_os":"Linux","password":true,"vac":true,"version":"7742253","steam_id":85568392925397959,"keywords":["cp","nocrits","nodmgspread","uncletopia"],"game_id":440,"stv_port":27056,"stv_name":"Uncletopia | Sydney | 5 | Stopwatch Beta | STV","players":null},{"server_id":59,"name":"Uncletopia | Sydney | 6 | Community","name_short":"syd-6","host":"syd-1.au.uncletopia.com","port":27065,"enabled":true,"region":"au","cc":"au","latitude":-33.865143,"longitude":151.2099,"reserved":0,"last_update":"0001-01-01T00:00:00Z","name_a2s":"Uncletopia | Sydney | 6 | Community","protocol":17,"map":"workshop/koth_slaughter_rc1.ugc1712845210","folder":"tf","game":"Team Fortress","app_id":440,"player_count":0,"max_players":24,"Bots":0,"server_type":"Dedicated","server_os":"Linux","password":true,"vac":true,"version":"7742253","steam_id":85568392925397960,"keywords":["cp","nocrits","nodmgspread","uncletopia"],"game_id":440,"stv_port":27066,"stv_name":"Uncletopia | Sydney | 6 | Community | STV","players":null},{"server_id":49,"name":"Uncletopia | Warsaw | 1 | All Maps","name_short":"waw-1","host":"waw-1.pl.uncletopia.com","port":27015,"enabled":true,"region":"eu","cc":"pl","latitude":52.2297,"longitude":21.017532,"reserved":0,"last_update":"0001-01-01T00:00:00Z","name_a2s":"","protocol":0,"map":"","folder":"","game":"","app_id":0,"player_count":0,"max_players":0,"Bots":0,"server_type":"","server_os":"","password":false,"vac":false,"version":"","steam_id":0,"keywords":null,"game_id":0,"stv_port":0,"stv_name":"","players":null},{"server_id":50,"name":"Uncletopia | Warsaw | 2 | All Maps","name_short":"waw-2","host":"waw-1.pl.uncletopia.com","port":27025,"enabled":true,"region":"eu","cc":"pl","latitude":52.2297,"longitude":21.017532,"reserved":0,"last_update":"0001-01-01T00:00:00Z","name_a2s":"Uncletopia | Warsaw | 2 | All Maps","protocol":17,"map":"koth_lakeside_final","folder":"tf","game":"Team Fortress","app_id":440,"player_count":0,"max_players":24,"Bots":0,"server_type":"Dedicated","server_os":"Linux","password":true,"vac":true,"version":"7742253","steam_id":85568392925397851,"keywords":["cp","nocrits","nodmgspread","uncletopia"],"game_id":440,"stv_port":27026,"stv_name":"Uncletopia | Warsaw | 2 | All Maps | STV","players":null},{"server_id":51,"name":"Uncletopia | Warsaw | 3 | All Maps","name_short":"waw-3","host":"waw-1.pl.uncletopia.com","port":27035,"enabled":true,"region":"eu","cc":"pl","latitude":52.2297,"longitude":21.017532,"reserved":0,"last_update":"0001-01-01T00:00:00Z","name_a2s":"Uncletopia | Warsaw | 3 | All Maps","protocol":17,"map":"koth_lakeside_final","folder":"tf","game":"Team Fortress","app_id":440,"player_count":0,"max_players":24,"Bots":0,"server_type":"Dedicated","server_os":"Linux","password":true,"vac":true,"version":"7742253","steam_id":85568392925397852,"keywords":["cp","nocrits","nodmgspread","uncletopia"],"game_id":440,"stv_port":27036,"stv_name":"Uncletopia | Warsaw | 3 | All Maps | STV","players":null},{"server_id":52,"name":"Uncletopia | Warsaw | 4 | All Maps","name_short":"waw-4","host":"waw-1.pl.uncletopia.com","port":27045,"enabled":true,"region":"eu","cc":"pl","latitude":52.2297,"longitude":21.017532,"reserved":0,"last_update":"0001-01-01T00:00:00Z","name_a2s":"Uncletopia | Warsaw | 4 | All Maps","protocol":17,"map":"pl_swiftwater_final1","folder":"tf","game":"Team Fortress","app_id":440,"player_count":24,"max_players":24,"Bots":0,"server_type":"Dedicated","server_os":"Linux","password":true,"vac":true,"version":"7742253","steam_id":85568392925397853,"keywords":["nocrits","nodmgspread","payload","uncletopia"],"game_id":440,"stv_port":27046,"stv_name":"Uncletopia | Warsaw | 4 | All Maps | STV","players":[{"user_id":143,"name":"_zipfile","steam_id":76561198066133808,"connected_time":570000000000,"state":"active","ping":90},{"user_id":106,"name":"result","steam_id":76561198269200388,"connected_time":3630000000000,"state":"active","ping":59},{"user_id":107,"name":"DeZiemniaczek","steam_id":76561198203659341,"connected_time":3394000000000,"state":"active","ping":47},{"user_id":108,"name":"Kiruriru","steam_id":76561198340895612,"connected_time":3377000000000,"state":"active","ping":46},{"user_id":105,"name":"sucha dupa(the calm one)","steam_id":76561198329452971,"connected_time":3741000000000,"state":"active","ping":62},{"user_id":82,"name":"lagzer","steam_id":76561198029295449,"connected_time":5043000000000,"state":"active","ping":55},{"user_id":115,"name":"Monsteh","steam_id":76561198325898181,"connected_time":2982000000000,"state":"active","ping":87},{"user_id":121,"name":"Silent Person","steam_id":76561198107763537,"connected_time":2707000000000,"state":"active","ping":58},{"user_id":132,"name":"iQ-ksa9","steam_id":76561199379159771,"connected_time":1608000000000,"state":"active","ping":171},{"user_id":130,"name":"tom","steam_id":76561198202442602,"connected_time":2093000000000,"state":"active","ping":85},{"user_id":135,"name":"FULVIO TERZAPI","steam_id":76561198284150615,"connected_time":1219000000000,"state":"active","ping":98},{"user_id":146,"name":"zLowNemesis","steam_id":76561198870863407,"connected_time":347000000000,"state":"active","ping":117},{"user_id":136,"name":"engie?","steam_id":76561198331852832,"connected_time":1207000000000,"state":"active","ping":112},{"user_id":131,"name":"Yessirskiii","steam_id":76561198179324075,"connected_time":2059000000000,"state":"active","ping":94},{"user_id":124,"name":"L1RG0","steam_id":76561198329274068,"connected_time":2644000000000,"state":"active","ping":48},{"user_id":72,"name":"Abel","steam_id":76561198857940653,"connected_time":5395000000000,"state":"active","ping":43},{"user_id":73,"name":"Nana(anger issues)","steam_id":76561198315144211,"connected_time":5389000000000,"state":"active","ping":43},{"user_id":140,"name":"EGirlGang","steam_id":76561198257435792,"connected_time":920000000000,"state":"active","ping":51},{"user_id":89,"name":"BananaBG676","steam_id":76561199111813554,"connected_time":4562000000000,"state":"active","ping":92},{"user_id":142,"name":"Fbafroguy","steam_id":76561199113010473,"connected_time":661000000000,"state":"active","ping":86},{"user_id":117,"name":"Loading","steam_id":76561198201981190,"connected_time":2868000000000,"state":"active","ping":96},{"user_id":125,"name":"CyberBuddha [RU/EN]","steam_id":76561198075853329,"connected_time":2643000000000,"state":"active","ping":115},{"user_id":145,"name":"Gr√∏nkj√¶r","steam_id":76561198041075280,"connected_time":468000000000,"state":"active","ping":117},{"user_id":128,"name":"Demoman flying at fast speed tf","steam_id":76561198356626387,"connected_time":2205000000000,"state":"active","ping":65}]},{"server_id":53,"name":"Uncletopia | Warsaw | 5 | Stopwatch Beta","name_short":"waw-5","host":"waw-1.pl.uncletopia.com","port":27055,"enabled":true,"region":"eu","cc":"pl","latitude":52.2297,"longitude":21.017532,"reserved":0,"last_update":"0001-01-01T00:00:00Z","name_a2s":"Uncletopia | Warsaw | 5 | Stopwatch Beta","protocol":17,"map":"pl_swiftwater_final1","folder":"tf","game":"Team Fortress","app_id":440,"player_count":0,"max_players":24,"Bots":0,"server_type":"Dedicated","server_os":"Linux","password":true,"vac":true,"version":"7742253","steam_id":85568392925397854,"keywords":["nocrits","nodmgspread","payload","uncletopia"],"game_id":440,"stv_port":27056,"stv_name":"Uncletopia | Warsaw | 5 | Stopwatch Beta | STV","players":null},{"server_id":54,"name":"Uncletopia | Warsaw | 6 | Community","name_short":"waw-6","host":"waw-1.pl.uncletopia.com","port":27065,"enabled":true,"region":"eu","cc":"pl","latitude":52.2297,"longitude":21.017532,"reserved":0,"last_update":"0001-01-01T00:00:00Z","name_a2s":"Uncletopia | Warsaw | 6 | Community","protocol":17,"map":"workshop/koth_slaughter_rc1.ugc1712845210","folder":"tf","game":"Team Fortress","app_id":440,"player_count":0,"max_players":24,"Bots":0,"server_type":"Dedicated","server_os":"Linux","password":true,"vac":true,"version":"7742253","steam_id":85568392925397856,"keywords":["cp","nocrits","nodmgspread","uncletopia"],"game_id":440,"stv_port":27066,"stv_name":"Uncletopia | Warsaw | 6 | Community | STV","players":null}]}