{"status":true,"message":"","result":[{"server_id":9,"name":"Uncletopia | Atlanta | 1 | All Maps","name_short":"atl-1","host":"atl-1.us.uncletopia.com","port":27015,"enabled":true,"region":"us-east","cc":"us","latitude":33.753746,"longitude":-84.38633,"reserved":0,"last_update":"0001-01-01T00:00:00Z","name_a2s":"Uncletopia | Atlanta | 1 | All Maps","protocol":17,"map":"pl_pier","folder":"tf","game":"Team Fortress","app_id":440,"player_count":23,"max_players":24,"Bots":0,"server_type":"Dedicated","server_os":"Linux","password":true,"vac":true,"version":"7961495","steam_id":85568392924469982,"keywords":["nocrits","nodmgspread","payload","uncletopia"],"game_id":440,"stv_port":27016,"stv_name":"Uncletopia | Atlanta | 1 | All Maps | STV","players":[{"user_id":197,"name":"[txc] garf","steam_id":76561198083078030,"connected_time":836000000000,"state":"active","ping":63},{"user_id":200,"name":"ash","steam_id":76561198127890645,"connected_time":763000000000,"state":"active","ping":69},{"user_id":192,"name":"Sunny D+","steam_id":76561197999371052,"connected_time":1485000000000,"state":"active","ping":76},{"user_id":198,"name":"Weather Report","steam_id":76561199109494283,"connected_time":836000000000,"state":"active","ping":58},{"user_id":195,"name":"Intro Bonito","steam_id":76561198119478838,"connected_time":1044000000000,"state":"active","ping":49},{"user_id":137,"name":"lil hog","steam_id":76561199230929836,"connected_time":4577000000000,"state":"active","ping":95},{"user_id":190,"name":"Wingm4n","steam_id":76561198064127012,"connected_time":1523000000000,"state":"active","ping":47},{"user_id":136,"name":"lynt","steam_id":76561198988333976,"connected_time":4580000000000,"state":"active","ping":34},{"user_id":196,"name":"AaronLayneTV","steam_id":76561199380209400,"connected_time":845000000000,"state":"active","ping":57},{"user_id":135,"name":"zacmattsmith","steam_id":76561199027704149,"connected_time":4582000000000,"state":"active","ping":73},{"user_id":177,"name":"RoJ","steam_id":76561198063959574,"connected_time":2224000000000,"state":"active","ping":79},{"user_id":193,"name":"Ashes!","steam_id":76561197998475441,"connected_time":1377000000000,"state":"active","ping":76},{"user_id":184,"name":"Poo","steam_id":76561198265144507,"connected_time":1841000000000,"state":"active","ping":60},{"user_id":172,"name":"Oxygen User","steam_id":76561199111975528,"connected_time":2491000000000,"state":"active","ping":60},{"user_id":51,"name":"squaggles!","steam_id":76561197994995011,"connected_time":7045000000000,"state":"active","ping":40},{"user_id":203,"name":"luv sosa","steam_id":76561198810823838,"connected_time":32000000000,"state":"active","ping":71},{"user_id":132,"name":"marguerite","steam_id":76561198170873495,"connected_time":4609000000000,"state":"active","ping":49},{"user_id":191,"name":"[txc] milk","steam_id":76561198127457787,"connected_time":1489000000000,"state":"active","ping":76},{"user_id":201,"name":"Boxpipe","steam_id":76561197964501915,"connected_time":588000000000,"state":"active","ping":90},{"user_id":160,"name":"FIJI","steam_id":76561198126087725,"connected_time":3555000000000,"state":"active","ping":62},{"user_id":138,"name":"Thotimus Begonimus","steam_id":76561197970275938,"connected_time":4575000000000,"state":"active","ping":45},{"user_id":194,"name":"BIG HOG","steam_id":76561198079923652,"connected_time":1117000000000,"state":"active","ping":63},{"user_id":199,"name":"krabby","steam_id":76561199072773402,"connected_time":814000000000,"state":"active","ping":65}]},{"server_id":104,"name":"Uncletopia | Atlanta | 2 | All Maps","name_short":"atl-2","host":"atl-1.us.uncletopia.com","port":27025,"enabled":true,"region":"us-east","cc":"us","latitude":33.753746,"longitude":-84.38633,"reserved":0,"last_update":"0001-01-01T00:00:00Z","name_a2s":"Uncletopia | Atlanta | 2 | All Maps","protocol":17,"map":"pl_pier","folder":"tf","game":"Team Fortress","app_id":440,"player_count":2,"max_players":24,"Bots":0,"server_type":"Dedicated","server_os":"Linux","password":true,"vac":true,"version":"7961495","steam_id":85568392924469983,"keywords":["nocrits","nodmgspread","payload","uncletopia"],"game_id":440,"stv_port":27026,"stv_name":"Uncletopia | Atlanta | 2 | All Maps | STV","players":[{"user_id":15,"name":"CheezusOfNazareth","steam_id":76561199093893813,"connected_time":628000000000,"state":"active","ping":135},{"user_id":16,"name":"Dragonknight","steam_id":76561198080527208,"connected_time":617000000000,"state":"active","ping":142}]},{"server_id":400,"name":"Uncletopia | Atlanta | 3 | Stopwatch","name_short":"atl-3","host":"atl-1.us.uncletopia.com","port":27035,"enabled":true,"region":"us-east","cc":"us","latitude":33.753746,"longitude":-84.38633,"reserved":0,"last_update":"0001-01-01T00:00:00Z","name_a2s":"Uncletopia | Atlanta | 3 | Stopwatch","protocol":17,"map":"pl_upward","folder":"tf","game":"Team Fortress","app_id":440,"player_count":17,"max_players":24,"Bots":0,"server_type":"Dedicated","server_os":"Linux","password":true,"vac":true,"version":"7961495","steam_id":85568392924515187,"keywords":["nocrits","nodmgspread","payload","uncletopia"],"game_id":440,"stv_port":27036,"stv_name":"Uncletopia | Atlanta | 3 | Stopwatch | STV","players":[{"user_id":78,"name":"Anomet","steam_id":76561198060246255,"connected_time":216000000000,"state":"active","ping":52},{"user_id":83,"name":"JohhnyFromCali :7","steam_id":76561198044015725,"connected_time":2000000000,"state":"spawning","ping":82},{"user_id":74,"name":"Ôº•ÔΩéÔΩÑÔΩÖÔΩíÔºÆÔΩÖÔΩÉÔΩíÔΩè","steam_id":76561198044304293,"connected_time":341000000000,"state":"active","ping":165},{"user_id":69,"name":"CabezaGrande","steam_id":76561197972555502,"connected_time":693000000000,"state":"active","ping":89},{"user_id":14,"name":"Danny","steam_id":76561198094512583,"connected_time":3607000000000,"state":"active","ping":106},{"user_id":59,"name":"Sussin'","steam_id":76561198059813696,"connected_time":1418000000000,"state":"active","ping":69},{"user_id":77,"name":"Mediocre Gaming","steam_id":76561199230467980,"connected_time":308000000000,"state":"active","ping":99},{"user_id":79,"name":"raccocooon","steam_id":76561199138602425,"connected_time":144000000000,"state":"active","ping":68},{"user_id":17,"name":"meem","steam_id":76561198875335451,"connected_time":3336000000000,"state":"active","ping":51},{"user_id":80,"name":"Man On Night Mode","steam_id":76561198012469076,"connected_time":140000000000,"state":"active","ping":80},{"user_id":72,"name":"Amy Roxwell","steam_id":76561198303391830,"connected_time":571000000000,"state":"active","ping":108},{"user_id":65,"name":"turdLdestroyer64","steam_id":76561198070854627,"connected_time":820000000000,"state":"active","ping":96},{"user_id":81,"name":"KrazyKid","steam_id":76561199074429644,"connected_time":72000000000,"state":"active","ping":83},{"user_id":82,"name":"Sammich","steam_id":76561198010543087,"connected_time":54000000000,"state":"active","ping":45},{"user_id":25,"name":"Willy the Wonderdog","steam_id":76561198067089970,"connected_time":2951000000000,"state":"active","ping":60},{"user_id":41,"name":"CEO of Booty Movement","steam_id":76561198064981004,"connected_time":2496000000000,"state":"active","ping":61},{"user_id":70,"name":"Invictus","steam_id":76561198079517075,"connected_time":688000000000,"state":"active","ping":87}]},{"server_id":401,"name":"Uncletopia | Atlanta | 4 | Community","name_short":"atl-4","host":"atl-1.us.uncletopia.com","port":27045,"enabled":true,"region":"us-east","cc":"us","latitude":33.753746,"longitude":-84.38633,"reserved":0,"last_update":"0001-01-01T00:00:00Z","name_a2s":"Uncletopia | Atlanta | 4 | Community","protocol":17,"map":"workshop/pl_phoenix_b4a.ugc2969509359","folder":"tf","game":"Team Fortress","app_id":440,"player_count":0,"max_players":24,"Bots":0,"server_type":"Dedicated","server_os":"Linux","password":true,"vac":true,"version":"7961495","steam_id":85568392924515188,"keywords":["nocrits","nodmgspread","payload","uncletopia"],"game_id":440,"stv_port":27046,"stv_name":"Uncletopia | Atlanta | 4 | Community | STV","players":null},{"server_id":2,"name":"Uncletopia | Chicago | 1 | All Maps","name_short":"chi-1","host":"chi-1.us.uncletopia.com","port":27015,"enabled":true,"region":"us-central","cc":"us","latitude":41.881832,"longitude":-87.62318,"reserved":0,"last_update":"0001-01-01T00:00:00Z","name_a2s":"Uncletopia | Chicago | 1 | All Maps","protocol":17,"map":"pl_pier","folder":"tf","game":"Team Fortress","app_id":440,"player_count":24,"max_players":24,"Bots":0,"server_type":"Dedicated","server_os":"Linux","password":true,"vac":true,"version":"7961495","steam_id":85568392924469984,"keywords":["nocrits","nodmgspread","payload","uncletopia"],"game_id":440,"stv_port":27016,"stv_name":"Uncletopia | Chicago | 1 | All Maps | STV","players":[{"user_id":13,"name":"mr hanky","steam_id":76561198938434440,"connected_time":2968000000000,"state":"active","ping":87},{"user_id":59,"name":"onionaid","steam_id":76561198065266282,"connected_time":1047000000000,"state":"active","ping":63},{"user_id":54,"name":"chief","steam_id":76561198012274834,"connected_time":1253000000000,"state":"active","ping":87},{"user_id":39,"name":"Zaksamou","steam_id":76561198041958706,"connected_time":1516000000000,"state":"active","ping":111},{"user_id":37,"name":"The World's Softest Sandwich","steam_id":76561198015577707,"connected_time":1607000000000,"state":"active","ping":82},{"user_id":19,"name":"Petrivus","steam_id":76561198202152453,"connected_time":2536000000000,"state":"active","ping":93},{"user_id":64,"name":"Nubert","steam_id":76561198990445167,"connected_time":261000000000,"state":"active","ping":67},{"user_id":36,"name":"MackDaddy69","steam_id":76561198060121935,"connected_time":1616000000000,"state":"active","ping":60},{"user_id":38,"name":"Damn These Boomer Hands","steam_id":76561198014355807,"connected_time":1547000000000,"state":"active","ping":113},{"user_id":61,"name":"Dubbs","steam_id":76561197960945604,"connected_time":566000000000,"state":"active","ping":45},{"user_id":27,"name":"soup","steam_id":76561198880568662,"connected_time":2062000000000,"state":"active","ping":60},{"user_id":40,"name":"Dirk Diggler","steam_id":76561197987332959,"connected_time":1501000000000,"state":"active","ping":94},{"user_id":29,"name":"Toxic Mercenary","steam_id":76561197988501611,"connected_time":2032000000000,"state":"active","ping":75},{"user_id":41,"name":"comfy.","steam_id":76561198008818346,"connected_time":1491000000000,"state":"active","ping":87},{"user_id":42,"name":"Harry Spotter","steam_id":76561198115714484,"connected_time":1486000000000,"state":"active","ping":105},{"user_id":53,"name":"GoldtoothFour","steam_id":76561198055529332,"connected_time":1343000000000,"state":"active","ping":68},{"user_id":45,"name":"Maffy","steam_id":76561198014673082,"connected_time":1462000000000,"state":"active","ping":98},{"user_id":46,"name":"ja morant 2","steam_id":76561198855785526,"connected_time":1458000000000,"state":"active","ping":88},{"user_id":47,"name":"plant","steam_id":76561198202276384,"connected_time":1457000000000,"state":"active","ping":75},{"user_id":56,"name":"Jazzy","steam_id":76561198012786647,"connected_time":1227000000000,"state":"active","ping":81},{"user_id":49,"name":"Spring Beans","steam_id":76561197978546259,"connected_time":1436000000000,"state":"active","ping":62},{"user_id":65,"name":"JJ","steam_id":76561198115405064,"connected_time":130000000000,"state":"active","ping":90},{"user_id":57,"name":"Eye Twitches","steam_id":76561198117306670,"connected_time":1222000000000,"state":"active","ping":114},{"user_id":60,"name":"capybara","steam_id":76561198798828328,"connected_time":1044000000000,"state":"active","ping":45}]},{"server_id":106,"name":"Uncletopia | Chicago | 2 | All Maps","name_short":"chi-2","host":"chi-1.us.uncletopia.com","port":27025,"enabled":true,"region":"us-central","cc":"us","latitude":41.881832,"longitude":-87.62318,"reserved":0,"last_update":"0001-01-01T00:00:00Z","name_a2s":"Uncletopia | Chicago | 2 | All Maps","protocol":17,"map":"pl_snowycoast","folder":"tf","game":"Team Fortress","app_id":440,"player_count":24,"max_players":24,"Bots":0,"server_type":"Dedicated","server_os":"Linux","password":true,"vac":true,"version":"7961495","steam_id":85568392924469985,"keywords":["nocrits","nodmgspread","payload","uncletopia"],"game_id":440,"stv_port":27026,"stv_name":"Uncletopia | Chicago | 2 | All Maps | STV","players":[{"user_id":67,"name":"dreaminginsane ‚òÅ","steam_id":76561198093147415,"connected_time":3519000000000,"state":"active","ping":102},{"user_id":92,"name":"Ursus Ludius","steam_id":76561198025470722,"connected_time":1003000000000,"state":"active","ping":65},{"user_id":91,"name":"FUSION","steam_id":76561197972659738,"connected_time":1059000000000,"state":"active","ping":55},{"user_id":93,"name":"Fortune","steam_id":76561198346118738,"connected_time":699000000000,"state":"active","ping":78},{"user_id":88,"name":"the meat beater","steam_id":76561199008960175,"connected_time":1478000000000,"state":"active","ping":60},{"user_id":94,"name":"Ginsai","steam_id":76561198107797443,"connected_time":660000000000,"state":"active","ping":82},{"user_id":83,"name":"stultus3","steam_id":76561198099104939,"connected_time":1715000000000,"state":"active","ping":65},{"user_id":101,"name":"AceDeuce","steam_id":76561198049904924,"connected_time":42000000000,"state":"active","ping":53},{"user_id":96,"name":"Karrot","steam_id":76561198058970903,"connected_time":543000000000,"state":"active","ping":68},{"user_id":89,"name":"Bungo","steam_id":76561198182039227,"connected_time":1373000000000,"state":"active","ping":86},{"user_id":80,"name":"Rornir","steam_id":76561198081829615,"connected_time":1992000000000,"state":"active","ping":39},{"user_id":99,"name":"Rukks","steam_id":76561197993918954,"connected_time":337000000000,"state":"active","ping":90},{"user_id":102,"name":"Toasterduds","steam_id":76561198163477584,"connected_time":14000000000,"state":"active","ping":113},{"user_id":97,"name":"bath","steam_id":76561197969993352,"connected_time":525000000000,"state":"active","ping":61},{"user_id":29,"name":"InchMan","steam_id":76561198272658825,"connected_time":5797000000000,"state":"active","ping":88},{"user_id":76,"name":"Tobo","steam_id":76561198085846393,"connected_time":2510000000000,"state":"active","ping":83},{"user_id":38,"name":"-Sp√Æd√™r-","steam_id":76561198064531248,"connected_time":5630000000000,"state":"active","ping":88},{"user_id":98,"name":"_copkilla.B1G$L1M‚Ç¨.zaddY_","steam_id":76561198283687382,"connected_time":446000000000,"state":"active","ping":77},{"user_id":100,"name":"hideyochest","steam_id":76561198090366059,"connected_time":227000000000,"state":"active","ping":64},{"user_id":85,"name":"help","steam_id":76561199056338917,"connected_time":1693000000000,"state":"active","ping":65},{"user_id":95,"name":"jeromk611","steam_id":76561198864666859,"connected_time":644000000000,"state":"active","ping":86},{"user_id":74,"name":"Anyar","steam_id":76561198160174097,"connected_time":3465000000000,"state":"active","ping":80},{"user_id":75,"name":"money getting 1 percenter","steam_id":76561198012796388,"connected_time":3238000000000,"state":"active","ping":48},{"user_id":54,"name":"Whoops!","steam_id":76561198151315898,"connected_time":4534000000000,"state":"active","ping":71}]},{"server_id":402,"name":"Uncletopia | Chicago | 3 | All Maps","name_short":"chi-3","host":"chi-1.us.uncletopia.com","port":27035,"enabled":true,"region":"us-central","cc":"us","latitude":41.881832,"longitude":-87.62318,"reserved":0,"last_update":"0001-01-01T00:00:00Z","name_a2s":"Uncletopia | Chicago | 3 | All Maps","protocol":17,"map":"koth_cascade","folder":"tf","game":"Team Fortress","app_id":440,"player_count":0,"max_players":24,"Bots":0,"server_type":"Dedicated","server_os":"Linux","password":true,"vac":true,"version":"7961495","steam_id":85568392924515191,"keywords":["cp","nocrits","nodmgspread","uncletopia"],"game_id":440,"stv_port":27036,"stv_name":"Uncletopia | Chicago | 3 | All Maps | STV","players":null},{"server_id":403,"name":"Uncletopia | Chicago | 4 | All Maps","name_short":"chi-4","host":"chi-1.us.uncletopia.com","port":27045,"enabled":true,"region":"us-central","cc":"us","latitude":41.881832,"longitude":-87.62318,"reserved":0,"last_update":"0001-01-01T00:00:00Z","name_a2s":"Uncletopia | Chicago | 4 | All Maps","protocol":17,"map":"pl_frontier_final","folder":"tf","game":"Team Fortress","app_id":440,"player_count":24,"max_players":24,"Bots":0,"server_type":"Dedicated","server_os":"Linux","password":true,"vac":true,"version":"7961495","steam_id":85568392924515193,"keywords":["nocrits","nodmgspread","payload","uncletopia"],"game_id":440,"stv_port":27046,"stv_name":"Uncletopia | Chicago | 4 | All Maps | STV","players":[{"user_id":154,"name":"cfamadas","steam_id":76561199055881965,"connected_time":2587000000000,"state":"active","ping":91},{"user_id":146,"name":"Fillibuster_","steam_id":76561198047843618,"connected_time":3409000000000,"state":"active","ping":52},{"user_id":194,"name":"Xavibite","steam_id":76561198209380493,"connected_time":601000000000,"state":"active","ping":60},{"user_id":188,"name":"Captain_Crispy","steam_id":76561199453679719,"connected_time":827000000000,"state":"active","ping":105},{"user_id":145,"name":"HealDaddy (SMOKE)","steam_id":76561198017631728,"connected_time":3575000000000,"state":"active","ping":60},{"user_id":184,"name":"Captain Demytri","steam_id":76561198097998607,"connected_time":1089000000000,"state":"active","ping":89},{"user_id":193,"name":"Newest Player 2023","steam_id":76561198085044565,"connected_time":656000000000,"state":"active","ping":105},{"user_id":185,"name":"D(b) Hell","steam_id":76561198067869016,"connected_time":945000000000,"state":"active","ping":44},{"user_id":195,"name":"‚ô• Tomboy ‚ô•","steam_id":76561198069881436,"connected_time":559000000000,"state":"active","ping":75},{"user_id":198,"name":"Jango","steam_id":76561198084589742,"connected_time":221000000000,"state":"active","ping":79},{"user_id":197,"name":"Bobby Ray","steam_id":76561198044131188,"connected_time":262000000000,"state":"active","ping":75},{"user_id":168,"name":"EnderAsteroid","steam_id":76561198176724091,"connected_time":2055000000000,"state":"active","ping":47},{"user_id":140,"name":"6 million bees","steam_id":76561198400438007,"connected_time":3847000000000,"state":"active","ping":44},{"user_id":200,"name":"Cheesecurd","steam_id":76561199198254897,"connected_time":131000000000,"state":"active","ping":83},{"user_id":177,"name":"yourlocalforecast","steam_id":76561198042243083,"connected_time":1686000000000,"state":"active","ping":74},{"user_id":75,"name":"pete","steam_id":76561198203443358,"connected_time":10237000000000,"state":"active","ping":65},{"user_id":196,"name":"soona","steam_id":76561198127325351,"connected_time":539000000000,"state":"active","ping":71},{"user_id":165,"name":"World Famous Skater Sean Pablo","steam_id":76561197999261387,"connected_time":2200000000000,"state":"active","ping":87},{"user_id":190,"name":"Prsm","steam_id":76561198053344995,"connected_time":823000000000,"state":"active","ping":54},{"user_id":181,"name":"Bigoush","steam_id":76561198240307636,"connected_time":1445000000000,"state":"active","ping":46},{"user_id":199,"name":"Skab E¬≤","steam_id":76561199126112357,"connected_time":196000000000,"state":"active","ping":88},{"user_id":192,"name":"The Angel of Death","steam_id":76561198026079349,"connected_time":805000000000,"state":"active","ping":113},{"user_id":127,"name":"Twin","steam_id":76561199480718983,"connected_time":6085000000000,"state":"active","ping":101},{"user_id":91,"name":"richard clock","steam_id":76561198048455671,"connected_time":8588000000000,"state":"active","ping":64}]},{"server_id":36,"name":"Uncletopia | Chicago | 5 | All Maps","name_short":"chi-5","host":"chi-2.us.uncletopia.com","port":27015,"enabled":true,"region":"us-central","cc":"us","latitude":41.881832,"longitude":-87.62318,"reserved":0,"last_update":"0001-01-01T00:00:00Z","name_a2s":"Uncletopia | Chicago | 5 | All Maps","protocol":17,"map":"cp_altitude","folder":"tf","game":"Team Fortress","app_id":440,"player_count":0,"max_players":24,"Bots":0,"server_type":"Dedicated","server_os":"Linux","password":true,"vac":true,"version":"7961495","steam_id":85568392924866362,"keywords":["cp","nocrits","nodmgspread","uncletopia"],"game_id":440,"stv_port":27016,"stv_name":"Uncletopia | Chicago | 5 | All Maps | STV","players":null},{"server_id":37,"name":"Uncletopia | Chicago | 6 | All Maps","name_short":"chi-6","host":"chi-2.us.uncletopia.com","port":27025,"enabled":true,"region":"us-central","cc":"us","latitude":41.881832,"longitude":-87.62318,"reserved":0,"last_update":"0001-01-01T00:00:00Z","name_a2s":"Uncletopia | Chicago | 6 | All Maps","protocol":17,"map":"pl_hoodoo_final","folder":"tf","game":"Team Fortress","app_id":440,"player_count":23,"max_players":24,"Bots":0,"server_type":"Dedicated","server_os":"Linux","password":true,"vac":true,"version":"7961495","steam_id":85568392924866363,"keywords":["nocrits","nodmgspread","payload","uncletopia"],"game_id":440,"stv_port":27026,"stv_name":"Uncletopia | Chicago | 6 | All Maps | STV","players":[{"user_id":295,"name":"minecraft_2.0","steam_id":76561198391819120,"connected_time":529000000000,"state":"active","ping":90},{"user_id":273,"name":"[DD] | Serial Designation N","steam_id":76561198445739792,"connected_time":2437000000000,"state":"active","ping":60},{"user_id":245,"name":"Barry","steam_id":76561198371953939,"connected_time":4270000000000,"state":"active","ping":83},{"user_id":274,"name":"Vayribu","steam_id":76561198104353730,"connected_time":2420000000000,"state":"active","ping":80},{"user_id":294,"name":"Grunt420","steam_id":76561199407313140,"connected_time":622000000000,"state":"active","ping":182},{"user_id":296,"name":"Femboy Dracula","steam_id":76561198090606686,"connected_time":514000000000,"state":"active","ping":74},{"user_id":291,"name":"jaytheking05","steam_id":76561198856419769,"connected_time":1264000000000,"state":"active","ping":72},{"user_id":297,"name":"crotuslovershanks","steam_id":76561199091300223,"connected_time":438000000000,"state":"active","ping":63},{"user_id":120,"name":"RollingCow","steam_id":76561198067114237,"connected_time":13566000000000,"state":"active","ping":86},{"user_id":290,"name":"‚úß.*Remzy‚úß.*","steam_id":76561199239412094,"connected_time":1270000000000,"state":"active","ping":151},{"user_id":276,"name":"WillieMakit","steam_id":76561197985391684,"connected_time":2402000000000,"state":"active","ping":115},{"user_id":292,"name":"toucan","steam_id":76561198016562343,"connected_time":767000000000,"state":"active","ping":58},{"user_id":300,"name":"Minion Bob","steam_id":76561198023938170,"connected_time":198000000000,"state":"active","ping":86},{"user_id":267,"name":"challen","steam_id":76561197961277967,"connected_time":2743000000000,"state":"active","ping":77},{"user_id":299,"name":"‚ù§Breadshot (She)‚ù§","steam_id":76561199005756738,"connected_time":362000000000,"state":"active","ping":45},{"user_id":265,"name":"Shady Businessman","steam_id":76561198143855968,"connected_time":2890000000000,"state":"active","ping":85},{"user_id":287,"name":"The destroyer of foreskin","steam_id":76561198135275966,"connected_time":1713000000000,"state":"active","ping":68},{"user_id":259,"name":"HOODOO_LOVER_2007","steam_id":76561199087691214,"connected_time":3465000000000,"state":"active","ping":82},{"user_id":280,"name":"UnReLinked","steam_id":76561199366044663,"connected_time":2094000000000,"state":"active","ping":95},{"user_id":271,"name":"Lennu","steam_id":76561198060730154,"connected_time":2494000000000,"state":"active","ping":70},{"user_id":281,"name":"OneTrueCorvid","steam_id":76561199012953221,"connected_time":2072000000000,"state":"active","ping":91},{"user_id":298,"name":"THICCBEEF GRANDPA","steam_id":76561197993550572,"connected_time":437000000000,"state":"active","ping":73},{"user_id":260,"name":"M","steam_id":76561198174958927,"connected_time":3458000000000,"state":"active","ping":86}]},{"server_id":38,"name":"Uncletopia | Chicago | 7 | Stopwatch","name_short":"chi-7","host":"chi-2.us.uncletopia.com","port":27035,"enabled":true,"region":"us-central","cc":"us","latitude":41.881832,"longitude":-87.62318,"reserved":0,"last_update":"0001-01-01T00:00:00Z","name_a2s":"Uncletopia | Chicago | 7 | Stopwatch","protocol":17,"map":"workshop/pl_badwater_pro_v12.ugc2142942074","folder":"tf","game":"Team Fortress","app_id":440,"player_count":0,"max_players":24,"Bots":0,"server_type":"Dedicated","server_os":"Linux","password":true,"vac":true,"version":"7961495","steam_id":85568392924866364,"keywords":["nocrits","nodmgspread","payload","uncletopia"],"game_id":440,"stv_port":27036,"stv_name":"Uncletopia | Chicago | 7 | Stopwatch | STV","players":null},{"server_id":39,"name":"Uncletopia | Chicago | 8 | Community","name_short":"chi-8","host":"chi-2.us.uncletopia.com","port":27045,"enabled":true,"region":"us-central","cc":"us","latitude":41.881832,"longitude":-87.62318,"reserved":0,"last_update":"0001-01-01T00:00:00Z","name_a2s":"Uncletopia | Chicago | 8 | Community","protocol":17,"map":"workshop/cp_caldera_rc3.ugc2834196889","folder":"tf","game":"Team Fortress","app_id":440,"player_count":0,"max_players":24,"Bots":0,"server_type":"Dedicated","server_os":"Linux","password":true,"vac":true,"version":"7961495","steam_id":85568392924866365,"keywords":["cp","nocrits","nodmgspread","uncletopia"],"game_id":440,"stv_port":27046,"stv_name":"Uncletopia | Chicago | 8 | Community | STV","players":null},{"server_id":8,"name":"Uncletopia | Dallas | 1 | All Maps","name_short":"dal-1","host":"dal-1.us.uncletopia.com","port":27015,"enabled":true,"region":"us-central","cc":"us","latitude":32.779167,"longitude":-96.80889,"reserved":0,"last_update":"0001-01-01T00:00:00Z","name_a2s":"Uncletopia | Dallas | 1 | All Maps","protocol":17,"map":"koth_highpass","folder":"tf","game":"Team Fortress","app_id":440,"player_count":0,"max_players":24,"Bots":0,"server_type":"Dedicated","server_os":"Linux","password":true,"vac":true,"version":"7961495","steam_id":85568392924469986,"keywords":["cp","nocrits","nodmgspread","uncletopia"],"game_id":440,"stv_port":27016,"stv_name":"Uncletopia | Dallas | 1 | All Maps | STV","players":null},{"server_id":108,"name":"Uncletopia | Dallas | 2 | All Maps","name_short":"dal-2","host":"dal-1.us.uncletopia.com","port":27025,"enabled":true,"region":"us-central","cc":"us","latitude":32.779167,"longitude":-96.80889,"reserved":0,"last_update":"0001-01-01T00:00:00Z","name_a2s":"Uncletopia | Dallas | 2 | All Maps","protocol":17,"map":"koth_viaduct","folder":"tf","game":"Team Fortress","app_id":440,"player_count":9,"max_players":24,"Bots":0,"server_type":"Dedicated","server_os":"Linux","password":true,"vac":true,"version":"7961495","steam_id":85568392924469988,"keywords":["cp","nocrits","nodmgspread","uncletopia"],"game_id":440,"stv_port":27026,"stv_name":"Uncletopia | Dallas | 2 | All Maps | STV","players":[{"user_id":14,"name":"Wooperisboss","steam_id":76561199386100211,"connected_time":95000000000,"state":"active","ping":89},{"user_id":12,"name":"ttv/daws__","steam_id":76561198283322034,"connected_time":114000000000,"state":"active","ping":84},{"user_id":13,"name":"‚ù§üíúNovaüíú‚ù§","steam_id":76561199039321828,"connected_time":107000000000,"state":"active","ping":73},{"user_id":15,"name":"SCaELS [TF2 BLENDER ART COMMS]","steam_id":76561199111725372,"connected_time":78000000000,"state":"active","ping":176},{"user_id":16,"name":"SmorzGamez","steam_id":76561199165493751,"connected_time":76000000000,"state":"active","ping":87},{"user_id":17,"name":"Baconator","steam_id":76561198941700660,"connected_time":65000000000,"state":"active","ping":95},{"user_id":18,"name":"FreddysFoods","steam_id":76561199387245099,"connected_time":49000000000,"state":"active","ping":85},{"user_id":19,"name":"TOTALLY HARDCORE","steam_id":76561198842311643,"connected_time":15000000000,"state":"active","ping":35},{"user_id":20,"name":"Kuyumiester","steam_id":76561198126835302,"connected_time":5000000000,"state":"spawning","ping":101}]},{"server_id":404,"name":"Uncletopia | Dallas | 3 | All Maps","name_short":"dal-3","host":"dal-1.us.uncletopia.com","port":27035,"enabled":true,"region":"us-central","cc":"us","latitude":32.779167,"longitude":-96.80889,"reserved":0,"last_update":"0001-01-01T00:00:00Z","name_a2s":"Uncletopia | Dallas | 3 | All Maps","protocol":17,"map":"cp_yukon_final","folder":"tf","game":"Team Fortress","app_id":440,"player_count":0,"max_players":24,"Bots":0,"server_type":"Dedicated","server_os":"Linux","password":true,"vac":true,"version":"7961495","steam_id":85568392924515219,"keywords":["cp","nocrits","nodmgspread","uncletopia"],"game_id":440,"stv_port":27036,"stv_name":"Uncletopia | Dallas | 3 | All Maps | STV","players":null},{"server_id":405,"name":"Uncletopia | Dallas | 4 | Community","name_short":"dal-4","host":"dal-1.us.uncletopia.com","port":27045,"enabled":true,"region":"us-central","cc":"us","latitude":32.779167,"longitude":-96.80889,"reserved":0,"last_update":"0001-01-01T00:00:00Z","name_a2s":"Uncletopia | Dallas | 4 | Community","protocol":17,"map":"workshop/cp_croissant_final.ugc458840209","folder":"tf","game":"Team Fortress","app_id":440,"player_count":0,"max_players":24,"Bots":0,"server_type":"Dedicated","server_os":"Linux","password":true,"vac":true,"version":"7961495","steam_id":85568392924515220,"keywords":["cp","nocrits","nodmgspread","uncletopia"],"game_id":440,"stv_port":27046,"stv_name":"Uncletopia | Dallas | 4 | Community | STV","players":null},{"server_id":5,"name":"Uncletopia | Frankfurt | 1 | All Maps","name_short":"frk-1","host":"frk-1.de.uncletopia.com","port":27015,"enabled":true,"region":"eu","cc":"de","latitude":50.110924,"longitude":8.682127,"reserved":0,"last_update":"0001-01-01T00:00:00Z","name_a2s":"Uncletopia | Frankfurt | 1 | All Maps","protocol":17,"map":"cp_sunshine","folder":"tf","game":"Team Fortress","app_id":440,"player_count":24,"max_players":24,"Bots":0,"server_type":"Dedicated","server_os":"Linux","password":true,"vac":true,"version":"7961495","steam_id":85568392924469989,"keywords":["cp","nocrits","nodmgspread","uncletopia"],"game_id":440,"stv_port":27016,"stv_name":"Uncletopia | Frankfurt | 1 | All Maps | STV","players":[{"user_id":475,"name":"whatever","steam_id":76561198095943461,"connected_time":2182000000000,"state":"active","ping":64},{"user_id":511,"name":"P","steam_id":76561198399390201,"connected_time":265000000000,"state":"active","ping":84},{"user_id":516,"name":"KGiorgios_Bully","steam_id":76561198825392728,"connected_time":109000000000,"state":"active","ping":104},{"user_id":507,"name":"jeff","steam_id":76561198272815746,"connected_time":588000000000,"state":"active","ping":53},{"user_id":499,"name":"Ivo Salamander","steam_id":76561199026771040,"connected_time":998000000000,"state":"active","ping":94},{"user_id":517,"name":"Michael","steam_id":76561198003146906,"connected_time":66000000000,"state":"active","ping":51},{"user_id":508,"name":"Dicartal","steam_id":76561198295793592,"connected_time":452000000000,"state":"active","ping":123},{"user_id":512,"name":"$t@lker_Tim","steam_id":76561198963658042,"connected_time":236000000000,"state":"active","ping":116},{"user_id":476,"name":"Hollownick","steam_id":76561198449261973,"connected_time":2177000000000,"state":"active","ping":71},{"user_id":513,"name":"swg","steam_id":76561198147246166,"connected_time":202000000000,"state":"active","ping":77},{"user_id":515,"name":"Fischer101","steam_id":76561198301481739,"connected_time":147000000000,"state":"active","ping":59},{"user_id":486,"name":"Laru","steam_id":76561197998838438,"connected_time":1417000000000,"state":"active","ping":76},{"user_id":518,"name":"swueuws","steam_id":76561198020716743,"connected_time":52000000000,"state":"active","ping":48},{"user_id":506,"name":"Mr.Dies a lot","steam_id":76561199061602946,"connected_time":648000000000,"state":"active","ping":91},{"user_id":485,"name":"Burak","steam_id":76561198441622971,"connected_time":1437000000000,"state":"active","ping":89},{"user_id":509,"name":"Lustadinnye (HUN)","steam_id":76561198280206427,"connected_time":443000000000,"state":"active","ping":88},{"user_id":477,"name":"Walkingboi","steam_id":76561198385498290,"connected_time":2176000000000,"state":"active","ping":99},{"user_id":481,"name":"Jill üíô","steam_id":76561198030620256,"connected_time":1941000000000,"state":"active","ping":78},{"user_id":501,"name":"DarkMelody","steam_id":76561198063225937,"connected_time":971000000000,"state":"active","ping":109},{"user_id":519,"name":"r3t1k0","steam_id":76561198426700865,"connected_time":51000000000,"state":"spawning","ping":58},{"user_id":514,"name":"FWDTRKR","steam_id":76561198060369427,"connected_time":201000000000,"state":"active","ping":181},{"user_id":494,"name":"HazelForest","steam_id":76561198171827033,"connected_time":1119000000000,"state":"active","ping":61},{"user_id":520,"name":"Ansgar","steam_id":76561198140688976,"connected_time":30000000000,"state":"active","ping":56},{"user_id":502,"name":"Yonio","steam_id":76561198408428132,"connected_time":898000000000,"state":"active","ping":73}]},{"server_id":110,"name":"Uncletopia | Frankfurt | 2 | All Maps","name_short":"frk-2","host":"frk-1.de.uncletopia.com","port":27025,"enabled":true,"region":"eu","cc":"de","latitude":50.110924,"longitude":8.682127,"reserved":0,"last_update":"0001-01-01T00:00:00Z","name_a2s":"Uncletopia | Frankfurt | 2 | All Maps","protocol":17,"map":"cp_process_final","folder":"tf","game":"Team Fortress","app_id":440,"player_count":24,"max_players":24,"Bots":0,"server_type":"Dedicated","server_os":"Linux","password":true,"vac":true,"version":"7961495","steam_id":85568392924469990,"keywords":["cp","nocrits","nodmgspread","uncletopia"],"game_id":440,"stv_port":27026,"stv_name":"Uncletopia | Frankfurt | 2 | All Maps | STV","players":[{"user_id":408,"name":"Ghost11","steam_id":76561198068892992,"connected_time":816000000000,"state":"active","ping":105},{"user_id":406,"name":"\u003e\u003c\u003e","steam_id":76561198152392309,"connected_time":1050000000000,"state":"active","ping":48},{"user_id":409,"name":"Mr.killer","steam_id":76561198290584189,"connected_time":809000000000,"state":"active","ping":93},{"user_id":421,"name":"pip","steam_id":76561198089560908,"connected_time":149000000000,"state":"active","ping":91},{"user_id":389,"name":"fire","steam_id":76561198063674613,"connected_time":2563000000000,"state":"active","ping":44},{"user_id":418,"name":"Johnson","steam_id":76561199382978934,"connected_time":393000000000,"state":"active","ping":81},{"user_id":411,"name":"0","steam_id":76561199293036742,"connected_time":683000000000,"state":"active","ping":45},{"user_id":368,"name":"static","steam_id":76561198836825741,"connected_time":3646000000000,"state":"active","ping":53},{"user_id":323,"name":"Bajas","steam_id":76561198179339326,"connected_time":7396000000000,"state":"active","ping":80},{"user_id":419,"name":"ber.","steam_id":76561197993892057,"connected_time":300000000000,"state":"active","ping":90},{"user_id":398,"name":"tealoverr.190","steam_id":76561199028497703,"connected_time":1845000000000,"state":"active","ping":105},{"user_id":412,"name":"Rodia","steam_id":76561197968293161,"connected_time":662000000000,"state":"active","ping":60},{"user_id":351,"name":"Edsuedi","steam_id":76561198074722832,"connected_time":5557000000000,"state":"active","ping":52},{"user_id":369,"name":"cinny","steam_id":76561198832112629,"connected_time":3512000000000,"state":"active","ping":72},{"user_id":407,"name":"Bobirulez","steam_id":76561198009125458,"connected_time":910000000000,"state":"active","ping":60},{"user_id":372,"name":"Fat Pigeon","steam_id":76561198817940142,"connected_time":3414000000000,"state":"active","ping":50},{"user_id":365,"name":"C√∂ffee","steam_id":76561198115131952,"connected_time":4505000000000,"state":"active","ping":103},{"user_id":392,"name":"sareena","steam_id":76561198810194062,"connected_time":2447000000000,"state":"active","ping":74},{"user_id":393,"name":"Fish","steam_id":76561198306177608,"connected_time":2418000000000,"state":"active","ping":72},{"user_id":413,"name":"typomen","steam_id":76561198405351951,"connected_time":656000000000,"state":"active","ping":72},{"user_id":394,"name":"Javier dorsaless","steam_id":76561198179324075,"connected_time":2416000000000,"state":"active","ping":73},{"user_id":379,"name":"idk","steam_id":76561198071440081,"connected_time":2995000000000,"state":"active","ping":105},{"user_id":346,"name":"medick","steam_id":76561199380849468,"connected_time":6437000000000,"state":"active","ping":77},{"user_id":414,"name":"Kekwet","steam_id":76561199135539323,"connected_time":626000000000,"state":"active","ping":183}]},{"server_id":308,"name":"Uncletopia | Frankfurt | 3 | All Maps","name_short":"frk-3","host":"frk-1.de.uncletopia.com","port":27035,"enabled":true,"region":"eu","cc":"de","latitude":50.110924,"longitude":8.682127,"reserved":0,"last_update":"0001-01-01T00:00:00Z","name_a2s":"Uncletopia | Frankfurt | 3 | All Maps","protocol":17,"map":"pl_pier","folder":"tf","game":"Team Fortress","app_id":440,"player_count":16,"max_players":24,"Bots":0,"server_type":"Dedicated","server_os":"Linux","password":true,"vac":true,"version":"7961495","steam_id":85568392924504274,"keywords":["nocrits","nodmgspread","payload","uncletopia"],"game_id":440,"stv_port":27036,"stv_name":"Uncletopia | Frankfurt | 3 | All Maps | STV","players":[{"user_id":187,"name":"Kremit „ÉÑ","steam_id":76561199475272463,"connected_time":466000000000,"state":"active","ping":70},{"user_id":191,"name":"warforge3","steam_id":76561199276024310,"connected_time":145000000000,"state":"active","ping":101},{"user_id":193,"name":"Dmitry Kerman","steam_id":76561198300020540,"connected_time":40000000000,"state":"active","ping":276},{"user_id":192,"name":"donatofina","steam_id":76561198353497885,"connected_time":66000000000,"state":"active","ping":88},{"user_id":189,"name":"K","steam_id":76561199508033804,"connected_time":364000000000,"state":"active","ping":66},{"user_id":145,"name":"KaasKrans","steam_id":76561198240451972,"connected_time":2451000000000,"state":"active","ping":55},{"user_id":194,"name":"moss","steam_id":76561198970737500,"connected_time":1000000000,"state":"spawning","ping":39},{"user_id":184,"name":"EVRY0N1","steam_id":76561199507783621,"connected_time":582000000000,"state":"active","ping":72},{"user_id":178,"name":"luckyastroman","steam_id":76561199027500574,"connected_time":862000000000,"state":"active","ping":71},{"user_id":177,"name":"Bigunit","steam_id":76561197960678014,"connected_time":872000000000,"state":"active","ping":66},{"user_id":171,"name":"Luuk","steam_id":76561198088266026,"connected_time":1526000000000,"state":"active","ping":45},{"user_id":136,"name":"Truskawka","steam_id":76561198855163602,"connected_time":2845000000000,"state":"active","ping":79},{"user_id":174,"name":"kilo","steam_id":76561198015641339,"connected_time":1144000000000,"state":"active","ping":75},{"user_id":156,"name":"Bombilla","steam_id":76561198084281798,"connected_time":2344000000000,"state":"active","ping":75},{"user_id":186,"name":"Jughead","steam_id":76561198000355410,"connected_time":540000000000,"state":"active","ping":60},{"user_id":182,"name":"meat","steam_id":76561198093290934,"connected_time":793000000000,"state":"active","ping":52}]},{"server_id":309,"name":"Uncletopia | Frankfurt | 4 | All Maps","name_short":"frk-4","host":"frk-1.de.uncletopia.com","port":27045,"enabled":true,"region":"eu","cc":"de","latitude":50.110924,"longitude":8.682127,"reserved":0,"last_update":"0001-01-01T00:00:00Z","name_a2s":"Uncletopia | Frankfurt | 4 | All Maps","protocol":17,"map":"koth_highpass","folder":"tf","game":"Team Fortress","app_id":440,"player_count":3,"max_players":24,"Bots":0,"server_type":"Dedicated","server_os":"Linux","password":true,"vac":true,"version":"7961495","steam_id":85568392924504275,"keywords":["cp","nocrits","nodmgspread","uncletopia"],"game_id":440,"stv_port":27046,"stv_name":"Uncletopia | Frankfurt | 4 | All Maps | STV","players":[{"user_id":263,"name":"Nova","steam_id":76561198108601005,"connected_time":1162000000000,"state":"active","ping":91},{"user_id":241,"name":"–®–∞–ø–∫–∞ #TF2Center","steam_id":76561198368792603,"connected_time":3190000000000,"state":"active","ping":72},{"user_id":264,"name":"krafno-lomac2006","steam_id":76561198808332971,"connected_time":1131000000000,"state":"active","ping":59}]},{"server_id":310,"name":"Uncletopia | Frankfurt | 5 | All Maps","name_short":"frk-5","host":"frk-1.de.uncletopia.com","port":27055,"enabled":true,"region":"eu","cc":"de","latitude":50.110924,"longitude":8.682127,"reserved":0,"last_update":"0001-01-01T00:00:00Z","name_a2s":"Uncletopia | Frankfurt | 5 | All Maps","protocol":17,"map":"pl_upward","folder":"tf","game":"Team Fortress","app_id":440,"player_count":24,"max_players":24,"Bots":0,"server_type":"Dedicated","server_os":"Linux","password":true,"vac":true,"version":"7961495","steam_id":85568392924504277,"keywords":["nocrits","nodmgspread","payload","uncletopia"],"game_id":440,"stv_port":27056,"stv_name":"Uncletopia | Frankfurt | 5 | All Maps | STV","players":[{"user_id":378,"name":"pandeux","steam_id":76561198343527617,"connected_time":3300000000000,"state":"active","ping":50},{"user_id":427,"name":"Ciupa Killer","steam_id":76561199409674527,"connected_time":975000000000,"state":"active","ping":73},{"user_id":372,"name":"Dr Birb","steam_id":76561198133765958,"connected_time":3737000000000,"state":"active","ping":67},{"user_id":436,"name":"Wandering Thyme","steam_id":76561198289245081,"connected_time":496000000000,"state":"active","ping":50},{"user_id":440,"name":"Zoro (Hun)","steam_id":76561199367182571,"connected_time":364000000000,"state":"active","ping":57},{"user_id":376,"name":"pSy","steam_id":76561198016471415,"connected_time":3456000000000,"state":"active","ping":58},{"user_id":422,"name":"[HOL] Solringen","steam_id":76561198003584681,"connected_time":1422000000000,"state":"active","ping":68},{"user_id":438,"name":"jovi_","steam_id":76561198449280552,"connected_time":403000000000,"state":"active","ping":59},{"user_id":439,"name":"Ebling Mis","steam_id":76561198977948250,"connected_time":381000000000,"state":"active","ping":59},{"user_id":412,"name":"tim","steam_id":76561198801490317,"connected_time":1592000000000,"state":"active","ping":116},{"user_id":404,"name":"markus","steam_id":76561198186791643,"connected_time":1868000000000,"state":"active","ping":75},{"user_id":410,"name":"vurtun","steam_id":76561198857395274,"connected_time":1662000000000,"state":"active","ping":45},{"user_id":437,"name":"Akis—è–Ω","steam_id":76561198078706435,"connected_time":473000000000,"state":"active","ping":73},{"user_id":424,"name":"MISTER SIUUU","steam_id":76561198018330092,"connected_time":1152000000000,"state":"active","ping":75},{"user_id":444,"name":"Umbro","steam_id":76561198087930438,"connected_time":250000000000,"state":"active","ping":69},{"user_id":426,"name":"men snus","steam_id":76561198311864757,"connected_time":1032000000000,"state":"active","ping":66},{"user_id":356,"name":"Sigma Gregory","steam_id":76561199040010283,"connected_time":4501000000000,"state":"active","ping":76},{"user_id":413,"name":"dafydd","steam_id":76561198052200325,"connected_time":1591000000000,"state":"active","ping":73},{"user_id":443,"name":"corpse eater","steam_id":76561198401523966,"connected_time":260000000000,"state":"active","ping":90},{"user_id":370,"name":"[UM-monster","steam_id":76561198085098243,"connected_time":3839000000000,"state":"active","ping":102},{"user_id":435,"name":"Nymph","steam_id":76561198042801329,"connected_time":589000000000,"state":"active","ping":61},{"user_id":447,"name":"—Ç—É–∫–∫—É –∏—Ä–º–∞","steam_id":76561197998715016,"connected_time":100000000000,"state":"active","ping":65},{"user_id":445,"name":"Old Boy Anter","steam_id":76561198153786963,"connected_time":176000000000,"state":"active","ping":81},{"user_id":428,"name":"Pabs :D","steam_id":76561198000016962,"connected_time":917000000000,"state":"active","ping":55}]},{"server_id":311,"name":"Uncletopia | Frankfurt | 6 | All Maps","name_short":"frk-6","host":"frk-1.de.uncletopia.com","port":27065,"enabled":true,"region":"eu","cc":"de","latitude":50.110924,"longitude":8.682127,"reserved":0,"last_update":"0001-01-01T00:00:00Z","name_a2s":"Uncletopia | Frankfurt | 6 | All Maps","protocol":17,"map":"pl_swiftwater_final1","folder":"tf","game":"Team Fortress","app_id":440,"player_count":24,"max_players":24,"Bots":0,"server_type":"Dedicated","server_os":"Linux","password":true,"vac":true,"version":"7961495","steam_id":85568392924504278,"keywords":["nocrits","nodmgspread","payload","uncletopia"],"game_id":440,"stv_port":27066,"stv_name":"Uncletopia | Frankfurt | 6 | All Maps | STV","players":[{"user_id":267,"name":"Ptahotep","steam_id":76561198008708645,"connected_time":214000000000,"state":"active","ping":53},{"user_id":208,"name":"Alexx","steam_id":76561198107260642,"connected_time":3527000000000,"state":"active","ping":40},{"user_id":262,"name":"Spinach Loving Elkman Steve","steam_id":76561198861519418,"connected_time":554000000000,"state":"active","ping":83},{"user_id":268,"name":"Andrew Tate","steam_id":76561199023727617,"connected_time":194000000000,"state":"active","ping":56},{"user_id":258,"name":"White [C-42]","steam_id":76561197987924531,"connected_time":672000000000,"state":"active","ping":68},{"user_id":259,"name":"matisslee","steam_id":76561199010101918,"connected_time":639000000000,"state":"active","ping":64},{"user_id":249,"name":"pavel_mkd","steam_id":76561199088118112,"connected_time":1253000000000,"state":"active","ping":77},{"user_id":260,"name":"Agon","steam_id":76561198982948437,"connected_time":622000000000,"state":"active","ping":89},{"user_id":261,"name":"Lion Doge","steam_id":76561198130701252,"connected_time":610000000000,"state":"active","ping":68},{"user_id":247,"name":"Gabeyboy321","steam_id":76561199379213615,"connected_time":1294000000000,"state":"active","ping":167},{"user_id":272,"name":"Caliban","steam_id":76561197999696839,"connected_time":34000000000,"state":"active","ping":112},{"user_id":270,"name":"the grongle","steam_id":76561198989398023,"connected_time":60000000000,"state":"active","ping":103},{"user_id":219,"name":"JohnTraveltime","steam_id":76561199244281754,"connected_time":3019000000000,"state":"active","ping":52},{"user_id":238,"name":"Solarwind","steam_id":76561197982613226,"connected_time":1381000000000,"state":"active","ping":72},{"user_id":264,"name":"Siegmeyer","steam_id":76561198328543549,"connected_time":521000000000,"state":"active","ping":85},{"user_id":257,"name":"GrosFumiste","steam_id":76561198850134909,"connected_time":708000000000,"state":"active","ping":57},{"user_id":229,"name":"Josh","steam_id":76561198274546904,"connected_time":2236000000000,"state":"active","ping":136},{"user_id":265,"name":"Dave The Sloth","steam_id":76561199135831355,"connected_time":508000000000,"state":"active","ping":60},{"user_id":241,"name":"iBep","steam_id":76561198090298178,"connected_time":1325000000000,"state":"active","ping":53},{"user_id":242,"name":"Waltism","steam_id":76561199447676489,"connected_time":1319000000000,"state":"active","ping":73},{"user_id":254,"name":"BRICK TOP","steam_id":76561198014366715,"connected_time":784000000000,"state":"active","ping":60},{"user_id":271,"name":"Viv","steam_id":76561198199110998,"connected_time":53000000000,"state":"active","ping":66},{"user_id":252,"name":"Planned Parenthood","steam_id":76561198272400963,"connected_time":882000000000,"state":"active","ping":70},{"user_id":251,"name":"Zulik92","steam_id":76561198152442373,"connected_time":1100000000000,"state":"active","ping":65}]},{"server_id":23,"name":"Uncletopia | Frankfurt | 7 | Stopwatch","name_short":"frk-7","host":"frk-1.de.uncletopia.com","port":27075,"enabled":true,"region":"eu","cc":"de","latitude":50.110924,"longitude":8.682127,"reserved":0,"last_update":"0001-01-01T00:00:00Z","name_a2s":"Uncletopia | Frankfurt | 7 | Stopwatch","protocol":17,"map":"workshop/koth_ashville_final.ugc2130459942","folder":"tf","game":"Team Fortress","app_id":440,"player_count":0,"max_players":24,"Bots":0,"server_type":"Dedicated","server_os":"Linux","password":true,"vac":true,"version":"7961495","steam_id":85568392924742827,"keywords":["cp","nocrits","nodmgspread","uncletopia"],"game_id":440,"stv_port":27076,"stv_name":"Uncletopia | Frankfurt | 7 | Stopwatch | STV","players":null},{"server_id":24,"name":"Uncletopia | Frankfurt | 8 | Community","name_short":"frk-8","host":"frk-1.de.uncletopia.com","port":27085,"enabled":true,"region":"eu","cc":"de","latitude":50.110924,"longitude":8.682127,"reserved":0,"last_update":"0001-01-01T00:00:00Z","name_a2s":"Uncletopia | Frankfurt | 8 | Community","protocol":17,"map":"workshop/cp_glassworks_rc7a.ugc454118349","folder":"tf","game":"Team Fortress","app_id":440,"player_count":0,"max_players":24,"Bots":0,"server_type":"Dedicated","server_os":"Linux","password":true,"vac":true,"version":"7961495","steam_id":85568392924742828,"keywords":["cp","nocrits","nodmgspread","uncletopia"],"game_id":440,"stv_port":27086,"stv_name":"Uncletopia | Frankfurt | 8 | Community | STV","players":null},{"server_id":202,"name":"Uncletopia | Hong Kong | 1 | All Maps","name_short":"hgk-1","host":"hgk-1.hk.uncletopia.com","port":27015,"enabled":true,"region":"asia","cc":"hk","latitude":22.302711,"longitude":114.177216,"reserved":0,"last_update":"0001-01-01T00:00:00Z","name_a2s":"Uncletopia | Hong Kong | 1 | All Maps","protocol":17,"map":"koth_viaduct","folder":"tf","game":"Team Fortress","app_id":440,"player_count":0,"max_players":24,"Bots":0,"server_type":"Dedicated","server_os":"Linux","password":true,"vac":true,"version":"7961495","steam_id":85568392924494504,"keywords":["cp","nocrits","nodmgspread","uncletopia"],"game_id":440,"stv_port":27016,"stv_name":"Uncletopia | Hong Kong | 1 | All Maps | STV","players":null},{"server_id":1,"name":"Uncletopia | Los Angeles | 1 | All Maps","name_short":"lax-1","host":"lax-1.us.uncletopia.com","port":27015,"enabled":true,"region":"us-west","cc":"us","latitude":33.94279,"longitude":-118.41004,"reserved":0,"last_update":"0001-01-01T00:00:00Z","name_a2s":"Uncletopia | Los Angeles | 1 | All Maps","protocol":17,"map":"koth_lakeside_final","folder":"tf","game":"Team Fortress","app_id":440,"player_count":0,"max_players":24,"Bots":0,"server_type":"Dedicated","server_os":"Linux","password":true,"vac":true,"version":"7961495","steam_id":85568392924469991,"keywords":["cp","nocrits","nodmgspread","uncletopia"],"game_id":440,"stv_port":27016,"stv_name":"Uncletopia | Los Angeles | 1 | All Maps | STV","players":null},{"server_id":112,"name":"Uncletopia | Los Angeles | 2 | All Maps","name_short":"lax-2","host":"lax-1.us.uncletopia.com","port":27025,"enabled":true,"region":"us-west","cc":"us","latitude":33.94279,"longitude":-118.41004,"reserved":0,"last_update":"0001-01-01T00:00:00Z","name_a2s":"Uncletopia | Los Angeles | 2 | All Maps","protocol":17,"map":"koth_lazarus","folder":"tf","game":"Team Fortress","app_id":440,"player_count":0,"max_players":24,"Bots":0,"server_type":"Dedicated","server_os":"Linux","password":true,"vac":true,"version":"7961495","steam_id":85568392924469992,"keywords":["cp","nocrits","nodmgspread","uncletopia"],"game_id":440,"stv_port":27026,"stv_name":"Uncletopia | Los Angeles | 2 | All Maps | STV","players":null},{"server_id":324,"name":"Uncletopia | Los Angeles | 3 | All Maps","name_short":"lax-3","host":"lax-1.us.uncletopia.com","port":27035,"enabled":true,"region":"us-west","cc":"us","latitude":33.94279,"longitude":-118.41004,"reserved":0,"last_update":"0001-01-01T00:00:00Z","name_a2s":"Uncletopia | Los Angeles | 3 | All Maps","protocol":17,"map":"pl_frontier_final","folder":"tf","game":"Team Fortress","app_id":440,"player_count":0,"max_players":24,"Bots":0,"server_type":"Dedicated","server_os":"Linux","password":true,"vac":true,"version":"7961495","steam_id":85568392924510198,"keywords":["nocrits","nodmgspread","payload","uncletopia"],"game_id":440,"stv_port":27036,"stv_name":"Uncletopia | Los Angeles | 3 | All Maps | STV","players":null},{"server_id":25,"name":"Uncletopia | Los Angeles | 4 | Stopwatch","name_short":"lax-4","host":"lax-1.us.uncletopia.com","port":27045,"enabled":true,"region":"us-west","cc":"us","latitude":33.94279,"longitude":-118.41004,"reserved":0,"last_update":"0001-01-01T00:00:00Z","name_a2s":"Uncletopia | Los Angeles | 4 | Stopwatch","protocol":17,"map":"pl_upward","folder":"tf","game":"Team Fortress","app_id":440,"player_count":0,"max_players":24,"Bots":0,"server_type":"Dedicated","server_os":"Linux","password":true,"vac":true,"version":"7961495","steam_id":85568392924510199,"keywords":["nocrits","nodmgspread","payload","uncletopia"],"game_id":440,"stv_port":27046,"stv_name":"Uncletopia | Los Angeles | 4 | Stopwatch | STV","players":null},{"server_id":11,"name":"Uncletopia | London | 1 | All Maps","name_short":"lon-1","host":"lon-1.uk.uncletopia.com","port":27015,"enabled":true,"region":"eu","cc":"gb","latitude":51.509865,"longitude":-0.118092,"reserved":0,"last_update":"0001-01-01T00:00:00Z","name_a2s":"Uncletopia | London | 1 | All Maps","protocol":17,"map":"cp_steel","folder":"tf","game":"Team Fortress","app_id":440,"player_count":24,"max_players":24,"Bots":0,"server_type":"Dedicated","server_os":"Linux","password":true,"vac":true,"version":"7961495","steam_id":85568392924367362,"keywords":["cp","nocrits","nodmgspread","uncletopia"],"game_id":440,"stv_port":27016,"stv_name":"Uncletopia | London | 1 | All Maps | STV","players":[{"user_id":571,"name":"hide","steam_id":76561198918282467,"connected_time":844000000000,"state":"active","ping":43},{"user_id":555,"name":"maniac-baker","steam_id":76561198076966730,"connected_time":1947000000000,"state":"active","ping":52},{"user_id":537,"name":"FLAKEZ4REAL","steam_id":76561197978361391,"connected_time":3522000000000,"state":"active","ping":70},{"user_id":585,"name":"Smilez","steam_id":76561197999353870,"connected_time":109000000000,"state":"active","ping":44},{"user_id":569,"name":"Levis Saltator","steam_id":76561198035945247,"connected_time":877000000000,"state":"active","ping":66},{"user_id":578,"name":"nudjura","steam_id":76561198281986139,"connected_time":612000000000,"state":"active","ping":44},{"user_id":570,"name":"Counter Strike 2","steam_id":76561198088339200,"connected_time":875000000000,"state":"active","ping":51},{"user_id":573,"name":"Prince Flip","steam_id":76561198023462157,"connected_time":760000000000,"state":"active","ping":54},{"user_id":561,"name":"Sang","steam_id":76561198008510868,"connected_time":1426000000000,"state":"active","ping":74},{"user_id":576,"name":"billions must braaap","steam_id":76561198190583242,"connected_time":653000000000,"state":"active","ping":68},{"user_id":465,"name":"Sniper","steam_id":76561198032359132,"connected_time":8128000000000,"state":"active","ping":44},{"user_id":583,"name":"jmp","steam_id":76561198168283286,"connected_time":199000000000,"state":"active","ping":75},{"user_id":580,"name":"Vince","steam_id":76561199103000131,"connected_time":555000000000,"state":"active","ping":31},{"user_id":572,"name":"MrXtr","steam_id":76561198966247397,"connected_time":837000000000,"state":"active","ping":66},{"user_id":541,"name":"papa Sloath","steam_id":76561198046382160,"connected_time":2883000000000,"state":"active","ping":51},{"user_id":574,"name":"Pats (Gifted items Collector)","steam_id":76561198418538887,"connected_time":760000000000,"state":"active","ping":79},{"user_id":558,"name":"Snake-chan","steam_id":76561199044755854,"connected_time":1516000000000,"state":"active","ping":91},{"user_id":534,"name":"Hermitcrack","steam_id":76561198149216441,"connected_time":3945000000000,"state":"active","ping":61},{"user_id":560,"name":"Lyra","steam_id":76561198043601838,"connected_time":1471000000000,"state":"active","ping":70},{"user_id":565,"name":"wk ohw","steam_id":76561198106049954,"connected_time":1136000000000,"state":"active","ping":75},{"user_id":549,"name":"chiyonii.","steam_id":76561198021854431,"connected_time":2508000000000,"state":"active","ping":60},{"user_id":452,"name":"clunk","steam_id":76561198836460767,"connected_time":9756000000000,"state":"active","ping":66},{"user_id":568,"name":"Charlie Brown","steam_id":76561199378865926,"connected_time":981000000000,"state":"active","ping":86},{"user_id":516,"name":"Jam","steam_id":76561198090409013,"connected_time":5059000000000,"state":"active","ping":83}]},{"server_id":114,"name":"Uncletopia | London | 2 | All Maps","name_short":"lon-2","host":"lon-1.uk.uncletopia.com","port":27025,"enabled":true,"region":"eu","cc":"gb","latitude":51.509865,"longitude":-0.118092,"reserved":0,"last_update":"0001-01-01T00:00:00Z","name_a2s":"Uncletopia | London | 2 | All Maps","protocol":17,"map":"cp_snakewater_final1","folder":"tf","game":"Team Fortress","app_id":440,"player_count":0,"max_players":24,"Bots":0,"server_type":"Dedicated","server_os":"Linux","password":true,"vac":true,"version":"7961495","steam_id":85568392924470941,"keywords":["cp","nocrits","nodmgspread","uncletopia"],"game_id":440,"stv_port":27026,"stv_name":"Uncletopia | London | 2 | All Maps | STV","players":null},{"server_id":320,"name":"Uncletopia | London | 3 | All Maps","name_short":"lon-3","host":"lon-1.uk.uncletopia.com","port":27035,"enabled":true,"region":"eu","cc":"gb","latitude":51.509865,"longitude":-0.118092,"reserved":0,"last_update":"0001-01-01T00:00:00Z","name_a2s":"Uncletopia | London | 3 | All Maps","protocol":17,"map":"pl_barnblitz","folder":"tf","game":"Team Fortress","app_id":440,"player_count":24,"max_players":24,"Bots":0,"server_type":"Dedicated","server_os":"Linux","password":true,"vac":true,"version":"7961495","steam_id":85568392924510192,"keywords":["nocrits","nodmgspread","payload","uncletopia"],"game_id":440,"stv_port":27036,"stv_name":"Uncletopia | London | 3 | All Maps | STV","players":[{"user_id":81,"name":"ÊúàË™≠","steam_id":76561198154020827,"connected_time":36000000000,"state":"spawning","ping":116},{"user_id":55,"name":"Mr.Fix","steam_id":76561199017362445,"connected_time":904000000000,"state":"active","ping":103},{"user_id":77,"name":"B‚àûp | ‚ù§Fasto‚ù§","steam_id":76561198118298527,"connected_time":101000000000,"state":"active","ping":52},{"user_id":51,"name":"Dr. Jackson Han","steam_id":76561199121983196,"connected_time":1167000000000,"state":"active","ping":55},{"user_id":25,"name":"Tankedup_","steam_id":76561198168659251,"connected_time":3095000000000,"state":"active","ping":40},{"user_id":28,"name":"woople","steam_id":76561198076625889,"connected_time":2544000000000,"state":"active","ping":76},{"user_id":27,"name":"Goro Majima","steam_id":76561198003040222,"connected_time":2828000000000,"state":"active","ping":35},{"user_id":78,"name":"smolwolk","steam_id":76561198030254497,"connected_time":94000000000,"state":"active","ping":112},{"user_id":30,"name":"mtwking","steam_id":76561198906681069,"connected_time":2404000000000,"state":"active","ping":51},{"user_id":31,"name":"Squeeblem","steam_id":76561198394233058,"connected_time":2358000000000,"state":"active","ping":45},{"user_id":32,"name":"[UiF] BafTac r/f*ckcars","steam_id":76561198060547050,"connected_time":2348000000000,"state":"active","ping":60},{"user_id":72,"name":"Herios","steam_id":76561198132804139,"connected_time":376000000000,"state":"active","ping":85},{"user_id":34,"name":"alex mandal","steam_id":76561198116166791,"connected_time":2290000000000,"state":"active","ping":94},{"user_id":47,"name":"Windows Vista Cruiser","steam_id":76561198064102233,"connected_time":1393000000000,"state":"active","ping":68},{"user_id":36,"name":"Chairforce","steam_id":76561198020208899,"connected_time":2249000000000,"state":"active","ping":71},{"user_id":37,"name":"Surrealistic_Ganerson","steam_id":76561198029591931,"connected_time":2065000000000,"state":"active","ping":96},{"user_id":53,"name":"RawAirFreshener","steam_id":76561198361196143,"connected_time":1109000000000,"state":"active","ping":49},{"user_id":39,"name":"dr,shaun murphy","steam_id":76561199122004242,"connected_time":1854000000000,"state":"active","ping":47},{"user_id":42,"name":"Eggcracker","steam_id":76561199274850641,"connected_time":1757000000000,"state":"active","ping":70},{"user_id":73,"name":"Swiss_Nostalgia","steam_id":76561199159896259,"connected_time":367000000000,"state":"active","ping":61},{"user_id":74,"name":"The legendery balls","steam_id":76561199139344747,"connected_time":344000000000,"state":"active","ping":101},{"user_id":45,"name":"Purple Soup :D","steam_id":76561198985100366,"connected_time":1728000000000,"state":"active","ping":88},{"user_id":80,"name":"Aflojack","steam_id":76561198156450269,"connected_time":68000000000,"state":"active","ping":77},{"user_id":63,"name":"FiuffyDaisy!","steam_id":76561198241732704,"connected_time":691000000000,"state":"active","ping":48}]},{"server_id":321,"name":"Uncletopia | London | 4 | All Maps","name_short":"lon-4","host":"lon-1.uk.uncletopia.com","port":27045,"enabled":true,"region":"eu","cc":"gb","latitude":51.509865,"longitude":-0.118092,"reserved":0,"last_update":"0001-01-01T00:00:00Z","name_a2s":"Uncletopia | London | 4 | All Maps","protocol":17,"map":"pl_swiftwater_final1","folder":"tf","game":"Team Fortress","app_id":440,"player_count":24,"max_players":24,"Bots":0,"server_type":"Dedicated","server_os":"Linux","password":true,"vac":true,"version":"7961495","steam_id":85568392924510193,"keywords":["nocrits","nodmgspread","payload","uncletopia"],"game_id":440,"stv_port":27046,"stv_name":"Uncletopia | London | 4 | All Maps | STV","players":[{"user_id":136,"name":"[dopijus]","steam_id":76561198943009513,"connected_time":1244000000000,"state":"active","ping":99},{"user_id":88,"name":"That hamster has been dead for ","steam_id":76561198346638308,"connected_time":3803000000000,"state":"active","ping":45},{"user_id":92,"name":"Dan Dan the Furious","steam_id":76561198091032527,"connected_time":3363000000000,"state":"active","ping":57},{"user_id":132,"name":"TA Assassin","steam_id":76561198042432118,"connected_time":1457000000000,"state":"active","ping":45},{"user_id":129,"name":"tired","steam_id":76561198046838168,"connected_time":1695000000000,"state":"active","ping":59},{"user_id":140,"name":"matto","steam_id":76561198204488876,"connected_time":251000000000,"state":"active","ping":74},{"user_id":114,"name":"Mutilated_Scout","steam_id":76561199210952387,"connected_time":2500000000000,"state":"active","ping":53},{"user_id":139,"name":"Fatmagic Mukbang ASMR","steam_id":76561198063492110,"connected_time":293000000000,"state":"active","ping":80},{"user_id":90,"name":"yoinkering the chicken clearver","steam_id":76561198060886742,"connected_time":3408000000000,"state":"active","ping":122},{"user_id":134,"name":"Your honor Freebird was playing","steam_id":76561198017513012,"connected_time":1332000000000,"state":"active","ping":54},{"user_id":141,"name":"hbag","steam_id":76561198047393376,"connected_time":212000000000,"state":"active","ping":68},{"user_id":142,"name":"Sir Cauterize","steam_id":76561198047079422,"connected_time":136000000000,"state":"active","ping":55},{"user_id":109,"name":"katten","steam_id":76561198163615254,"connected_time":2775000000000,"state":"active","ping":60},{"user_id":123,"name":"spy among us","steam_id":76561197972287320,"connected_time":2294000000000,"state":"active","ping":72},{"user_id":138,"name":"SphericalRuby","steam_id":76561199120074913,"connected_time":420000000000,"state":"active","ping":91},{"user_id":120,"name":"Mizobau","steam_id":76561198965211894,"connected_time":2382000000000,"state":"active","ping":58},{"user_id":38,"name":"NayrMcDrd","steam_id":76561199013184576,"connected_time":5925000000000,"state":"active","ping":72},{"user_id":122,"name":"Miss Asstickles","steam_id":76561198030286622,"connected_time":2360000000000,"state":"active","ping":49},{"user_id":125,"name":"January 2035","steam_id":76561198011749653,"connected_time":2196000000000,"state":"active","ping":50},{"user_id":143,"name":"sv_MrGibbs","steam_id":76561198114071972,"connected_time":125000000000,"state":"active","ping":48},{"user_id":126,"name":"Caelestis","steam_id":76561198170017997,"connected_time":2151000000000,"state":"active","ping":69},{"user_id":82,"name":"NALA","steam_id":76561198039806469,"connected_time":4067000000000,"state":"active","ping":77},{"user_id":135,"name":"not a nihilist","steam_id":76561198004340466,"connected_time":1258000000000,"state":"active","ping":47},{"user_id":131,"name":"lugi","steam_id":76561198026903673,"connected_time":1692000000000,"state":"active","ping":73}]},{"server_id":21,"name":"Uncletopia | London | 5 | All Maps","name_short":"lon-5","host":"lon-1.uk.uncletopia.com","port":27055,"enabled":true,"region":"eu","cc":"gb","latitude":51.509865,"longitude":-0.118092,"reserved":0,"last_update":"0001-01-01T00:00:00Z","name_a2s":"Uncletopia | London | 5 | All Maps","protocol":17,"map":"pl_barnblitz","folder":"tf","game":"Team Fortress","app_id":440,"player_count":24,"max_players":24,"Bots":0,"server_type":"Dedicated","server_os":"Linux","password":true,"vac":true,"version":"7961495","steam_id":85568392924742829,"keywords":["nocrits","nodmgspread","payload","uncletopia"],"game_id":440,"stv_port":27056,"stv_name":"Uncletopia | London | 5 | All Maps | STV","players":[{"user_id":436,"name":"PandaSaysHi","steam_id":76561199223233297,"connected_time":2569000000000,"state":"active","ping":73},{"user_id":428,"name":"RebirthInFire","steam_id":76561198200555755,"connected_time":2746000000000,"state":"active","ping":47},{"user_id":393,"name":"KhorneBread Ô∏ª„Éá ‰∏Ä","steam_id":76561198097069958,"connected_time":5063000000000,"state":"active","ping":137},{"user_id":463,"name":"t.tv/soarfps","steam_id":76561198010662796,"connected_time":724000000000,"state":"active","ping":52},{"user_id":471,"name":"LeonCactus","steam_id":76561198102360825,"connected_time":388000000000,"state":"active","ping":46},{"user_id":455,"name":"BazaS","steam_id":76561198069238159,"connected_time":1443000000000,"state":"active","ping":91},{"user_id":459,"name":"Homosapien","steam_id":76561197972035953,"connected_time":1102000000000,"state":"active","ping":68},{"user_id":474,"name":"zulfie","steam_id":76561198117390056,"connected_time":101000000000,"state":"active","ping":31},{"user_id":412,"name":"NiveK","steam_id":76561197988636096,"connected_time":4453000000000,"state":"active","ping":69},{"user_id":426,"name":"Vibr√°tor (418 122 locomotive)","steam_id":76561198097789669,"connected_time":3295000000000,"state":"active","ping":69},{"user_id":458,"name":"Dakeyras","steam_id":76561198057069564,"connected_time":1283000000000,"state":"active","ping":93},{"user_id":422,"name":"bigmanlunitachehe","steam_id":76561199226575998,"connected_time":3414000000000,"state":"active","ping":52},{"user_id":450,"name":"eXa","steam_id":76561197988349233,"connected_time":1970000000000,"state":"active","ping":51},{"user_id":454,"name":"Indomitable Truck-sama","steam_id":76561198826861582,"connected_time":1562000000000,"state":"active","ping":59},{"user_id":468,"name":"FilipeLuk","steam_id":76561198150675438,"connected_time":596000000000,"state":"active","ping":70},{"user_id":446,"name":"Karsta (Feeder)","steam_id":76561198376776616,"connected_time":2085000000000,"state":"active","ping":63},{"user_id":475,"name":"–∫—Å—é—à–∞","steam_id":76561199149307190,"connected_time":56000000000,"state":"active","ping":89},{"user_id":451,"name":"abra-kablam","steam_id":76561198195857751,"connected_time":1922000000000,"state":"active","ping":67},{"user_id":457,"name":"flick","steam_id":76561198083505031,"connected_time":1402000000000,"state":"active","ping":48},{"user_id":473,"name":"Reimu","steam_id":76561198101532240,"connected_time":312000000000,"state":"active","ping":59},{"user_id":404,"name":"s a i","steam_id":76561197970379754,"connected_time":4652000000000,"state":"active","ping":65},{"user_id":469,"name":"Hatador","steam_id":76561198074501986,"connected_time":528000000000,"state":"active","ping":53},{"user_id":418,"name":"Enjoyer","steam_id":76561198147399855,"connected_time":3694000000000,"state":"active","ping":123},{"user_id":467,"name":"Qdarks","steam_id":76561198013391340,"connected_time":704000000000,"state":"active","ping":144}]},{"server_id":22,"name":"Uncletopia | London | 6 | All Maps","name_short":"lon-6","host":"lon-1.uk.uncletopia.com","port":27065,"enabled":true,"region":"eu","cc":"gb","latitude":51.509865,"longitude":-0.118092,"reserved":0,"last_update":"0001-01-01T00:00:00Z","name_a2s":"Uncletopia | London | 6 | All Maps","protocol":17,"map":"pl_goldrush","folder":"tf","game":"Team Fortress","app_id":440,"player_count":21,"max_players":24,"Bots":0,"server_type":"Dedicated","server_os":"Linux","password":true,"vac":true,"version":"7961495","steam_id":85568392924742830,"keywords":["nocrits","nodmgspread","payload","uncletopia"],"game_id":440,"stv_port":27066,"stv_name":"Uncletopia | London | 6 | All Maps | STV","players":[{"user_id":131,"name":"Banana khan","steam_id":76561198992414056,"connected_time":2136000000000,"state":"active","ping":170},{"user_id":132,"name":"Spycrab Gaming","steam_id":76561199128973607,"connected_time":2119000000000,"state":"active","ping":66},{"user_id":156,"name":"NOBODY","steam_id":76561198094578887,"connected_time":238000000000,"state":"active","ping":110},{"user_id":75,"name":"Borlor","steam_id":76561198206059604,"connected_time":5569000000000,"state":"active","ping":58},{"user_id":155,"name":"mr.resetti","steam_id":76561198974520642,"connected_time":271000000000,"state":"active","ping":63},{"user_id":150,"name":"Nurdbot","steam_id":76561197972640060,"connected_time":612000000000,"state":"active","ping":54},{"user_id":105,"name":"SoaCrow","steam_id":76561198069420717,"connected_time":3785000000000,"state":"active","ping":71},{"user_id":91,"name":"wavelength","steam_id":76561198154677956,"connected_time":4248000000000,"state":"active","ping":72},{"user_id":144,"name":"ANGHENFILOD","steam_id":76561199492622823,"connected_time":1233000000000,"state":"active","ping":44},{"user_id":136,"name":"mesŒª","steam_id":76561198324582918,"connected_time":2028000000000,"state":"active","ping":93},{"user_id":137,"name":"socaramel","steam_id":76561197984480336,"connected_time":2007000000000,"state":"active","ping":68},{"user_id":143,"name":"Tofu'","steam_id":76561197984621343,"connected_time":1271000000000,"state":"active","ping":47},{"user_id":122,"name":"theVad333","steam_id":76561199273469746,"connected_time":2658000000000,"state":"active","ping":77},{"user_id":158,"name":"japjao","steam_id":76561199230386527,"connected_time":136000000000,"state":"active","ping":44},{"user_id":159,"name":"Kiddion","steam_id":76561198133085347,"connected_time":125000000000,"state":"active","ping":66},{"user_id":115,"name":"EricToGo","steam_id":76561198068019642,"connected_time":3179000000000,"state":"active","ping":61},{"user_id":152,"name":"sethlington14","steam_id":76561199438357690,"connected_time":511000000000,"state":"active","ping":58},{"user_id":108,"name":"–†–µ–î–∞–ù–æ–í–µ–¶ ^_^","steam_id":76561199032612973,"connected_time":3596000000000,"state":"active","ping":80},{"user_id":149,"name":"Kinglyghost","steam_id":76561199231342179,"connected_time":682000000000,"state":"active","ping":60},{"user_id":146,"name":"Ross from F.R.I.E.N.D.S.","steam_id":76561198008511665,"connected_time":1063000000000,"state":"active","ping":57},{"user_id":147,"name":"Anti-Capitalist Weapon","steam_id":76561198143526071,"connected_time":1048000000000,"state":"active","ping":51}]},{"server_id":40,"name":"Uncletopia | London | 7 | Stopwatch","name_short":"lon-7","host":"lon-1.uk.uncletopia.com","port":27075,"enabled":true,"region":"eu","cc":"gb","latitude":51.509865,"longitude":-0.118092,"reserved":0,"last_update":"0001-01-01T00:00:00Z","name_a2s":"Uncletopia | London | 7 | Stopwatch","protocol":17,"map":"workshop/koth_clearcut_b15.ugc2107050255","folder":"tf","game":"Team Fortress","app_id":440,"player_count":0,"max_players":24,"Bots":0,"server_type":"Dedicated","server_os":"Linux","password":true,"vac":true,"version":"7961495","steam_id":85568392924964314,"keywords":["cp","nocrits","nodmgspread","uncletopia"],"game_id":440,"stv_port":27076,"stv_name":"Uncletopia | London | 7 | Stopwatch | STV","players":null},{"server_id":41,"name":"Uncletopia | London | 8 | Community","name_short":"lon-8","host":"lon-1.uk.uncletopia.com","port":27085,"enabled":true,"region":"eu","cc":"gb","latitude":51.509865,"longitude":-0.118092,"reserved":0,"last_update":"0001-01-01T00:00:00Z","name_a2s":"Uncletopia | London | 8 | Community","protocol":17,"map":"workshop/koth_kemptown_rc1.ugc767410655","folder":"tf","game":"Team Fortress","app_id":440,"player_count":3,"max_players":24,"Bots":0,"server_type":"Dedicated","server_os":"Linux","password":true,"vac":true,"version":"7961495","steam_id":85568392924964315,"keywords":["cp","nocrits","nodmgspread","uncletopia"],"game_id":440,"stv_port":27086,"stv_name":"Uncletopia | London | 8 | Community | STV","players":[{"user_id":5,"name":"platypus55","steam_id":76561199077371051,"connected_time":1876000000000,"state":"active","ping":48},{"user_id":7,"name":"A_random*******321","steam_id":76561199217325976,"connected_time":1784000000000,"state":"active","ping":63},{"user_id":9,"name":"Moondrop","steam_id":76561199421181719,"connected_time":147000000000,"state":"active","ping":70}]},{"server_id":300,"name":"Uncletopia | Montr√©al | 1 | One Thousand Uncles","name_short":"mtl-1","host":"mtl-1.ca.uncletopia.com","port":27015,"enabled":true,"region":"us-east","cc":"ca","latitude":45.50889,"longitude":-73.56167,"reserved":0,"last_update":"0001-01-01T00:00:00Z","name_a2s":"Uncletopia | Montr√©al | 1 | One Thousand Uncles","protocol":17,"map":"pl_hoodoo_final","folder":"tf","game":"Team Fortress","app_id":440,"player_count":21,"max_players":32,"Bots":20,"server_type":"Dedicated","server_os":"Linux","password":true,"vac":true,"version":"7961495","steam_id":85568392924500087,"keywords":["alltalk","bots","danepve","increased_maxplayers","norespawntime","payload","uncletopia"],"game_id":440,"stv_port":0,"stv_name":"","players":[{"user_id":43,"name":"St. Arnold of Soissons","steam_id":76561197974133892,"connected_time":33000000000,"state":"active","ping":47}]},{"server_id":301,"name":"Uncletopia | Montr√©al | 2 | One Thousand Uncles","name_short":"mtl-2","host":"mtl-1.ca.uncletopia.com","port":27025,"enabled":true,"region":"us-east","cc":"ca","latitude":45.50889,"longitude":-73.56167,"reserved":0,"last_update":"0001-01-01T00:00:00Z","name_a2s":"Uncletopia | Montr√©al | 2 | One Thousand Uncles","protocol":17,"map":"cp_mossrock","folder":"tf","game":"Team Fortress","app_id":440,"player_count":0,"max_players":32,"Bots":0,"server_type":"Dedicated","server_os":"Linux","password":true,"vac":true,"version":"7961495","steam_id":85568392924500088,"keywords":["alltalk","cp","danepve","increased_maxplayers","norespawntime","uncletopia"],"game_id":440,"stv_port":0,"stv_name":"","players":null},{"server_id":302,"name":"Uncletopia | Montr√©al | 3 | One Thousand Uncles","name_short":"mtl-3","host":"mtl-1.ca.uncletopia.com","port":27035,"enabled":true,"region":"us-east","cc":"ca","latitude":45.50889,"longitude":-73.56167,"reserved":0,"last_update":"0001-01-01T00:00:00Z","name_a2s":"Uncletopia | Montr√©al | 3 | One Thousand Uncles","protocol":17,"map":"pl_swiftwater_final1","folder":"tf","game":"Team Fortress","app_id":440,"player_count":24,"max_players":32,"Bots":20,"server_type":"Dedicated","server_os":"Linux","password":true,"vac":true,"version":"7961495","steam_id":85568392924500089,"keywords":["alltalk","bots","danepve","increased_maxplayers","norespawntime","payload","uncletopia"],"game_id":440,"stv_port":0,"stv_name":"","players":[{"user_id":2,"name":"goobiestgoober","steam_id":76561199487899460,"connected_time":10596000000000,"state":"active","ping":144},{"user_id":74,"name":"Littletoughie","steam_id":76561198066103628,"connected_time":2390000000000,"state":"active","ping":69},{"user_id":99,"name":"WM1 PYRO","steam_id":76561198045893896,"connected_time":231000000000,"state":"active","ping":114},{"user_id":100,"name":"cheesecake hunter","steam_id":76561198097769060,"connected_time":170000000000,"state":"active","ping":137}]},{"server_id":13,"name":"Uncletopia | New York City | 1 | All Maps","name_short":"nyc-1","host":"nyc-1.us.uncletopia.com","port":27015,"enabled":true,"region":"us-east","cc":"us","latitude":40.73061,"longitude":-73.93524,"reserved":0,"last_update":"0001-01-01T00:00:00Z","name_a2s":"Uncletopia | New York City | 1 | All Maps","protocol":17,"map":"pl_pier","folder":"tf","game":"Team Fortress","app_id":440,"player_count":23,"max_players":24,"Bots":0,"server_type":"Dedicated","server_os":"Linux","password":true,"vac":true,"version":"7961495","steam_id":85568392924469993,"keywords":["nocrits","nodmgspread","payload","uncletopia"],"game_id":440,"stv_port":27016,"stv_name":"Uncletopia | New York City | 1 | All Maps | STV","players":[{"user_id":138,"name":"guitarfreak","steam_id":76561198139851357,"connected_time":4662000000000,"state":"active","ping":90},{"user_id":181,"name":"Samuel Adams Miller Lite","steam_id":76561198112188509,"connected_time":1814000000000,"state":"active","ping":77},{"user_id":149,"name":"Cellus","steam_id":76561198067204847,"connected_time":3524000000000,"state":"active","ping":58},{"user_id":203,"name":"Mr. Worcestershire","steam_id":76561198982347922,"connected_time":473000000000,"state":"active","ping":40},{"user_id":197,"name":"gIBBY","steam_id":76561198080099598,"connected_time":840000000000,"state":"active","ping":44},{"user_id":144,"name":"morning glory","steam_id":76561198105081948,"connected_time":4020000000000,"state":"active","ping":47},{"user_id":202,"name":"‚ô©Karmism‚ô©","steam_id":76561199453410299,"connected_time":496000000000,"state":"active","ping":77},{"user_id":198,"name":"Magna24","steam_id":76561198809629331,"connected_time":815000000000,"state":"active","ping":121},{"user_id":207,"name":"GummybearKillr","steam_id":76561198031235750,"connected_time":71000000000,"state":"active","ping":47},{"user_id":176,"name":"Ramblet","steam_id":76561199026783260,"connected_time":2000000000000,"state":"active","ping":55},{"user_id":195,"name":"Spike Bones","steam_id":76561198234926120,"connected_time":1022000000000,"state":"active","ping":89},{"user_id":173,"name":"Propaniac Gaming ‚òë","steam_id":76561198133963270,"connected_time":2031000000000,"state":"active","ping":60},{"user_id":204,"name":"CrustyCapybara","steam_id":76561199450398030,"connected_time":470000000000,"state":"active","ping":64},{"user_id":206,"name":"imng","steam_id":76561198014988031,"connected_time":352000000000,"state":"active","ping":62},{"user_id":192,"name":"Menace to Sobriety","steam_id":76561198245103000,"connected_time":1248000000000,"state":"active","ping":55},{"user_id":161,"name":"Pannington","steam_id":76561198138707710,"connected_time":2657000000000,"state":"active","ping":87},{"user_id":186,"name":"Jack","steam_id":76561198079575891,"connected_time":1576000000000,"state":"active","ping":116},{"user_id":117,"name":"CDBeans","steam_id":76561198046990367,"connected_time":6190000000000,"state":"active","ping":84},{"user_id":187,"name":"DO NOT call me BART SIMPSON!!","steam_id":76561198069113375,"connected_time":1533000000000,"state":"active","ping":61},{"user_id":201,"name":"Lost CS2 player","steam_id":76561198892387723,"connected_time":533000000000,"state":"active","ping":47},{"user_id":159,"name":"Mr.Newt_","steam_id":76561198042906063,"connected_time":2705000000000,"state":"active","ping":70},{"user_id":205,"name":"Nixon Me, Dixon Me","steam_id":76561198126519537,"connected_time":394000000000,"state":"active","ping":70},{"user_id":196,"name":"Travorski","steam_id":76561198072493142,"connected_time":989000000000,"state":"active","ping":97}]},{"server_id":14,"name":"Uncletopia | New York City | 2 | All Maps","name_short":"nyc-2","host":"nyc-1.us.uncletopia.com","port":27025,"enabled":true,"region":"us-east","cc":"us","latitude":40.73061,"longitude":-73.93524,"reserved":0,"last_update":"0001-01-01T00:00:00Z","name_a2s":"Uncletopia | New York City | 2 | All Maps","protocol":17,"map":"pl_upward","folder":"tf","game":"Team Fortress","app_id":440,"player_count":24,"max_players":24,"Bots":0,"server_type":"Dedicated","server_os":"Linux","password":true,"vac":true,"version":"7961495","steam_id":85568392924469994,"keywords":["nocrits","nodmgspread","payload","uncletopia"],"game_id":440,"stv_port":27026,"stv_name":"Uncletopia | New York City | 2 | All Maps | STV","players":[{"user_id":260,"name":"O'brien","steam_id":76561198289339403,"connected_time":202000000000,"state":"active","ping":85},{"user_id":249,"name":"Texas Methhead","steam_id":76561199205120538,"connected_time":1003000000000,"state":"active","ping":109},{"user_id":83,"name":"pea ttv/peabeanz","steam_id":76561198119551968,"connected_time":13900000000000,"state":"active","ping":66},{"user_id":18,"name":"Seasoned Shrimp","steam_id":76561198405863627,"connected_time":18099000000000,"state":"active","ping":110},{"user_id":236,"name":"Meh","steam_id":76561198078187920,"connected_time":1516000000000,"state":"active","ping":82},{"user_id":254,"name":"Legit_Jaxer","steam_id":76561198172234053,"connected_time":381000000000,"state":"active","ping":136},{"user_id":242,"name":"Eric4bz","steam_id":76561198054439606,"connected_time":1097000000000,"state":"active","ping":144},{"user_id":185,"name":"Young Sheldon Tik-Tok Clip","steam_id":76561198253927199,"connected_time":6102000000000,"state":"active","ping":167},{"user_id":251,"name":"Serenity","steam_id":76561198170355609,"connected_time":969000000000,"state":"active","ping":126},{"user_id":244,"name":"Narcoleptikitten","steam_id":76561199154641424,"connected_time":1081000000000,"state":"active","ping":110},{"user_id":258,"name":"Roach","steam_id":76561198073208398,"connected_time":250000000000,"state":"active","ping":52},{"user_id":234,"name":"k1eran","steam_id":76561198064600737,"connected_time":1588000000000,"state":"active","ping":70},{"user_id":213,"name":"your very own pocket medic","steam_id":76561199489320369,"connected_time":3358000000000,"state":"active","ping":56},{"user_id":255,"name":"Baron von Whoopsie","steam_id":76561197996691013,"connected_time":278000000000,"state":"active","ping":53},{"user_id":265,"name":"DRACO$","steam_id":76561198389198223,"connected_time":118000000000,"state":"active","ping":125},{"user_id":264,"name":"inphlate","steam_id":76561199016973013,"connected_time":119000000000,"state":"active","ping":61},{"user_id":245,"name":"Transbian mommy GF","steam_id":76561198153233822,"connected_time":1068000000000,"state":"active","ping":82},{"user_id":262,"name":"bakkhertz","steam_id":76561198046745579,"connected_time":152000000000,"state":"active","ping":88},{"user_id":238,"name":"abbipso","steam_id":76561198868564212,"connected_time":1306000000000,"state":"active","ping":68},{"user_id":229,"name":"bomba","steam_id":76561198301585642,"connected_time":2031000000000,"state":"active","ping":48},{"user_id":257,"name":"Robert","steam_id":76561198133200895,"connected_time":260000000000,"state":"active","ping":77},{"user_id":263,"name":"Jousty","steam_id":76561199162677853,"connected_time":151000000000,"state":"active","ping":117},{"user_id":221,"name":"goombinus","steam_id":76561198136164826,"connected_time":2674000000000,"state":"active","ping":63},{"user_id":268,"name":"Ahhhhhhhh Hot","steam_id":76561199072987753,"connected_time":86000000000,"state":"active","ping":90}]},{"server_id":15,"name":"Uncletopia | New York City | 3 | Stopwatch","name_short":"nyc-3","host":"nyc-1.us.uncletopia.com","port":27035,"enabled":true,"region":"us-east","cc":"us","latitude":40.73061,"longitude":-73.93524,"reserved":0,"last_update":"0001-01-01T00:00:00Z","name_a2s":"Uncletopia | New York City | 3 | Stopwatch","protocol":17,"map":"cp_metalworks","folder":"tf","game":"Team Fortress","app_id":440,"player_count":24,"max_players":24,"Bots":0,"server_type":"Dedicated","server_os":"Linux","password":true,"vac":true,"version":"7961495","steam_id":85568392924742820,"keywords":["cp","nocrits","nodmgspread","uncletopia"],"game_id":440,"stv_port":27036,"stv_name":"Uncletopia | New York City | 3 | Stopwatch | STV","players":[{"user_id":64,"name":"hayes","steam_id":76561198057101042,"connected_time":319000000000,"state":"active","ping":82},{"user_id":51,"name":"insanely aggressive alcoholic","steam_id":76561198992873877,"connected_time":982000000000,"state":"active","ping":77},{"user_id":58,"name":"Arcelite","steam_id":76561198007089716,"connected_time":584000000000,"state":"active","ping":51},{"user_id":37,"name":"Stop voting for PL","steam_id":76561198138420251,"connected_time":1513000000000,"state":"active","ping":76},{"user_id":28,"name":"dantheman","steam_id":76561199486390813,"connected_time":2937000000000,"state":"active","ping":77},{"user_id":59,"name":"Herman Bavinck","steam_id":76561197993190216,"connected_time":512000000000,"state":"active","ping":38},{"user_id":50,"name":"ÎùºÎãà","steam_id":76561198399201495,"connected_time":1168000000000,"state":"active","ping":94},{"user_id":60,"name":"breadbank87","steam_id":76561199082498273,"connected_time":499000000000,"state":"active","ping":82},{"user_id":43,"name":"[MOM] Preening Champion","steam_id":76561198055855534,"connected_time":1315000000000,"state":"active","ping":51},{"user_id":35,"name":"drake","steam_id":76561198151190171,"connected_time":1996000000000,"state":"active","ping":59},{"user_id":52,"name":"Salt","steam_id":76561198418001135,"connected_time":973000000000,"state":"active","ping":76},{"user_id":38,"name":"Sack Stomper","steam_id":76561198154616010,"connected_time":1505000000000,"state":"active","ping":89},{"user_id":39,"name":"Action Bastard","steam_id":76561198059552170,"connected_time":1504000000000,"state":"active","ping":45},{"user_id":40,"name":"Potato57","steam_id":76561198144282089,"connected_time":1470000000000,"state":"active","ping":58},{"user_id":41,"name":"Artemis","steam_id":76561198973786805,"connected_time":1455000000000,"state":"active","ping":66},{"user_id":61,"name":"gerge","steam_id":76561198092238353,"connected_time":496000000000,"state":"active","ping":90},{"user_id":45,"name":"GRONT","steam_id":76561198040464533,"connected_time":1274000000000,"state":"active","ping":96},{"user_id":53,"name":"RoyalKaiser RBMK -Mex-","steam_id":76561198886933897,"connected_time":932000000000,"state":"active","ping":134},{"user_id":69,"name":"uncle 'ardboss","steam_id":76561198055490732,"connected_time":71000000000,"state":"active","ping":155},{"user_id":65,"name":"what","steam_id":76561198082336619,"connected_time":292000000000,"state":"active","ping":58},{"user_id":49,"name":"He Come Down","steam_id":76561198232500756,"connected_time":1227000000000,"state":"active","ping":91},{"user_id":54,"name":"barry steakfries","steam_id":76561199472218520,"connected_time":878000000000,"state":"active","ping":56},{"user_id":67,"name":"Highlight321","steam_id":76561198278524572,"connected_time":147000000000,"state":"active","ping":110},{"user_id":66,"name":"floppy muppet","steam_id":76561198003076261,"connected_time":275000000000,"state":"active","ping":46}]},{"server_id":16,"name":"Uncletopia | New York City | 4 | Community","name_short":"nyc-4","host":"nyc-1.us.uncletopia.com","port":27045,"enabled":true,"region":"us-east","cc":"us","latitude":40.73061,"longitude":-73.93524,"reserved":0,"last_update":"0001-01-01T00:00:00Z","name_a2s":"Uncletopia | New York City | 4 | Community","protocol":17,"map":"workshop/cp_reckoner_rc6.ugc674719999","folder":"tf","game":"Team Fortress","app_id":440,"player_count":0,"max_players":24,"Bots":0,"server_type":"Dedicated","server_os":"Linux","password":true,"vac":true,"version":"7961495","steam_id":85568392924742821,"keywords":["cp","nocrits","nodmgspread","uncletopia"],"game_id":440,"stv_port":27046,"stv_name":"Uncletopia | New York City | 4 | Community | STV","players":null},{"server_id":142,"name":"Uncletopia | S√£o Paulo | 1 | All Maps","name_short":"sao-1","host":"sao-1.br.uncletopia.com","port":27015,"enabled":true,"region":"sa","cc":"br","latitude":-23.533773,"longitude":-46.62529,"reserved":0,"last_update":"0001-01-01T00:00:00Z","name_a2s":"Uncletopia | S√£o Paulo | 1 | All Maps","protocol":17,"map":"pl_borneo","folder":"tf","game":"Team Fortress","app_id":440,"player_count":0,"max_players":24,"Bots":0,"server_type":"Dedicated","server_os":"Linux","password":true,"vac":true,"version":"7961495","steam_id":85568392924469996,"keywords":["nocrits","nodmgspread","payload","uncletopia"],"game_id":440,"stv_port":27016,"stv_name":"Uncletopia | S√£o Paulo | 1 | All Maps | STV","players":null},{"server_id":143,"name":"Uncletopia | S√£o Paulo | 2 | Community","name_short":"sao-2","host":"sao-2.br.uncletopia.com","port":27015,"enabled":true,"region":"sa","cc":"br","latitude":-23.533773,"longitude":-46.62529,"reserved":0,"last_update":"0001-01-01T00:00:00Z","name_a2s":"Uncletopia | S√£o Paulo | 2 | Community","protocol":17,"map":"workshop/koth_slaughter_rc1.ugc1712845210","folder":"tf","game":"Team Fortress","app_id":440,"player_count":1,"max_players":24,"Bots":0,"server_type":"Dedicated","server_os":"Linux","password":true,"vac":true,"version":"7961495","steam_id":85568392924485349,"keywords":["cp","nocrits","nodmgspread","uncletopia"],"game_id":440,"stv_port":27016,"stv_name":"Uncletopia | S√£o Paulo | 2 | Community | STV","players":[{"user_id":7,"name":"talesoshima","steam_id":76561198113334926,"connected_time":433000000000,"state":"active","ping":57}]},{"server_id":7,"name":"Uncletopia | Seattle | 1 | All Maps","name_short":"sea-1","host":"sea-1.us.uncletopia.com","port":27015,"enabled":true,"region":"us-west","cc":"us","latitude":47.608013,"longitude":-122.33517,"reserved":0,"last_update":"0001-01-01T00:00:00Z","name_a2s":"Uncletopia | Seattle | 1 | All Maps","protocol":17,"map":"plr_bananabay","folder":"tf","game":"Team Fortress","app_id":440,"player_count":24,"max_players":24,"Bots":0,"server_type":"Dedicated","server_os":"Linux","password":true,"vac":true,"version":"7961495","steam_id":85568392924469997,"keywords":["nocrits","nodmgspread","payload","uncletopia"],"game_id":440,"stv_port":27016,"stv_name":"Uncletopia | Seattle | 1 | All Maps | STV","players":[{"user_id":76,"name":"mew","steam_id":76561198118644686,"connected_time":2469000000000,"state":"active","ping":76},{"user_id":104,"name":"Whimsy!","steam_id":76561197989578836,"connected_time":159000000000,"state":"active","ping":61},{"user_id":65,"name":"kindofsmart","steam_id":76561199088819266,"connected_time":3699000000000,"state":"active","ping":65},{"user_id":18,"name":"‚òÖCaseyGlows‚òÖ","steam_id":76561198113616168,"connected_time":6358000000000,"state":"active","ping":70},{"user_id":105,"name":"fried water","steam_id":76561198360311110,"connected_time":141000000000,"state":"active","ping":51},{"user_id":89,"name":"chongo","steam_id":76561198017604393,"connected_time":1591000000000,"state":"active","ping":75},{"user_id":91,"name":"Harvey J. Figglemeister (real)","steam_id":76561198441916331,"connected_time":1503000000000,"state":"active","ping":50},{"user_id":70,"name":"dust | it/she [no mic]","steam_id":76561198045218909,"connected_time":2976000000000,"state":"active","ping":37},{"user_id":100,"name":"zinnk","steam_id":76561198092081825,"connected_time":188000000000,"state":"active","ping":59},{"user_id":92,"name":"YOU WHAT?!","steam_id":76561198418679471,"connected_time":1493000000000,"state":"active","ping":120},{"user_id":86,"name":"-_-","steam_id":76561199190800520,"connected_time":1902000000000,"state":"active","ping":40},{"user_id":74,"name":"Dog Hands Phone","steam_id":76561198090419068,"connected_time":2589000000000,"state":"active","ping":66},{"user_id":59,"name":"Hazel The Maid Boy :3","steam_id":76561199247095754,"connected_time":4080000000000,"state":"active","ping":72},{"user_id":97,"name":"Attrition","steam_id":76561197969881916,"connected_time":781000000000,"state":"active","ping":52},{"user_id":45,"name":"keffers","steam_id":76561198202338796,"connected_time":5090000000000,"state":"active","ping":104},{"user_id":39,"name":"Ridley","steam_id":76561198014857463,"connected_time":5419000000000,"state":"active","ping":113},{"user_id":101,"name":"waggyaggy (it/she)","steam_id":76561197998241407,"connected_time":187000000000,"state":"active","ping":75},{"user_id":98,"name":"stir-fried human tonsils","steam_id":76561198312126442,"connected_time":696000000000,"state":"active","ping":63},{"user_id":83,"name":"bojanglesfries","steam_id":76561198392656332,"connected_time":2210000000000,"state":"active","ping":119},{"user_id":102,"name":"Tibetan Pop Star","steam_id":76561198844903984,"connected_time":186000000000,"state":"active","ping":84},{"user_id":64,"name":"Mr.Rogers","steam_id":76561198043878683,"connected_time":3713000000000,"state":"active","ping":98},{"user_id":96,"name":"Preston","steam_id":76561198255721392,"connected_time":1256000000000,"state":"active","ping":130},{"user_id":71,"name":"Little Linguine","steam_id":76561198816986370,"connected_time":2976000000000,"state":"active","ping":52},{"user_id":103,"name":"Barack Obama Gaming","steam_id":76561198129242016,"connected_time":185000000000,"state":"active","ping":52}]},{"server_id":119,"name":"Uncletopia | Seattle | 2 | All Maps","name_short":"sea-2","host":"sea-1.us.uncletopia.com","port":27025,"enabled":true,"region":"us-west","cc":"us","latitude":47.608013,"longitude":-122.33517,"reserved":0,"last_update":"0001-01-01T00:00:00Z","name_a2s":"Uncletopia | Seattle | 2 | All Maps","protocol":17,"map":"cp_mountainlab","folder":"tf","game":"Team Fortress","app_id":440,"player_count":0,"max_players":24,"Bots":0,"server_type":"Dedicated","server_os":"Linux","password":true,"vac":true,"version":"7961495","steam_id":85568392924469998,"keywords":["cp","nocrits","nodmgspread","uncletopia"],"game_id":440,"stv_port":27026,"stv_name":"Uncletopia | Seattle | 2 | All Maps | STV","players":null},{"server_id":406,"name":"Uncletopia | Seattle | 3 | Stopwatch","name_short":"sea-3","host":"sea-1.us.uncletopia.com","port":27035,"enabled":true,"region":"us-west","cc":"us","latitude":47.608013,"longitude":-122.33517,"reserved":0,"last_update":"0001-01-01T00:00:00Z","name_a2s":"Uncletopia | Seattle | 3 | Stopwatch","protocol":17,"map":"cp_gullywash_final1","folder":"tf","game":"Team Fortress","app_id":440,"player_count":0,"max_players":24,"Bots":0,"server_type":"Dedicated","server_os":"Linux","password":true,"vac":true,"version":"7961495","steam_id":85568392924515217,"keywords":["cp","nocrits","nodmgspread","uncletopia"],"game_id":440,"stv_port":27036,"stv_name":"Uncletopia | Seattle | 3 | Stopwatch | STV","players":null},{"server_id":17,"name":"Uncletopia | San Francisco | 1 | All Maps","name_short":"sfo-1","host":"sfo-1.us.uncletopia.com","port":27015,"enabled":true,"region":"us-west","cc":"us","latitude":37.77397,"longitude":-122.4313,"reserved":0,"last_update":"0001-01-01T00:00:00Z","name_a2s":"Uncletopia | San Francisco | 1 | All Maps","protocol":17,"map":"cp_gorge","folder":"tf","game":"Team Fortress","app_id":440,"player_count":0,"max_players":24,"Bots":0,"server_type":"Dedicated","server_os":"Linux","password":true,"vac":true,"version":"7961495","steam_id":85568392924469999,"keywords":["cp","nocrits","nodmgspread","uncletopia"],"game_id":440,"stv_port":27016,"stv_name":"Uncletopia | San Francisco | 1 | All Maps | STV","players":null},{"server_id":18,"name":"Uncletopia | San Francisco | 2 | All Maps","name_short":"sfo-2","host":"sfo-1.us.uncletopia.com","port":27025,"enabled":true,"region":"us-west","cc":"us","latitude":37.77397,"longitude":-122.4313,"reserved":0,"last_update":"0001-01-01T00:00:00Z","name_a2s":"Uncletopia | San Francisco | 2 | All Maps","protocol":17,"map":"pl_hoodoo_final","folder":"tf","game":"Team Fortress","app_id":440,"player_count":0,"max_players":24,"Bots":0,"server_type":"Dedicated","server_os":"Linux","password":true,"vac":true,"version":"7961495","steam_id":85568392924470000,"keywords":["nocrits","nodmgspread","payload","uncletopia"],"game_id":440,"stv_port":27026,"stv_name":"Uncletopia | San Francisco | 2 | All Maps | STV","players":null},{"server_id":19,"name":"Uncletopia | San Francisco | 3 | Stopwatch","name_short":"sfo-3","host":"sfo-1.us.uncletopia.com","port":27035,"enabled":true,"region":"us-west","cc":"us","latitude":37.77397,"longitude":-122.4313,"reserved":0,"last_update":"0001-01-01T00:00:00Z","name_a2s":"Uncletopia | San Francisco | 3 | Stopwatch","protocol":17,"map":"workshop/koth_clearcut_b15.ugc2107050255","folder":"tf","game":"Team Fortress","app_id":440,"player_count":0,"max_players":24,"Bots":0,"server_type":"Dedicated","server_os":"Linux","password":true,"vac":true,"version":"7961495","steam_id":85568392924742824,"keywords":["cp","nocrits","nodmgspread","uncletopia"],"game_id":440,"stv_port":27036,"stv_name":"Uncletopia | San Francisco | 3 | Stopwatch | STV","players":null},{"server_id":20,"name":"Uncletopia | San Francisco | 4 | Community","name_short":"sfo-4","host":"sfo-1.us.uncletopia.com","port":27045,"enabled":true,"region":"us-west","cc":"us","latitude":37.77397,"longitude":-122.4313,"reserved":0,"last_update":"0001-01-01T00:00:00Z","name_a2s":"Uncletopia | San Francisco | 4 | Community","protocol":17,"map":"workshop/cp_reckoner_rc6.ugc674719999","folder":"tf","game":"Team Fortress","app_id":440,"player_count":0,"max_players":24,"Bots":0,"server_type":"Dedicated","server_os":"Linux","password":true,"vac":true,"version":"7961495","steam_id":85568392924742826,"keywords":["cp","nocrits","nodmgspread","uncletopia"],"game_id":440,"stv_port":27046,"stv_name":"Uncletopia | San Francisco | 4 | Community | STV","players":null},{"server_id":141,"name":"Uncletopia | Sydney | 1 | All Maps","name_short":"syd-1","host":"syd-1.au.uncletopia.com","port":27015,"enabled":true,"region":"au","cc":"au","latitude":-33.865143,"longitude":151.2099,"reserved":0,"last_update":"0001-01-01T00:00:00Z","name_a2s":"Uncletopia | Sydney | 1 | All Maps","protocol":17,"map":"cp_process_final","folder":"tf","game":"Team Fortress","app_id":440,"player_count":0,"max_players":24,"Bots":0,"server_type":"Dedicated","server_os":"Linux","password":true,"vac":true,"version":"7961495","steam_id":85568392924470001,"keywords":["cp","nocrits","nodmgspread","uncletopia"],"game_id":440,"stv_port":27016,"stv_name":"Uncletopia | Sydney | 1 | All Maps | STV","players":null},{"server_id":123,"name":"Uncletopia | Sydney | 2 | All Maps","name_short":"syd-2","host":"syd-1.au.uncletopia.com","port":27025,"enabled":true,"region":"au","cc":"au","latitude":-33.865143,"longitude":151.2099,"reserved":0,"last_update":"0001-01-01T00:00:00Z","name_a2s":"Uncletopia | Sydney | 2 | All Maps","protocol":17,"map":"koth_viaduct","folder":"tf","game":"Team Fortress","app_id":440,"player_count":0,"max_players":24,"Bots":0,"server_type":"Dedicated","server_os":"Linux","password":true,"vac":true,"version":"7961495","steam_id":85568392924470002,"keywords":["cp","nocrits","nodmgspread","uncletopia"],"game_id":440,"stv_port":27026,"stv_name":"Uncletopia | Sydney | 2 | All Maps | STV","players":null},{"server_id":395,"name":"Uncletopia | Sydney | 3 | All Maps","name_short":"syd-3","host":"syd-1.au.uncletopia.com","port":27035,"enabled":true,"region":"au","cc":"au","latitude":-33.865143,"longitude":151.2099,"reserved":0,"last_update":"0001-01-01T00:00:00Z","name_a2s":"Uncletopia | Sydney | 3 | All Maps","protocol":17,"map":"koth_lakeside_final","folder":"tf","game":"Team Fortress","app_id":440,"player_count":0,"max_players":24,"Bots":0,"server_type":"Dedicated","server_os":"Linux","password":true,"vac":true,"version":"7961495","steam_id":85568392925194467,"keywords":["cp","nocrits","nodmgspread","uncletopia"],"game_id":440,"stv_port":27036,"stv_name":"Uncletopia | Sydney | 3 | All Maps | STV","players":null},{"server_id":396,"name":"Uncletopia | Sydney | 4 | All Maps","name_short":"syd-4","host":"syd-1.au.uncletopia.com","port":27045,"enabled":true,"region":"au","cc":"au","latitude":-33.865143,"longitude":151.2099,"reserved":0,"last_update":"0001-01-01T00:00:00Z","name_a2s":"Uncletopia | Sydney | 4 | All Maps","protocol":17,"map":"cp_snakewater_final1","folder":"tf","game":"Team Fortress","app_id":440,"player_count":0,"max_players":24,"Bots":0,"server_type":"Dedicated","server_os":"Linux","password":true,"vac":true,"version":"7961495","steam_id":85568392925397958,"keywords":["cp","nocrits","nodmgspread","uncletopia"],"game_id":440,"stv_port":27046,"stv_name":"Uncletopia | Sydney | 4 | All Maps | STV","players":null},{"server_id":58,"name":"Uncletopia | Sydney | 5 | Stopwatch","name_short":"syd-5","host":"syd-1.au.uncletopia.com","port":27055,"enabled":true,"region":"au","cc":"au","latitude":-33.865143,"longitude":151.2099,"reserved":0,"last_update":"0001-01-01T00:00:00Z","name_a2s":"Uncletopia | Sydney | 5 | Stopwatch","protocol":17,"map":"workshop/pl_summercoast_rc8e.ugc1761528829","folder":"tf","game":"Team Fortress","app_id":440,"player_count":0,"max_players":24,"Bots":0,"server_type":"Dedicated","server_os":"Linux","password":true,"vac":true,"version":"7961495","steam_id":85568392925397959,"keywords":["nocrits","nodmgspread","payload","uncletopia"],"game_id":440,"stv_port":27056,"stv_name":"Uncletopia | Sydney | 5 | Stopwatch | STV","players":null},{"server_id":59,"name":"Uncletopia | Sydney | 6 | Community","name_short":"syd-6","host":"syd-1.au.uncletopia.com","port":27065,"enabled":true,"region":"au","cc":"au","latitude":-33.865143,"longitude":151.2099,"reserved":0,"last_update":"0001-01-01T00:00:00Z","name_a2s":"Uncletopia | Sydney | 6 | Community","protocol":17,"map":"workshop/koth_soot_final1.ugc2969540689","folder":"tf","game":"Team Fortress","app_id":440,"player_count":0,"max_players":24,"Bots":0,"server_type":"Dedicated","server_os":"Linux","password":true,"vac":true,"version":"7961495","steam_id":85568392925397960,"keywords":["cp","nocrits","nodmgspread","uncletopia"],"game_id":440,"stv_port":27066,"stv_name":"Uncletopia | Sydney | 6 | Community | STV","players":null},{"server_id":49,"name":"Uncletopia | Warsaw | 1 | One Thousand Uncles","name_short":"waw-1","host":"waw-1.pl.uncletopia.com","port":27015,"enabled":true,"region":"eu","cc":"pl","latitude":52.2297,"longitude":21.017532,"reserved":0,"last_update":"0001-01-01T00:00:00Z","name_a2s":"Uncletopia | Warsaw | 1 | One Thousand Uncles","protocol":17,"map":"cp_egypt_final","folder":"tf","game":"Team Fortress","app_id":440,"player_count":6,"max_players":32,"Bots":5,"server_type":"Dedicated","server_os":"Linux","password":true,"vac":true,"version":"7961495","steam_id":85568392925397850,"keywords":["alltalk","cp","danepve","increased_maxplayers","norespawntime","uncletopia"],"game_id":440,"stv_port":0,"stv_name":"","players":[{"user_id":39,"name":"PuPuruPuruPumPu","steam_id":76561198391950490,"connected_time":25000000000,"state":"active","ping":93}]},{"server_id":50,"name":"Uncletopia | Warsaw | 2 | One Thousand Uncles","name_short":"waw-2","host":"waw-1.pl.uncletopia.com","port":27025,"enabled":true,"region":"eu","cc":"pl","latitude":52.2297,"longitude":21.017532,"reserved":0,"last_update":"0001-01-01T00:00:00Z","name_a2s":"Uncletopia | Warsaw | 2 | One Thousand Uncles","protocol":17,"map":"cp_dustbowl","folder":"tf","game":"Team Fortress","app_id":440,"player_count":22,"max_players":32,"Bots":20,"server_type":"Dedicated","server_os":"Linux","password":true,"vac":true,"version":"7961495","steam_id":85568392925397851,"keywords":["alltalk","bots","cp","danepve","increased_maxplayers","norespawntime","uncletopia"],"game_id":440,"stv_port":0,"stv_name":"","players":[{"user_id":428,"name":"Quackerzz","steam_id":76561199365851074,"connected_time":35000000000,"state":"active","ping":110},{"user_id":449,"name":"PATRIK","steam_id":76561199403204322,"connected_time":3000000000,"state":"spawning","ping":101}]},{"server_id":51,"name":"Uncletopia | Warsaw | 3 | All Maps","name_short":"waw-3","host":"waw-1.pl.uncletopia.com","port":27035,"enabled":true,"region":"eu","cc":"pl","latitude":52.2297,"longitude":21.017532,"reserved":0,"last_update":"0001-01-01T00:00:00Z","name_a2s":"Uncletopia | Warsaw | 3 | All Maps","protocol":17,"map":"pl_swiftwater_final1","folder":"tf","game":"Team Fortress","app_id":440,"player_count":0,"max_players":24,"Bots":0,"server_type":"Dedicated","server_os":"Linux","password":true,"vac":true,"version":"7961495","steam_id":85568392925397852,"keywords":["nocrits","nodmgspread","payload","uncletopia"],"game_id":440,"stv_port":27036,"stv_name":"Uncletopia | Warsaw | 3 | All Maps | STV","players":null},{"server_id":52,"name":"Uncletopia | Warsaw | 4 | All Maps","name_short":"waw-4","host":"waw-1.pl.uncletopia.com","port":27045,"enabled":true,"region":"eu","cc":"pl","latitude":52.2297,"longitude":21.017532,"reserved":0,"last_update":"0001-01-01T00:00:00Z","name_a2s":"Uncletopia | Warsaw | 4 | All Maps","protocol":17,"map":"ctf_turbine","folder":"tf","game":"Team Fortress","app_id":440,"player_count":0,"max_players":24,"Bots":0,"server_type":"Dedicated","server_os":"Linux","password":true,"vac":true,"version":"7961495","steam_id":85568392925397853,"keywords":["ctf","nocrits","nodmgspread","uncletopia"],"game_id":440,"stv_port":27046,"stv_name":"Uncletopia | Warsaw | 4 | All Maps | STV","players":null},{"server_id":53,"name":"Uncletopia | Warsaw | 5 | Stopwatch","name_short":"waw-5","host":"waw-1.pl.uncletopia.com","port":27055,"enabled":true,"region":"eu","cc":"pl","latitude":52.2297,"longitude":21.017532,"reserved":0,"last_update":"0001-01-01T00:00:00Z","name_a2s":"Uncletopia | Warsaw | 5 | Stopwatch","protocol":17,"map":"workshop/koth_clearcut_b15.ugc2107050255","folder":"tf","game":"Team Fortress","app_id":440,"player_count":0,"max_players":24,"Bots":0,"server_type":"Dedicated","server_os":"Linux","password":true,"vac":true,"version":"7961495","steam_id":85568392925397854,"keywords":["cp","nocrits","nodmgspread","uncletopia"],"game_id":440,"stv_port":27056,"stv_name":"Uncletopia | Warsaw | 5 | Stopwatch | STV","players":null},{"server_id":54,"name":"Uncletopia | Warsaw | 6 | Community","name_short":"waw-6","host":"waw-1.pl.uncletopia.com","port":27065,"enabled":true,"region":"eu","cc":"pl","latitude":52.2297,"longitude":21.017532,"reserved":0,"last_update":"0001-01-01T00:00:00Z","name_a2s":"Uncletopia | Warsaw | 6 | Community","protocol":17,"map":"workshop/pl_highwood_b19.ugc1769496557","folder":"tf","game":"Team Fortress","app_id":440,"player_count":0,"max_players":24,"Bots":0,"server_type":"Dedicated","server_os":"Linux","password":true,"vac":true,"version":"7961495","steam_id":85568392925397856,"keywords":["nocrits","nodmgspread","payload","uncletopia"],"game_id":440,"stv_port":27066,"stv_name":"Uncletopia | Warsaw | 6 | Community | STV","players":null}]}