{"status":true,"message":"","result":[{"server_id":9,"name":"Uncletopia | Atlanta | 1 | All Maps","name_short":"atl-1","host":"atl-1.us.uncletopia.com","port":27015,"enabled":true,"region":"us-east","cc":"us","latitude":33.753746,"longitude":-84.38633,"reserved":0,"last_update":"0001-01-01T00:00:00Z","name_a2s":"Uncletopia | Atlanta | 1 | All Maps","protocol":17,"map":"pl_barnblitz","folder":"tf","game":"Team Fortress","app_id":440,"player_count":24,"max_players":24,"Bots":0,"server_type":"Dedicated","server_os":"Linux","password":true,"vac":true,"version":"7757534","steam_id":85568392924469982,"keywords":["nocrits","nodmgspread","payload","uncletopia"],"game_id":440,"stv_port":27016,"stv_name":"Uncletopia | Atlanta | 1 | All Maps | STV","players":[{"user_id":695,"name":"Whirblewind","steam_id":76561197964722449,"connected_time":314000000000,"state":"active","ping":418},{"user_id":645,"name":"Gumit","steam_id":76561198208126512,"connected_time":4447000000000,"state":"active","ping":68},{"user_id":631,"name":"⇌ StriKeR ⇋","steam_id":76561199389089862,"connected_time":5402000000000,"state":"active","ping":133},{"user_id":672,"name":"Mage","steam_id":76561198285026879,"connected_time":2615000000000,"state":"active","ping":76},{"user_id":646,"name":"[Squiddy]","steam_id":76561198027757551,"connected_time":4279000000000,"state":"active","ping":103},{"user_id":657,"name":"Halcyon","steam_id":76561199103213955,"connected_time":3739000000000,"state":"active","ping":113},{"user_id":690,"name":"K4le","steam_id":76561198747668363,"connected_time":712000000000,"state":"active","ping":135},{"user_id":675,"name":"lamadre07","steam_id":76561198067337453,"connected_time":1724000000000,"state":"active","ping":97},{"user_id":676,"name":"goober","steam_id":76561198943598378,"connected_time":1682000000000,"state":"active","ping":57},{"user_id":647,"name":"W1CKEDY","steam_id":76561198353447602,"connected_time":4267000000000,"state":"active","ping":90},{"user_id":685,"name":"Ivan the Terrible","steam_id":76561198139595241,"connected_time":1064000000000,"state":"active","ping":172},{"user_id":693,"name":"Gustavo Fring","steam_id":76561198132807405,"connected_time":587000000000,"state":"active","ping":83},{"user_id":696,"name":"GameBreaker","steam_id":76561198836171572,"connected_time":104000000000,"state":"active","ping":110},{"user_id":667,"name":"RED1 | Le4n!!!","steam_id":76561198045522596,"connected_time":2713000000000,"state":"active","ping":68},{"user_id":610,"name":"Albino Jellyfish","steam_id":76561198208561097,"connected_time":7055000000000,"state":"active","ping":58},{"user_id":689,"name":"jake1west","steam_id":76561199468452444,"connected_time":926000000000,"state":"active","ping":125},{"user_id":697,"name":"elyk37","steam_id":76561198124135253,"connected_time":103000000000,"state":"active","ping":70},{"user_id":653,"name":"Friggy","steam_id":76561198131467867,"connected_time":3877000000000,"state":"active","ping":97},{"user_id":698,"name":"fire safety officer micheal","steam_id":76561198193367030,"connected_time":76000000000,"state":"active","ping":125},{"user_id":694,"name":"Bzamo","steam_id":76561198039883392,"connected_time":336000000000,"state":"active","ping":48},{"user_id":691,"name":"iceman","steam_id":76561198135397441,"connected_time":678000000000,"state":"active","ping":82},{"user_id":660,"name":"FemboyNate","steam_id":76561198146636410,"connected_time":3699000000000,"state":"active","ping":75},{"user_id":699,"name":"Cam(era)","steam_id":76561198285054047,"connected_time":73000000000,"state":"active","ping":95},{"user_id":673,"name":"lightingd619","steam_id":76561198374758113,"connected_time":2610000000000,"state":"active","ping":67}]},{"server_id":400,"name":"Uncletopia | Atlanta | 3 | Community","name_short":"atl-3","host":"atl-1.us.uncletopia.com","port":27035,"enabled":true,"region":"us-east","cc":"us","latitude":33.753746,"longitude":-84.38633,"reserved":0,"last_update":"0001-01-01T00:00:00Z","name_a2s":"Uncletopia | Atlanta | 3 | Community","protocol":17,"map":"workshop/koth_trenchfoot_b1a.ugc731436616","folder":"tf","game":"Team Fortress","app_id":440,"player_count":0,"max_players":32,"Bots":0,"server_type":"Dedicated","server_os":"Linux","password":true,"vac":true,"version":"7757534","steam_id":85568392924515187,"keywords":["cp","increased_maxplayers","nocrits","nodmgspread","uncletopia"],"game_id":440,"stv_port":27036,"stv_name":"Uncletopia | Atlanta | 3 | Community | STV","players":null},{"server_id":401,"name":"Uncletopia | Atlanta | 4 | No Payload","name_short":"atl-4","host":"atl-1.us.uncletopia.com","port":27045,"enabled":true,"region":"us-east","cc":"us","latitude":33.753746,"longitude":-84.38633,"reserved":0,"last_update":"0001-01-01T00:00:00Z","name_a2s":"","protocol":0,"map":"","folder":"","game":"","app_id":0,"player_count":0,"max_players":0,"Bots":0,"server_type":"","server_os":"","password":false,"vac":false,"version":"","steam_id":0,"keywords":null,"game_id":0,"stv_port":0,"stv_name":"","players":null},{"server_id":2,"name":"Uncletopia | Chicago | 1 | All Maps","name_short":"chi-1","host":"chi-1.us.uncletopia.com","port":27015,"enabled":true,"region":"us-central","cc":"us","latitude":41.881832,"longitude":-87.62318,"reserved":0,"last_update":"0001-01-01T00:00:00Z","name_a2s":"Uncletopia | Chicago | 1 | All Maps","protocol":17,"map":"pl_frontier_final","folder":"tf","game":"Team Fortress","app_id":440,"player_count":1,"max_players":24,"Bots":0,"server_type":"Dedicated","server_os":"Linux","password":true,"vac":true,"version":"7757534","steam_id":85568392924469984,"keywords":["nocrits","nodmgspread","payload","uncletopia"],"game_id":440,"stv_port":27016,"stv_name":"Uncletopia | Chicago | 1 | All Maps | STV","players":[{"user_id":842,"name":"jamalsmallzz","steam_id":76561199120206913,"connected_time":37000000000,"state":"active","ping":52}]},{"server_id":106,"name":"Uncletopia | Chicago | 2 | All Maps","name_short":"chi-2","host":"chi-1.us.uncletopia.com","port":27025,"enabled":true,"region":"us-central","cc":"us","latitude":41.881832,"longitude":-87.62318,"reserved":0,"last_update":"0001-01-01T00:00:00Z","name_a2s":"Uncletopia | Chicago | 2 | All Maps","protocol":17,"map":"cp_dustbowl","folder":"tf","game":"Team Fortress","app_id":440,"player_count":24,"max_players":24,"Bots":0,"server_type":"Dedicated","server_os":"Linux","password":true,"vac":true,"version":"7757534","steam_id":85568392924469985,"keywords":["cp","nocrits","nodmgspread","uncletopia"],"game_id":440,"stv_port":27026,"stv_name":"Uncletopia | Chicago | 2 | All Maps | STV","players":[{"user_id":987,"name":"Ghoulenoir","steam_id":76561198074314573,"connected_time":610000000000,"state":"active","ping":50},{"user_id":986,"name":"Auburn","steam_id":76561198199541493,"connected_time":634000000000,"state":"active","ping":108},{"user_id":931,"name":"A Puppy","steam_id":76561198828184456,"connected_time":4965000000000,"state":"active","ping":57},{"user_id":1000,"name":"C papi","steam_id":76561198027779564,"connected_time":123000000000,"state":"active","ping":51},{"user_id":993,"name":"Rusted Cake","steam_id":76561198209755931,"connected_time":451000000000,"state":"active","ping":113},{"user_id":956,"name":"Toxorhynchites","steam_id":76561198009389357,"connected_time":2996000000000,"state":"active","ping":78},{"user_id":996,"name":"Bliztank | RGL.gg","steam_id":76561198019252798,"connected_time":375000000000,"state":"active","ping":56},{"user_id":966,"name":"Reisen","steam_id":76561199174579733,"connected_time":2374000000000,"state":"active","ping":68},{"user_id":935,"name":"ITSmeTOXIC","steam_id":76561199067764423,"connected_time":4879000000000,"state":"active","ping":79},{"user_id":913,"name":"leeeeeeeeeeeeeeeeeeeeeeeeeee","steam_id":76561199083322731,"connected_time":5908000000000,"state":"active","ping":90},{"user_id":957,"name":"jubb","steam_id":76561198186865526,"connected_time":2983000000000,"state":"active","ping":115},{"user_id":984,"name":"Dillon","steam_id":76561198191469611,"connected_time":645000000000,"state":"active","ping":115},{"user_id":991,"name":"Samplee","steam_id":76561198063406140,"connected_time":479000000000,"state":"active","ping":146},{"user_id":958,"name":"Ham","steam_id":76561198219857080,"connected_time":2953000000000,"state":"active","ping":70},{"user_id":974,"name":"Electric Hawk","steam_id":76561198129732108,"connected_time":1950000000000,"state":"active","ping":91},{"user_id":997,"name":"trappy (showered)","steam_id":76561198402801140,"connected_time":371000000000,"state":"active","ping":59},{"user_id":961,"name":"®","steam_id":76561198276258112,"connected_time":2923000000000,"state":"active","ping":73},{"user_id":992,"name":"Ping Pong Dingus","steam_id":76561198072502345,"connected_time":473000000000,"state":"active","ping":101},{"user_id":922,"name":"CakeCadaver","steam_id":76561198080388883,"connected_time":5763000000000,"state":"active","ping":100},{"user_id":998,"name":"fish","steam_id":76561198054070811,"connected_time":360000000000,"state":"active","ping":100},{"user_id":969,"name":"Jezzus","steam_id":76561199289676387,"connected_time":2209000000000,"state":"active","ping":84},{"user_id":999,"name":"none","steam_id":76561198044995725,"connected_time":308000000000,"state":"active","ping":55},{"user_id":975,"name":"Fever Dreams","steam_id":76561198116614620,"connected_time":1913000000000,"state":"active","ping":78},{"user_id":964,"name":"j4miecl4rk","steam_id":76561198404312721,"connected_time":2855000000000,"state":"active","ping":56}]},{"server_id":402,"name":"Uncletopia | Chicago | 3 | All Maps","name_short":"chi-3","host":"chi-1.us.uncletopia.com","port":27035,"enabled":true,"region":"us-central","cc":"us","latitude":41.881832,"longitude":-87.62318,"reserved":0,"last_update":"0001-01-01T00:00:00Z","name_a2s":"Uncletopia | Chicago | 3 | All Maps","protocol":17,"map":"pl_borneo","folder":"tf","game":"Team Fortress","app_id":440,"player_count":23,"max_players":24,"Bots":0,"server_type":"Dedicated","server_os":"Linux","password":true,"vac":true,"version":"7757534","steam_id":85568392924515191,"keywords":["nocrits","nodmgspread","payload","uncletopia"],"game_id":440,"stv_port":27036,"stv_name":"Uncletopia | Chicago | 3 | All Maps | STV","players":[{"user_id":678,"name":"The Drunk Rat Bastard","steam_id":76561198994667208,"connected_time":430000000000,"state":"active","ping":71},{"user_id":674,"name":"Sharmat","steam_id":76561198103492042,"connected_time":570000000000,"state":"active","ping":63},{"user_id":665,"name":"pelt","steam_id":76561197993593754,"connected_time":2010000000000,"state":"active","ping":48},{"user_id":667,"name":"Anna","steam_id":76561197999657118,"connected_time":1665000000000,"state":"active","ping":71},{"user_id":675,"name":"Scott_Donly","steam_id":76561198987169906,"connected_time":531000000000,"state":"active","ping":58},{"user_id":631,"name":"Fudge_Cake","steam_id":76561198059218167,"connected_time":5679000000000,"state":"active","ping":57},{"user_id":653,"name":"crayonnipple","steam_id":76561198070253331,"connected_time":3447000000000,"state":"active","ping":75},{"user_id":676,"name":"Stock Medic","steam_id":76561198065479730,"connected_time":497000000000,"state":"active","ping":42},{"user_id":650,"name":"Dot.","steam_id":76561198149463984,"connected_time":4181000000000,"state":"active","ping":46},{"user_id":681,"name":"FairlyFatFungus","steam_id":76561199152828854,"connected_time":304000000000,"state":"active","ping":140},{"user_id":632,"name":"Quaker Oats","steam_id":76561197992800293,"connected_time":5563000000000,"state":"active","ping":95},{"user_id":662,"name":"Money Collector","steam_id":76561198046249467,"connected_time":2028000000000,"state":"active","ping":55},{"user_id":666,"name":"Satan-2","steam_id":76561199231742764,"connected_time":1932000000000,"state":"active","ping":71},{"user_id":660,"name":"Macko","steam_id":76561198452005461,"connected_time":2114000000000,"state":"active","ping":82},{"user_id":637,"name":"morbissey","steam_id":76561198072592880,"connected_time":5427000000000,"state":"active","ping":40},{"user_id":683,"name":"sys","steam_id":76561198300912581,"connected_time":226000000000,"state":"active","ping":71},{"user_id":655,"name":"rudy","steam_id":76561198088712799,"connected_time":3439000000000,"state":"active","ping":75},{"user_id":656,"name":"ilovelatinahead","steam_id":76561198081303855,"connected_time":3432000000000,"state":"active","ping":60},{"user_id":679,"name":"moe","steam_id":76561198929586245,"connected_time":375000000000,"state":"active","ping":108},{"user_id":680,"name":"aura","steam_id":76561197991687793,"connected_time":353000000000,"state":"active","ping":161},{"user_id":668,"name":"reni","steam_id":76561199192183787,"connected_time":1519000000000,"state":"active","ping":112},{"user_id":657,"name":"Squid121","steam_id":76561198038832034,"connected_time":3412000000000,"state":"active","ping":105},{"user_id":672,"name":"[S]Mr. X [No Monitor]","steam_id":76561197963746035,"connected_time":910000000000,"state":"active","ping":103}]},{"server_id":403,"name":"Uncletopia | Chicago | 4 | All Maps","name_short":"chi-4","host":"chi-1.us.uncletopia.com","port":27045,"enabled":true,"region":"us-central","cc":"us","latitude":41.881832,"longitude":-87.62318,"reserved":0,"last_update":"0001-01-01T00:00:00Z","name_a2s":"Uncletopia | Chicago | 4 | All Maps","protocol":17,"map":"pl_enclosure_final","folder":"tf","game":"Team Fortress","app_id":440,"player_count":8,"max_players":24,"Bots":0,"server_type":"Dedicated","server_os":"Linux","password":true,"vac":true,"version":"7757534","steam_id":85568392924515193,"keywords":["nocrits","nodmgspread","payload","uncletopia"],"game_id":440,"stv_port":27046,"stv_name":"Uncletopia | Chicago | 4 | All Maps | STV","players":[{"user_id":838,"name":"red","steam_id":76561198325486281,"connected_time":361000000000,"state":"active","ping":105},{"user_id":839,"name":"Kaluka","steam_id":76561198036861445,"connected_time":267000000000,"state":"active","ping":67},{"user_id":837,"name":"Uncertified Fox","steam_id":76561198134203902,"connected_time":395000000000,"state":"active","ping":85},{"user_id":813,"name":"Tusk","steam_id":76561199066977033,"connected_time":1781000000000,"state":"active","ping":66},{"user_id":841,"name":"Cricket Girl!","steam_id":76561198838054669,"connected_time":139000000000,"state":"active","ping":62},{"user_id":822,"name":"Lore","steam_id":76561198098407538,"connected_time":1338000000000,"state":"active","ping":45},{"user_id":799,"name":"magickxanadu","steam_id":76561199117360103,"connected_time":3550000000000,"state":"active","ping":76},{"user_id":812,"name":"Huey","steam_id":76561198972816386,"connected_time":2274000000000,"state":"active","ping":61}]},{"server_id":36,"name":"Uncletopia | Chicago | 5 | All Maps","name_short":"chi-5","host":"chi-2.us.uncletopia.com","port":27015,"enabled":true,"region":"us-central","cc":"us","latitude":41.881832,"longitude":-87.62318,"reserved":0,"last_update":"0001-01-01T00:00:00Z","name_a2s":"Uncletopia | Chicago | 5 | All Maps","protocol":17,"map":"cp_dustbowl","folder":"tf","game":"Team Fortress","app_id":440,"player_count":1,"max_players":24,"Bots":0,"server_type":"Dedicated","server_os":"Linux","password":true,"vac":true,"version":"7757534","steam_id":85568392924866362,"keywords":["cp","nocrits","nodmgspread","uncletopia"],"game_id":440,"stv_port":27016,"stv_name":"Uncletopia | Chicago | 5 | All Maps | STV","players":[{"user_id":545,"name":"Vailat","steam_id":76561199208904949,"connected_time":1132000000000,"state":"active","ping":71}]},{"server_id":37,"name":"Uncletopia | Chicago | 6 | All Maps","name_short":"chi-6","host":"chi-2.us.uncletopia.com","port":27025,"enabled":true,"region":"us-central","cc":"us","latitude":41.881832,"longitude":-87.62318,"reserved":0,"last_update":"0001-01-01T00:00:00Z","name_a2s":"Uncletopia | Chicago | 6 | All Maps","protocol":17,"map":"koth_viaduct","folder":"tf","game":"Team Fortress","app_id":440,"player_count":3,"max_players":24,"Bots":0,"server_type":"Dedicated","server_os":"Linux","password":true,"vac":true,"version":"7757534","steam_id":85568392924866363,"keywords":["cp","nocrits","nodmgspread","uncletopia"],"game_id":440,"stv_port":27026,"stv_name":"Uncletopia | Chicago | 6 | All Maps | STV","players":[{"user_id":454,"name":"DenverDSnail","steam_id":76561198182543578,"connected_time":2277000000000,"state":"active","ping":62},{"user_id":455,"name":"Slider","steam_id":76561198014504435,"connected_time":2273000000000,"state":"active","ping":249},{"user_id":456,"name":"Xidanel","steam_id":76561198271609331,"connected_time":1740000000000,"state":"active","ping":80}]},{"server_id":38,"name":"Uncletopia | Chicago | 7 | Stopwatch Beta","name_short":"chi-7","host":"chi-2.us.uncletopia.com","port":27035,"enabled":true,"region":"us-central","cc":"us","latitude":41.881832,"longitude":-87.62318,"reserved":0,"last_update":"0001-01-01T00:00:00Z","name_a2s":"Uncletopia | Chicago | 7 | Stopwatch Beta","protocol":17,"map":"workshop/koth_ashville_final.ugc2130459942","folder":"tf","game":"Team Fortress","app_id":440,"player_count":0,"max_players":24,"Bots":0,"server_type":"Dedicated","server_os":"Linux","password":true,"vac":true,"version":"7757534","steam_id":85568392924866364,"keywords":["cp","nocrits","nodmgspread","uncletopia"],"game_id":440,"stv_port":27036,"stv_name":"Uncletopia | Chicago | 7 | Stopwatch Beta | STV","players":null},{"server_id":39,"name":"Uncletopia | Chicago | 8 | Community","name_short":"chi-8","host":"chi-2.us.uncletopia.com","port":27045,"enabled":true,"region":"us-central","cc":"us","latitude":41.881832,"longitude":-87.62318,"reserved":0,"last_update":"0001-01-01T00:00:00Z","name_a2s":"Uncletopia | Chicago | 8 | Community","protocol":17,"map":"workshop/koth_ramjam_rc1.ugc459778887","folder":"tf","game":"Team Fortress","app_id":440,"player_count":0,"max_players":24,"Bots":0,"server_type":"Dedicated","server_os":"Linux","password":true,"vac":true,"version":"7757534","steam_id":85568392924866365,"keywords":["cp","nocrits","nodmgspread","uncletopia"],"game_id":440,"stv_port":27046,"stv_name":"Uncletopia | Chicago | 8 | Community | STV","players":null},{"server_id":8,"name":"Uncletopia | Dallas | 1 | All Maps","name_short":"dal-1","host":"dal-1.us.uncletopia.com","port":27015,"enabled":true,"region":"us-central","cc":"us","latitude":32.779167,"longitude":-96.80889,"reserved":0,"last_update":"0001-01-01T00:00:00Z","name_a2s":"Uncletopia | Dallas | 1 | All Maps","protocol":17,"map":"pl_goldrush","folder":"tf","game":"Team Fortress","app_id":440,"player_count":24,"max_players":24,"Bots":0,"server_type":"Dedicated","server_os":"Linux","password":true,"vac":true,"version":"7757534","steam_id":85568392924469986,"keywords":["nocrits","nodmgspread","payload","uncletopia"],"game_id":440,"stv_port":27016,"stv_name":"Uncletopia | Dallas | 1 | All Maps | STV","players":[{"user_id":682,"name":"Blue Protogen - 001198","steam_id":76561198145791867,"connected_time":5213000000000,"state":"active","ping":81},{"user_id":738,"name":"Zorlovo","steam_id":76561198006443283,"connected_time":1392000000000,"state":"active","ping":84},{"user_id":692,"name":"Drakon","steam_id":76561198078210822,"connected_time":4924000000000,"state":"active","ping":91},{"user_id":748,"name":"Timmy Furro","steam_id":76561198099210328,"connected_time":582000000000,"state":"active","ping":67},{"user_id":741,"name":"sky.to16","steam_id":76561199211313763,"connected_time":1300000000000,"state":"active","ping":87},{"user_id":744,"name":"48","steam_id":76561198894676484,"connected_time":1100000000000,"state":"active","ping":73},{"user_id":737,"name":"Etomb","steam_id":76561198210017208,"connected_time":1644000000000,"state":"active","ping":74},{"user_id":723,"name":"Dell Conagher (real)","steam_id":76561198220120368,"connected_time":3387000000000,"state":"active","ping":42},{"user_id":649,"name":"MerlinTheWizard","steam_id":76561198171472393,"connected_time":7104000000000,"state":"active","ping":79},{"user_id":740,"name":"El Viejo Paulino","steam_id":76561198211944169,"connected_time":1321000000000,"state":"active","ping":88},{"user_id":749,"name":"Jello","steam_id":76561198890633732,"connected_time":398000000000,"state":"active","ping":66},{"user_id":707,"name":"Cookies The Fox","steam_id":76561198200960402,"connected_time":3633000000000,"state":"active","ping":96},{"user_id":745,"name":"meowbahh","steam_id":76561198363171071,"connected_time":1005000000000,"state":"active","ping":66},{"user_id":693,"name":"gasparmx","steam_id":76561197998611994,"connected_time":4924000000000,"state":"active","ping":86},{"user_id":735,"name":"Krampus Kraut","steam_id":76561198018912093,"connected_time":1715000000000,"state":"active","ping":126},{"user_id":753,"name":"Dr. Bobo","steam_id":76561198271696761,"connected_time":69000000000,"state":"active","ping":58},{"user_id":746,"name":"{ST} Oxythemoron","steam_id":76561198060089965,"connected_time":876000000000,"state":"active","ping":51},{"user_id":718,"name":"DubiousDodo","steam_id":76561198828172686,"connected_time":3490000000000,"state":"active","ping":108},{"user_id":728,"name":"Spoons With Wolves","steam_id":76561198000964188,"connected_time":2981000000000,"state":"active","ping":73},{"user_id":747,"name":"Emma","steam_id":76561198318093783,"connected_time":772000000000,"state":"active","ping":65},{"user_id":743,"name":"tj3002rocks","steam_id":76561199017921546,"connected_time":1278000000000,"state":"active","ping":58},{"user_id":730,"name":"Getter Ray (Mute)","steam_id":76561198037784368,"connected_time":2513000000000,"state":"active","ping":80},{"user_id":734,"name":"TheDustMan03","steam_id":76561199007464131,"connected_time":2023000000000,"state":"active","ping":67},{"user_id":752,"name":"Alice Hiiragi","steam_id":76561198094078478,"connected_time":144000000000,"state":"active","ping":76}]},{"server_id":108,"name":"Uncletopia | Dallas | 2 | All Maps","name_short":"dal-2","host":"dal-1.us.uncletopia.com","port":27025,"enabled":true,"region":"us-central","cc":"us","latitude":32.779167,"longitude":-96.80889,"reserved":0,"last_update":"0001-01-01T00:00:00Z","name_a2s":"Uncletopia | Dallas | 2 | All Maps","protocol":17,"map":"pl_frontier_final","folder":"tf","game":"Team Fortress","app_id":440,"player_count":0,"max_players":24,"Bots":0,"server_type":"Dedicated","server_os":"Linux","password":true,"vac":true,"version":"7757534","steam_id":85568392924469988,"keywords":["nocrits","nodmgspread","payload","uncletopia"],"game_id":440,"stv_port":27026,"stv_name":"Uncletopia | Dallas | 2 | All Maps | STV","players":null},{"server_id":5,"name":"Uncletopia | Frankfurt | 1 | All Maps","name_short":"frk-1","host":"frk-1.de.uncletopia.com","port":27015,"enabled":true,"region":"eu","cc":"de","latitude":50.110924,"longitude":8.682127,"reserved":0,"last_update":"0001-01-01T00:00:00Z","name_a2s":"Uncletopia | Frankfurt | 1 | All Maps","protocol":17,"map":"cp_dustbowl","folder":"tf","game":"Team Fortress","app_id":440,"player_count":0,"max_players":24,"Bots":0,"server_type":"Dedicated","server_os":"Linux","password":true,"vac":true,"version":"7757534","steam_id":85568392924469989,"keywords":["cp","nocrits","nodmgspread","uncletopia"],"game_id":440,"stv_port":27016,"stv_name":"Uncletopia | Frankfurt | 1 | All Maps | STV","players":null},{"server_id":110,"name":"Uncletopia | Frankfurt | 2 | All Maps","name_short":"frk-2","host":"frk-1.de.uncletopia.com","port":27025,"enabled":true,"region":"eu","cc":"de","latitude":50.110924,"longitude":8.682127,"reserved":0,"last_update":"0001-01-01T00:00:00Z","name_a2s":"Uncletopia | Frankfurt | 2 | All Maps","protocol":17,"map":"pl_snowycoast","folder":"tf","game":"Team Fortress","app_id":440,"player_count":0,"max_players":24,"Bots":0,"server_type":"Dedicated","server_os":"Linux","password":true,"vac":true,"version":"7757534","steam_id":85568392924469990,"keywords":["nocrits","nodmgspread","payload","uncletopia"],"game_id":440,"stv_port":27026,"stv_name":"Uncletopia | Frankfurt | 2 | All Maps | STV","players":null},{"server_id":308,"name":"Uncletopia | Frankfurt | 3 | All Maps","name_short":"frk-3","host":"frk-1.de.uncletopia.com","port":27035,"enabled":true,"region":"eu","cc":"de","latitude":50.110924,"longitude":8.682127,"reserved":0,"last_update":"0001-01-01T00:00:00Z","name_a2s":"Uncletopia | Frankfurt | 3 | All Maps","protocol":17,"map":"cp_altitude","folder":"tf","game":"Team Fortress","app_id":440,"player_count":0,"max_players":24,"Bots":0,"server_type":"Dedicated","server_os":"Linux","password":true,"vac":true,"version":"7757534","steam_id":85568392924504274,"keywords":["cp","nocrits","nodmgspread","uncletopia"],"game_id":440,"stv_port":27036,"stv_name":"Uncletopia | Frankfurt | 3 | All Maps | STV","players":null},{"server_id":309,"name":"Uncletopia | Frankfurt | 4 | All Maps","name_short":"frk-4","host":"frk-1.de.uncletopia.com","port":27045,"enabled":true,"region":"eu","cc":"de","latitude":50.110924,"longitude":8.682127,"reserved":0,"last_update":"0001-01-01T00:00:00Z","name_a2s":"Uncletopia | Frankfurt | 4 | All Maps","protocol":17,"map":"cp_altitude","folder":"tf","game":"Team Fortress","app_id":440,"player_count":0,"max_players":24,"Bots":0,"server_type":"Dedicated","server_os":"Linux","password":true,"vac":true,"version":"7757534","steam_id":85568392924504275,"keywords":["cp","nocrits","nodmgspread","uncletopia"],"game_id":440,"stv_port":27046,"stv_name":"Uncletopia | Frankfurt | 4 | All Maps | STV","players":null},{"server_id":310,"name":"Uncletopia | Frankfurt | 5 | All Maps","name_short":"frk-5","host":"frk-1.de.uncletopia.com","port":27055,"enabled":true,"region":"eu","cc":"de","latitude":50.110924,"longitude":8.682127,"reserved":0,"last_update":"0001-01-01T00:00:00Z","name_a2s":"Uncletopia | Frankfurt | 5 | All Maps","protocol":17,"map":"cp_altitude","folder":"tf","game":"Team Fortress","app_id":440,"player_count":0,"max_players":24,"Bots":0,"server_type":"Dedicated","server_os":"Linux","password":true,"vac":true,"version":"7757534","steam_id":85568392924504277,"keywords":["cp","nocrits","nodmgspread","uncletopia"],"game_id":440,"stv_port":27056,"stv_name":"Uncletopia | Frankfurt | 5 | All Maps | STV","players":null},{"server_id":311,"name":"Uncletopia | Frankfurt | 6 | All Maps","name_short":"frk-6","host":"frk-1.de.uncletopia.com","port":27065,"enabled":true,"region":"eu","cc":"de","latitude":50.110924,"longitude":8.682127,"reserved":0,"last_update":"0001-01-01T00:00:00Z","name_a2s":"Uncletopia | Frankfurt | 6 | All Maps","protocol":17,"map":"koth_highpass","folder":"tf","game":"Team Fortress","app_id":440,"player_count":0,"max_players":24,"Bots":0,"server_type":"Dedicated","server_os":"Linux","password":true,"vac":true,"version":"7757534","steam_id":85568392924504278,"keywords":["cp","nocrits","nodmgspread","uncletopia"],"game_id":440,"stv_port":27066,"stv_name":"Uncletopia | Frankfurt | 6 | All Maps | STV","players":null},{"server_id":23,"name":"Uncletopia | Frankfurt | 7 | Stopwatch Beta","name_short":"frk-7","host":"frk-1.de.uncletopia.com","port":27075,"enabled":true,"region":"eu","cc":"de","latitude":50.110924,"longitude":8.682127,"reserved":0,"last_update":"0001-01-01T00:00:00Z","name_a2s":"Uncletopia | Frankfurt | 7 | Stopwatch Beta","protocol":17,"map":"pl_frontier_final","folder":"tf","game":"Team Fortress","app_id":440,"player_count":0,"max_players":24,"Bots":0,"server_type":"Dedicated","server_os":"Linux","password":true,"vac":true,"version":"7757534","steam_id":85568392924742827,"keywords":["nocrits","nodmgspread","payload","uncletopia"],"game_id":440,"stv_port":27076,"stv_name":"Uncletopia | Frankfurt | 7 | Stopwatch Beta | STV","players":null},{"server_id":24,"name":"Uncletopia | Frankfurt | 8 | Community","name_short":"frk-8","host":"frk-1.de.uncletopia.com","port":27085,"enabled":true,"region":"eu","cc":"de","latitude":50.110924,"longitude":8.682127,"reserved":0,"last_update":"0001-01-01T00:00:00Z","name_a2s":"Uncletopia | Frankfurt | 8 | Community","protocol":17,"map":"pl_badwater","folder":"tf","game":"Team Fortress","app_id":440,"player_count":0,"max_players":24,"Bots":0,"server_type":"Dedicated","server_os":"Linux","password":true,"vac":true,"version":"7757534","steam_id":85568392924742828,"keywords":["nocrits","nodmgspread","payload","uncletopia"],"game_id":440,"stv_port":27086,"stv_name":"Uncletopia | Frankfurt | 8 | Community | STV","players":null},{"server_id":202,"name":"Uncletopia | Hong Kong | 1 | All Maps","name_short":"hgk-1","host":"hgk-1.hk.uncletopia.com","port":27015,"enabled":true,"region":"asia","cc":"hk","latitude":22.302711,"longitude":114.177216,"reserved":0,"last_update":"0001-01-01T00:00:00Z","name_a2s":"Uncletopia | Hong Kong | 1 | All Maps","protocol":17,"map":"pl_swiftwater_final1","folder":"tf","game":"Team Fortress","app_id":440,"player_count":6,"max_players":24,"Bots":0,"server_type":"Dedicated","server_os":"Linux","password":true,"vac":true,"version":"7757534","steam_id":85568392924494504,"keywords":["nocrits","nodmgspread","payload","uncletopia"],"game_id":440,"stv_port":27016,"stv_name":"Uncletopia | Hong Kong | 1 | All Maps | STV","players":[{"user_id":130,"name":"善良の墨","steam_id":76561199102754539,"connected_time":1729000000000,"state":"active","ping":84},{"user_id":135,"name":"yw","steam_id":76561199382726488,"connected_time":804000000000,"state":"active","ping":46},{"user_id":138,"name":"「❈」MeeLee","steam_id":76561199227871384,"connected_time":207000000000,"state":"active","ping":57},{"user_id":139,"name":"Tyxant","steam_id":76561198091066056,"connected_time":153000000000,"state":"active","ping":91},{"user_id":140,"name":"ACLAN","steam_id":76561199456080272,"connected_time":32000000000,"state":"spawning","ping":94}]},{"server_id":1,"name":"Uncletopia | Los Angeles | 1 | All Maps","name_short":"lax-1","host":"lax-1.us.uncletopia.com","port":27015,"enabled":true,"region":"us-west","cc":"us","latitude":33.94279,"longitude":-118.41004,"reserved":0,"last_update":"0001-01-01T00:00:00Z","name_a2s":"Uncletopia | Los Angeles | 1 | All Maps","protocol":17,"map":"pl_barnblitz","folder":"tf","game":"Team Fortress","app_id":440,"player_count":2,"max_players":24,"Bots":0,"server_type":"Dedicated","server_os":"Linux","password":true,"vac":true,"version":"7757534","steam_id":85568392924469991,"keywords":["nocrits","nodmgspread","payload","uncletopia"],"game_id":440,"stv_port":27016,"stv_name":"Uncletopia | Los Angeles | 1 | All Maps | STV","players":[{"user_id":554,"name":"Shoggoth","steam_id":76561198117892299,"connected_time":1305000000000,"state":"active","ping":84},{"user_id":536,"name":"Zoof Zoof","steam_id":76561199190397373,"connected_time":1972000000000,"state":"active","ping":88}]},{"server_id":112,"name":"Uncletopia | Los Angeles | 2 | All Maps","name_short":"lax-2","host":"lax-1.us.uncletopia.com","port":27025,"enabled":true,"region":"us-west","cc":"us","latitude":33.94279,"longitude":-118.41004,"reserved":0,"last_update":"0001-01-01T00:00:00Z","name_a2s":"Uncletopia | Los Angeles | 2 | All Maps","protocol":17,"map":"koth_highpass","folder":"tf","game":"Team Fortress","app_id":440,"player_count":0,"max_players":24,"Bots":0,"server_type":"Dedicated","server_os":"Linux","password":true,"vac":true,"version":"7757534","steam_id":85568392924469992,"keywords":["cp","nocrits","nodmgspread","uncletopia"],"game_id":440,"stv_port":27026,"stv_name":"Uncletopia | Los Angeles | 2 | All Maps | STV","players":null},{"server_id":324,"name":"Uncletopia | Los Angeles | 3 | All Maps","name_short":"lax-3","host":"lax-1.us.uncletopia.com","port":27035,"enabled":true,"region":"us-west","cc":"us","latitude":33.94279,"longitude":-118.41004,"reserved":0,"last_update":"0001-01-01T00:00:00Z","name_a2s":"Uncletopia | Los Angeles | 3 | All Maps","protocol":17,"map":"pl_hoodoo_final","folder":"tf","game":"Team Fortress","app_id":440,"player_count":24,"max_players":24,"Bots":0,"server_type":"Dedicated","server_os":"Linux","password":true,"vac":true,"version":"7757534","steam_id":85568392924510198,"keywords":["nocrits","nodmgspread","payload","uncletopia"],"game_id":440,"stv_port":27036,"stv_name":"Uncletopia | Los Angeles | 3 | All Maps | STV","players":[{"user_id":305,"name":"DawnNannas","steam_id":76561198042915117,"connected_time":1377000000000,"state":"active","ping":83},{"user_id":289,"name":"Durazorn","steam_id":76561198096327396,"connected_time":2538000000000,"state":"active","ping":111},{"user_id":296,"name":"goldhed","steam_id":76561198051751133,"connected_time":2273000000000,"state":"active","ping":77},{"user_id":290,"name":"Xtar","steam_id":76561198301774048,"connected_time":2523000000000,"state":"active","ping":83},{"user_id":308,"name":"Dylancyclone","steam_id":76561198000959790,"connected_time":818000000000,"state":"active","ping":55},{"user_id":310,"name":"DaBeatGoOff?","steam_id":76561198106507400,"connected_time":688000000000,"state":"active","ping":51},{"user_id":257,"name":"max poop retention","steam_id":76561199050461421,"connected_time":6100000000000,"state":"active","ping":69},{"user_id":291,"name":"TheLuckyJinks","steam_id":76561198154340722,"connected_time":2520000000000,"state":"active","ping":119},{"user_id":316,"name":"StunSeed","steam_id":76561198311602710,"connected_time":55000000000,"state":"active","ping":59},{"user_id":266,"name":"oil","steam_id":76561198099980149,"connected_time":5395000000000,"state":"active","ping":46},{"user_id":292,"name":"Sugercrash","steam_id":76561199187685119,"connected_time":2468000000000,"state":"active","ping":109},{"user_id":284,"name":"Ash!❤","steam_id":76561198070398840,"connected_time":2763000000000,"state":"active","ping":71},{"user_id":195,"name":"Lambchop","steam_id":76561198043900363,"connected_time":8957000000000,"state":"active","ping":70},{"user_id":314,"name":"GeekyFox3","steam_id":76561198267733290,"connected_time":574000000000,"state":"active","ping":73},{"user_id":281,"name":"Buddyram5","steam_id":76561198409858620,"connected_time":3093000000000,"state":"active","ping":87},{"user_id":298,"name":"rat eater","steam_id":76561198955453886,"connected_time":2258000000000,"state":"active","ping":99},{"user_id":299,"name":"Juri Han","steam_id":76561198041678517,"connected_time":2228000000000,"state":"active","ping":71},{"user_id":304,"name":"PASTA OPRESSOR","steam_id":76561198281612642,"connected_time":1805000000000,"state":"active","ping":74},{"user_id":283,"name":"Panzerschreck Bath Water","steam_id":76561198178133625,"connected_time":3092000000000,"state":"active","ping":46},{"user_id":274,"name":"Antzen","steam_id":76561198041343470,"connected_time":4662000000000,"state":"active","ping":62},{"user_id":295,"name":"cbagels","steam_id":76561198453866972,"connected_time":2348000000000,"state":"active","ping":72},{"user_id":307,"name":"Kalcal","steam_id":76561198044494125,"connected_time":1080000000000,"state":"active","ping":87},{"user_id":315,"name":"xMystic_Fire","steam_id":76561198189961543,"connected_time":522000000000,"state":"active","ping":84},{"user_id":313,"name":"birthday turtle","steam_id":76561198021308963,"connected_time":637000000000,"state":"active","ping":77}]},{"server_id":25,"name":"Uncletopia | Los Angeles | 4 | Stopwatch Beta","name_short":"lax-4","host":"lax-1.us.uncletopia.com","port":27045,"enabled":true,"region":"us-west","cc":"us","latitude":33.94279,"longitude":-118.41004,"reserved":0,"last_update":"0001-01-01T00:00:00Z","name_a2s":"Uncletopia | Los Angeles | 4 | Stopwatch Beta","protocol":17,"map":"pl_frontier_final","folder":"tf","game":"Team Fortress","app_id":440,"player_count":0,"max_players":24,"Bots":0,"server_type":"Dedicated","server_os":"Linux","password":true,"vac":true,"version":"7757534","steam_id":85568392924510199,"keywords":["nocrits","nodmgspread","payload","uncletopia"],"game_id":440,"stv_port":27046,"stv_name":"Uncletopia | Los Angeles | 4 | Stopwatch Beta | STV","players":null},{"server_id":11,"name":"Uncletopia | London | 1 | All Maps","name_short":"lon-1","host":"lon-1.uk.uncletopia.com","port":27015,"enabled":true,"region":"eu","cc":"gb","latitude":51.509865,"longitude":-0.118092,"reserved":0,"last_update":"0001-01-01T00:00:00Z","name_a2s":"Uncletopia | London | 1 | All Maps","protocol":17,"map":"pl_pier","folder":"tf","game":"Team Fortress","app_id":440,"player_count":9,"max_players":24,"Bots":0,"server_type":"Dedicated","server_os":"Linux","password":true,"vac":true,"version":"7757534","steam_id":85568392924367362,"keywords":["nocrits","nodmgspread","payload","uncletopia"],"game_id":440,"stv_port":27016,"stv_name":"Uncletopia | London | 1 | All Maps | STV","players":[{"user_id":21,"name":"Cumbustible Punda #SaveTF2","steam_id":76561197974274677,"connected_time":996000000000,"state":"active","ping":60},{"user_id":4,"name":"MtnDew","steam_id":76561199100059743,"connected_time":5329000000000,"state":"active","ping":107},{"user_id":9,"name":"kbbq","steam_id":76561198346638308,"connected_time":2952000000000,"state":"active","ping":45},{"user_id":6,"name":"Rambi","steam_id":76561199058078505,"connected_time":4979000000000,"state":"active","ping":169},{"user_id":22,"name":"Robin ★","steam_id":76561198124355408,"connected_time":382000000000,"state":"active","ping":104},{"user_id":18,"name":"tori_spring","steam_id":76561199375975842,"connected_time":1586000000000,"state":"active","ping":47},{"user_id":23,"name":"bachusa1657","steam_id":76561198202175911,"connected_time":323000000000,"state":"active","ping":77},{"user_id":27,"name":"antlionguard","steam_id":76561198072747143,"connected_time":8000000000,"state":"spawning","ping":118},{"user_id":17,"name":"Not Sussy Tanuki","steam_id":76561198137289375,"connected_time":1777000000000,"state":"active","ping":109}]},{"server_id":114,"name":"Uncletopia | London | 2 | All Maps","name_short":"lon-2","host":"lon-1.uk.uncletopia.com","port":27025,"enabled":true,"region":"eu","cc":"gb","latitude":51.509865,"longitude":-0.118092,"reserved":0,"last_update":"0001-01-01T00:00:00Z","name_a2s":"Uncletopia | London | 2 | All Maps","protocol":17,"map":"cp_dustbowl","folder":"tf","game":"Team Fortress","app_id":440,"player_count":0,"max_players":24,"Bots":0,"server_type":"Dedicated","server_os":"Linux","password":true,"vac":true,"version":"7757534","steam_id":85568392924470941,"keywords":["cp","nocrits","nodmgspread","uncletopia"],"game_id":440,"stv_port":27026,"stv_name":"Uncletopia | London | 2 | All Maps | STV","players":null},{"server_id":320,"name":"Uncletopia | London | 3 | All Maps","name_short":"lon-3","host":"lon-1.uk.uncletopia.com","port":27035,"enabled":true,"region":"eu","cc":"gb","latitude":51.509865,"longitude":-0.118092,"reserved":0,"last_update":"0001-01-01T00:00:00Z","name_a2s":"Uncletopia | London | 3 | All Maps","protocol":17,"map":"pl_badwater","folder":"tf","game":"Team Fortress","app_id":440,"player_count":0,"max_players":24,"Bots":0,"server_type":"Dedicated","server_os":"Linux","password":true,"vac":true,"version":"7757534","steam_id":85568392924510192,"keywords":["nocrits","nodmgspread","payload","uncletopia"],"game_id":440,"stv_port":27036,"stv_name":"Uncletopia | London | 3 | All Maps | STV","players":null},{"server_id":321,"name":"Uncletopia | London | 4 | All Maps","name_short":"lon-4","host":"lon-1.uk.uncletopia.com","port":27045,"enabled":true,"region":"eu","cc":"gb","latitude":51.509865,"longitude":-0.118092,"reserved":0,"last_update":"0001-01-01T00:00:00Z","name_a2s":"Uncletopia | London | 4 | All Maps","protocol":17,"map":"koth_viaduct","folder":"tf","game":"Team Fortress","app_id":440,"player_count":0,"max_players":24,"Bots":0,"server_type":"Dedicated","server_os":"Linux","password":true,"vac":true,"version":"7757534","steam_id":85568392924510193,"keywords":["cp","nocrits","nodmgspread","uncletopia"],"game_id":440,"stv_port":27046,"stv_name":"Uncletopia | London | 4 | All Maps | STV","players":null},{"server_id":21,"name":"Uncletopia | London | 5 | All Maps","name_short":"lon-5","host":"lon-1.uk.uncletopia.com","port":27055,"enabled":true,"region":"eu","cc":"gb","latitude":51.509865,"longitude":-0.118092,"reserved":0,"last_update":"0001-01-01T00:00:00Z","name_a2s":"Uncletopia | London | 5 | All Maps","protocol":17,"map":"plr_pipeline","folder":"tf","game":"Team Fortress","app_id":440,"player_count":0,"max_players":24,"Bots":0,"server_type":"Dedicated","server_os":"Linux","password":true,"vac":true,"version":"7757534","steam_id":85568392924742829,"keywords":["nocrits","nodmgspread","payload","uncletopia"],"game_id":440,"stv_port":27056,"stv_name":"Uncletopia | London | 5 | All Maps | STV","players":null},{"server_id":22,"name":"Uncletopia | London | 6 | All Maps","name_short":"lon-6","host":"lon-1.uk.uncletopia.com","port":27065,"enabled":true,"region":"eu","cc":"gb","latitude":51.509865,"longitude":-0.118092,"reserved":0,"last_update":"0001-01-01T00:00:00Z","name_a2s":"Uncletopia | London | 6 | All Maps","protocol":17,"map":"koth_cascade","folder":"tf","game":"Team Fortress","app_id":440,"player_count":0,"max_players":24,"Bots":0,"server_type":"Dedicated","server_os":"Linux","password":true,"vac":true,"version":"7757534","steam_id":85568392924742830,"keywords":["cp","nocrits","nodmgspread","uncletopia"],"game_id":440,"stv_port":27066,"stv_name":"Uncletopia | London | 6 | All Maps | STV","players":null},{"server_id":40,"name":"Uncletopia | London | 7 | No Payload","name_short":"lon-7","host":"lon-1.uk.uncletopia.com","port":27075,"enabled":true,"region":"eu","cc":"gb","latitude":51.509865,"longitude":-0.118092,"reserved":0,"last_update":"0001-01-01T00:00:00Z","name_a2s":"Uncletopia | London | 7 | No Payload","protocol":17,"map":"cp_process_final","folder":"tf","game":"Team Fortress","app_id":440,"player_count":0,"max_players":24,"Bots":0,"server_type":"Dedicated","server_os":"Linux","password":true,"vac":true,"version":"7757534","steam_id":85568392924964314,"keywords":["cp","nocrits","nodmgspread","uncletopia"],"game_id":440,"stv_port":27076,"stv_name":"Uncletopia | London | 7 | No Payload | STV","players":null},{"server_id":41,"name":"Uncletopia | London | 8 | Community","name_short":"lon-8","host":"lon-1.uk.uncletopia.com","port":27085,"enabled":true,"region":"eu","cc":"gb","latitude":51.509865,"longitude":-0.118092,"reserved":0,"last_update":"0001-01-01T00:00:00Z","name_a2s":"Uncletopia | London | 8 | Community","protocol":17,"map":"pl_upward","folder":"tf","game":"Team Fortress","app_id":440,"player_count":0,"max_players":24,"Bots":0,"server_type":"Dedicated","server_os":"Linux","password":true,"vac":true,"version":"7757534","steam_id":85568392924964315,"keywords":["nocrits","nodmgspread","payload","uncletopia"],"game_id":440,"stv_port":27086,"stv_name":"Uncletopia | London | 8 | Community | STV","players":null},{"server_id":300,"name":"Uncletopia | Montréal | 1 | All Maps","name_short":"mtl-1","host":"mtl-1.ca.uncletopia.com","port":27015,"enabled":true,"region":"us-east","cc":"ca","latitude":45.50889,"longitude":-73.56167,"reserved":0,"last_update":"0001-01-01T00:00:00Z","name_a2s":"Uncletopia | Montréal | 1 | All Maps","protocol":17,"map":"cp_snakewater_final1","folder":"tf","game":"Team Fortress","app_id":440,"player_count":0,"max_players":24,"Bots":0,"server_type":"Dedicated","server_os":"Linux","password":true,"vac":true,"version":"7757534","steam_id":85568392924500087,"keywords":["cp","nocrits","nodmgspread","uncletopia"],"game_id":440,"stv_port":27016,"stv_name":"Uncletopia | Montréal | 1 | All Maps | STV","players":null},{"server_id":301,"name":"Uncletopia | Montréal | 2 | All Maps","name_short":"mtl-2","host":"mtl-1.ca.uncletopia.com","port":27025,"enabled":true,"region":"us-east","cc":"ca","latitude":45.50889,"longitude":-73.56167,"reserved":0,"last_update":"0001-01-01T00:00:00Z","name_a2s":"Uncletopia | Montréal | 2 | All Maps","protocol":17,"map":"cp_dustbowl","folder":"tf","game":"Team Fortress","app_id":440,"player_count":0,"max_players":24,"Bots":0,"server_type":"Dedicated","server_os":"Linux","password":true,"vac":true,"version":"7757534","steam_id":85568392924500088,"keywords":["cp","nocrits","nodmgspread","uncletopia"],"game_id":440,"stv_port":27026,"stv_name":"Uncletopia | Montréal | 2 | All Maps | STV","players":null},{"server_id":302,"name":"Uncletopia | Montréal | 3 | All Maps","name_short":"mtl-3","host":"mtl-1.ca.uncletopia.com","port":27035,"enabled":true,"region":"us-east","cc":"ca","latitude":45.50889,"longitude":-73.56167,"reserved":0,"last_update":"0001-01-01T00:00:00Z","name_a2s":"Uncletopia | Montréal | 3 | All Maps","protocol":17,"map":"cp_mountainlab","folder":"tf","game":"Team Fortress","app_id":440,"player_count":0,"max_players":24,"Bots":0,"server_type":"Dedicated","server_os":"Linux","password":true,"vac":true,"version":"7757534","steam_id":85568392924500089,"keywords":["cp","nocrits","nodmgspread","uncletopia"],"game_id":440,"stv_port":27036,"stv_name":"Uncletopia | Montréal | 3 | All Maps | STV","players":null},{"server_id":303,"name":"Uncletopia | Montréal | 4 | No Payload","name_short":"mtl-4","host":"mtl-1.ca.uncletopia.com","port":27045,"enabled":true,"region":"us-east","cc":"ca","latitude":45.50889,"longitude":-73.56167,"reserved":0,"last_update":"0001-01-01T00:00:00Z","name_a2s":"Uncletopia | Montréal | 4 | No Payload","protocol":17,"map":"koth_nucleus","folder":"tf","game":"Team Fortress","app_id":440,"player_count":0,"max_players":24,"Bots":0,"server_type":"Dedicated","server_os":"Linux","password":true,"vac":true,"version":"7757534","steam_id":85568392924500090,"keywords":["cp","nocrits","nodmgspread","uncletopia"],"game_id":440,"stv_port":27046,"stv_name":"Uncletopia | Montréal | 4 | No Payload | STV","players":null},{"server_id":13,"name":"Uncletopia | New York City | 1 | All Maps","name_short":"nyc-1","host":"nyc-1.us.uncletopia.com","port":27015,"enabled":true,"region":"us-east","cc":"us","latitude":40.73061,"longitude":-73.93524,"reserved":0,"last_update":"0001-01-01T00:00:00Z","name_a2s":"Uncletopia | New York City | 1 | All Maps","protocol":17,"map":"pl_upward","folder":"tf","game":"Team Fortress","app_id":440,"player_count":0,"max_players":24,"Bots":0,"server_type":"Dedicated","server_os":"Linux","password":true,"vac":true,"version":"7757534","steam_id":85568392924469993,"keywords":["nocrits","nodmgspread","payload","uncletopia"],"game_id":440,"stv_port":27016,"stv_name":"Uncletopia | New York City | 1 | All Maps | STV","players":null},{"server_id":14,"name":"Uncletopia | New York City | 2 | All Maps","name_short":"nyc-2","host":"nyc-1.us.uncletopia.com","port":27025,"enabled":true,"region":"us-east","cc":"us","latitude":40.73061,"longitude":-73.93524,"reserved":0,"last_update":"0001-01-01T00:00:00Z","name_a2s":"Uncletopia | New York City | 2 | All Maps","protocol":17,"map":"cp_altitude","folder":"tf","game":"Team Fortress","app_id":440,"player_count":0,"max_players":24,"Bots":0,"server_type":"Dedicated","server_os":"Linux","password":true,"vac":true,"version":"7757534","steam_id":85568392924469994,"keywords":["cp","nocrits","nodmgspread","uncletopia"],"game_id":440,"stv_port":27026,"stv_name":"Uncletopia | New York City | 2 | All Maps | STV","players":null},{"server_id":15,"name":"Uncletopia | New York City | 3 | Stopwatch Beta","name_short":"nyc-3","host":"nyc-1.us.uncletopia.com","port":27035,"enabled":true,"region":"us-east","cc":"us","latitude":40.73061,"longitude":-73.93524,"reserved":0,"last_update":"0001-01-01T00:00:00Z","name_a2s":"Uncletopia | New York City | 3 | Stopwatch Beta","protocol":17,"map":"koth_highpass","folder":"tf","game":"Team Fortress","app_id":440,"player_count":0,"max_players":24,"Bots":0,"server_type":"Dedicated","server_os":"Linux","password":true,"vac":true,"version":"7757534","steam_id":85568392924742820,"keywords":["cp","nocrits","nodmgspread","uncletopia"],"game_id":440,"stv_port":27036,"stv_name":"Uncletopia | New York City | 3 | Stopwatch Beta | STV","players":null},{"server_id":16,"name":"Uncletopia | New York City | 4 | Community","name_short":"nyc-4","host":"nyc-1.us.uncletopia.com","port":27045,"enabled":true,"region":"us-east","cc":"us","latitude":40.73061,"longitude":-73.93524,"reserved":0,"last_update":"0001-01-01T00:00:00Z","name_a2s":"Uncletopia | New York City | 4 | Community","protocol":17,"map":"workshop/pl_cashworks_final1.ugc2904065412","folder":"tf","game":"Team Fortress","app_id":440,"player_count":0,"max_players":24,"Bots":0,"server_type":"Dedicated","server_os":"Linux","password":true,"vac":true,"version":"7757534","steam_id":85568392924742821,"keywords":["nocrits","nodmgspread","payload","uncletopia"],"game_id":440,"stv_port":27046,"stv_name":"Uncletopia | New York City | 4 | Community | STV","players":null},{"server_id":142,"name":"Uncletopia | São Paulo | 1 | All Maps","name_short":"sao-1","host":"sao-1.br.uncletopia.com","port":27015,"enabled":true,"region":"sa","cc":"br","latitude":-23.533773,"longitude":-46.62529,"reserved":0,"last_update":"0001-01-01T00:00:00Z","name_a2s":"Uncletopia | São Paulo | 1 | All Maps","protocol":17,"map":"pl_barnblitz","folder":"tf","game":"Team Fortress","app_id":440,"player_count":0,"max_players":24,"Bots":0,"server_type":"Dedicated","server_os":"Linux","password":true,"vac":true,"version":"7757534","steam_id":85568392924469996,"keywords":["nocrits","nodmgspread","payload","uncletopia"],"game_id":440,"stv_port":27016,"stv_name":"Uncletopia | São Paulo | 1 | All Maps | STV","players":null},{"server_id":143,"name":"Uncletopia | São Paulo | 2 | All Maps","name_short":"sao-2","host":"sao-2.br.uncletopia.com","port":27015,"enabled":true,"region":"sa","cc":"br","latitude":-23.533773,"longitude":-46.62529,"reserved":0,"last_update":"0001-01-01T00:00:00Z","name_a2s":"Uncletopia | São Paulo | 2 | All Maps","protocol":17,"map":"pl_badwater","folder":"tf","game":"Team Fortress","app_id":440,"player_count":0,"max_players":24,"Bots":0,"server_type":"Dedicated","server_os":"Linux","password":true,"vac":true,"version":"7757534","steam_id":85568392924485349,"keywords":["nocrits","nodmgspread","payload","uncletopia"],"game_id":440,"stv_port":27016,"stv_name":"Uncletopia | São Paulo | 2 | All Maps | STV","players":null},{"server_id":7,"name":"Uncletopia | Seattle | 1 | All Maps","name_short":"sea-1","host":"sea-1.us.uncletopia.com","port":27015,"enabled":true,"region":"us-west","cc":"us","latitude":47.608013,"longitude":-122.33517,"reserved":0,"last_update":"0001-01-01T00:00:00Z","name_a2s":"Uncletopia | Seattle | 1 | All Maps","protocol":17,"map":"pl_thundermountain","folder":"tf","game":"Team Fortress","app_id":440,"player_count":24,"max_players":24,"Bots":0,"server_type":"Dedicated","server_os":"Linux","password":true,"vac":true,"version":"7757534","steam_id":85568392924469997,"keywords":["nocrits","nodmgspread","payload","uncletopia"],"game_id":440,"stv_port":27016,"stv_name":"Uncletopia | Seattle | 1 | All Maps | STV","players":[{"user_id":715,"name":"HaphazardHazel","steam_id":76561198316812693,"connected_time":1428000000000,"state":"active","ping":139},{"user_id":707,"name":"Dorte Voloxi","steam_id":76561198118620969,"connected_time":2217000000000,"state":"active","ping":62},{"user_id":712,"name":"SvicidalBug","steam_id":76561198221390504,"connected_time":1939000000000,"state":"active","ping":67},{"user_id":711,"name":"nescoceo","steam_id":76561198040801160,"connected_time":2083000000000,"state":"active","ping":75},{"user_id":718,"name":"Ena","steam_id":76561198066986108,"connected_time":1060000000000,"state":"active","ping":42},{"user_id":733,"name":"A lost cow.","steam_id":76561198047673765,"connected_time":337000000000,"state":"active","ping":103},{"user_id":731,"name":"Xenagos","steam_id":76561198045678290,"connected_time":384000000000,"state":"active","ping":56},{"user_id":719,"name":"lavender","steam_id":76561199069518286,"connected_time":1014000000000,"state":"active","ping":77},{"user_id":671,"name":"Jorge_dude_2008","steam_id":76561198870649125,"connected_time":6049000000000,"state":"active","ping":82},{"user_id":737,"name":"H4V0C","steam_id":76561199129350925,"connected_time":246000000000,"state":"active","ping":58},{"user_id":732,"name":"Cyaniday","steam_id":76561198302051082,"connected_time":351000000000,"state":"active","ping":78},{"user_id":699,"name":"Endstar","steam_id":76561198326392714,"connected_time":3052000000000,"state":"active","ping":56},{"user_id":725,"name":"Quietsharp","steam_id":76561198277968438,"connected_time":660000000000,"state":"active","ping":124},{"user_id":664,"name":"The Population of Sweden","steam_id":76561198202201644,"connected_time":6991000000000,"state":"active","ping":41},{"user_id":705,"name":"KnotsAreUs","steam_id":76561198306522669,"connected_time":2252000000000,"state":"active","ping":83},{"user_id":713,"name":"shane","steam_id":76561198060491451,"connected_time":1585000000000,"state":"active","ping":96},{"user_id":738,"name":"solitaire","steam_id":76561198964025682,"connected_time":188000000000,"state":"active","ping":83},{"user_id":709,"name":"DK360","steam_id":76561198796783094,"connected_time":2129000000000,"state":"active","ping":64},{"user_id":734,"name":"raduski","steam_id":76561198795699119,"connected_time":333000000000,"state":"active","ping":94},{"user_id":735,"name":"strong and healthy gamer","steam_id":76561198049489349,"connected_time":318000000000,"state":"active","ping":68},{"user_id":727,"name":"Arsonist Goose","steam_id":76561198147441830,"connected_time":565000000000,"state":"active","ping":75},{"user_id":722,"name":"Lazulf","steam_id":76561198041410859,"connected_time":867000000000,"state":"active","ping":78},{"user_id":730,"name":"Faye","steam_id":76561198112184924,"connected_time":415000000000,"state":"active","ping":142},{"user_id":702,"name":"Archimedes!","steam_id":76561199446023933,"connected_time":2275000000000,"state":"active","ping":86}]},{"server_id":119,"name":"Uncletopia | Seattle | 2 | All Maps","name_short":"sea-2","host":"sea-1.us.uncletopia.com","port":27025,"enabled":true,"region":"us-west","cc":"us","latitude":47.608013,"longitude":-122.33517,"reserved":0,"last_update":"0001-01-01T00:00:00Z","name_a2s":"Uncletopia | Seattle | 2 | All Maps","protocol":17,"map":"pl_swiftwater_final1","folder":"tf","game":"Team Fortress","app_id":440,"player_count":22,"max_players":24,"Bots":0,"server_type":"Dedicated","server_os":"Linux","password":true,"vac":true,"version":"7757534","steam_id":85568392924469998,"keywords":["nocrits","nodmgspread","payload","uncletopia"],"game_id":440,"stv_port":27026,"stv_name":"Uncletopia | Seattle | 2 | All Maps | STV","players":[{"user_id":858,"name":"Soda","steam_id":76561198219209367,"connected_time":770000000000,"state":"active","ping":57},{"user_id":853,"name":"THAT CAT","steam_id":76561198010828625,"connected_time":1296000000000,"state":"active","ping":36},{"user_id":835,"name":"Ducks","steam_id":76561198130038345,"connected_time":3158000000000,"state":"active","ping":64},{"user_id":816,"name":"Sniff","steam_id":76561198010270922,"connected_time":5370000000000,"state":"active","ping":41},{"user_id":794,"name":"Immunized","steam_id":76561197985889870,"connected_time":7063000000000,"state":"active","ping":40},{"user_id":848,"name":"2 Point Tom","steam_id":76561198087617008,"connected_time":1583000000000,"state":"active","ping":54},{"user_id":844,"name":"mumbles","steam_id":76561197994528974,"connected_time":1960000000000,"state":"active","ping":80},{"user_id":850,"name":"S Q U I S H E  T H A T  C A T","steam_id":76561198293865429,"connected_time":1516000000000,"state":"active","ping":45},{"user_id":839,"name":"brobtlcehc","steam_id":76561198043558709,"connected_time":2422000000000,"state":"active","ping":46},{"user_id":825,"name":"Batso","steam_id":76561198106589452,"connected_time":4384000000000,"state":"active","ping":86},{"user_id":822,"name":"gorlab","steam_id":76561198025089694,"connected_time":4426000000000,"state":"active","ping":68},{"user_id":851,"name":"elixir mixer","steam_id":76561198131166135,"connected_time":1498000000000,"state":"active","ping":44},{"user_id":855,"name":"Google","steam_id":76561198857237473,"connected_time":1052000000000,"state":"active","ping":45},{"user_id":860,"name":"Dunkle","steam_id":76561198041903573,"connected_time":563000000000,"state":"active","ping":45},{"user_id":837,"name":"Tyzombiecrusher","steam_id":76561198175855278,"connected_time":2439000000000,"state":"active","ping":95},{"user_id":857,"name":"YEAH, MARISA KIRISAME","steam_id":76561198035698704,"connected_time":818000000000,"state":"active","ping":68},{"user_id":800,"name":"NEBULA","steam_id":76561198086878595,"connected_time":6620000000000,"state":"active","ping":74},{"user_id":838,"name":"Florist","steam_id":76561198009121060,"connected_time":2439000000000,"state":"active","ping":44},{"user_id":859,"name":"rorywashere /ᐠ - ˕ -マ Ⳋ","steam_id":76561198065825165,"connected_time":701000000000,"state":"active","ping":107},{"user_id":840,"name":"Stev the Prurient Oxymoron","steam_id":76561197999442625,"connected_time":2422000000000,"state":"active","ping":66},{"user_id":829,"name":"squash","steam_id":76561198150281353,"connected_time":4028000000000,"state":"active","ping":59},{"user_id":846,"name":"MonteJT","steam_id":76561198055409360,"connected_time":1777000000000,"state":"active","ping":35}]},{"server_id":406,"name":"Uncletopia | Seattle | 3 | Stopwatch Beta","name_short":"sea-3","host":"sea-1.us.uncletopia.com","port":27035,"enabled":true,"region":"us-west","cc":"us","latitude":47.608013,"longitude":-122.33517,"reserved":0,"last_update":"0001-01-01T00:00:00Z","name_a2s":"Uncletopia | Seattle | 3 | Stopwatch Beta","protocol":17,"map":"workshop/koth_product_final.ugc454272353","folder":"tf","game":"Team Fortress","app_id":440,"player_count":0,"max_players":24,"Bots":0,"server_type":"Dedicated","server_os":"Linux","password":true,"vac":true,"version":"7757534","steam_id":85568392924515217,"keywords":["cp","nocrits","nodmgspread","uncletopia"],"game_id":440,"stv_port":27036,"stv_name":"Uncletopia | Seattle | 3 | Stopwatch Beta | STV","players":null},{"server_id":17,"name":"Uncletopia | San Francisco | 1 | All Maps","name_short":"sfo-1","host":"sfo-1.us.uncletopia.com","port":27015,"enabled":true,"region":"us-west","cc":"us","latitude":37.77397,"longitude":-122.4313,"reserved":0,"last_update":"0001-01-01T00:00:00Z","name_a2s":"Uncletopia | San Francisco | 1 | All Maps","protocol":17,"map":"koth_lakeside_final","folder":"tf","game":"Team Fortress","app_id":440,"player_count":0,"max_players":24,"Bots":0,"server_type":"Dedicated","server_os":"Linux","password":true,"vac":true,"version":"7757534","steam_id":85568392924469999,"keywords":["cp","nocrits","nodmgspread","uncletopia"],"game_id":440,"stv_port":27016,"stv_name":"Uncletopia | San Francisco | 1 | All Maps | STV","players":null},{"server_id":18,"name":"Uncletopia | San Francisco | 2 | All Maps","name_short":"sfo-2","host":"sfo-1.us.uncletopia.com","port":27025,"enabled":true,"region":"us-west","cc":"us","latitude":37.77397,"longitude":-122.4313,"reserved":0,"last_update":"0001-01-01T00:00:00Z","name_a2s":"Uncletopia | San Francisco | 2 | All Maps","protocol":17,"map":"koth_viaduct","folder":"tf","game":"Team Fortress","app_id":440,"player_count":1,"max_players":24,"Bots":0,"server_type":"Dedicated","server_os":"Linux","password":true,"vac":true,"version":"7757534","steam_id":85568392924470000,"keywords":["cp","nocrits","nodmgspread","uncletopia"],"game_id":440,"stv_port":27026,"stv_name":"Uncletopia | San Francisco | 2 | All Maps | STV","players":[{"user_id":29,"name":"Villchip","steam_id":76561198198599982,"connected_time":392000000000,"state":"active","ping":60}]},{"server_id":19,"name":"Uncletopia | San Francisco | 3 | Stopwatch Beta","name_short":"sfo-3","host":"sfo-1.us.uncletopia.com","port":27035,"enabled":true,"region":"us-west","cc":"us","latitude":37.77397,"longitude":-122.4313,"reserved":0,"last_update":"0001-01-01T00:00:00Z","name_a2s":"Uncletopia | San Francisco | 3 | Stopwatch Beta","protocol":17,"map":"pl_borneo","folder":"tf","game":"Team Fortress","app_id":440,"player_count":0,"max_players":24,"Bots":0,"server_type":"Dedicated","server_os":"Linux","password":true,"vac":true,"version":"7757534","steam_id":85568392924742824,"keywords":["nocrits","nodmgspread","payload","uncletopia"],"game_id":440,"stv_port":27036,"stv_name":"Uncletopia | San Francisco | 3 | Stopwatch Beta | STV","players":null},{"server_id":20,"name":"Uncletopia | San Francisco | 4 | Community","name_short":"sfo-4","host":"sfo-1.us.uncletopia.com","port":27045,"enabled":true,"region":"us-west","cc":"us","latitude":37.77397,"longitude":-122.4313,"reserved":0,"last_update":"0001-01-01T00:00:00Z","name_a2s":"Uncletopia | San Francisco | 4 | Community","protocol":17,"map":"workshop/pl_highwood_b13.ugc1769496557","folder":"tf","game":"Team Fortress","app_id":440,"player_count":0,"max_players":24,"Bots":0,"server_type":"Dedicated","server_os":"Linux","password":true,"vac":true,"version":"7757534","steam_id":85568392924742826,"keywords":["nocrits","nodmgspread","payload","uncletopia"],"game_id":440,"stv_port":27046,"stv_name":"Uncletopia | San Francisco | 4 | Community | STV","players":null},{"server_id":141,"name":"Uncletopia | Sydney | 1 | All Maps","name_short":"syd-1","host":"syd-1.au.uncletopia.com","port":27015,"enabled":true,"region":"au","cc":"au","latitude":-33.865143,"longitude":151.2099,"reserved":0,"last_update":"0001-01-01T00:00:00Z","name_a2s":"Uncletopia | Sydney | 1 | All Maps","protocol":17,"map":"pl_frontier_final","folder":"tf","game":"Team Fortress","app_id":440,"player_count":16,"max_players":24,"Bots":0,"server_type":"Dedicated","server_os":"Linux","password":true,"vac":true,"version":"7757534","steam_id":85568392924470001,"keywords":["nocrits","nodmgspread","payload","uncletopia"],"game_id":440,"stv_port":27016,"stv_name":"Uncletopia | Sydney | 1 | All Maps | STV","players":[{"user_id":378,"name":"The Feared","steam_id":76561198380825547,"connected_time":2031000000000,"state":"active","ping":92},{"user_id":384,"name":"CouldBeKarlos","steam_id":76561198956180767,"connected_time":1693000000000,"state":"active","ping":48},{"user_id":400,"name":"ree boy","steam_id":76561199024189820,"connected_time":268000000000,"state":"active","ping":83},{"user_id":396,"name":"monka","steam_id":76561199206182584,"connected_time":530000000000,"state":"active","ping":54},{"user_id":330,"name":"Jellyfish_kurage","steam_id":76561198425670698,"connected_time":5205000000000,"state":"active","ping":50},{"user_id":365,"name":"MrMuffin16","steam_id":76561198257303774,"connected_time":2961000000000,"state":"active","ping":62},{"user_id":405,"name":"beth.cubitt","steam_id":76561198454733447,"connected_time":5000000000,"state":"spawning","ping":121},{"user_id":401,"name":"dad","steam_id":76561198063032696,"connected_time":223000000000,"state":"active","ping":56},{"user_id":403,"name":"Ol1verT","steam_id":76561199472519495,"connected_time":26000000000,"state":"active","ping":52},{"user_id":404,"name":"Moochaa","steam_id":76561198013314083,"connected_time":25000000000,"state":"spawning","ping":51},{"user_id":406,"name":"doctor morbin' (real)","steam_id":76561199365241695,"connected_time":4000000000,"state":"spawning","ping":131},{"user_id":407,"name":"lemonade_lavender","steam_id":76561198074273483,"connected_time":4000000000,"state":"spawning","ping":50},{"user_id":380,"name":"Patadam","steam_id":76561198143786902,"connected_time":2014000000000,"state":"active","ping":96},{"user_id":340,"name":"DragRiper","steam_id":76561198050917553,"connected_time":4458000000000,"state":"active","ping":60},{"user_id":394,"name":"Hona","steam_id":76561198221809496,"connected_time":868000000000,"state":"active","ping":53},{"user_id":387,"name":"( ͡° ͜ʖ ͡°)","steam_id":76561199262196710,"connected_time":1140000000000,"state":"active","ping":42}]},{"server_id":123,"name":"Uncletopia | Sydney | 2 | All Maps","name_short":"syd-2","host":"syd-1.au.uncletopia.com","port":27025,"enabled":true,"region":"au","cc":"au","latitude":-33.865143,"longitude":151.2099,"reserved":0,"last_update":"0001-01-01T00:00:00Z","name_a2s":"Uncletopia | Sydney | 2 | All Maps","protocol":17,"map":"cp_altitude","folder":"tf","game":"Team Fortress","app_id":440,"player_count":24,"max_players":24,"Bots":0,"server_type":"Dedicated","server_os":"Linux","password":true,"vac":true,"version":"7757534","steam_id":85568392924470002,"keywords":["cp","nocrits","nodmgspread","uncletopia"],"game_id":440,"stv_port":27026,"stv_name":"Uncletopia | Sydney | 2 | All Maps | STV","players":[{"user_id":142,"name":"Crimson Aurora","steam_id":76561198157492747,"connected_time":2435000000000,"state":"active","ping":106},{"user_id":151,"name":"ginemenasaurus","steam_id":76561198025225448,"connected_time":1808000000000,"state":"active","ping":76},{"user_id":169,"name":"Almond_Robin","steam_id":76561198823996617,"connected_time":1493000000000,"state":"active","ping":76},{"user_id":150,"name":"scout tf2","steam_id":76561198251386932,"connected_time":1834000000000,"state":"active","ping":66},{"user_id":175,"name":"sn0m","steam_id":76561198002547701,"connected_time":1060000000000,"state":"active","ping":97},{"user_id":177,"name":"Coffee","steam_id":76561198008865459,"connected_time":782000000000,"state":"active","ping":65},{"user_id":173,"name":"Just Brando","steam_id":76561198914415738,"connected_time":1196000000000,"state":"active","ping":58},{"user_id":155,"name":"Geenobe","steam_id":76561198112874802,"connected_time":1760000000000,"state":"active","ping":58},{"user_id":153,"name":"a loaf of bread","steam_id":76561198206424961,"connected_time":1797000000000,"state":"active","ping":65},{"user_id":178,"name":"Frog Friend","steam_id":76561198054505772,"connected_time":442000000000,"state":"active","ping":62},{"user_id":179,"name":"Piklz","steam_id":76561198043384139,"connected_time":328000000000,"state":"active","ping":48},{"user_id":166,"name":"EdunWander","steam_id":76561198186890658,"connected_time":1576000000000,"state":"active","ping":69},{"user_id":170,"name":"Stubborn Sheepcow","steam_id":76561198065334258,"connected_time":1483000000000,"state":"active","ping":106},{"user_id":176,"name":"ominousbystander","steam_id":76561198121072866,"connected_time":860000000000,"state":"active","ping":62},{"user_id":159,"name":"skateboarding maid enjoyer","steam_id":76561198150293480,"connected_time":1710000000000,"state":"active","ping":60},{"user_id":180,"name":"invidia","steam_id":76561198096251579,"connected_time":316000000000,"state":"active","ping":89},{"user_id":181,"name":"Lloydy","steam_id":76561198142971098,"connected_time":255000000000,"state":"active","ping":68},{"user_id":161,"name":"boys without borders","steam_id":76561198132937542,"connected_time":1708000000000,"state":"active","ping":62},{"user_id":182,"name":"now's the time to invest","steam_id":76561198223331996,"connected_time":199000000000,"state":"active","ping":83},{"user_id":183,"name":"wombraider","steam_id":76561199375834537,"connected_time":196000000000,"state":"active","ping":123},{"user_id":164,"name":"freek","steam_id":76561198406237673,"connected_time":1640000000000,"state":"active","ping":58},{"user_id":184,"name":"A Spaceman","steam_id":76561198400378180,"connected_time":186000000000,"state":"active","ping":50},{"user_id":174,"name":"*Blows Nose Loudly*","steam_id":76561198049666148,"connected_time":1082000000000,"state":"active","ping":52},{"user_id":172,"name":"umberdresser","steam_id":76561198076598436,"connected_time":1418000000000,"state":"active","ping":64}]},{"server_id":395,"name":"Uncletopia | Sydney | 3 | All Maps","name_short":"syd-3","host":"syd-1.au.uncletopia.com","port":27035,"enabled":true,"region":"au","cc":"au","latitude":-33.865143,"longitude":151.2099,"reserved":0,"last_update":"0001-01-01T00:00:00Z","name_a2s":"Uncletopia | Sydney | 3 | All Maps","protocol":17,"map":"cp_snakewater_final1","folder":"tf","game":"Team Fortress","app_id":440,"player_count":0,"max_players":24,"Bots":0,"server_type":"Dedicated","server_os":"Linux","password":true,"vac":true,"version":"7757534","steam_id":85568392925194467,"keywords":["cp","nocrits","nodmgspread","uncletopia"],"game_id":440,"stv_port":27036,"stv_name":"Uncletopia | Sydney | 3 | All Maps | STV","players":null},{"server_id":396,"name":"Uncletopia | Sydney | 4 | All Maps","name_short":"syd-4","host":"syd-1.au.uncletopia.com","port":27045,"enabled":true,"region":"au","cc":"au","latitude":-33.865143,"longitude":151.2099,"reserved":0,"last_update":"0001-01-01T00:00:00Z","name_a2s":"Uncletopia | Sydney | 4 | All Maps","protocol":17,"map":"koth_lakeside_final","folder":"tf","game":"Team Fortress","app_id":440,"player_count":0,"max_players":24,"Bots":0,"server_type":"Dedicated","server_os":"Linux","password":true,"vac":true,"version":"7757534","steam_id":85568392925397958,"keywords":["cp","nocrits","nodmgspread","uncletopia"],"game_id":440,"stv_port":27046,"stv_name":"Uncletopia | Sydney | 4 | All Maps | STV","players":null},{"server_id":58,"name":"Uncletopia | Sydney | 5 | Stopwatch Beta","name_short":"syd-5","host":"syd-1.au.uncletopia.com","port":27055,"enabled":true,"region":"au","cc":"au","latitude":-33.865143,"longitude":151.2099,"reserved":0,"last_update":"0001-01-01T00:00:00Z","name_a2s":"Uncletopia | Sydney | 5 | Stopwatch Beta","protocol":17,"map":"koth_lakeside_final","folder":"tf","game":"Team Fortress","app_id":440,"player_count":0,"max_players":24,"Bots":0,"server_type":"Dedicated","server_os":"Linux","password":true,"vac":true,"version":"7757534","steam_id":85568392925397959,"keywords":["cp","nocrits","nodmgspread","uncletopia"],"game_id":440,"stv_port":27056,"stv_name":"Uncletopia | Sydney | 5 | Stopwatch Beta | STV","players":null},{"server_id":59,"name":"Uncletopia | Sydney | 6 | Community","name_short":"syd-6","host":"syd-1.au.uncletopia.com","port":27065,"enabled":true,"region":"au","cc":"au","latitude":-33.865143,"longitude":151.2099,"reserved":0,"last_update":"0001-01-01T00:00:00Z","name_a2s":"Uncletopia | Sydney | 6 | Community","protocol":17,"map":"cp_sunshine","folder":"tf","game":"Team Fortress","app_id":440,"player_count":0,"max_players":24,"Bots":0,"server_type":"Dedicated","server_os":"Linux","password":true,"vac":true,"version":"7757534","steam_id":85568392925397960,"keywords":["cp","nocrits","nodmgspread","uncletopia"],"game_id":440,"stv_port":27066,"stv_name":"Uncletopia | Sydney | 6 | Community | STV","players":null},{"server_id":49,"name":"Uncletopia | Warsaw | 1 | All Maps","name_short":"waw-1","host":"waw-1.pl.uncletopia.com","port":27015,"enabled":true,"region":"eu","cc":"pl","latitude":52.2297,"longitude":21.017532,"reserved":0,"last_update":"0001-01-01T00:00:00Z","name_a2s":"","protocol":0,"map":"","folder":"","game":"","app_id":0,"player_count":0,"max_players":0,"Bots":0,"server_type":"","server_os":"","password":false,"vac":false,"version":"","steam_id":0,"keywords":null,"game_id":0,"stv_port":0,"stv_name":"","players":null},{"server_id":50,"name":"Uncletopia | Warsaw | 2 | All Maps","name_short":"waw-2","host":"waw-1.pl.uncletopia.com","port":27025,"enabled":true,"region":"eu","cc":"pl","latitude":52.2297,"longitude":21.017532,"reserved":0,"last_update":"0001-01-01T00:00:00Z","name_a2s":"Uncletopia | Warsaw | 2 | All Maps","protocol":17,"map":"cp_process_final","folder":"tf","game":"Team Fortress","app_id":440,"player_count":0,"max_players":24,"Bots":0,"server_type":"Dedicated","server_os":"Linux","password":true,"vac":true,"version":"7757534","steam_id":85568392925397851,"keywords":["cp","nocrits","nodmgspread","uncletopia"],"game_id":440,"stv_port":27026,"stv_name":"Uncletopia | Warsaw | 2 | All Maps | STV","players":null},{"server_id":51,"name":"Uncletopia | Warsaw | 3 | All Maps","name_short":"waw-3","host":"waw-1.pl.uncletopia.com","port":27035,"enabled":true,"region":"eu","cc":"pl","latitude":52.2297,"longitude":21.017532,"reserved":0,"last_update":"0001-01-01T00:00:00Z","name_a2s":"Uncletopia | Warsaw | 3 | All Maps","protocol":17,"map":"pl_barnblitz","folder":"tf","game":"Team Fortress","app_id":440,"player_count":0,"max_players":24,"Bots":0,"server_type":"Dedicated","server_os":"Linux","password":true,"vac":true,"version":"7757534","steam_id":85568392925397852,"keywords":["nocrits","nodmgspread","payload","uncletopia"],"game_id":440,"stv_port":27036,"stv_name":"Uncletopia | Warsaw | 3 | All Maps | STV","players":null},{"server_id":52,"name":"Uncletopia | Warsaw | 4 | All Maps","name_short":"waw-4","host":"waw-1.pl.uncletopia.com","port":27045,"enabled":true,"region":"eu","cc":"pl","latitude":52.2297,"longitude":21.017532,"reserved":0,"last_update":"0001-01-01T00:00:00Z","name_a2s":"Uncletopia | Warsaw | 4 | All Maps","protocol":17,"map":"pl_snowycoast","folder":"tf","game":"Team Fortress","app_id":440,"player_count":0,"max_players":24,"Bots":0,"server_type":"Dedicated","server_os":"Linux","password":true,"vac":true,"version":"7757534","steam_id":85568392925397853,"keywords":["nocrits","nodmgspread","payload","uncletopia"],"game_id":440,"stv_port":27046,"stv_name":"Uncletopia | Warsaw | 4 | All Maps | STV","players":null},{"server_id":53,"name":"Uncletopia | Warsaw | 5 | Stopwatch Beta","name_short":"waw-5","host":"waw-1.pl.uncletopia.com","port":27055,"enabled":true,"region":"eu","cc":"pl","latitude":52.2297,"longitude":21.017532,"reserved":0,"last_update":"0001-01-01T00:00:00Z","name_a2s":"Uncletopia | Warsaw | 5 | Stopwatch Beta","protocol":17,"map":"pl_barnblitz","folder":"tf","game":"Team Fortress","app_id":440,"player_count":0,"max_players":24,"Bots":0,"server_type":"Dedicated","server_os":"Linux","password":true,"vac":true,"version":"7757534","steam_id":85568392925397854,"keywords":["nocrits","nodmgspread","payload","uncletopia"],"game_id":440,"stv_port":27056,"stv_name":"Uncletopia | Warsaw | 5 | Stopwatch Beta | STV","players":null},{"server_id":54,"name":"Uncletopia | Warsaw | 6 | Community","name_short":"waw-6","host":"waw-1.pl.uncletopia.com","port":27065,"enabled":true,"region":"eu","cc":"pl","latitude":52.2297,"longitude":21.017532,"reserved":0,"last_update":"0001-01-01T00:00:00Z","name_a2s":"Uncletopia | Warsaw | 6 | Community","protocol":17,"map":"pl_swiftwater_final1","folder":"tf","game":"Team Fortress","app_id":440,"player_count":0,"max_players":24,"Bots":0,"server_type":"Dedicated","server_os":"Linux","password":true,"vac":true,"version":"7757534","steam_id":85568392925397856,"keywords":["nocrits","nodmgspread","payload","uncletopia"],"game_id":440,"stv_port":27066,"stv_name":"Uncletopia | Warsaw | 6 | Community | STV","players":null}]}