{"status":true,"message":"","result":[{"server_id":9,"name":"Uncletopia | Atlanta | 1 | All Maps","name_short":"atl-1","host":"atl-1.us.uncletopia.com","port":27015,"enabled":true,"region":"us-east","cc":"us","latitude":33.753746,"longitude":-84.38633,"reserved":0,"last_update":"0001-01-01T00:00:00Z","name_a2s":"Uncletopia | Atlanta | 1 | All Maps","protocol":17,"map":"ctf_2fort","folder":"tf","game":"Team Fortress","app_id":440,"player_count":16,"max_players":24,"Bots":0,"server_type":"Dedicated","server_os":"Linux","password":true,"vac":true,"version":"7757534","steam_id":85568392924469982,"keywords":["ctf","nocrits","nodmgspread","uncletopia"],"game_id":440,"stv_port":27016,"stv_name":"Uncletopia | Atlanta | 1 | All Maps | STV","players":[{"user_id":229,"name":"gettysburg","steam_id":76561198016157051,"connected_time":3698000000000,"state":"active","ping":59},{"user_id":290,"name":"hunky dory","steam_id":76561198030422254,"connected_time":251000000000,"state":"active","ping":79},{"user_id":293,"name":"trilobita","steam_id":76561198428215606,"connected_time":199000000000,"state":"active","ping":61},{"user_id":288,"name":"totoro","steam_id":76561198210420871,"connected_time":295000000000,"state":"active","ping":59},{"user_id":286,"name":"Mikael_01","steam_id":76561199080253129,"connected_time":361000000000,"state":"active","ping":179},{"user_id":231,"name":"Carrot^7","steam_id":76561198060034109,"connected_time":3658000000000,"state":"active","ping":83},{"user_id":297,"name":"destroymelol785","steam_id":76561198901492920,"connected_time":28000000000,"state":"spawning","ping":258},{"user_id":285,"name":"DocRabbot","steam_id":76561198073212975,"connected_time":390000000000,"state":"active","ping":75},{"user_id":266,"name":"indi","steam_id":76561198045917538,"connected_time":1992000000000,"state":"active","ping":60},{"user_id":289,"name":"king dedede","steam_id":76561198965562679,"connected_time":291000000000,"state":"active","ping":69},{"user_id":253,"name":"lwyr","steam_id":76561198007982579,"connected_time":2750000000000,"state":"active","ping":50},{"user_id":278,"name":"Spy_Is_Pye","steam_id":76561199439622967,"connected_time":937000000000,"state":"active","ping":69},{"user_id":274,"name":"Genetic Komodo","steam_id":76561198174806758,"connected_time":1153000000000,"state":"active","ping":59},{"user_id":296,"name":"vinny6","steam_id":76561198386735728,"connected_time":86000000000,"state":"active","ping":55},{"user_id":279,"name":"William Wallace","steam_id":76561199343316814,"connected_time":932000000000,"state":"active","ping":60},{"user_id":228,"name":"3fu23141wv6fn46y","steam_id":76561199383789041,"connected_time":3757000000000,"state":"active","ping":175}]},{"server_id":400,"name":"Uncletopia | Atlanta | 3 | Stopwatch Beta","name_short":"atl-3","host":"atl-1.us.uncletopia.com","port":27035,"enabled":true,"region":"us-east","cc":"us","latitude":33.753746,"longitude":-84.38633,"reserved":0,"last_update":"0001-01-01T00:00:00Z","name_a2s":"Uncletopia | Atlanta | 3 | Stopwatch Beta","protocol":17,"map":"pl_upward","folder":"tf","game":"Team Fortress","app_id":440,"player_count":0,"max_players":24,"Bots":0,"server_type":"Dedicated","server_os":"Linux","password":true,"vac":true,"version":"7757534","steam_id":85568392924515187,"keywords":["nocrits","nodmgspread","payload","uncletopia"],"game_id":440,"stv_port":27036,"stv_name":"Uncletopia | Atlanta | 3 | Stopwatch Beta | STV","players":null},{"server_id":401,"name":"Uncletopia | Atlanta | 4 | No Payload","name_short":"atl-4","host":"atl-1.us.uncletopia.com","port":27045,"enabled":true,"region":"us-east","cc":"us","latitude":33.753746,"longitude":-84.38633,"reserved":0,"last_update":"0001-01-01T00:00:00Z","name_a2s":"Uncletopia | Atlanta | 4 | No Payload","protocol":17,"map":"pl_pier","folder":"tf","game":"Team Fortress","app_id":440,"player_count":0,"max_players":24,"Bots":0,"server_type":"Dedicated","server_os":"Linux","password":true,"vac":true,"version":"7723704","steam_id":85568392924515188,"keywords":["nocrits","nodmgspread","payload","uncletopia"],"game_id":440,"stv_port":27046,"stv_name":"Uncletopia | Atlanta | 4 | No Payload | STV","players":null},{"server_id":2,"name":"Uncletopia | Chicago | 1 | All Maps","name_short":"chi-1","host":"chi-1.us.uncletopia.com","port":27015,"enabled":true,"region":"us-central","cc":"us","latitude":41.881832,"longitude":-87.62318,"reserved":0,"last_update":"0001-01-01T00:00:00Z","name_a2s":"Uncletopia | Chicago | 1 | All Maps","protocol":17,"map":"pl_upward","folder":"tf","game":"Team Fortress","app_id":440,"player_count":24,"max_players":24,"Bots":0,"server_type":"Dedicated","server_os":"Linux","password":true,"vac":true,"version":"7757534","steam_id":85568392924469984,"keywords":["nocrits","nodmgspread","payload","uncletopia"],"game_id":440,"stv_port":27016,"stv_name":"Uncletopia | Chicago | 1 | All Maps | STV","players":[{"user_id":277,"name":"Banio Kaioie","steam_id":76561198153295874,"connected_time":261000000000,"state":"active","ping":115},{"user_id":263,"name":"crs22","steam_id":76561198120149196,"connected_time":391000000000,"state":"active","ping":53},{"user_id":266,"name":"AER0.exe","steam_id":76561198062940197,"connected_time":374000000000,"state":"active","ping":52},{"user_id":56,"name":"blob","steam_id":76561198122375328,"connected_time":11810000000000,"state":"active","ping":64},{"user_id":279,"name":"TeeTree","steam_id":76561198862307874,"connected_time":123000000000,"state":"active","ping":60},{"user_id":274,"name":"ouijajuice","steam_id":76561198207325057,"connected_time":306000000000,"state":"active","ping":58},{"user_id":247,"name":"The Announcer's Feet","steam_id":76561199443456893,"connected_time":2163000000000,"state":"active","ping":88},{"user_id":181,"name":"Loyal Light","steam_id":76561198217338507,"connected_time":5532000000000,"state":"active","ping":74},{"user_id":256,"name":"Daksuki","steam_id":76561198084127751,"connected_time":1600000000000,"state":"active","ping":67},{"user_id":251,"name":"Reggievich","steam_id":76561198173252835,"connected_time":1996000000000,"state":"active","ping":60},{"user_id":222,"name":"Coffee with a Stranger","steam_id":76561198307422313,"connected_time":4463000000000,"state":"active","ping":75},{"user_id":264,"name":"Astoriae!","steam_id":76561199090168858,"connected_time":388000000000,"state":"active","ping":76},{"user_id":50,"name":"‚ô• Femboy‚ô•Ventily ‚ô•","steam_id":76561198157260335,"connected_time":12428000000000,"state":"active","ping":59},{"user_id":268,"name":"IAmAProfesonal","steam_id":76561199171858953,"connected_time":349000000000,"state":"active","ping":49},{"user_id":260,"name":"Fuegan Ra","steam_id":76561198287923849,"connected_time":1383000000000,"state":"active","ping":45},{"user_id":269,"name":"Roken","steam_id":76561198037836282,"connected_time":348000000000,"state":"active","ping":77},{"user_id":249,"name":"Donnie Blasto","steam_id":76561198043432005,"connected_time":2057000000000,"state":"active","ping":52},{"user_id":265,"name":"Dokki","steam_id":76561198355935693,"connected_time":388000000000,"state":"active","ping":49},{"user_id":270,"name":"Spectre","steam_id":76561198025652246,"connected_time":343000000000,"state":"active","ping":32},{"user_id":177,"name":"R2D28MYFOOD","steam_id":76561198124315872,"connected_time":5651000000000,"state":"active","ping":86},{"user_id":271,"name":"‚òÜ dj_snasofficial ‚òÜ","steam_id":76561199135158570,"connected_time":341000000000,"state":"active","ping":92},{"user_id":252,"name":"HEAVYWHIP","steam_id":76561198188719767,"connected_time":1986000000000,"state":"active","ping":68},{"user_id":257,"name":"Ripheart","steam_id":76561198089661561,"connected_time":1583000000000,"state":"active","ping":43},{"user_id":275,"name":"chaffy","steam_id":76561198021754567,"connected_time":293000000000,"state":"active","ping":57}]},{"server_id":106,"name":"Uncletopia | Chicago | 2 | All Maps","name_short":"chi-2","host":"chi-1.us.uncletopia.com","port":27025,"enabled":true,"region":"us-central","cc":"us","latitude":41.881832,"longitude":-87.62318,"reserved":0,"last_update":"0001-01-01T00:00:00Z","name_a2s":"Uncletopia | Chicago | 2 | All Maps","protocol":17,"map":"cp_dustbowl","folder":"tf","game":"Team Fortress","app_id":440,"player_count":24,"max_players":24,"Bots":0,"server_type":"Dedicated","server_os":"Linux","password":true,"vac":true,"version":"7757534","steam_id":85568392924469985,"keywords":["cp","nocrits","nodmgspread","uncletopia"],"game_id":440,"stv_port":27026,"stv_name":"Uncletopia | Chicago | 2 | All Maps | STV","players":[{"user_id":373,"name":"Iggy Dogg","steam_id":76561198059602545,"connected_time":884000000000,"state":"active","ping":53},{"user_id":380,"name":"rlty","steam_id":76561198009395055,"connected_time":343000000000,"state":"active","ping":61},{"user_id":334,"name":"Try Gardening","steam_id":76561198120311340,"connected_time":3486000000000,"state":"active","ping":48},{"user_id":377,"name":"Quentin","steam_id":76561198032941413,"connected_time":662000000000,"state":"active","ping":82},{"user_id":357,"name":"Mrcheesey","steam_id":76561199078252493,"connected_time":1896000000000,"state":"active","ping":97},{"user_id":378,"name":"Nitrodex1","steam_id":76561198079618159,"connected_time":653000000000,"state":"active","ping":88},{"user_id":381,"name":"hashmap","steam_id":76561198043794014,"connected_time":320000000000,"state":"active","ping":48},{"user_id":318,"name":"xiphoidar","steam_id":76561198146044049,"connected_time":5516000000000,"state":"active","ping":69},{"user_id":359,"name":"The fish of doom","steam_id":76561198049069677,"connected_time":1843000000000,"state":"active","ping":54},{"user_id":354,"name":"Awildrock","steam_id":76561198040401086,"connected_time":1979000000000,"state":"active","ping":84},{"user_id":207,"name":"Blart","steam_id":76561198101234582,"connected_time":13820000000000,"state":"active","ping":92},{"user_id":348,"name":"Iroquois Pliskin","steam_id":76561198056704533,"connected_time":3143000000000,"state":"active","ping":98},{"user_id":360,"name":"pumba","steam_id":76561198207881077,"connected_time":1827000000000,"state":"active","ping":86},{"user_id":361,"name":"veemoment","steam_id":76561198003467221,"connected_time":1823000000000,"state":"active","ping":46},{"user_id":385,"name":"Spare(8)Ball","steam_id":76561197982432995,"connected_time":191000000000,"state":"active","ping":100},{"user_id":343,"name":"Quark","steam_id":76561198328155605,"connected_time":3346000000000,"state":"active","ping":62},{"user_id":383,"name":"Wingz","steam_id":76561198135885865,"connected_time":241000000000,"state":"active","ping":55},{"user_id":362,"name":"ghostyAlchemist","steam_id":76561198448078291,"connected_time":1821000000000,"state":"active","ping":72},{"user_id":363,"name":"FiddyFoMike","steam_id":76561198057072581,"connected_time":1820000000000,"state":"active","ping":93},{"user_id":371,"name":"Lennu","steam_id":76561198060730154,"connected_time":1325000000000,"state":"active","ping":76},{"user_id":384,"name":"Manu","steam_id":76561198145330934,"connected_time":238000000000,"state":"active","ping":130},{"user_id":379,"name":"Obamacare","steam_id":76561198018894553,"connected_time":645000000000,"state":"active","ping":101},{"user_id":386,"name":"Deep Peepus","steam_id":76561198205395757,"connected_time":160000000000,"state":"active","ping":100},{"user_id":369,"name":"footoftheday","steam_id":76561198052712449,"connected_time":1575000000000,"state":"active","ping":65}]},{"server_id":402,"name":"Uncletopia | Chicago | 3 | All Maps","name_short":"chi-3","host":"chi-1.us.uncletopia.com","port":27035,"enabled":true,"region":"us-central","cc":"us","latitude":41.881832,"longitude":-87.62318,"reserved":0,"last_update":"0001-01-01T00:00:00Z","name_a2s":"Uncletopia | Chicago | 3 | All Maps","protocol":17,"map":"pl_badwater","folder":"tf","game":"Team Fortress","app_id":440,"player_count":24,"max_players":24,"Bots":0,"server_type":"Dedicated","server_os":"Linux","password":true,"vac":true,"version":"7757534","steam_id":85568392924515191,"keywords":["nocrits","nodmgspread","payload","uncletopia"],"game_id":440,"stv_port":27036,"stv_name":"Uncletopia | Chicago | 3 | All Maps | STV","players":[{"user_id":134,"name":"Underwear Monster","steam_id":76561198175742775,"connected_time":2539000000000,"state":"active","ping":113},{"user_id":151,"name":"flexer_2000","steam_id":76561198084422657,"connected_time":1511000000000,"state":"active","ping":90},{"user_id":156,"name":"yomokha","steam_id":76561198063175935,"connected_time":1184000000000,"state":"active","ping":73},{"user_id":136,"name":"Duckywinner","steam_id":76561198254828139,"connected_time":2451000000000,"state":"active","ping":88},{"user_id":81,"name":"Sapphireblitz","steam_id":76561198272635379,"connected_time":6258000000000,"state":"active","ping":84},{"user_id":158,"name":"The Depressed John","steam_id":76561198148193895,"connected_time":1104000000000,"state":"active","ping":88},{"user_id":161,"name":"Smittywerbenjager-manjenson","steam_id":76561198067060742,"connected_time":843000000000,"state":"active","ping":62},{"user_id":164,"name":"ze","steam_id":76561198041348890,"connected_time":339000000000,"state":"active","ping":46},{"user_id":162,"name":"Cantaloaf","steam_id":76561198222164132,"connected_time":837000000000,"state":"active","ping":101},{"user_id":152,"name":"SVVZ","steam_id":76561198383846940,"connected_time":1488000000000,"state":"active","ping":181},{"user_id":165,"name":"Albino Jellyfish","steam_id":76561198208561097,"connected_time":319000000000,"state":"active","ping":73},{"user_id":149,"name":"deech","steam_id":76561198066429444,"connected_time":1864000000000,"state":"active","ping":69},{"user_id":155,"name":"Female Gamer","steam_id":76561199366482682,"connected_time":1204000000000,"state":"active","ping":126},{"user_id":146,"name":"sly1","steam_id":76561198049014977,"connected_time":1918000000000,"state":"active","ping":62},{"user_id":118,"name":"BangusHonkle","steam_id":76561198218887511,"connected_time":4499000000000,"state":"active","ping":90},{"user_id":137,"name":"g00bur","steam_id":76561197993622520,"connected_time":2416000000000,"state":"active","ping":73},{"user_id":131,"name":"Gorg 2","steam_id":76561198057259895,"connected_time":3379000000000,"state":"active","ping":60},{"user_id":147,"name":"twitch.tv/rustyorion","steam_id":76561198439186347,"connected_time":1882000000000,"state":"active","ping":105},{"user_id":163,"name":"8core","steam_id":76561198131163454,"connected_time":506000000000,"state":"active","ping":76},{"user_id":159,"name":"chicanery","steam_id":76561198081654907,"connected_time":992000000000,"state":"active","ping":76},{"user_id":139,"name":"THE GOD KING","steam_id":76561198300349976,"connected_time":2374000000000,"state":"active","ping":81},{"user_id":29,"name":"heavy nft","steam_id":76561198068113077,"connected_time":8683000000000,"state":"active","ping":112},{"user_id":132,"name":"Cherri.mp4","steam_id":76561198867419734,"connected_time":3330000000000,"state":"active","ping":60},{"user_id":142,"name":"Samus","steam_id":76561198121933439,"connected_time":2286000000000,"state":"active","ping":85}]},{"server_id":403,"name":"Uncletopia | Chicago | 4 | All Maps","name_short":"chi-4","host":"chi-1.us.uncletopia.com","port":27045,"enabled":true,"region":"us-central","cc":"us","latitude":41.881832,"longitude":-87.62318,"reserved":0,"last_update":"0001-01-01T00:00:00Z","name_a2s":"Uncletopia | Chicago | 4 | All Maps","protocol":17,"map":"pl_pier","folder":"tf","game":"Team Fortress","app_id":440,"player_count":24,"max_players":24,"Bots":0,"server_type":"Dedicated","server_os":"Linux","password":true,"vac":true,"version":"7757534","steam_id":85568392924515193,"keywords":["nocrits","nodmgspread","payload","uncletopia"],"game_id":440,"stv_port":27046,"stv_name":"Uncletopia | Chicago | 4 | All Maps | STV","players":[{"user_id":141,"name":"Quietsharp","steam_id":76561198277968438,"connected_time":1017000000000,"state":"active","ping":106},{"user_id":153,"name":"Vision Spiya","steam_id":76561198095923905,"connected_time":390000000000,"state":"active","ping":52},{"user_id":125,"name":"Icaras","steam_id":76561198416724843,"connected_time":1970000000000,"state":"active","ping":147},{"user_id":126,"name":"freaky lil buttumrump","steam_id":76561198314221897,"connected_time":1969000000000,"state":"active","ping":103},{"user_id":155,"name":"fridolin","steam_id":76561198005806915,"connected_time":381000000000,"state":"active","ping":60},{"user_id":133,"name":"Green Icicle","steam_id":76561198069624529,"connected_time":1641000000000,"state":"active","ping":85},{"user_id":139,"name":"mio","steam_id":76561198239286750,"connected_time":1221000000000,"state":"active","ping":61},{"user_id":160,"name":"Tusk","steam_id":76561199066977033,"connected_time":152000000000,"state":"active","ping":68},{"user_id":142,"name":"parm spagert with bassil","steam_id":76561198047476380,"connected_time":1006000000000,"state":"active","ping":72},{"user_id":127,"name":"Baby Llama","steam_id":76561198407155682,"connected_time":1969000000000,"state":"active","ping":102},{"user_id":156,"name":"Tyrone","steam_id":76561198189429665,"connected_time":374000000000,"state":"active","ping":71},{"user_id":130,"name":"tsaide","steam_id":76561198384120999,"connected_time":1773000000000,"state":"active","ping":72},{"user_id":151,"name":"·πΩ‚ßâ cookie","steam_id":76561197998884823,"connected_time":746000000000,"state":"active","ping":60},{"user_id":140,"name":"judesro","steam_id":76561198352244888,"connected_time":1120000000000,"state":"active","ping":71},{"user_id":154,"name":"Nephs","steam_id":76561198136763403,"connected_time":385000000000,"state":"active","ping":78},{"user_id":132,"name":"b2023afy","steam_id":76561198084208649,"connected_time":1691000000000,"state":"active","ping":91},{"user_id":128,"name":"creeeeeee","steam_id":76561198392539722,"connected_time":1965000000000,"state":"active","ping":83},{"user_id":143,"name":"TheTruthOfTheCessationOfDukkha","steam_id":76561198214370515,"connected_time":1003000000000,"state":"active","ping":71},{"user_id":157,"name":"wahooka","steam_id":76561197981211922,"connected_time":374000000000,"state":"active","ping":73},{"user_id":121,"name":"SyberBunn","steam_id":76561198287851222,"connected_time":2208000000000,"state":"active","ping":77},{"user_id":97,"name":"Tom!","steam_id":76561198110937717,"connected_time":3912000000000,"state":"active","ping":73},{"user_id":152,"name":"Candy Sparkles","steam_id":76561198126871264,"connected_time":474000000000,"state":"active","ping":89},{"user_id":119,"name":"moe5x","steam_id":76561198316877833,"connected_time":2377000000000,"state":"active","ping":100},{"user_id":159,"name":"wobba wobba","steam_id":76561198249206656,"connected_time":218000000000,"state":"active","ping":64}]},{"server_id":36,"name":"Uncletopia | Chicago | 5 | All Maps","name_short":"chi-5","host":"chi-2.us.uncletopia.com","port":27015,"enabled":true,"region":"us-central","cc":"us","latitude":41.881832,"longitude":-87.62318,"reserved":0,"last_update":"0001-01-01T00:00:00Z","name_a2s":"Uncletopia | Chicago | 5 | All Maps","protocol":17,"map":"pl_borneo","folder":"tf","game":"Team Fortress","app_id":440,"player_count":1,"max_players":24,"Bots":0,"server_type":"Dedicated","server_os":"Linux","password":true,"vac":true,"version":"7757534","steam_id":85568392924866362,"keywords":["nocrits","nodmgspread","payload","uncletopia"],"game_id":440,"stv_port":27016,"stv_name":"Uncletopia | Chicago | 5 | All Maps | STV","players":[{"user_id":12,"name":"XenoGolem","steam_id":76561199122187780,"connected_time":159000000000,"state":"active","ping":86}]},{"server_id":37,"name":"Uncletopia | Chicago | 6 | All Maps","name_short":"chi-6","host":"chi-2.us.uncletopia.com","port":27025,"enabled":true,"region":"us-central","cc":"us","latitude":41.881832,"longitude":-87.62318,"reserved":0,"last_update":"0001-01-01T00:00:00Z","name_a2s":"Uncletopia | Chicago | 6 | All Maps","protocol":17,"map":"koth_viaduct","folder":"tf","game":"Team Fortress","app_id":440,"player_count":0,"max_players":24,"Bots":0,"server_type":"Dedicated","server_os":"Linux","password":true,"vac":true,"version":"7757534","steam_id":85568392924866363,"keywords":["cp","nocrits","nodmgspread","uncletopia"],"game_id":440,"stv_port":27026,"stv_name":"Uncletopia | Chicago | 6 | All Maps | STV","players":null},{"server_id":38,"name":"Uncletopia | Chicago | 7 | Stopwatch Beta","name_short":"chi-7","host":"chi-2.us.uncletopia.com","port":27035,"enabled":true,"region":"us-central","cc":"us","latitude":41.881832,"longitude":-87.62318,"reserved":0,"last_update":"0001-01-01T00:00:00Z","name_a2s":"Uncletopia | Chicago | 7 | Stopwatch Beta","protocol":17,"map":"cp_sunshine","folder":"tf","game":"Team Fortress","app_id":440,"player_count":0,"max_players":24,"Bots":0,"server_type":"Dedicated","server_os":"Linux","password":true,"vac":true,"version":"7757534","steam_id":85568392924866364,"keywords":["cp","nocrits","nodmgspread","uncletopia"],"game_id":440,"stv_port":27036,"stv_name":"Uncletopia | Chicago | 7 | Stopwatch Beta | STV","players":null},{"server_id":39,"name":"Uncletopia | Chicago | 8 | Community","name_short":"chi-8","host":"chi-2.us.uncletopia.com","port":27045,"enabled":true,"region":"us-central","cc":"us","latitude":41.881832,"longitude":-87.62318,"reserved":0,"last_update":"0001-01-01T00:00:00Z","name_a2s":"Uncletopia | Chicago | 8 | Community","protocol":17,"map":"pl_pier","folder":"tf","game":"Team Fortress","app_id":440,"player_count":0,"max_players":24,"Bots":0,"server_type":"Dedicated","server_os":"Linux","password":true,"vac":true,"version":"7757534","steam_id":85568392924866365,"keywords":["nocrits","nodmgspread","payload","uncletopia"],"game_id":440,"stv_port":27046,"stv_name":"Uncletopia | Chicago | 8 | Community | STV","players":null},{"server_id":8,"name":"Uncletopia | Dallas | 1 | All Maps","name_short":"dal-1","host":"dal-1.us.uncletopia.com","port":27015,"enabled":true,"region":"us-central","cc":"us","latitude":32.779167,"longitude":-96.80889,"reserved":0,"last_update":"0001-01-01T00:00:00Z","name_a2s":"Uncletopia | Dallas | 1 | All Maps","protocol":17,"map":"cp_powerhouse","folder":"tf","game":"Team Fortress","app_id":440,"player_count":22,"max_players":24,"Bots":0,"server_type":"Dedicated","server_os":"Linux","password":true,"vac":true,"version":"7757534","steam_id":85568392924469986,"keywords":["cp","nocrits","nodmgspread","uncletopia"],"game_id":440,"stv_port":27016,"stv_name":"Uncletopia | Dallas | 1 | All Maps | STV","players":[{"user_id":238,"name":"Brynkiwi","steam_id":76561198052177917,"connected_time":913000000000,"state":"active","ping":88},{"user_id":246,"name":"MerlinTheWizard","steam_id":76561198171472393,"connected_time":209000000000,"state":"active","ping":80},{"user_id":211,"name":"bo scrungulus","steam_id":76561198038036122,"connected_time":2893000000000,"state":"active","ping":75},{"user_id":216,"name":"filthycasual","steam_id":76561199138226238,"connected_time":1761000000000,"state":"active","ping":114},{"user_id":212,"name":"not a spy main (early demo main","steam_id":76561199184617467,"connected_time":2816000000000,"state":"active","ping":99},{"user_id":241,"name":"Pink","steam_id":76561198042140694,"connected_time":602000000000,"state":"active","ping":54},{"user_id":204,"name":"ultra instinct cringe micheal","steam_id":76561198275625984,"connected_time":3317000000000,"state":"active","ping":100},{"user_id":243,"name":"ElBentz","steam_id":76561199059582221,"connected_time":542000000000,"state":"active","ping":83},{"user_id":231,"name":"The Creature","steam_id":76561198166522359,"connected_time":1205000000000,"state":"active","ping":66},{"user_id":220,"name":"Charlie","steam_id":76561198798127908,"connected_time":1667000000000,"state":"active","ping":90},{"user_id":63,"name":"Filthy Hobo","steam_id":76561198174373015,"connected_time":15236000000000,"state":"active","ping":109},{"user_id":236,"name":"FG7","steam_id":76561198381197197,"connected_time":974000000000,"state":"active","ping":101},{"user_id":222,"name":"Pim","steam_id":76561198046050375,"connected_time":1650000000000,"state":"active","ping":96},{"user_id":242,"name":"Flarelo","steam_id":76561198086024407,"connected_time":580000000000,"state":"active","ping":98},{"user_id":178,"name":"ÕìÕìÃùÕôÃ†ÃùÕñÕâÃ•CÕÇÕëÕ¨ÕõÕãÃø","steam_id":76561198423390455,"connected_time":6074000000000,"state":"active","ping":117},{"user_id":227,"name":"Tiko #SaveTF2","steam_id":76561199066864469,"connected_time":1477000000000,"state":"active","ping":61},{"user_id":240,"name":"Foomfa","steam_id":76561198007033616,"connected_time":617000000000,"state":"active","ping":67},{"user_id":202,"name":"doctor sex md","steam_id":76561198150678175,"connected_time":3727000000000,"state":"active","ping":78},{"user_id":247,"name":"Timon's high on crack cocaine!","steam_id":76561198180396430,"connected_time":131000000000,"state":"active","ping":96},{"user_id":181,"name":"Type Three Dabeetus","steam_id":76561198062710038,"connected_time":5904000000000,"state":"active","ping":88},{"user_id":224,"name":"PaD_Ding","steam_id":76561198831202965,"connected_time":1590000000000,"state":"active","ping":170},{"user_id":230,"name":"scrapheap","steam_id":76561198202407087,"connected_time":1225000000000,"state":"active","ping":86}]},{"server_id":108,"name":"Uncletopia | Dallas | 2 | All Maps","name_short":"dal-2","host":"dal-1.us.uncletopia.com","port":27025,"enabled":true,"region":"us-central","cc":"us","latitude":32.779167,"longitude":-96.80889,"reserved":0,"last_update":"0001-01-01T00:00:00Z","name_a2s":"Uncletopia | Dallas | 2 | All Maps","protocol":17,"map":"pl_snowycoast","folder":"tf","game":"Team Fortress","app_id":440,"player_count":24,"max_players":24,"Bots":0,"server_type":"Dedicated","server_os":"Linux","password":true,"vac":true,"version":"7757534","steam_id":85568392924469988,"keywords":["nocrits","nodmgspread","payload","uncletopia"],"game_id":440,"stv_port":27026,"stv_name":"Uncletopia | Dallas | 2 | All Maps | STV","players":[{"user_id":127,"name":"ThunderGunner","steam_id":76561198097721532,"connected_time":4439000000000,"state":"active","ping":75},{"user_id":89,"name":"asterismz","steam_id":76561198271895997,"connected_time":6059000000000,"state":"active","ping":116},{"user_id":130,"name":"THE NUT","steam_id":76561198067813626,"connected_time":4171000000000,"state":"active","ping":95},{"user_id":91,"name":"Wesudo *o*","steam_id":76561198995177194,"connected_time":6016000000000,"state":"active","ping":101},{"user_id":164,"name":"victordead121","steam_id":76561199180843121,"connected_time":1697000000000,"state":"active","ping":99},{"user_id":132,"name":"Rick Assley","steam_id":76561198365019199,"connected_time":4065000000000,"state":"active","ping":85},{"user_id":175,"name":"red yoshi","steam_id":76561198105699187,"connected_time":795000000000,"state":"active","ping":46},{"user_id":161,"name":"Wang of Wall St","steam_id":76561198047460598,"connected_time":1725000000000,"state":"active","ping":99},{"user_id":141,"name":"HOG RIDER","steam_id":76561198298589502,"connected_time":3477000000000,"state":"active","ping":76},{"user_id":129,"name":"Pika","steam_id":76561198068063436,"connected_time":4381000000000,"state":"active","ping":57},{"user_id":177,"name":"Captain Red","steam_id":76561198191587983,"connected_time":718000000000,"state":"active","ping":75},{"user_id":172,"name":"Sup m8","steam_id":76561198081659121,"connected_time":957000000000,"state":"active","ping":59},{"user_id":176,"name":"Cam(era)","steam_id":76561198285054047,"connected_time":744000000000,"state":"active","ping":65},{"user_id":139,"name":"Kervin","steam_id":76561198087832178,"connected_time":3538000000000,"state":"active","ping":50},{"user_id":154,"name":"Justtophat","steam_id":76561198308787175,"connected_time":2796000000000,"state":"active","ping":86},{"user_id":157,"name":"crow","steam_id":76561198046802071,"connected_time":2466000000000,"state":"active","ping":54},{"user_id":178,"name":"SilvaDefault","steam_id":76561198155255282,"connected_time":716000000000,"state":"active","ping":105},{"user_id":180,"name":"I Lead MLB In \"Bats Eaten\"","steam_id":76561198034079853,"connected_time":621000000000,"state":"active","ping":52},{"user_id":179,"name":"stacey's mom","steam_id":76561198395577807,"connected_time":711000000000,"state":"active","ping":76},{"user_id":163,"name":"BoHa","steam_id":76561198209598015,"connected_time":1717000000000,"state":"active","ping":100},{"user_id":160,"name":"Commissar","steam_id":76561198137223253,"connected_time":2059000000000,"state":"active","ping":53},{"user_id":140,"name":"HeroOfTime","steam_id":76561199096218001,"connected_time":3490000000000,"state":"active","ping":83},{"user_id":111,"name":"Zeora","steam_id":76561198799145251,"connected_time":5435000000000,"state":"active","ping":71},{"user_id":174,"name":"Lost","steam_id":76561198025933206,"connected_time":877000000000,"state":"active","ping":61}]},{"server_id":5,"name":"Uncletopia | Frankfurt | 1 | All Maps","name_short":"frk-1","host":"frk-1.de.uncletopia.com","port":27015,"enabled":true,"region":"eu","cc":"de","latitude":50.110924,"longitude":8.682127,"reserved":0,"last_update":"0001-01-01T00:00:00Z","name_a2s":"Uncletopia | Frankfurt | 1 | All Maps","protocol":17,"map":"pl_borneo","folder":"tf","game":"Team Fortress","app_id":440,"player_count":24,"max_players":24,"Bots":0,"server_type":"Dedicated","server_os":"Linux","password":true,"vac":true,"version":"7757534","steam_id":85568392924469989,"keywords":["nocrits","nodmgspread","payload","uncletopia"],"game_id":440,"stv_port":27016,"stv_name":"Uncletopia | Frankfurt | 1 | All Maps | STV","players":[{"user_id":124,"name":"Big Noot","steam_id":76561198057707263,"connected_time":1916000000000,"state":"active","ping":50},{"user_id":123,"name":"Safe Joint","steam_id":76561198017799687,"connected_time":1932000000000,"state":"active","ping":110},{"user_id":159,"name":"Hello","steam_id":76561198084636944,"connected_time":86000000000,"state":"active","ping":55},{"user_id":149,"name":"LxZurk","steam_id":76561198114054978,"connected_time":289000000000,"state":"active","ping":53},{"user_id":150,"name":"Tuga inglesa","steam_id":76561198442803577,"connected_time":281000000000,"state":"active","ping":75},{"user_id":90,"name":"sabaka jebanoia","steam_id":76561198147249160,"connected_time":4763000000000,"state":"active","ping":99},{"user_id":137,"name":"handsome rogue","steam_id":76561198418125543,"connected_time":1119000000000,"state":"active","ping":105},{"user_id":136,"name":"weed fairy","steam_id":76561197998843096,"connected_time":1142000000000,"state":"active","ping":74},{"user_id":88,"name":"posht0 ._.","steam_id":76561198106182078,"connected_time":4830000000000,"state":"active","ping":96},{"user_id":122,"name":"\u003e_\u003c","steam_id":76561198096189399,"connected_time":2075000000000,"state":"active","ping":57},{"user_id":151,"name":"TheOneAndOnlyDinkleberg","steam_id":76561198144862452,"connected_time":260000000000,"state":"active","ping":67},{"user_id":161,"name":"Yuval","steam_id":76561198241802390,"connected_time":38000000000,"state":"active","ping":118},{"user_id":140,"name":"Luke SpyWalker","steam_id":76561198008643276,"connected_time":1080000000000,"state":"active","ping":59},{"user_id":114,"name":"Boki","steam_id":76561198044553351,"connected_time":2977000000000,"state":"active","ping":75},{"user_id":126,"name":":3","steam_id":76561198301481739,"connected_time":1894000000000,"state":"active","ping":47},{"user_id":127,"name":"HimpoX","steam_id":76561198043946778,"connected_time":1781000000000,"state":"active","ping":101},{"user_id":147,"name":"Mean Green Peen","steam_id":76561198228455736,"connected_time":494000000000,"state":"active","ping":66},{"user_id":130,"name":"Rops","steam_id":76561198031608011,"connected_time":1623000000000,"state":"active","ping":87},{"user_id":158,"name":"Zero (Orbital Gear Mastermind)","steam_id":76561198017416816,"connected_time":154000000000,"state":"active","ping":61},{"user_id":148,"name":"Gabys","steam_id":76561198282892553,"connected_time":438000000000,"state":"active","ping":72},{"user_id":132,"name":"TaroPlant","steam_id":76561198122927374,"connected_time":1293000000000,"state":"active","ping":67},{"user_id":134,"name":"Blooddream","steam_id":76561199084317500,"connected_time":1199000000000,"state":"active","ping":73},{"user_id":135,"name":"Jedi Knight","steam_id":76561198039030709,"connected_time":1162000000000,"state":"active","ping":134},{"user_id":154,"name":"lvl. 50 honkler","steam_id":76561198061688660,"connected_time":233000000000,"state":"active","ping":103}]},{"server_id":110,"name":"Uncletopia | Frankfurt | 2 | All Maps","name_short":"frk-2","host":"frk-1.de.uncletopia.com","port":27025,"enabled":true,"region":"eu","cc":"de","latitude":50.110924,"longitude":8.682127,"reserved":0,"last_update":"0001-01-01T00:00:00Z","name_a2s":"Uncletopia | Frankfurt | 2 | All Maps","protocol":17,"map":"pl_frontier_final","folder":"tf","game":"Team Fortress","app_id":440,"player_count":16,"max_players":24,"Bots":0,"server_type":"Dedicated","server_os":"Linux","password":true,"vac":true,"version":"7757534","steam_id":85568392924469990,"keywords":["nocrits","nodmgspread","payload","uncletopia"],"game_id":440,"stv_port":27026,"stv_name":"Uncletopia | Frankfurt | 2 | All Maps | STV","players":[{"user_id":394,"name":"·¥ò…™·¥èŒõ ∆éÍûç‚ä•","steam_id":76561198276912938,"connected_time":181000000000,"state":"active","ping":116},{"user_id":388,"name":"Dr. Nooooo","steam_id":76561198094771716,"connected_time":807000000000,"state":"active","ping":118},{"user_id":391,"name":"Threon","steam_id":76561198826783545,"connected_time":671000000000,"state":"active","ping":80},{"user_id":379,"name":"Shift","steam_id":76561198028296732,"connected_time":1813000000000,"state":"active","ping":58},{"user_id":311,"name":"SoupER","steam_id":76561198063056668,"connected_time":7254000000000,"state":"active","ping":61},{"user_id":362,"name":"PlasticVoid","steam_id":76561197997870306,"connected_time":3430000000000,"state":"active","ping":45},{"user_id":389,"name":"Spieller","steam_id":76561198057197847,"connected_time":784000000000,"state":"active","ping":67},{"user_id":357,"name":"The Wheel (Live on KEXP)","steam_id":76561199064350902,"connected_time":3524000000000,"state":"active","ping":93},{"user_id":373,"name":"Redsy","steam_id":76561198360088412,"connected_time":2417000000000,"state":"active","ping":135},{"user_id":306,"name":"Penis Contortionist","steam_id":76561198073663784,"connected_time":7382000000000,"state":"active","ping":54},{"user_id":364,"name":"HungriSanta","steam_id":76561198020376441,"connected_time":3360000000000,"state":"active","ping":54},{"user_id":236,"name":"catboy trickster","steam_id":76561198075665211,"connected_time":13521000000000,"state":"active","ping":37},{"user_id":383,"name":"esheen","steam_id":76561198139376665,"connected_time":1744000000000,"state":"active","ping":55},{"user_id":301,"name":"Hood","steam_id":76561199229682408,"connected_time":7869000000000,"state":"active","ping":54},{"user_id":385,"name":"Bosnian Ketamine Mafia","steam_id":76561198163571788,"connected_time":1590000000000,"state":"active","ping":91},{"user_id":393,"name":"valmartiaux","steam_id":76561198305684520,"connected_time":430000000000,"state":"active","ping":44}]},{"server_id":308,"name":"Uncletopia | Frankfurt | 3 | All Maps","name_short":"frk-3","host":"frk-1.de.uncletopia.com","port":27035,"enabled":true,"region":"eu","cc":"de","latitude":50.110924,"longitude":8.682127,"reserved":0,"last_update":"0001-01-01T00:00:00Z","name_a2s":"Uncletopia | Frankfurt | 3 | All Maps","protocol":17,"map":"pl_barnblitz","folder":"tf","game":"Team Fortress","app_id":440,"player_count":20,"max_players":24,"Bots":0,"server_type":"Dedicated","server_os":"Linux","password":true,"vac":true,"version":"7757534","steam_id":85568392924504274,"keywords":["nocrits","nodmgspread","payload","uncletopia"],"game_id":440,"stv_port":27036,"stv_name":"Uncletopia | Frankfurt | 3 | All Maps | STV","players":[{"user_id":179,"name":"Tlad2","steam_id":76561198854897667,"connected_time":395000000000,"state":"active","ping":74},{"user_id":124,"name":"Nightmare","steam_id":76561198260470304,"connected_time":2880000000000,"state":"active","ping":60},{"user_id":125,"name":"kerros.voikkari","steam_id":76561198121040230,"connected_time":2873000000000,"state":"active","ping":85},{"user_id":147,"name":"komantoN^-","steam_id":76561198017929662,"connected_time":2249000000000,"state":"active","ping":55},{"user_id":177,"name":"Piteras","steam_id":76561198858532207,"connected_time":677000000000,"state":"active","ping":79},{"user_id":181,"name":"Alexandrovich0811","steam_id":76561199386822589,"connected_time":116000000000,"state":"active","ping":74},{"user_id":132,"name":"mumbler","steam_id":76561197970641239,"connected_time":2567000000000,"state":"active","ping":32},{"user_id":182,"name":"Arturias","steam_id":76561198188720263,"connected_time":101000000000,"state":"active","ping":57},{"user_id":183,"name":"FiricelSolos123","steam_id":76561198901014065,"connected_time":97000000000,"state":"active","ping":98},{"user_id":176,"name":"benibachi","steam_id":76561198190816499,"connected_time":686000000000,"state":"active","ping":74},{"user_id":184,"name":"„É†GeRmAn |√óUA√ó„É†","steam_id":76561199044754898,"connected_time":93000000000,"state":"active","ping":68},{"user_id":185,"name":"Nickbro101","steam_id":76561198044271692,"connected_time":79000000000,"state":"active","ping":49},{"user_id":136,"name":"–Æ–§","steam_id":76561198044519039,"connected_time":2508000000000,"state":"active","ping":72},{"user_id":159,"name":"a black bishop from chess","steam_id":76561199226943577,"connected_time":1963000000000,"state":"active","ping":75},{"user_id":178,"name":"Fish 'n' Chips","steam_id":76561198033476886,"connected_time":627000000000,"state":"active","ping":45},{"user_id":168,"name":"Totally Something","steam_id":76561198916824935,"connected_time":1486000000000,"state":"active","ping":64},{"user_id":186,"name":"Adopted?","steam_id":76561198118667043,"connected_time":18000000000,"state":"active","ping":64},{"user_id":187,"name":"shangdi","steam_id":76561198036824480,"connected_time":8000000000,"state":"spawning","ping":70},{"user_id":180,"name":"Gwishin","steam_id":76561198257158275,"connected_time":383000000000,"state":"active","ping":143},{"user_id":188,"name":"eduardo","steam_id":76561198014491925,"connected_time":7000000000,"state":"spawning","ping":83}]},{"server_id":309,"name":"Uncletopia | Frankfurt | 4 | All Maps","name_short":"frk-4","host":"frk-1.de.uncletopia.com","port":27045,"enabled":true,"region":"eu","cc":"de","latitude":50.110924,"longitude":8.682127,"reserved":0,"last_update":"0001-01-01T00:00:00Z","name_a2s":"Uncletopia | Frankfurt | 4 | All Maps","protocol":17,"map":"koth_nucleus","folder":"tf","game":"Team Fortress","app_id":440,"player_count":14,"max_players":24,"Bots":0,"server_type":"Dedicated","server_os":"Linux","password":true,"vac":true,"version":"7757534","steam_id":85568392924504275,"keywords":["cp","nocrits","nodmgspread","uncletopia"],"game_id":440,"stv_port":27046,"stv_name":"Uncletopia | Frankfurt | 4 | All Maps | STV","players":[{"user_id":510,"name":"Nostradamus","steam_id":76561198349792686,"connected_time":2288000000000,"state":"active","ping":63},{"user_id":528,"name":"simon","steam_id":76561198880361394,"connected_time":777000000000,"state":"active","ping":47},{"user_id":526,"name":"Was_Wolf","steam_id":76561199153210310,"connected_time":935000000000,"state":"active","ping":70},{"user_id":530,"name":"LF Savozi","steam_id":76561198118006754,"connected_time":203000000000,"state":"active","ping":62},{"user_id":509,"name":"HwK!","steam_id":76561198287835588,"connected_time":2345000000000,"state":"active","ping":83},{"user_id":536,"name":"Blyatwork","steam_id":76561198825379598,"connected_time":58000000000,"state":"active","ping":30},{"user_id":524,"name":"Prism","steam_id":76561198075538312,"connected_time":1079000000000,"state":"active","ping":31},{"user_id":517,"name":"Hitori Gotoh","steam_id":76561198101532240,"connected_time":1972000000000,"state":"active","ping":69},{"user_id":534,"name":"Sorexsum","steam_id":76561198137086495,"connected_time":101000000000,"state":"active","ping":51},{"user_id":469,"name":"FireStorm","steam_id":76561198350478325,"connected_time":4856000000000,"state":"active","ping":52},{"user_id":535,"name":"DoctorTopLeL","steam_id":76561198088533595,"connected_time":67000000000,"state":"active","ping":108},{"user_id":525,"name":"hud_saytext_time 0","steam_id":76561198010327228,"connected_time":991000000000,"state":"active","ping":52},{"user_id":474,"name":"Seeker","steam_id":76561198873052772,"connected_time":4631000000000,"state":"active","ping":65},{"user_id":407,"name":"ScarredPixel123","steam_id":76561199165112703,"connected_time":8008000000000,"state":"active","ping":78}]},{"server_id":310,"name":"Uncletopia | Frankfurt | 5 | All Maps","name_short":"frk-5","host":"frk-1.de.uncletopia.com","port":27055,"enabled":true,"region":"eu","cc":"de","latitude":50.110924,"longitude":8.682127,"reserved":0,"last_update":"0001-01-01T00:00:00Z","name_a2s":"Uncletopia | Frankfurt | 5 | All Maps","protocol":17,"map":"pl_borneo","folder":"tf","game":"Team Fortress","app_id":440,"player_count":24,"max_players":24,"Bots":0,"server_type":"Dedicated","server_os":"Linux","password":true,"vac":true,"version":"7757534","steam_id":85568392924504277,"keywords":["nocrits","nodmgspread","payload","uncletopia"],"game_id":440,"stv_port":27056,"stv_name":"Uncletopia | Frankfurt | 5 | All Maps | STV","players":[{"user_id":333,"name":"subway vergil","steam_id":76561199110064166,"connected_time":2024000000000,"state":"active","ping":78},{"user_id":349,"name":"big noob","steam_id":76561198281332748,"connected_time":1372000000000,"state":"active","ping":68},{"user_id":359,"name":"Gr√∏nkj√¶r","steam_id":76561198041075280,"connected_time":610000000000,"state":"active","ping":71},{"user_id":332,"name":"niaerniopawrjnko","steam_id":76561198030408772,"connected_time":2240000000000,"state":"active","ping":58},{"user_id":335,"name":"Xie Xil Ling","steam_id":76561198053394831,"connected_time":1891000000000,"state":"active","ping":70},{"user_id":362,"name":"I miss a lot","steam_id":76561198185322979,"connected_time":366000000000,"state":"active","ping":57},{"user_id":367,"name":"Tortoise Guy","steam_id":76561199047825610,"connected_time":189000000000,"state":"active","ping":75},{"user_id":364,"name":"Mr Eugene Business","steam_id":76561199073020660,"connected_time":226000000000,"state":"active","ping":88},{"user_id":365,"name":"trite","steam_id":76561197983765323,"connected_time":220000000000,"state":"active","ping":65},{"user_id":358,"name":"PlacebO.-","steam_id":76561197973577950,"connected_time":648000000000,"state":"active","ping":56},{"user_id":336,"name":"s a i","steam_id":76561197970379754,"connected_time":1885000000000,"state":"active","ping":56},{"user_id":339,"name":"dddd","steam_id":76561198120894372,"connected_time":1828000000000,"state":"active","ping":101},{"user_id":366,"name":"Guwop","steam_id":76561197970425737,"connected_time":216000000000,"state":"active","ping":165},{"user_id":355,"name":"Lennox","steam_id":76561198069063554,"connected_time":674000000000,"state":"active","ping":45},{"user_id":357,"name":"Mingo","steam_id":76561199191245650,"connected_time":652000000000,"state":"active","ping":91},{"user_id":368,"name":"Grinch Gun","steam_id":76561198097789669,"connected_time":176000000000,"state":"active","ping":63},{"user_id":369,"name":"!!!!!!!!!!!!!!!!!!!!!!!!!!!!!!!","steam_id":76561198069649097,"connected_time":129000000000,"state":"active","ping":76},{"user_id":360,"name":"Scrample","steam_id":76561198040422830,"connected_time":543000000000,"state":"active","ping":60},{"user_id":346,"name":"poliakov.noam","steam_id":76561199259322961,"connected_time":1604000000000,"state":"active","ping":111},{"user_id":370,"name":"Alfred2.2","steam_id":76561198339314744,"connected_time":124000000000,"state":"active","ping":68},{"user_id":344,"name":"Deckard","steam_id":76561198004704647,"connected_time":1779000000000,"state":"active","ping":84},{"user_id":326,"name":"Vikep'S","steam_id":76561199002274689,"connected_time":2925000000000,"state":"active","ping":85},{"user_id":371,"name":"Spanish Shy Cat","steam_id":76561198808819694,"connected_time":94000000000,"state":"active","ping":46},{"user_id":310,"name":"„ÉÜ„Ç§„É´„Çπ","steam_id":76561198022403271,"connected_time":4100000000000,"state":"active","ping":47}]},{"server_id":311,"name":"Uncletopia | Frankfurt | 6 | All Maps","name_short":"frk-6","host":"frk-1.de.uncletopia.com","port":27065,"enabled":true,"region":"eu","cc":"de","latitude":50.110924,"longitude":8.682127,"reserved":0,"last_update":"0001-01-01T00:00:00Z","name_a2s":"Uncletopia | Frankfurt | 6 | All Maps","protocol":17,"map":"cp_dustbowl","folder":"tf","game":"Team Fortress","app_id":440,"player_count":24,"max_players":24,"Bots":0,"server_type":"Dedicated","server_os":"Linux","password":true,"vac":true,"version":"7757534","steam_id":85568392924504278,"keywords":["cp","nocrits","nodmgspread","uncletopia"],"game_id":440,"stv_port":27066,"stv_name":"Uncletopia | Frankfurt | 6 | All Maps | STV","players":[{"user_id":133,"name":"The Masterplan","steam_id":76561198158631465,"connected_time":6696000000000,"state":"active","ping":62},{"user_id":219,"name":"Florua","steam_id":76561198182297846,"connected_time":512000000000,"state":"active","ping":55},{"user_id":203,"name":"usia","steam_id":76561198120406679,"connected_time":2025000000000,"state":"active","ping":82},{"user_id":227,"name":"MSLT","steam_id":76561198811386317,"connected_time":10000000000,"state":"spawning","ping":80},{"user_id":226,"name":"lerodai","steam_id":76561199084810384,"connected_time":373000000000,"state":"active","ping":131},{"user_id":193,"name":"Joker","steam_id":76561199208034454,"connected_time":2527000000000,"state":"active","ping":84},{"user_id":125,"name":"ViciousVinnyD","steam_id":76561198053822329,"connected_time":7167000000000,"state":"active","ping":75},{"user_id":208,"name":"RainbowGoat","steam_id":76561198381644315,"connected_time":1491000000000,"state":"active","ping":70},{"user_id":215,"name":"√Ñ√§rik ‚ô£","steam_id":76561198131871737,"connected_time":946000000000,"state":"active","ping":57},{"user_id":220,"name":"engie?","steam_id":76561198331852832,"connected_time":482000000000,"state":"active","ping":66},{"user_id":217,"name":"Your dad","steam_id":76561199046215821,"connected_time":871000000000,"state":"active","ping":58},{"user_id":197,"name":"Jay.k","steam_id":76561198079387590,"connected_time":2464000000000,"state":"active","ping":81},{"user_id":185,"name":"Ducky[WADZ]üê§","steam_id":76561198060341245,"connected_time":2583000000000,"state":"active","ping":56},{"user_id":210,"name":"kbbq","steam_id":76561198346638308,"connected_time":1445000000000,"state":"active","ping":59},{"user_id":189,"name":"TrueCookieKing","steam_id":76561198115772708,"connected_time":2552000000000,"state":"active","ping":73},{"user_id":178,"name":"Dappana","steam_id":76561199442820274,"connected_time":3376000000000,"state":"active","ping":71},{"user_id":221,"name":"vaha","steam_id":76561198851860551,"connected_time":457000000000,"state":"active","ping":74},{"user_id":222,"name":"Kudo","steam_id":76561199104571108,"connected_time":451000000000,"state":"active","ping":170},{"user_id":192,"name":"deez","steam_id":76561198279159712,"connected_time":2532000000000,"state":"active","ping":59},{"user_id":223,"name":"X-tis","steam_id":76561198043837480,"connected_time":441000000000,"state":"active","ping":76},{"user_id":224,"name":"The Captain","steam_id":76561198136877350,"connected_time":433000000000,"state":"active","ping":80},{"user_id":196,"name":"Vampire tampon","steam_id":76561198042593027,"connected_time":2524000000000,"state":"active","ping":99},{"user_id":225,"name":"Kaj0605","steam_id":76561198399198869,"connected_time":412000000000,"state":"active","ping":82},{"user_id":211,"name":"Olaznot","steam_id":76561199111472610,"connected_time":1434000000000,"state":"active","ping":85}]},{"server_id":23,"name":"Uncletopia | Frankfurt | 7 | Stopwatch Beta","name_short":"frk-7","host":"frk-1.de.uncletopia.com","port":27075,"enabled":true,"region":"eu","cc":"de","latitude":50.110924,"longitude":8.682127,"reserved":0,"last_update":"0001-01-01T00:00:00Z","name_a2s":"Uncletopia | Frankfurt | 7 | Stopwatch Beta","protocol":17,"map":"pl_borneo","folder":"tf","game":"Team Fortress","app_id":440,"player_count":0,"max_players":24,"Bots":0,"server_type":"Dedicated","server_os":"Linux","password":true,"vac":true,"version":"7757534","steam_id":85568392924742827,"keywords":["nocrits","nodmgspread","payload","uncletopia"],"game_id":440,"stv_port":27076,"stv_name":"Uncletopia | Frankfurt | 7 | Stopwatch Beta | STV","players":null},{"server_id":24,"name":"Uncletopia | Frankfurt | 8 | Community","name_short":"frk-8","host":"frk-1.de.uncletopia.com","port":27085,"enabled":true,"region":"eu","cc":"de","latitude":50.110924,"longitude":8.682127,"reserved":0,"last_update":"0001-01-01T00:00:00Z","name_a2s":"Uncletopia | Frankfurt | 8 | Community","protocol":17,"map":"workshop/cp_logjam_rc12.ugc454812035","folder":"tf","game":"Team Fortress","app_id":440,"player_count":0,"max_players":24,"Bots":0,"server_type":"Dedicated","server_os":"Linux","password":true,"vac":true,"version":"7757534","steam_id":85568392924742828,"keywords":["cp","nocrits","nodmgspread","uncletopia"],"game_id":440,"stv_port":27086,"stv_name":"Uncletopia | Frankfurt | 8 | Community | STV","players":null},{"server_id":202,"name":"Uncletopia | Hong Kong | 1 | All Maps","name_short":"hgk-1","host":"hgk-1.hk.uncletopia.com","port":27015,"enabled":true,"region":"asia","cc":"hk","latitude":22.302711,"longitude":114.177216,"reserved":0,"last_update":"0001-01-01T00:00:00Z","name_a2s":"Uncletopia | Hong Kong | 1 | All Maps","protocol":17,"map":"koth_suijin","folder":"tf","game":"Team Fortress","app_id":440,"player_count":0,"max_players":24,"Bots":0,"server_type":"Dedicated","server_os":"Linux","password":true,"vac":true,"version":"7757534","steam_id":85568392924494504,"keywords":["cp","nocrits","nodmgspread","uncletopia"],"game_id":440,"stv_port":27016,"stv_name":"Uncletopia | Hong Kong | 1 | All Maps | STV","players":null},{"server_id":1,"name":"Uncletopia | Los Angeles | 1 | All Maps","name_short":"lax-1","host":"lax-1.us.uncletopia.com","port":27015,"enabled":true,"region":"us-west","cc":"us","latitude":33.94279,"longitude":-118.41004,"reserved":0,"last_update":"0001-01-01T00:00:00Z","name_a2s":"Uncletopia | Los Angeles | 1 | All Maps","protocol":17,"map":"koth_lakeside_final","folder":"tf","game":"Team Fortress","app_id":440,"player_count":0,"max_players":24,"Bots":0,"server_type":"Dedicated","server_os":"Linux","password":true,"vac":true,"version":"7757534","steam_id":85568392924469991,"keywords":["cp","nocrits","nodmgspread","uncletopia"],"game_id":440,"stv_port":27016,"stv_name":"Uncletopia | Los Angeles | 1 | All Maps | STV","players":null},{"server_id":112,"name":"Uncletopia | Los Angeles | 2 | All Maps","name_short":"lax-2","host":"lax-1.us.uncletopia.com","port":27025,"enabled":true,"region":"us-west","cc":"us","latitude":33.94279,"longitude":-118.41004,"reserved":0,"last_update":"0001-01-01T00:00:00Z","name_a2s":"Uncletopia | Los Angeles | 2 | All Maps","protocol":17,"map":"pl_swiftwater_final1","folder":"tf","game":"Team Fortress","app_id":440,"player_count":0,"max_players":24,"Bots":0,"server_type":"Dedicated","server_os":"Linux","password":true,"vac":true,"version":"7757534","steam_id":85568392924469992,"keywords":["nocrits","nodmgspread","payload","uncletopia"],"game_id":440,"stv_port":27026,"stv_name":"Uncletopia | Los Angeles | 2 | All Maps | STV","players":null},{"server_id":324,"name":"Uncletopia | Los Angeles | 3 | All Maps","name_short":"lax-3","host":"lax-1.us.uncletopia.com","port":27035,"enabled":true,"region":"us-west","cc":"us","latitude":33.94279,"longitude":-118.41004,"reserved":0,"last_update":"0001-01-01T00:00:00Z","name_a2s":"Uncletopia | Los Angeles | 3 | All Maps","protocol":17,"map":"cp_mountainlab","folder":"tf","game":"Team Fortress","app_id":440,"player_count":0,"max_players":24,"Bots":0,"server_type":"Dedicated","server_os":"Linux","password":true,"vac":true,"version":"7757534","steam_id":85568392924510198,"keywords":["cp","nocrits","nodmgspread","uncletopia"],"game_id":440,"stv_port":27036,"stv_name":"Uncletopia | Los Angeles | 3 | All Maps | STV","players":null},{"server_id":25,"name":"Uncletopia | Los Angeles | 4 | Stopwatch Beta","name_short":"lax-4","host":"lax-1.us.uncletopia.com","port":27045,"enabled":true,"region":"us-west","cc":"us","latitude":33.94279,"longitude":-118.41004,"reserved":0,"last_update":"0001-01-01T00:00:00Z","name_a2s":"Uncletopia | Los Angeles | 4 | Stopwatch Beta","protocol":17,"map":"koth_viaduct","folder":"tf","game":"Team Fortress","app_id":440,"player_count":0,"max_players":24,"Bots":0,"server_type":"Dedicated","server_os":"Linux","password":true,"vac":true,"version":"7757534","steam_id":85568392924510199,"keywords":["cp","nocrits","nodmgspread","uncletopia"],"game_id":440,"stv_port":27046,"stv_name":"Uncletopia | Los Angeles | 4 | Stopwatch Beta | STV","players":null},{"server_id":11,"name":"Uncletopia | London | 1 | All Maps","name_short":"lon-1","host":"lon-1.uk.uncletopia.com","port":27015,"enabled":true,"region":"eu","cc":"gb","latitude":51.509865,"longitude":-0.118092,"reserved":0,"last_update":"0001-01-01T00:00:00Z","name_a2s":"Uncletopia | London | 1 | All Maps","protocol":17,"map":"pl_frontier_final","folder":"tf","game":"Team Fortress","app_id":440,"player_count":24,"max_players":24,"Bots":0,"server_type":"Dedicated","server_os":"Linux","password":true,"vac":true,"version":"7757534","steam_id":85568392924367362,"keywords":["nocrits","nodmgspread","payload","uncletopia"],"game_id":440,"stv_port":27016,"stv_name":"Uncletopia | London | 1 | All Maps | STV","players":[{"user_id":775,"name":"Combat Wombat","steam_id":76561197994720068,"connected_time":3748000000000,"state":"active","ping":69},{"user_id":820,"name":"Cloud","steam_id":76561198020002014,"connected_time":672000000000,"state":"active","ping":57},{"user_id":762,"name":"Houlles","steam_id":76561198095277383,"connected_time":4540000000000,"state":"active","ping":49},{"user_id":826,"name":"Florida Man","steam_id":76561198845255013,"connected_time":478000000000,"state":"active","ping":75},{"user_id":809,"name":"gnarly business","steam_id":76561198832688767,"connected_time":1431000000000,"state":"active","ping":50},{"user_id":779,"name":"Û†Ä°Û†Ä°Û†Ä°Û†Ä°Felix","steam_id":76561198147553398,"connected_time":3703000000000,"state":"active","ping":60},{"user_id":829,"name":"Kahvi","steam_id":76561198723244199,"connected_time":156000000000,"state":"active","ping":82},{"user_id":801,"name":"the discord call sound. (real)","steam_id":76561198139404261,"connected_time":2593000000000,"state":"active","ping":45},{"user_id":786,"name":"Pussy Piazza","steam_id":76561198914610283,"connected_time":3510000000000,"state":"active","ping":77},{"user_id":778,"name":"sent from my iphone","steam_id":76561198259668029,"connected_time":3707000000000,"state":"active","ping":46},{"user_id":816,"name":"Asgaard","steam_id":76561198026516905,"connected_time":970000000000,"state":"active","ping":103},{"user_id":830,"name":"Friendly Bohen","steam_id":76561198002412697,"connected_time":3000000000,"state":"spawning","ping":69},{"user_id":825,"name":"I.C. Wiener","steam_id":76561197999912254,"connected_time":556000000000,"state":"active","ping":94},{"user_id":827,"name":"dec","steam_id":76561198009660168,"connected_time":309000000000,"state":"active","ping":55},{"user_id":814,"name":"Yatsuzume","steam_id":76561198059762108,"connected_time":1166000000000,"state":"active","ping":52},{"user_id":782,"name":"KooshIsCool","steam_id":76561198423902979,"connected_time":3679000000000,"state":"active","ping":50},{"user_id":828,"name":"Mr_Pulse_","steam_id":76561198095001602,"connected_time":266000000000,"state":"active","ping":204},{"user_id":806,"name":"executioner","steam_id":76561198841844631,"connected_time":2086000000000,"state":"active","ping":54},{"user_id":797,"name":"willo","steam_id":76561198034442999,"connected_time":2783000000000,"state":"active","ping":56},{"user_id":807,"name":"Unbreakable Patches","steam_id":76561198040182692,"connected_time":1877000000000,"state":"active","ping":38},{"user_id":815,"name":"Ott","steam_id":76561198276464481,"connected_time":1115000000000,"state":"active","ping":63},{"user_id":811,"name":"Remain calm. inside your homes ","steam_id":76561199026097466,"connected_time":1428000000000,"state":"active","ping":72},{"user_id":761,"name":"Dom.","steam_id":76561199065917088,"connected_time":4603000000000,"state":"active","ping":59},{"user_id":785,"name":"Presten","steam_id":76561198116395897,"connected_time":3573000000000,"state":"active","ping":94}]},{"server_id":114,"name":"Uncletopia | London | 2 | All Maps","name_short":"lon-2","host":"lon-1.uk.uncletopia.com","port":27025,"enabled":true,"region":"eu","cc":"gb","latitude":51.509865,"longitude":-0.118092,"reserved":0,"last_update":"0001-01-01T00:00:00Z","name_a2s":"Uncletopia | London | 2 | All Maps","protocol":17,"map":"pl_badwater","folder":"tf","game":"Team Fortress","app_id":440,"player_count":24,"max_players":24,"Bots":0,"server_type":"Dedicated","server_os":"Linux","password":true,"vac":true,"version":"7757534","steam_id":85568392924470941,"keywords":["nocrits","nodmgspread","payload","uncletopia"],"game_id":440,"stv_port":27026,"stv_name":"Uncletopia | London | 2 | All Maps | STV","players":[{"user_id":678,"name":"Xydran","steam_id":76561198042397402,"connected_time":1872000000000,"state":"active","ping":68},{"user_id":699,"name":"Who?","steam_id":76561198271901063,"connected_time":632000000000,"state":"active","ping":51},{"user_id":704,"name":"friendly + happy Babs","steam_id":76561198314919758,"connected_time":365000000000,"state":"active","ping":54},{"user_id":692,"name":"Giga chat","steam_id":76561198935722892,"connected_time":1098000000000,"state":"active","ping":91},{"user_id":688,"name":"Stone","steam_id":76561198122475920,"connected_time":1521000000000,"state":"active","ping":91},{"user_id":691,"name":"The one who knocks","steam_id":76561198089341471,"connected_time":1142000000000,"state":"active","ping":72},{"user_id":703,"name":"dr drip.","steam_id":76561198393681429,"connected_time":485000000000,"state":"active","ping":130},{"user_id":680,"name":"Sniffz_2","steam_id":76561199433459491,"connected_time":1828000000000,"state":"active","ping":79},{"user_id":705,"name":"STiNGHAN","steam_id":76561198023989090,"connected_time":249000000000,"state":"active","ping":92},{"user_id":693,"name":"Caskye","steam_id":76561198165430888,"connected_time":1085000000000,"state":"active","ping":81},{"user_id":706,"name":"ghenios","steam_id":76561198030011207,"connected_time":238000000000,"state":"active","ping":85},{"user_id":625,"name":"glorbert","steam_id":76561198007792525,"connected_time":4212000000000,"state":"active","ping":44},{"user_id":690,"name":"timvs5","steam_id":76561198136646312,"connected_time":1477000000000,"state":"active","ping":63},{"user_id":698,"name":"SpeddyMeddy","steam_id":76561197999693825,"connected_time":638000000000,"state":"active","ping":78},{"user_id":674,"name":"cloud","steam_id":76561198179768931,"connected_time":2206000000000,"state":"active","ping":60},{"user_id":659,"name":"Lunar","steam_id":76561199077495290,"connected_time":3250000000000,"state":"active","ping":69},{"user_id":702,"name":"Garden Freeman","steam_id":76561199073314677,"connected_time":508000000000,"state":"active","ping":82},{"user_id":684,"name":"RIPChuck","steam_id":76561198000578962,"connected_time":1791000000000,"state":"active","ping":68},{"user_id":700,"name":"Mr. Hunts","steam_id":76561197981910397,"connected_time":631000000000,"state":"active","ping":64},{"user_id":701,"name":"Albert Einstein","steam_id":76561198351190006,"connected_time":618000000000,"state":"active","ping":95},{"user_id":634,"name":"Davey","steam_id":76561198256879107,"connected_time":4156000000000,"state":"active","ping":77},{"user_id":707,"name":"tees","steam_id":76561198000601056,"connected_time":131000000000,"state":"active","ping":83},{"user_id":637,"name":"hook owl","steam_id":76561198872013525,"connected_time":4142000000000,"state":"active","ping":155},{"user_id":671,"name":"Raldow","steam_id":76561198021389301,"connected_time":2335000000000,"state":"active","ping":65}]},{"server_id":320,"name":"Uncletopia | London | 3 | All Maps","name_short":"lon-3","host":"lon-1.uk.uncletopia.com","port":27035,"enabled":true,"region":"eu","cc":"gb","latitude":51.509865,"longitude":-0.118092,"reserved":0,"last_update":"0001-01-01T00:00:00Z","name_a2s":"Uncletopia | London | 3 | All Maps","protocol":17,"map":"pl_pier","folder":"tf","game":"Team Fortress","app_id":440,"player_count":24,"max_players":24,"Bots":0,"server_type":"Dedicated","server_os":"Linux","password":true,"vac":true,"version":"7757534","steam_id":85568392924510192,"keywords":["nocrits","nodmgspread","payload","uncletopia"],"game_id":440,"stv_port":27036,"stv_name":"Uncletopia | London | 3 | All Maps | STV","players":[{"user_id":551,"name":"Crimea a bridge","steam_id":76561198030898371,"connected_time":5177000000000,"state":"active","ping":84},{"user_id":594,"name":"SilverSV","steam_id":76561198164579830,"connected_time":308000000000,"state":"active","ping":48},{"user_id":588,"name":"moser23","steam_id":76561197960543171,"connected_time":1604000000000,"state":"active","ping":49},{"user_id":572,"name":"Blacksheep","steam_id":76561198019621063,"connected_time":3487000000000,"state":"active","ping":53},{"user_id":595,"name":"Stoned","steam_id":76561198334592485,"connected_time":97000000000,"state":"active","ping":83},{"user_id":596,"name":"Swedde","steam_id":76561198297296440,"connected_time":94000000000,"state":"active","ping":70},{"user_id":536,"name":"chronic bhop syndrome","steam_id":76561198193357946,"connected_time":5932000000000,"state":"active","ping":120},{"user_id":579,"name":"swagsam","steam_id":76561199023747241,"connected_time":3093000000000,"state":"active","ping":45},{"user_id":593,"name":"Cheese_Fiend","steam_id":76561198026899984,"connected_time":499000000000,"state":"active","ping":62},{"user_id":564,"name":"‚ú™ m_br3","steam_id":76561198044981990,"connected_time":4529000000000,"state":"active","ping":89},{"user_id":586,"name":"=flashpoint=","steam_id":76561197976774456,"connected_time":1705000000000,"state":"active","ping":46},{"user_id":577,"name":"G6 sherlock","steam_id":76561198802967796,"connected_time":3329000000000,"state":"active","ping":115},{"user_id":587,"name":"Rubi","steam_id":76561198139410003,"connected_time":1675000000000,"state":"active","ping":72},{"user_id":548,"name":"Mr. Mundy","steam_id":76561198132008918,"connected_time":5413000000000,"state":"active","ping":80},{"user_id":584,"name":"Grumtsior","steam_id":76561198043563111,"connected_time":2452000000000,"state":"active","ping":76},{"user_id":565,"name":"Baba Foss","steam_id":76561198002302019,"connected_time":4519000000000,"state":"active","ping":57},{"user_id":509,"name":"Hexagon","steam_id":76561198151205758,"connected_time":8179000000000,"state":"active","ping":62},{"user_id":523,"name":"StabbyKnife","steam_id":76561198094010004,"connected_time":7216000000000,"state":"active","ping":93},{"user_id":597,"name":"WMW","steam_id":76561198837706438,"connected_time":51000000000,"state":"active","ping":60},{"user_id":591,"name":"3xample","steam_id":76561198805049375,"connected_time":1467000000000,"state":"active","ping":60},{"user_id":598,"name":"Michael","steam_id":76561198003146906,"connected_time":50000000000,"state":"active","ping":47},{"user_id":599,"name":"Thors","steam_id":76561197968739075,"connected_time":47000000000,"state":"active","ping":44},{"user_id":592,"name":"‚ú™ Danny","steam_id":76561198104483241,"connected_time":1353000000000,"state":"active","ping":49},{"user_id":600,"name":"Obsidian","steam_id":76561198173359229,"connected_time":10000000000,"state":"spawning","ping":93}]},{"server_id":321,"name":"Uncletopia | London | 4 | All Maps","name_short":"lon-4","host":"lon-1.uk.uncletopia.com","port":27045,"enabled":true,"region":"eu","cc":"gb","latitude":51.509865,"longitude":-0.118092,"reserved":0,"last_update":"0001-01-01T00:00:00Z","name_a2s":"Uncletopia | London | 4 | All Maps","protocol":17,"map":"pl_borneo","folder":"tf","game":"Team Fortress","app_id":440,"player_count":24,"max_players":24,"Bots":0,"server_type":"Dedicated","server_os":"Linux","password":true,"vac":true,"version":"7757534","steam_id":85568392924510193,"keywords":["nocrits","nodmgspread","payload","uncletopia"],"game_id":440,"stv_port":27046,"stv_name":"Uncletopia | London | 4 | All Maps | STV","players":[{"user_id":130,"name":"Ted Kaczynski","steam_id":76561198064795519,"connected_time":1392000000000,"state":"active","ping":64},{"user_id":69,"name":"Ged","steam_id":76561198079288943,"connected_time":6314000000000,"state":"active","ping":124},{"user_id":90,"name":"VolcanicArts","steam_id":76561198063453246,"connected_time":4325000000000,"state":"active","ping":51},{"user_id":121,"name":"toothpaste vaper","steam_id":76561198078458780,"connected_time":1610000000000,"state":"active","ping":62},{"user_id":145,"name":"stonebum","steam_id":76561198057004606,"connected_time":670000000000,"state":"active","ping":57},{"user_id":108,"name":"Infinity","steam_id":76561199134919099,"connected_time":2227000000000,"state":"active","ping":122},{"user_id":111,"name":"ELON MUSK","steam_id":76561198132788284,"connected_time":1919000000000,"state":"active","ping":53},{"user_id":100,"name":"the joy of recycling","steam_id":76561198415564349,"connected_time":2588000000000,"state":"active","ping":60},{"user_id":123,"name":"CRAZY VIKING","steam_id":76561198061440669,"connected_time":1585000000000,"state":"active","ping":63},{"user_id":118,"name":"Sparky","steam_id":76561198036754195,"connected_time":1638000000000,"state":"active","ping":52},{"user_id":99,"name":"bigfutacock56","steam_id":76561198835619904,"connected_time":2633000000000,"state":"active","ping":109},{"user_id":144,"name":"Unvid","steam_id":76561198031588080,"connected_time":731000000000,"state":"active","ping":63},{"user_id":116,"name":"Leapinglionz11","steam_id":76561199216740065,"connected_time":1699000000000,"state":"active","ping":142},{"user_id":117,"name":"HellDarnTV","steam_id":76561197997893901,"connected_time":1665000000000,"state":"active","ping":57},{"user_id":83,"name":"CamoS1250","steam_id":76561198309917434,"connected_time":5034000000000,"state":"active","ping":148},{"user_id":119,"name":"Bobkiller","steam_id":76561198296686427,"connected_time":1636000000000,"state":"active","ping":98},{"user_id":141,"name":"Daemon","steam_id":76561198007015109,"connected_time":1163000000000,"state":"active","ping":45},{"user_id":124,"name":"burger","steam_id":76561198071674964,"connected_time":1576000000000,"state":"active","ping":75},{"user_id":98,"name":"Duke Fishlord","steam_id":76561198079928327,"connected_time":2733000000000,"state":"active","ping":77},{"user_id":125,"name":"skittish maiden","steam_id":76561198096856475,"connected_time":1572000000000,"state":"active","ping":57},{"user_id":106,"name":"Cosmetic brain","steam_id":76561198055936410,"connected_time":2348000000000,"state":"active","ping":88},{"user_id":126,"name":"SOULDOG","steam_id":76561199212057006,"connected_time":1554000000000,"state":"active","ping":72},{"user_id":110,"name":"no bitches nigusman","steam_id":76561199466723428,"connected_time":1975000000000,"state":"active","ping":89},{"user_id":143,"name":"Flint","steam_id":76561197995920776,"connected_time":1127000000000,"state":"active","ping":53}]},{"server_id":21,"name":"Uncletopia | London | 5 | All Maps","name_short":"lon-5","host":"lon-1.uk.uncletopia.com","port":27055,"enabled":true,"region":"eu","cc":"gb","latitude":51.509865,"longitude":-0.118092,"reserved":0,"last_update":"0001-01-01T00:00:00Z","name_a2s":"Uncletopia | London | 5 | All Maps","protocol":17,"map":"pl_barnblitz","folder":"tf","game":"Team Fortress","app_id":440,"player_count":24,"max_players":24,"Bots":0,"server_type":"Dedicated","server_os":"Linux","password":true,"vac":true,"version":"7757534","steam_id":85568392924742829,"keywords":["nocrits","nodmgspread","payload","uncletopia"],"game_id":440,"stv_port":27056,"stv_name":"Uncletopia | London | 5 | All Maps | STV","players":[{"user_id":321,"name":"tea for two","steam_id":76561198133532980,"connected_time":612000000000,"state":"active","ping":43},{"user_id":311,"name":"‚ô¶Silvia‚ô¶","steam_id":76561198373039444,"connected_time":905000000000,"state":"active","ping":111},{"user_id":303,"name":"Crazy Cane","steam_id":76561198993941174,"connected_time":1300000000000,"state":"active","ping":118},{"user_id":326,"name":"Fancy","steam_id":76561198350658462,"connected_time":472000000000,"state":"active","ping":84},{"user_id":300,"name":"AGamer75","steam_id":76561199045267748,"connected_time":1367000000000,"state":"active","ping":96},{"user_id":301,"name":"Lassesjov","steam_id":76561198089792081,"connected_time":1345000000000,"state":"active","ping":67},{"user_id":302,"name":"Officer Dan_dk","steam_id":76561198365053592,"connected_time":1340000000000,"state":"active","ping":76},{"user_id":327,"name":"ralek","steam_id":76561198337027746,"connected_time":347000000000,"state":"active","ping":92},{"user_id":333,"name":"yuta","steam_id":76561198077922992,"connected_time":65000000000,"state":"active","ping":35},{"user_id":329,"name":"Murlok","steam_id":76561198012019122,"connected_time":274000000000,"state":"active","ping":117},{"user_id":307,"name":"meriones","steam_id":76561198034234373,"connected_time":1160000000000,"state":"active","ping":44},{"user_id":328,"name":"Old Man Winter","steam_id":76561198007653168,"connected_time":298000000000,"state":"active","ping":60},{"user_id":332,"name":"HJ.","steam_id":76561197967462566,"connected_time":104000000000,"state":"active","ping":100},{"user_id":312,"name":"Bell","steam_id":76561199454586928,"connected_time":892000000000,"state":"active","ping":127},{"user_id":313,"name":"i am bread","steam_id":76561199180277321,"connected_time":891000000000,"state":"active","ping":58},{"user_id":314,"name":"jacob?","steam_id":76561199025525354,"connected_time":886000000000,"state":"active","ping":41},{"user_id":315,"name":"Frank","steam_id":76561198086672774,"connected_time":854000000000,"state":"active","ping":52},{"user_id":316,"name":"Nuuskis","steam_id":76561198084042012,"connected_time":843000000000,"state":"active","ping":81},{"user_id":325,"name":"Sonder","steam_id":76561198115893794,"connected_time":529000000000,"state":"active","ping":88},{"user_id":330,"name":"hello kitty gaming","steam_id":76561197972008326,"connected_time":227000000000,"state":"active","ping":73},{"user_id":318,"name":"drippin jimmy","steam_id":76561198219243969,"connected_time":801000000000,"state":"active","ping":61},{"user_id":319,"name":"Bottom of the barrel terrorist","steam_id":76561198929386604,"connected_time":799000000000,"state":"active","ping":102},{"user_id":320,"name":"gxoul","steam_id":76561199091006994,"connected_time":778000000000,"state":"active","ping":85},{"user_id":335,"name":"‚ù§ Sparx ‚ù§","steam_id":76561198095009261,"connected_time":37000000000,"state":"active","ping":81}]},{"server_id":22,"name":"Uncletopia | London | 6 | All Maps","name_short":"lon-6","host":"lon-1.uk.uncletopia.com","port":27065,"enabled":true,"region":"eu","cc":"gb","latitude":51.509865,"longitude":-0.118092,"reserved":0,"last_update":"0001-01-01T00:00:00Z","name_a2s":"Uncletopia | London | 6 | All Maps","protocol":17,"map":"pl_swiftwater_final1","folder":"tf","game":"Team Fortress","app_id":440,"player_count":24,"max_players":24,"Bots":0,"server_type":"Dedicated","server_os":"Linux","password":true,"vac":true,"version":"7757534","steam_id":85568392924742830,"keywords":["nocrits","nodmgspread","payload","uncletopia"],"game_id":440,"stv_port":27066,"stv_name":"Uncletopia | London | 6 | All Maps | STV","players":[{"user_id":125,"name":"logan.dykins09","steam_id":76561199143456682,"connected_time":4215000000000,"state":"active","ping":61},{"user_id":169,"name":"Whizzo","steam_id":76561198058762428,"connected_time":636000000000,"state":"active","ping":59},{"user_id":71,"name":"Ritz","steam_id":76561198222317440,"connected_time":9260000000000,"state":"active","ping":57},{"user_id":170,"name":"lofimonkeyjazz","steam_id":76561198117059662,"connected_time":314000000000,"state":"active","ping":77},{"user_id":131,"name":"not drunk","steam_id":76561199184873889,"connected_time":3513000000000,"state":"active","ping":56},{"user_id":120,"name":"Tengen","steam_id":76561199356990346,"connected_time":4401000000000,"state":"active","ping":106},{"user_id":173,"name":"firenickblood","steam_id":76561199302529256,"connected_time":127000000000,"state":"active","ping":66},{"user_id":163,"name":"Gegirgia2022","steam_id":76561198215470680,"connected_time":1601000000000,"state":"active","ping":74},{"user_id":133,"name":"smartieshehe","steam_id":76561198105071091,"connected_time":3499000000000,"state":"active","ping":79},{"user_id":171,"name":"kryhu","steam_id":76561198293327713,"connected_time":290000000000,"state":"active","ping":75},{"user_id":148,"name":"BasLutnya","steam_id":76561198050575776,"connected_time":2596000000000,"state":"active","ping":83},{"user_id":152,"name":"Mr.Cupcake","steam_id":76561198152711174,"connected_time":2113000000000,"state":"active","ping":75},{"user_id":102,"name":"Zerfesh","steam_id":76561198117534358,"connected_time":6580000000000,"state":"active","ping":93},{"user_id":175,"name":"The True Mr. Gustavo","steam_id":76561198119044649,"connected_time":6000000000,"state":"spawning","ping":57},{"user_id":143,"name":"Ripper","steam_id":76561197977547003,"connected_time":3014000000000,"state":"active","ping":102},{"user_id":154,"name":"Minimi","steam_id":76561198873850443,"connected_time":2109000000000,"state":"active","ping":41},{"user_id":168,"name":"Pinkchup","steam_id":76561198106802803,"connected_time":1169000000000,"state":"active","ping":75},{"user_id":150,"name":"bluett","steam_id":76561198157207927,"connected_time":2488000000000,"state":"active","ping":82},{"user_id":142,"name":"Fuvuk","steam_id":76561198044458593,"connected_time":3111000000000,"state":"active","ping":103},{"user_id":174,"name":"DigyB","steam_id":76561198014442345,"connected_time":109000000000,"state":"active","ping":52},{"user_id":145,"name":"bad at gaem","steam_id":76561198072373587,"connected_time":2934000000000,"state":"active","ping":63},{"user_id":146,"name":"Phiphler","steam_id":76561197994055715,"connected_time":2901000000000,"state":"active","ping":61},{"user_id":166,"name":"·óúÀ∞·óú","steam_id":76561198148074472,"connected_time":1473000000000,"state":"active","ping":47},{"user_id":155,"name":"Bruno Banani","steam_id":76561198241563516,"connected_time":2105000000000,"state":"active","ping":128}]},{"server_id":40,"name":"Uncletopia | London | 7 | No Payload","name_short":"lon-7","host":"lon-1.uk.uncletopia.com","port":27075,"enabled":true,"region":"eu","cc":"gb","latitude":51.509865,"longitude":-0.118092,"reserved":0,"last_update":"0001-01-01T00:00:00Z","name_a2s":"Uncletopia | London | 7 | No Payload","protocol":17,"map":"koth_nucleus","folder":"tf","game":"Team Fortress","app_id":440,"player_count":23,"max_players":24,"Bots":0,"server_type":"Dedicated","server_os":"Linux","password":true,"vac":true,"version":"7757534","steam_id":85568392924964314,"keywords":["cp","nocrits","nodmgspread","uncletopia"],"game_id":440,"stv_port":27076,"stv_name":"Uncletopia | London | 7 | No Payload | STV","players":[{"user_id":436,"name":"Zach #SaveTF2","steam_id":76561198336885684,"connected_time":2715000000000,"state":"active","ping":74},{"user_id":450,"name":"Wyro","steam_id":76561199176835169,"connected_time":2139000000000,"state":"active","ping":51},{"user_id":451,"name":"Bibibobototogogo","steam_id":76561198060606476,"connected_time":2137000000000,"state":"active","ping":90},{"user_id":478,"name":"gus","steam_id":76561198876303958,"connected_time":685000000000,"state":"active","ping":100},{"user_id":481,"name":"Shadowlenox","steam_id":76561198061332068,"connected_time":539000000000,"state":"active","ping":78},{"user_id":446,"name":"Toastie","steam_id":76561198195077735,"connected_time":2446000000000,"state":"active","ping":51},{"user_id":453,"name":"cosmetical","steam_id":76561198444036574,"connected_time":2077000000000,"state":"active","ping":70},{"user_id":418,"name":"Farmercy","steam_id":76561198000038039,"connected_time":4183000000000,"state":"active","ping":61},{"user_id":396,"name":"fume.","steam_id":76561197960476801,"connected_time":5353000000000,"state":"active","ping":57},{"user_id":460,"name":"Canbar","steam_id":76561198011322659,"connected_time":1836000000000,"state":"active","ping":116},{"user_id":470,"name":"Cypher","steam_id":76561199023619899,"connected_time":1441000000000,"state":"active","ping":55},{"user_id":477,"name":"QR-M5TR","steam_id":76561198197626135,"connected_time":1025000000000,"state":"active","ping":60},{"user_id":483,"name":"Neto","steam_id":76561198201204507,"connected_time":180000000000,"state":"active","ping":81},{"user_id":464,"name":"Lempii","steam_id":76561198433507634,"connected_time":1689000000000,"state":"active","ping":98},{"user_id":401,"name":"Carl's Marx","steam_id":76561198059700045,"connected_time":5097000000000,"state":"active","ping":59},{"user_id":479,"name":"tiiyama","steam_id":76561198046196005,"connected_time":616000000000,"state":"active","ping":54},{"user_id":472,"name":"kektuse","steam_id":76561198088426580,"connected_time":1306000000000,"state":"active","ping":73},{"user_id":480,"name":"submackeen","steam_id":76561198799855913,"connected_time":592000000000,"state":"active","ping":159},{"user_id":475,"name":"ParisXavi","steam_id":76561199451487415,"connected_time":1217000000000,"state":"active","ping":85},{"user_id":484,"name":"Rift","steam_id":76561198239491040,"connected_time":166000000000,"state":"active","ping":179},{"user_id":473,"name":"vicky got the sticky","steam_id":76561198181794353,"connected_time":1302000000000,"state":"active","ping":45},{"user_id":443,"name":"Sanlys","steam_id":76561198124403701,"connected_time":2611000000000,"state":"active","ping":66},{"user_id":485,"name":"Tuhkur","steam_id":76561198065621618,"connected_time":160000000000,"state":"active","ping":138}]},{"server_id":41,"name":"Uncletopia | London | 8 | Community","name_short":"lon-8","host":"lon-1.uk.uncletopia.com","port":27085,"enabled":true,"region":"eu","cc":"gb","latitude":51.509865,"longitude":-0.118092,"reserved":0,"last_update":"0001-01-01T00:00:00Z","name_a2s":"Uncletopia | London | 8 | Community","protocol":17,"map":"workshop/pl_vigil_rc9.ugc1266210012","folder":"tf","game":"Team Fortress","app_id":440,"player_count":0,"max_players":24,"Bots":0,"server_type":"Dedicated","server_os":"Linux","password":true,"vac":true,"version":"7757534","steam_id":85568392924964315,"keywords":["nocrits","nodmgspread","payload","uncletopia"],"game_id":440,"stv_port":27086,"stv_name":"Uncletopia | London | 8 | Community | STV","players":null},{"server_id":300,"name":"Uncletopia | Montr√©al | 1 | All Maps","name_short":"mtl-1","host":"mtl-1.ca.uncletopia.com","port":27015,"enabled":true,"region":"us-east","cc":"ca","latitude":45.50889,"longitude":-73.56167,"reserved":0,"last_update":"0001-01-01T00:00:00Z","name_a2s":"Uncletopia | Montr√©al | 1 | All Maps","protocol":17,"map":"koth_cascade","folder":"tf","game":"Team Fortress","app_id":440,"player_count":0,"max_players":24,"Bots":0,"server_type":"Dedicated","server_os":"Linux","password":true,"vac":true,"version":"7757534","steam_id":85568392924500087,"keywords":["cp","nocrits","nodmgspread","uncletopia"],"game_id":440,"stv_port":27016,"stv_name":"Uncletopia | Montr√©al | 1 | All Maps | STV","players":null},{"server_id":301,"name":"Uncletopia | Montr√©al | 2 | All Maps","name_short":"mtl-2","host":"mtl-1.ca.uncletopia.com","port":27025,"enabled":true,"region":"us-east","cc":"ca","latitude":45.50889,"longitude":-73.56167,"reserved":0,"last_update":"0001-01-01T00:00:00Z","name_a2s":"Uncletopia | Montr√©al | 2 | All Maps","protocol":17,"map":"pl_borneo","folder":"tf","game":"Team Fortress","app_id":440,"player_count":0,"max_players":24,"Bots":0,"server_type":"Dedicated","server_os":"Linux","password":true,"vac":true,"version":"7757534","steam_id":85568392924500088,"keywords":["nocrits","nodmgspread","payload","uncletopia"],"game_id":440,"stv_port":27026,"stv_name":"Uncletopia | Montr√©al | 2 | All Maps | STV","players":null},{"server_id":302,"name":"Uncletopia | Montr√©al | 3 | All Maps","name_short":"mtl-3","host":"mtl-1.ca.uncletopia.com","port":27035,"enabled":true,"region":"us-east","cc":"ca","latitude":45.50889,"longitude":-73.56167,"reserved":0,"last_update":"0001-01-01T00:00:00Z","name_a2s":"Uncletopia | Montr√©al | 3 | All Maps","protocol":17,"map":"koth_cascade","folder":"tf","game":"Team Fortress","app_id":440,"player_count":0,"max_players":24,"Bots":0,"server_type":"Dedicated","server_os":"Linux","password":true,"vac":true,"version":"7757534","steam_id":85568392924500089,"keywords":["cp","nocrits","nodmgspread","uncletopia"],"game_id":440,"stv_port":27036,"stv_name":"Uncletopia | Montr√©al | 3 | All Maps | STV","players":null},{"server_id":303,"name":"Uncletopia | Montr√©al | 4 | No Payload","name_short":"mtl-4","host":"mtl-1.ca.uncletopia.com","port":27045,"enabled":true,"region":"us-east","cc":"ca","latitude":45.50889,"longitude":-73.56167,"reserved":0,"last_update":"0001-01-01T00:00:00Z","name_a2s":"Uncletopia | Montr√©al | 4 | No Payload","protocol":17,"map":"koth_lakeside_final","folder":"tf","game":"Team Fortress","app_id":440,"player_count":0,"max_players":24,"Bots":0,"server_type":"Dedicated","server_os":"Linux","password":true,"vac":true,"version":"7757534","steam_id":85568392924500090,"keywords":["cp","nocrits","nodmgspread","uncletopia"],"game_id":440,"stv_port":27046,"stv_name":"Uncletopia | Montr√©al | 4 | No Payload | STV","players":null},{"server_id":13,"name":"Uncletopia | New York City | 1 | All Maps","name_short":"nyc-1","host":"nyc-1.us.uncletopia.com","port":27015,"enabled":true,"region":"us-east","cc":"us","latitude":40.73061,"longitude":-73.93524,"reserved":0,"last_update":"0001-01-01T00:00:00Z","name_a2s":"Uncletopia | New York City | 1 | All Maps","protocol":17,"map":"pl_badwater","folder":"tf","game":"Team Fortress","app_id":440,"player_count":24,"max_players":24,"Bots":0,"server_type":"Dedicated","server_os":"Linux","password":true,"vac":true,"version":"7757534","steam_id":85568392924469993,"keywords":["nocrits","nodmgspread","payload","uncletopia"],"game_id":440,"stv_port":27016,"stv_name":"Uncletopia | New York City | 1 | All Maps | STV","players":[{"user_id":141,"name":"joethefool","steam_id":76561199015436319,"connected_time":1819000000000,"state":"active","ping":66},{"user_id":140,"name":"Sosa","steam_id":76561198149636111,"connected_time":2140000000000,"state":"active","ping":93},{"user_id":162,"name":"Chaotic Rushu","steam_id":76561198170054407,"connected_time":126000000000,"state":"active","ping":66},{"user_id":100,"name":"Jankyo","steam_id":76561198083339492,"connected_time":4499000000000,"state":"active","ping":77},{"user_id":149,"name":"Bashirider","steam_id":76561198260522253,"connected_time":834000000000,"state":"active","ping":53},{"user_id":138,"name":"Devoid","steam_id":76561198254039012,"connected_time":2554000000000,"state":"active","ping":46},{"user_id":163,"name":"THE CAPN","steam_id":76561198170210979,"connected_time":1000000000,"state":"spawning","ping":69},{"user_id":155,"name":"BigBubble42","steam_id":76561198136286123,"connected_time":749000000000,"state":"active","ping":71},{"user_id":130,"name":"rivera","steam_id":76561198051058706,"connected_time":3514000000000,"state":"active","ping":37},{"user_id":150,"name":"Sigiferd","steam_id":76561198148788110,"connected_time":830000000000,"state":"active","ping":120},{"user_id":95,"name":"Pendrive","steam_id":76561199427354854,"connected_time":4720000000000,"state":"active","ping":153},{"user_id":107,"name":"Havok","steam_id":76561198063455003,"connected_time":4282000000000,"state":"active","ping":53},{"user_id":161,"name":"HarryjusttHarry","steam_id":76561198982810452,"connected_time":234000000000,"state":"active","ping":73},{"user_id":109,"name":"BLU1 | cola","steam_id":76561198374390458,"connected_time":4156000000000,"state":"active","ping":68},{"user_id":148,"name":"MILF Gaming","steam_id":76561198155378170,"connected_time":846000000000,"state":"active","ping":56},{"user_id":157,"name":"Yatso Bagelmenson","steam_id":76561198004329919,"connected_time":590000000000,"state":"active","ping":78},{"user_id":146,"name":"you forgot the sauce","steam_id":76561198387016713,"connected_time":877000000000,"state":"active","ping":58},{"user_id":160,"name":"Kritzburgh","steam_id":76561198149466938,"connected_time":238000000000,"state":"active","ping":50},{"user_id":143,"name":"JoCaleb02","steam_id":76561198272389829,"connected_time":1432000000000,"state":"active","ping":72},{"user_id":156,"name":"Mr. Snatched Yo Nutsack","steam_id":76561199075873174,"connected_time":630000000000,"state":"active","ping":116},{"user_id":153,"name":"Bubster","steam_id":76561199013499631,"connected_time":786000000000,"state":"active","ping":86},{"user_id":126,"name":"Errrmmett","steam_id":76561198041314051,"connected_time":3723000000000,"state":"active","ping":61},{"user_id":137,"name":"Bother","steam_id":76561198336750909,"connected_time":2653000000000,"state":"active","ping":46},{"user_id":159,"name":"xen","steam_id":76561198048568188,"connected_time":342000000000,"state":"active","ping":46}]},{"server_id":14,"name":"Uncletopia | New York City | 2 | All Maps","name_short":"nyc-2","host":"nyc-1.us.uncletopia.com","port":27025,"enabled":true,"region":"us-east","cc":"us","latitude":40.73061,"longitude":-73.93524,"reserved":0,"last_update":"0001-01-01T00:00:00Z","name_a2s":"Uncletopia | New York City | 2 | All Maps","protocol":17,"map":"koth_cascade","folder":"tf","game":"Team Fortress","app_id":440,"player_count":18,"max_players":24,"Bots":0,"server_type":"Dedicated","server_os":"Linux","password":true,"vac":true,"version":"7757534","steam_id":85568392924469994,"keywords":["cp","nocrits","nodmgspread","uncletopia"],"game_id":440,"stv_port":27026,"stv_name":"Uncletopia | New York City | 2 | All Maps | STV","players":[{"user_id":18,"name":"CakeBlock","steam_id":76561198067238228,"connected_time":1033000000000,"state":"active","ping":50},{"user_id":25,"name":"name420","steam_id":76561198129374525,"connected_time":492000000000,"state":"active","ping":74},{"user_id":21,"name":"Biddy","steam_id":76561198255305591,"connected_time":564000000000,"state":"active","ping":74},{"user_id":22,"name":"Thaenrge","steam_id":76561198027234280,"connected_time":546000000000,"state":"active","ping":112},{"user_id":23,"name":"Skirmish Starter  [F2P]","steam_id":76561199254281550,"connected_time":519000000000,"state":"active","ping":54},{"user_id":31,"name":"kieran","steam_id":76561198115357403,"connected_time":192000000000,"state":"active","ping":131},{"user_id":29,"name":"DJ Absolute Garbage","steam_id":76561198068000747,"connected_time":310000000000,"state":"active","ping":45},{"user_id":27,"name":"money","steam_id":76561198311704368,"connected_time":435000000000,"state":"active","ping":58},{"user_id":28,"name":"Asym29","steam_id":76561198991100651,"connected_time":411000000000,"state":"active","ping":43},{"user_id":32,"name":"Chillin Turt","steam_id":76561198025796849,"connected_time":172000000000,"state":"active","ping":69},{"user_id":33,"name":"wool","steam_id":76561198869689933,"connected_time":168000000000,"state":"active","ping":59},{"user_id":34,"name":"craf","steam_id":76561198163535075,"connected_time":166000000000,"state":"active","ping":53},{"user_id":35,"name":"Shmebulock","steam_id":76561198046941925,"connected_time":147000000000,"state":"active","ping":62},{"user_id":36,"name":"yo mama","steam_id":76561198833816580,"connected_time":120000000000,"state":"active","ping":93},{"user_id":37,"name":"Fresh Lychee","steam_id":76561198045399559,"connected_time":98000000000,"state":"active","ping":74},{"user_id":38,"name":"maji","steam_id":76561199147740808,"connected_time":57000000000,"state":"active","ping":120},{"user_id":39,"name":"Stout","steam_id":76561199427897571,"connected_time":43000000000,"state":"active","ping":144},{"user_id":40,"name":"JamesSaysRelax","steam_id":76561198055687973,"connected_time":34000000000,"state":"active","ping":74}]},{"server_id":15,"name":"Uncletopia | New York City | 3 | Stopwatch Beta","name_short":"nyc-3","host":"nyc-1.us.uncletopia.com","port":27035,"enabled":true,"region":"us-east","cc":"us","latitude":40.73061,"longitude":-73.93524,"reserved":0,"last_update":"0001-01-01T00:00:00Z","name_a2s":"Uncletopia | New York City | 3 | Stopwatch Beta","protocol":17,"map":"koth_lakeside_final","folder":"tf","game":"Team Fortress","app_id":440,"player_count":0,"max_players":24,"Bots":0,"server_type":"Dedicated","server_os":"Linux","password":true,"vac":true,"version":"7757534","steam_id":85568392924742820,"keywords":["cp","nocrits","nodmgspread","uncletopia"],"game_id":440,"stv_port":27036,"stv_name":"Uncletopia | New York City | 3 | Stopwatch Beta | STV","players":null},{"server_id":16,"name":"Uncletopia | New York City | 4 | Community","name_short":"nyc-4","host":"nyc-1.us.uncletopia.com","port":27045,"enabled":true,"region":"us-east","cc":"us","latitude":40.73061,"longitude":-73.93524,"reserved":0,"last_update":"0001-01-01T00:00:00Z","name_a2s":"Uncletopia | New York City | 4 | Community","protocol":17,"map":"workshop/cp_villa_b19.ugc2113052569","folder":"tf","game":"Team Fortress","app_id":440,"player_count":0,"max_players":24,"Bots":0,"server_type":"Dedicated","server_os":"Linux","password":true,"vac":true,"version":"7757534","steam_id":85568392924742821,"keywords":["cp","nocrits","nodmgspread","uncletopia"],"game_id":440,"stv_port":27046,"stv_name":"Uncletopia | New York City | 4 | Community | STV","players":null},{"server_id":142,"name":"Uncletopia | S√£o Paulo | 1 | All Maps","name_short":"sao-1","host":"sao-1.br.uncletopia.com","port":27015,"enabled":true,"region":"sa","cc":"br","latitude":-23.533773,"longitude":-46.62529,"reserved":0,"last_update":"0001-01-01T00:00:00Z","name_a2s":"Uncletopia | S√£o Paulo | 1 | All Maps","protocol":17,"map":"plr_pipeline","folder":"tf","game":"Team Fortress","app_id":440,"player_count":0,"max_players":24,"Bots":0,"server_type":"Dedicated","server_os":"Linux","password":true,"vac":true,"version":"7757534","steam_id":85568392924469996,"keywords":["nocrits","nodmgspread","payload","uncletopia"],"game_id":440,"stv_port":27016,"stv_name":"Uncletopia | S√£o Paulo | 1 | All Maps | STV","players":null},{"server_id":143,"name":"Uncletopia | S√£o Paulo | 2 | All Maps","name_short":"sao-2","host":"sao-2.br.uncletopia.com","port":27015,"enabled":true,"region":"sa","cc":"br","latitude":-23.533773,"longitude":-46.62529,"reserved":0,"last_update":"0001-01-01T00:00:00Z","name_a2s":"Uncletopia | S√£o Paulo | 2 | All Maps","protocol":17,"map":"koth_cascade","folder":"tf","game":"Team Fortress","app_id":440,"player_count":0,"max_players":24,"Bots":0,"server_type":"Dedicated","server_os":"Linux","password":true,"vac":true,"version":"7757534","steam_id":85568392924485349,"keywords":["cp","nocrits","nodmgspread","uncletopia"],"game_id":440,"stv_port":27016,"stv_name":"Uncletopia | S√£o Paulo | 2 | All Maps | STV","players":null},{"server_id":7,"name":"Uncletopia | Seattle | 1 | All Maps","name_short":"sea-1","host":"sea-1.us.uncletopia.com","port":27015,"enabled":true,"region":"us-west","cc":"us","latitude":47.608013,"longitude":-122.33517,"reserved":0,"last_update":"0001-01-01T00:00:00Z","name_a2s":"Uncletopia | Seattle | 1 | All Maps","protocol":17,"map":"pl_badwater","folder":"tf","game":"Team Fortress","app_id":440,"player_count":24,"max_players":24,"Bots":0,"server_type":"Dedicated","server_os":"Linux","password":true,"vac":true,"version":"7757534","steam_id":85568392924469997,"keywords":["nocrits","nodmgspread","payload","uncletopia"],"game_id":440,"stv_port":27016,"stv_name":"Uncletopia | Seattle | 1 | All Maps | STV","players":[{"user_id":232,"name":"me","steam_id":76561199468285784,"connected_time":5063000000000,"state":"active","ping":54},{"user_id":234,"name":"Lily Thorn","steam_id":76561198305488625,"connected_time":4831000000000,"state":"active","ping":68},{"user_id":286,"name":"Laa-Laa","steam_id":76561198104943072,"connected_time":108000000000,"state":"active","ping":123},{"user_id":263,"name":"Rhymloh","steam_id":76561198056788413,"connected_time":1857000000000,"state":"active","ping":60},{"user_id":287,"name":"WeAreTheSpirits","steam_id":76561198191555728,"connected_time":91000000000,"state":"active","ping":61},{"user_id":273,"name":"Defeat","steam_id":76561198065203818,"connected_time":1023000000000,"state":"active","ping":37},{"user_id":244,"name":"2 Point Tom","steam_id":76561198087617008,"connected_time":2610000000000,"state":"active","ping":48},{"user_id":260,"name":"Your_Local_CIA_Agent","steam_id":76561199469235407,"connected_time":1982000000000,"state":"active","ping":76},{"user_id":245,"name":"Super_Sonic133","steam_id":76561198141384474,"connected_time":2281000000000,"state":"active","ping":62},{"user_id":274,"name":"bronk","steam_id":76561198181109553,"connected_time":1019000000000,"state":"active","ping":71},{"user_id":265,"name":"Username","steam_id":76561198855586261,"connected_time":1781000000000,"state":"active","ping":62},{"user_id":283,"name":"Dimple","steam_id":76561198980324190,"connected_time":271000000000,"state":"active","ping":48},{"user_id":243,"name":"UHHHHHHHHHHHHHHHHHHHHHHHHH","steam_id":76561198246760934,"connected_time":3096000000000,"state":"active","ping":106},{"user_id":284,"name":"Dargoos","steam_id":76561198366212046,"connected_time":180000000000,"state":"active","ping":73},{"user_id":228,"name":"SenTreats","steam_id":76561198085835841,"connected_time":5702000000000,"state":"active","ping":89},{"user_id":210,"name":"[SK] Punish ‚ô• ÁâßÊøëÁ∫¢ËéâÊ†ñ","steam_id":76561198207987376,"connected_time":7825000000000,"state":"active","ping":100},{"user_id":276,"name":"weegeebad","steam_id":76561198280841437,"connected_time":1000000000000,"state":"active","ping":115},{"user_id":285,"name":"„Ä£dust„Ä£ -she/her-","steam_id":76561198045218909,"connected_time":154000000000,"state":"active","ping":44},{"user_id":279,"name":"RaixaR","steam_id":76561198025289430,"connected_time":894000000000,"state":"active","ping":83},{"user_id":280,"name":"mumbles","steam_id":76561197994528974,"connected_time":693000000000,"state":"active","ping":77},{"user_id":282,"name":"Sewer","steam_id":76561198803732690,"connected_time":661000000000,"state":"active","ping":88},{"user_id":236,"name":"NickTheIrken","steam_id":76561198300040671,"connected_time":3670000000000,"state":"active","ping":120},{"user_id":219,"name":"o o o o o o o o o","steam_id":76561197993757506,"connected_time":6431000000000,"state":"active","ping":76},{"user_id":224,"name":"soulcantspeech","steam_id":76561198186690945,"connected_time":5813000000000,"state":"active","ping":46}]},{"server_id":119,"name":"Uncletopia | Seattle | 2 | All Maps","name_short":"sea-2","host":"sea-1.us.uncletopia.com","port":27025,"enabled":true,"region":"us-west","cc":"us","latitude":47.608013,"longitude":-122.33517,"reserved":0,"last_update":"0001-01-01T00:00:00Z","name_a2s":"Uncletopia | Seattle | 2 | All Maps","protocol":17,"map":"koth_cascade","folder":"tf","game":"Team Fortress","app_id":440,"player_count":0,"max_players":24,"Bots":0,"server_type":"Dedicated","server_os":"Linux","password":true,"vac":true,"version":"7757534","steam_id":85568392924469998,"keywords":["cp","nocrits","nodmgspread","uncletopia"],"game_id":440,"stv_port":27026,"stv_name":"Uncletopia | Seattle | 2 | All Maps | STV","players":null},{"server_id":406,"name":"Uncletopia | Seattle | 3 | Stopwatch Beta","name_short":"sea-3","host":"sea-1.us.uncletopia.com","port":27035,"enabled":true,"region":"us-west","cc":"us","latitude":47.608013,"longitude":-122.33517,"reserved":0,"last_update":"0001-01-01T00:00:00Z","name_a2s":"Uncletopia | Seattle | 3 | Stopwatch Beta","protocol":17,"map":"cp_snakewater_final1","folder":"tf","game":"Team Fortress","app_id":440,"player_count":0,"max_players":24,"Bots":0,"server_type":"Dedicated","server_os":"Linux","password":true,"vac":true,"version":"7757534","steam_id":85568392924515217,"keywords":["cp","nocrits","nodmgspread","uncletopia"],"game_id":440,"stv_port":27036,"stv_name":"Uncletopia | Seattle | 3 | Stopwatch Beta | STV","players":null},{"server_id":17,"name":"Uncletopia | San Francisco | 1 | All Maps","name_short":"sfo-1","host":"sfo-1.us.uncletopia.com","port":27015,"enabled":true,"region":"us-west","cc":"us","latitude":37.77397,"longitude":-122.4313,"reserved":0,"last_update":"0001-01-01T00:00:00Z","name_a2s":"Uncletopia | San Francisco | 1 | All Maps","protocol":17,"map":"pl_badwater","folder":"tf","game":"Team Fortress","app_id":440,"player_count":0,"max_players":24,"Bots":0,"server_type":"Dedicated","server_os":"Linux","password":true,"vac":true,"version":"7757534","steam_id":85568392924469999,"keywords":["nocrits","nodmgspread","payload","uncletopia"],"game_id":440,"stv_port":27016,"stv_name":"Uncletopia | San Francisco | 1 | All Maps | STV","players":null},{"server_id":18,"name":"Uncletopia | San Francisco | 2 | All Maps","name_short":"sfo-2","host":"sfo-1.us.uncletopia.com","port":27025,"enabled":true,"region":"us-west","cc":"us","latitude":37.77397,"longitude":-122.4313,"reserved":0,"last_update":"0001-01-01T00:00:00Z","name_a2s":"Uncletopia | San Francisco | 2 | All Maps","protocol":17,"map":"koth_highpass","folder":"tf","game":"Team Fortress","app_id":440,"player_count":0,"max_players":24,"Bots":0,"server_type":"Dedicated","server_os":"Linux","password":true,"vac":true,"version":"7757534","steam_id":85568392924470000,"keywords":["cp","nocrits","nodmgspread","uncletopia"],"game_id":440,"stv_port":27026,"stv_name":"Uncletopia | San Francisco | 2 | All Maps | STV","players":null},{"server_id":19,"name":"Uncletopia | San Francisco | 3 | Stopwatch Beta","name_short":"sfo-3","host":"sfo-1.us.uncletopia.com","port":27035,"enabled":true,"region":"us-west","cc":"us","latitude":37.77397,"longitude":-122.4313,"reserved":0,"last_update":"0001-01-01T00:00:00Z","name_a2s":"Uncletopia | San Francisco | 3 | Stopwatch Beta","protocol":17,"map":"koth_viaduct","folder":"tf","game":"Team Fortress","app_id":440,"player_count":0,"max_players":24,"Bots":0,"server_type":"Dedicated","server_os":"Linux","password":true,"vac":true,"version":"7757534","steam_id":85568392924742824,"keywords":["cp","nocrits","nodmgspread","uncletopia"],"game_id":440,"stv_port":27036,"stv_name":"Uncletopia | San Francisco | 3 | Stopwatch Beta | STV","players":null},{"server_id":20,"name":"Uncletopia | San Francisco | 4 | Community","name_short":"sfo-4","host":"sfo-1.us.uncletopia.com","port":27045,"enabled":true,"region":"us-west","cc":"us","latitude":37.77397,"longitude":-122.4313,"reserved":0,"last_update":"0001-01-01T00:00:00Z","name_a2s":"Uncletopia | San Francisco | 4 | Community","protocol":17,"map":"pl_borneo","folder":"tf","game":"Team Fortress","app_id":440,"player_count":0,"max_players":24,"Bots":0,"server_type":"Dedicated","server_os":"Linux","password":true,"vac":true,"version":"7757534","steam_id":85568392924742826,"keywords":["nocrits","nodmgspread","payload","uncletopia"],"game_id":440,"stv_port":27046,"stv_name":"Uncletopia | San Francisco | 4 | Community | STV","players":null},{"server_id":141,"name":"Uncletopia | Sydney | 1 | All Maps","name_short":"syd-1","host":"syd-1.au.uncletopia.com","port":27015,"enabled":true,"region":"au","cc":"au","latitude":-33.865143,"longitude":151.2099,"reserved":0,"last_update":"0001-01-01T00:00:00Z","name_a2s":"Uncletopia | Sydney | 1 | All Maps","protocol":17,"map":"koth_lakeside_final","folder":"tf","game":"Team Fortress","app_id":440,"player_count":0,"max_players":24,"Bots":0,"server_type":"Dedicated","server_os":"Linux","password":true,"vac":true,"version":"7757534","steam_id":85568392924470001,"keywords":["cp","nocrits","nodmgspread","uncletopia"],"game_id":440,"stv_port":27016,"stv_name":"Uncletopia | Sydney | 1 | All Maps | STV","players":null},{"server_id":123,"name":"Uncletopia | Sydney | 2 | All Maps","name_short":"syd-2","host":"syd-1.au.uncletopia.com","port":27025,"enabled":true,"region":"au","cc":"au","latitude":-33.865143,"longitude":151.2099,"reserved":0,"last_update":"0001-01-01T00:00:00Z","name_a2s":"Uncletopia | Sydney | 2 | All Maps","protocol":17,"map":"koth_viaduct","folder":"tf","game":"Team Fortress","app_id":440,"player_count":0,"max_players":24,"Bots":0,"server_type":"Dedicated","server_os":"Linux","password":true,"vac":true,"version":"7757534","steam_id":85568392924470002,"keywords":["cp","nocrits","nodmgspread","uncletopia"],"game_id":440,"stv_port":27026,"stv_name":"Uncletopia | Sydney | 2 | All Maps | STV","players":null},{"server_id":395,"name":"Uncletopia | Sydney | 3 | All Maps","name_short":"syd-3","host":"syd-1.au.uncletopia.com","port":27035,"enabled":true,"region":"au","cc":"au","latitude":-33.865143,"longitude":151.2099,"reserved":0,"last_update":"0001-01-01T00:00:00Z","name_a2s":"Uncletopia | Sydney | 3 | All Maps","protocol":17,"map":"koth_viaduct","folder":"tf","game":"Team Fortress","app_id":440,"player_count":0,"max_players":24,"Bots":0,"server_type":"Dedicated","server_os":"Linux","password":true,"vac":true,"version":"7757534","steam_id":85568392925194467,"keywords":["cp","nocrits","nodmgspread","uncletopia"],"game_id":440,"stv_port":27036,"stv_name":"Uncletopia | Sydney | 3 | All Maps | STV","players":null},{"server_id":396,"name":"Uncletopia | Sydney | 4 | All Maps","name_short":"syd-4","host":"syd-1.au.uncletopia.com","port":27045,"enabled":true,"region":"au","cc":"au","latitude":-33.865143,"longitude":151.2099,"reserved":0,"last_update":"0001-01-01T00:00:00Z","name_a2s":"Uncletopia | Sydney | 4 | All Maps","protocol":17,"map":"cp_snakewater_final1","folder":"tf","game":"Team Fortress","app_id":440,"player_count":0,"max_players":24,"Bots":0,"server_type":"Dedicated","server_os":"Linux","password":true,"vac":true,"version":"7757534","steam_id":85568392925397958,"keywords":["cp","nocrits","nodmgspread","uncletopia"],"game_id":440,"stv_port":27046,"stv_name":"Uncletopia | Sydney | 4 | All Maps | STV","players":null},{"server_id":58,"name":"Uncletopia | Sydney | 5 | Stopwatch Beta","name_short":"syd-5","host":"syd-1.au.uncletopia.com","port":27055,"enabled":true,"region":"au","cc":"au","latitude":-33.865143,"longitude":151.2099,"reserved":0,"last_update":"0001-01-01T00:00:00Z","name_a2s":"Uncletopia | Sydney | 5 | Stopwatch Beta","protocol":17,"map":"pl_barnblitz","folder":"tf","game":"Team Fortress","app_id":440,"player_count":0,"max_players":24,"Bots":0,"server_type":"Dedicated","server_os":"Linux","password":true,"vac":true,"version":"7757534","steam_id":85568392925397959,"keywords":["nocrits","nodmgspread","payload","uncletopia"],"game_id":440,"stv_port":27056,"stv_name":"Uncletopia | Sydney | 5 | Stopwatch Beta | STV","players":null},{"server_id":59,"name":"Uncletopia | Sydney | 6 | Community","name_short":"syd-6","host":"syd-1.au.uncletopia.com","port":27065,"enabled":true,"region":"au","cc":"au","latitude":-33.865143,"longitude":151.2099,"reserved":0,"last_update":"0001-01-01T00:00:00Z","name_a2s":"Uncletopia | Sydney | 6 | Community","protocol":17,"map":"cp_mountainlab","folder":"tf","game":"Team Fortress","app_id":440,"player_count":0,"max_players":24,"Bots":0,"server_type":"Dedicated","server_os":"Linux","password":true,"vac":true,"version":"7757534","steam_id":85568392925397960,"keywords":["cp","nocrits","nodmgspread","uncletopia"],"game_id":440,"stv_port":27066,"stv_name":"Uncletopia | Sydney | 6 | Community | STV","players":null},{"server_id":49,"name":"Uncletopia | Warsaw | 1 | All Maps","name_short":"waw-1","host":"waw-1.pl.uncletopia.com","port":27015,"enabled":true,"region":"eu","cc":"pl","latitude":52.2297,"longitude":21.017532,"reserved":0,"last_update":"0001-01-01T00:00:00Z","name_a2s":"","protocol":0,"map":"","folder":"","game":"","app_id":0,"player_count":0,"max_players":0,"Bots":0,"server_type":"","server_os":"","password":false,"vac":false,"version":"","steam_id":0,"keywords":null,"game_id":0,"stv_port":0,"stv_name":"","players":null},{"server_id":50,"name":"Uncletopia | Warsaw | 2 | All Maps","name_short":"waw-2","host":"waw-1.pl.uncletopia.com","port":27025,"enabled":true,"region":"eu","cc":"pl","latitude":52.2297,"longitude":21.017532,"reserved":0,"last_update":"0001-01-01T00:00:00Z","name_a2s":"Uncletopia | Warsaw | 2 | All Maps","protocol":17,"map":"cp_gravelpit","folder":"tf","game":"Team Fortress","app_id":440,"player_count":0,"max_players":24,"Bots":0,"server_type":"Dedicated","server_os":"Linux","password":true,"vac":true,"version":"7757534","steam_id":85568392925397851,"keywords":["cp","nocrits","nodmgspread","uncletopia"],"game_id":440,"stv_port":27026,"stv_name":"Uncletopia | Warsaw | 2 | All Maps | STV","players":null},{"server_id":51,"name":"Uncletopia | Warsaw | 3 | All Maps","name_short":"waw-3","host":"waw-1.pl.uncletopia.com","port":27035,"enabled":true,"region":"eu","cc":"pl","latitude":52.2297,"longitude":21.017532,"reserved":0,"last_update":"0001-01-01T00:00:00Z","name_a2s":"Uncletopia | Warsaw | 3 | All Maps","protocol":17,"map":"pl_badwater","folder":"tf","game":"Team Fortress","app_id":440,"player_count":0,"max_players":24,"Bots":0,"server_type":"Dedicated","server_os":"Linux","password":true,"vac":true,"version":"7757534","steam_id":85568392925397852,"keywords":["nocrits","nodmgspread","payload","uncletopia"],"game_id":440,"stv_port":27036,"stv_name":"Uncletopia | Warsaw | 3 | All Maps | STV","players":null},{"server_id":52,"name":"Uncletopia | Warsaw | 4 | All Maps","name_short":"waw-4","host":"waw-1.pl.uncletopia.com","port":27045,"enabled":true,"region":"eu","cc":"pl","latitude":52.2297,"longitude":21.017532,"reserved":0,"last_update":"0001-01-01T00:00:00Z","name_a2s":"Uncletopia | Warsaw | 4 | All Maps","protocol":17,"map":"koth_highpass","folder":"tf","game":"Team Fortress","app_id":440,"player_count":0,"max_players":24,"Bots":0,"server_type":"Dedicated","server_os":"Linux","password":true,"vac":true,"version":"7757534","steam_id":85568392925397853,"keywords":["cp","nocrits","nodmgspread","uncletopia"],"game_id":440,"stv_port":27046,"stv_name":"Uncletopia | Warsaw | 4 | All Maps | STV","players":null},{"server_id":53,"name":"Uncletopia | Warsaw | 5 | Stopwatch Beta","name_short":"waw-5","host":"waw-1.pl.uncletopia.com","port":27055,"enabled":true,"region":"eu","cc":"pl","latitude":52.2297,"longitude":21.017532,"reserved":0,"last_update":"0001-01-01T00:00:00Z","name_a2s":"Uncletopia | Warsaw | 5 | Stopwatch Beta","protocol":17,"map":"workshop/koth_product_final.ugc454272353","folder":"tf","game":"Team Fortress","app_id":440,"player_count":0,"max_players":24,"Bots":0,"server_type":"Dedicated","server_os":"Linux","password":true,"vac":true,"version":"7757534","steam_id":85568392925397854,"keywords":["cp","nocrits","nodmgspread","uncletopia"],"game_id":440,"stv_port":27056,"stv_name":"Uncletopia | Warsaw | 5 | Stopwatch Beta | STV","players":null},{"server_id":54,"name":"Uncletopia | Warsaw | 6 | Community","name_short":"waw-6","host":"waw-1.pl.uncletopia.com","port":27065,"enabled":true,"region":"eu","cc":"pl","latitude":52.2297,"longitude":21.017532,"reserved":0,"last_update":"0001-01-01T00:00:00Z","name_a2s":"Uncletopia | Warsaw | 6 | Community","protocol":17,"map":"workshop/cp_logjam_rc12.ugc454812035","folder":"tf","game":"Team Fortress","app_id":440,"player_count":0,"max_players":24,"Bots":0,"server_type":"Dedicated","server_os":"Linux","password":true,"vac":true,"version":"7757534","steam_id":85568392925397856,"keywords":["cp","nocrits","nodmgspread","uncletopia"],"game_id":440,"stv_port":27066,"stv_name":"Uncletopia | Warsaw | 6 | Community | STV","players":null}]}