{"status":true,"message":"","result":[{"server_id":9,"name":"Uncletopia | Atlanta | 1 | All Maps","name_short":"atl-1","host":"atl-1.us.uncletopia.com","port":27015,"enabled":true,"region":"us-east","cc":"us","latitude":33.753746,"longitude":-84.38633,"reserved":0,"last_update":"0001-01-01T00:00:00Z","name_a2s":"Uncletopia | Atlanta | 1 | All Maps","protocol":17,"map":"pl_badwater","folder":"tf","game":"Team Fortress","app_id":440,"player_count":24,"max_players":24,"Bots":0,"server_type":"Dedicated","server_os":"Linux","password":true,"vac":true,"version":"7742253","steam_id":85568392924469982,"keywords":["nocrits","nodmgspread","payload","uncletopia"],"game_id":440,"stv_port":27016,"stv_name":"Uncletopia | Atlanta | 1 | All Maps | STV","players":[{"user_id":305,"name":"malcrash01 1.2","steam_id":76561198155080112,"connected_time":416000000000,"state":"active","ping":70},{"user_id":283,"name":"Nephs","steam_id":76561198136763403,"connected_time":1847000000000,"state":"active","ping":69},{"user_id":273,"name":"||:‚ô©‚ô©‚ô©‚ô™:|| Opplydead","steam_id":76561198028630334,"connected_time":3236000000000,"state":"active","ping":108},{"user_id":306,"name":"Doominic","steam_id":76561198259172209,"connected_time":414000000000,"state":"active","ping":86},{"user_id":309,"name":"reis","steam_id":76561199232952016,"connected_time":379000000000,"state":"active","ping":165},{"user_id":315,"name":"Ivan the Terrible","steam_id":76561198139595241,"connected_time":169000000000,"state":"active","ping":163},{"user_id":314,"name":"James","steam_id":76561198081313916,"connected_time":317000000000,"state":"active","ping":52},{"user_id":300,"name":"Quiggles","steam_id":76561199177247655,"connected_time":960000000000,"state":"active","ping":48},{"user_id":264,"name":"pungabot","steam_id":76561198009088243,"connected_time":3569000000000,"state":"active","ping":76},{"user_id":249,"name":"nnobi","steam_id":76561198878729277,"connected_time":4407000000000,"state":"active","ping":59},{"user_id":308,"name":"Johnny Lawrence #JohnnyMaxxing","steam_id":76561199367141671,"connected_time":398000000000,"state":"active","ping":60},{"user_id":254,"name":"FemboyNate","steam_id":76561198146636410,"connected_time":4188000000000,"state":"active","ping":74},{"user_id":310,"name":"Open Mailbox","steam_id":76561198051933580,"connected_time":371000000000,"state":"active","ping":71},{"user_id":269,"name":"catgirl of the void","steam_id":76561198052542017,"connected_time":3505000000000,"state":"active","ping":51},{"user_id":291,"name":"Rawr","steam_id":76561198199946973,"connected_time":1613000000000,"state":"active","ping":59},{"user_id":307,"name":"Strawburrr","steam_id":76561199208694620,"connected_time":406000000000,"state":"active","ping":62},{"user_id":311,"name":"indi","steam_id":76561198045917538,"connected_time":364000000000,"state":"active","ping":74},{"user_id":301,"name":"HARRY","steam_id":76561198842067238,"connected_time":948000000000,"state":"active","ping":60},{"user_id":296,"name":"woodrow","steam_id":76561198323702203,"connected_time":1492000000000,"state":"active","ping":69},{"user_id":312,"name":"ATL1 | Psionic Box","steam_id":76561198151019322,"connected_time":357000000000,"state":"active","ping":76},{"user_id":313,"name":"green goblin","steam_id":76561198074500319,"connected_time":336000000000,"state":"active","ping":122},{"user_id":263,"name":"Dog","steam_id":76561198450992953,"connected_time":3709000000000,"state":"active","ping":113},{"user_id":302,"name":"doug","steam_id":76561199153175881,"connected_time":936000000000,"state":"active","ping":57},{"user_id":304,"name":"Messy_","steam_id":76561199095580664,"connected_time":642000000000,"state":"active","ping":123}]},{"server_id":400,"name":"Uncletopia | Atlanta | 3 | Stopwatch Beta","name_short":"atl-3","host":"atl-1.us.uncletopia.com","port":27035,"enabled":true,"region":"us-east","cc":"us","latitude":33.753746,"longitude":-84.38633,"reserved":0,"last_update":"0001-01-01T00:00:00Z","name_a2s":"Uncletopia | Atlanta | 3 | Stopwatch Beta","protocol":17,"map":"workshop/pl_badwater_pro_v12.ugc2142942074","folder":"tf","game":"Team Fortress","app_id":440,"player_count":0,"max_players":24,"Bots":0,"server_type":"Dedicated","server_os":"Linux","password":true,"vac":true,"version":"7742253","steam_id":85568392924515187,"keywords":["nocrits","nodmgspread","payload","uncletopia"],"game_id":440,"stv_port":27036,"stv_name":"Uncletopia | Atlanta | 3 | Stopwatch Beta | STV","players":null},{"server_id":401,"name":"Uncletopia | Atlanta | 4 | No Payload","name_short":"atl-4","host":"atl-1.us.uncletopia.com","port":27045,"enabled":true,"region":"us-east","cc":"us","latitude":33.753746,"longitude":-84.38633,"reserved":0,"last_update":"0001-01-01T00:00:00Z","name_a2s":"Uncletopia | Atlanta | 4 | No Payload","protocol":17,"map":"pl_pier","folder":"tf","game":"Team Fortress","app_id":440,"player_count":0,"max_players":24,"Bots":0,"server_type":"Dedicated","server_os":"Linux","password":true,"vac":true,"version":"7723704","steam_id":85568392924515188,"keywords":["nocrits","nodmgspread","payload","uncletopia"],"game_id":440,"stv_port":27046,"stv_name":"Uncletopia | Atlanta | 4 | No Payload | STV","players":null},{"server_id":2,"name":"Uncletopia | Chicago | 1 | All Maps","name_short":"chi-1","host":"chi-1.us.uncletopia.com","port":27015,"enabled":true,"region":"us-central","cc":"us","latitude":41.881832,"longitude":-87.62318,"reserved":0,"last_update":"0001-01-01T00:00:00Z","name_a2s":"Uncletopia | Chicago | 1 | All Maps","protocol":17,"map":"pl_frontier_final","folder":"tf","game":"Team Fortress","app_id":440,"player_count":24,"max_players":24,"Bots":0,"server_type":"Dedicated","server_os":"Linux","password":true,"vac":true,"version":"7742253","steam_id":85568392924469984,"keywords":["nocrits","nodmgspread","payload","uncletopia"],"game_id":440,"stv_port":27016,"stv_name":"Uncletopia | Chicago | 1 | All Maps | STV","players":[{"user_id":426,"name":"Kraftlos","steam_id":76561198074350350,"connected_time":1243000000000,"state":"active","ping":68},{"user_id":425,"name":"offthechips","steam_id":76561198264702085,"connected_time":1257000000000,"state":"active","ping":60},{"user_id":421,"name":"Smite","steam_id":76561197999845696,"connected_time":1684000000000,"state":"active","ping":56},{"user_id":439,"name":"stepho","steam_id":76561199132035586,"connected_time":416000000000,"state":"active","ping":85},{"user_id":431,"name":"orneps489","steam_id":76561199124755916,"connected_time":652000000000,"state":"active","ping":74},{"user_id":433,"name":"schmopp","steam_id":76561198076490954,"connected_time":616000000000,"state":"active","ping":45},{"user_id":434,"name":"Jailbreak","steam_id":76561198802085218,"connected_time":575000000000,"state":"active","ping":72},{"user_id":377,"name":"full mental alchemist","steam_id":76561198007187994,"connected_time":4935000000000,"state":"active","ping":60},{"user_id":442,"name":"No Telefrag Plz","steam_id":76561198113931312,"connected_time":287000000000,"state":"active","ping":72},{"user_id":408,"name":"Are You Smarter than God?","steam_id":76561198120364727,"connected_time":2066000000000,"state":"active","ping":50},{"user_id":420,"name":"Reckless Klondike","steam_id":76561198060904416,"connected_time":1784000000000,"state":"active","ping":76},{"user_id":400,"name":"no","steam_id":76561198248853140,"connected_time":3177000000000,"state":"active","ping":48},{"user_id":410,"name":"RustyRaven","steam_id":76561198299497828,"connected_time":2055000000000,"state":"active","ping":54},{"user_id":435,"name":"NukaTheRabbit {Fur}","steam_id":76561198058692928,"connected_time":554000000000,"state":"active","ping":50},{"user_id":397,"name":"Brig.Gen.D_Dudepower","steam_id":76561198905510048,"connected_time":3516000000000,"state":"active","ping":62},{"user_id":373,"name":"kibble","steam_id":76561198077083011,"connected_time":5012000000000,"state":"active","ping":77},{"user_id":423,"name":"bikerkid207","steam_id":76561198390782783,"connected_time":1613000000000,"state":"active","ping":66},{"user_id":443,"name":"La3yb0y","steam_id":76561198832078601,"connected_time":85000000000,"state":"active","ping":137},{"user_id":429,"name":"Whizzo the Clown","steam_id":76561197995910627,"connected_time":901000000000,"state":"active","ping":82},{"user_id":440,"name":"Termiite ‚óÑBG-M‚ñ∫","steam_id":76561198052911020,"connected_time":413000000000,"state":"active","ping":63},{"user_id":438,"name":"‚ù§ Ashley ‚ù§","steam_id":76561198056428303,"connected_time":460000000000,"state":"active","ping":105},{"user_id":441,"name":"recycle","steam_id":76561198819562111,"connected_time":405000000000,"state":"active","ping":70},{"user_id":389,"name":"Back with the milk","steam_id":76561199020105501,"connected_time":4026000000000,"state":"active","ping":77},{"user_id":338,"name":"[slug]","steam_id":76561197989592178,"connected_time":8168000000000,"state":"active","ping":68}]},{"server_id":106,"name":"Uncletopia | Chicago | 2 | All Maps","name_short":"chi-2","host":"chi-1.us.uncletopia.com","port":27025,"enabled":true,"region":"us-central","cc":"us","latitude":41.881832,"longitude":-87.62318,"reserved":0,"last_update":"0001-01-01T00:00:00Z","name_a2s":"Uncletopia | Chicago | 2 | All Maps","protocol":17,"map":"pl_upward","folder":"tf","game":"Team Fortress","app_id":440,"player_count":24,"max_players":24,"Bots":0,"server_type":"Dedicated","server_os":"Linux","password":true,"vac":true,"version":"7742253","steam_id":85568392924469985,"keywords":["nocrits","nodmgspread","payload","uncletopia"],"game_id":440,"stv_port":27026,"stv_name":"Uncletopia | Chicago | 2 | All Maps | STV","players":[{"user_id":374,"name":"Weshmek","steam_id":76561198009950743,"connected_time":196000000000,"state":"active","ping":53},{"user_id":372,"name":"BillButtLicker69","steam_id":76561198070119268,"connected_time":220000000000,"state":"active","ping":108},{"user_id":375,"name":"Scorpsy","steam_id":76561198024477688,"connected_time":138000000000,"state":"active","ping":74},{"user_id":326,"name":"uhooter","steam_id":76561198007829078,"connected_time":2259000000000,"state":"active","ping":50},{"user_id":371,"name":"outboard gloater","steam_id":76561199436141076,"connected_time":277000000000,"state":"active","ping":89},{"user_id":348,"name":"Tony808R9","steam_id":76561198403370267,"connected_time":1164000000000,"state":"active","ping":119},{"user_id":362,"name":"TeatsMcghee #FertileStepDad","steam_id":76561198036483480,"connected_time":971000000000,"state":"active","ping":74},{"user_id":369,"name":"MasterDoge17","steam_id":76561198917443549,"connected_time":569000000000,"state":"active","ping":71},{"user_id":361,"name":"Clanker","steam_id":76561198164315915,"connected_time":1006000000000,"state":"active","ping":80},{"user_id":355,"name":"Carbonated McDonalds Sweet Tea","steam_id":76561198169500112,"connected_time":1043000000000,"state":"active","ping":81},{"user_id":342,"name":"15 INCH TGIRL SCHLONG","steam_id":76561198122059018,"connected_time":1286000000000,"state":"active","ping":60},{"user_id":343,"name":"Hypothetical NerdGirl Pussy","steam_id":76561198067556825,"connected_time":1267000000000,"state":"active","ping":65},{"user_id":344,"name":"duck with a stach","steam_id":76561199089889412,"connected_time":1266000000000,"state":"active","ping":103},{"user_id":321,"name":"Nobody","steam_id":76561198286486517,"connected_time":3325000000000,"state":"active","ping":61},{"user_id":345,"name":"arths160194","steam_id":76561199303569791,"connected_time":1249000000000,"state":"active","ping":63},{"user_id":373,"name":"fishfin","steam_id":76561198255819115,"connected_time":212000000000,"state":"active","ping":62},{"user_id":347,"name":"-W3E- grim10465","steam_id":76561198045698581,"connected_time":1238000000000,"state":"active","ping":52},{"user_id":367,"name":"cool","steam_id":76561199033484246,"connected_time":885000000000,"state":"active","ping":83},{"user_id":350,"name":"Ellis","steam_id":76561198993634489,"connected_time":1137000000000,"state":"active","ping":102},{"user_id":351,"name":"Ras","steam_id":76561198123546775,"connected_time":1134000000000,"state":"active","ping":71},{"user_id":376,"name":"TOXICSTORM115","steam_id":76561199191649675,"connected_time":129000000000,"state":"active","ping":95},{"user_id":353,"name":"The Almighty Rizzard","steam_id":76561198839205387,"connected_time":1124000000000,"state":"active","ping":75},{"user_id":319,"name":"Mailman","steam_id":76561198090675970,"connected_time":3356000000000,"state":"active","ping":69},{"user_id":364,"name":"rainingmudkips","steam_id":76561198018010854,"connected_time":954000000000,"state":"active","ping":61}]},{"server_id":402,"name":"Uncletopia | Chicago | 3 | All Maps","name_short":"chi-3","host":"chi-1.us.uncletopia.com","port":27035,"enabled":true,"region":"us-central","cc":"us","latitude":41.881832,"longitude":-87.62318,"reserved":0,"last_update":"0001-01-01T00:00:00Z","name_a2s":"Uncletopia | Chicago | 3 | All Maps","protocol":17,"map":"pl_snowycoast","folder":"tf","game":"Team Fortress","app_id":440,"player_count":24,"max_players":24,"Bots":0,"server_type":"Dedicated","server_os":"Linux","password":true,"vac":true,"version":"7742253","steam_id":85568392924515191,"keywords":["nocrits","nodmgspread","payload","uncletopia"],"game_id":440,"stv_port":27036,"stv_name":"Uncletopia | Chicago | 3 | All Maps | STV","players":[{"user_id":251,"name":"three three","steam_id":76561198177354155,"connected_time":2555000000000,"state":"active","ping":58},{"user_id":275,"name":"WellowWickd","steam_id":76561199455671853,"connected_time":146000000000,"state":"active","ping":47},{"user_id":269,"name":"Sone","steam_id":76561198069601032,"connected_time":788000000000,"state":"active","ping":75},{"user_id":273,"name":"MrChaosOK","steam_id":76561197976353083,"connected_time":492000000000,"state":"active","ping":106},{"user_id":221,"name":"Nikofreaker","steam_id":76561198320604061,"connected_time":4840000000000,"state":"active","ping":75},{"user_id":260,"name":"Adam (Cursed Confetti Creature)","steam_id":76561198317690197,"connected_time":2144000000000,"state":"active","ping":45},{"user_id":239,"name":"JetZ","steam_id":76561199122488957,"connected_time":3703000000000,"state":"active","ping":60},{"user_id":246,"name":"AAAAAAAAAAAAAAAAAAAAAAAAAAAAAAA","steam_id":76561198817866879,"connected_time":2651000000000,"state":"active","ping":77},{"user_id":252,"name":"Rappitor","steam_id":76561198105613110,"connected_time":2512000000000,"state":"active","ping":47},{"user_id":200,"name":"‚í∑‚ì™‚ì™‚ì£‚ì®‚ìí‚ìê‚ìö‚ìî‚ì¢","steam_id":76561198088776421,"connected_time":5931000000000,"state":"active","ping":62},{"user_id":264,"name":"Plain Toast","steam_id":76561198451580251,"connected_time":1797000000000,"state":"active","ping":80},{"user_id":235,"name":"Bag of Chips","steam_id":76561198057374871,"connected_time":4329000000000,"state":"active","ping":64},{"user_id":261,"name":"king of bogers","steam_id":76561198045731295,"connected_time":1922000000000,"state":"active","ping":68},{"user_id":276,"name":"crippling fumo addiction","steam_id":76561198115874625,"connected_time":74000000000,"state":"active","ping":71},{"user_id":267,"name":"--_Cook_--","steam_id":76561198080855748,"connected_time":983000000000,"state":"active","ping":77},{"user_id":254,"name":"Filthy Acts at Reasonable Price","steam_id":76561198354615890,"connected_time":2501000000000,"state":"active","ping":92},{"user_id":255,"name":"Vladikr1","steam_id":76561198401495362,"connected_time":2466000000000,"state":"active","ping":53},{"user_id":225,"name":"Lone Dancer","steam_id":76561199096241116,"connected_time":4699000000000,"state":"active","ping":56},{"user_id":274,"name":"beefsquatchthenub","steam_id":76561197990059948,"connected_time":457000000000,"state":"active","ping":64},{"user_id":272,"name":"cokersworld","steam_id":76561198039731344,"connected_time":724000000000,"state":"active","ping":74},{"user_id":191,"name":"ly","steam_id":76561198062922146,"connected_time":6528000000000,"state":"active","ping":76},{"user_id":265,"name":"The Caretaker","steam_id":76561198125241411,"connected_time":1793000000000,"state":"active","ping":104},{"user_id":268,"name":"Bread Baker","steam_id":76561198185335103,"connected_time":804000000000,"state":"active","ping":59},{"user_id":231,"name":"MasterJunk","steam_id":76561198126924678,"connected_time":4606000000000,"state":"active","ping":92}]},{"server_id":403,"name":"Uncletopia | Chicago | 4 | All Maps","name_short":"chi-4","host":"chi-1.us.uncletopia.com","port":27045,"enabled":true,"region":"us-central","cc":"us","latitude":41.881832,"longitude":-87.62318,"reserved":0,"last_update":"0001-01-01T00:00:00Z","name_a2s":"Uncletopia | Chicago | 4 | All Maps","protocol":17,"map":"pl_barnblitz","folder":"tf","game":"Team Fortress","app_id":440,"player_count":24,"max_players":24,"Bots":0,"server_type":"Dedicated","server_os":"Linux","password":true,"vac":true,"version":"7742253","steam_id":85568392924515193,"keywords":["nocrits","nodmgspread","payload","uncletopia"],"game_id":440,"stv_port":27046,"stv_name":"Uncletopia | Chicago | 4 | All Maps | STV","players":[{"user_id":102,"name":"no wtf not that","steam_id":76561198461518382,"connected_time":846000000000,"state":"active","ping":57},{"user_id":18,"name":"Claidhim","steam_id":76561198078139596,"connected_time":5561000000000,"state":"active","ping":62},{"user_id":35,"name":"Benito Mussolini","steam_id":76561198362801147,"connected_time":4918000000000,"state":"active","ping":150},{"user_id":20,"name":"Artemis","steam_id":76561198079751655,"connected_time":5426000000000,"state":"active","ping":64},{"user_id":21,"name":"Elsirk","steam_id":76561198055665464,"connected_time":5407000000000,"state":"active","ping":66},{"user_id":100,"name":"ILuSyOn","steam_id":76561198275401929,"connected_time":868000000000,"state":"active","ping":164},{"user_id":114,"name":"new years forecast","steam_id":76561198042243083,"connected_time":152000000000,"state":"active","ping":61},{"user_id":32,"name":"KevCraft","steam_id":76561199000622939,"connected_time":4993000000000,"state":"active","ping":68},{"user_id":48,"name":"Do not kill the friendly","steam_id":76561198084982609,"connected_time":4536000000000,"state":"active","ping":67},{"user_id":83,"name":"Meta","steam_id":76561198116402759,"connected_time":2313000000000,"state":"active","ping":71},{"user_id":107,"name":"PCR","steam_id":76561198048748102,"connected_time":247000000000,"state":"active","ping":50},{"user_id":116,"name":"mammoth!?","steam_id":76561198066881911,"connected_time":128000000000,"state":"active","ping":76},{"user_id":110,"name":"TrashCanGaming","steam_id":76561199150746424,"connected_time":236000000000,"state":"active","ping":62},{"user_id":73,"name":"Invincible213","steam_id":76561198147392290,"connected_time":2877000000000,"state":"active","ping":51},{"user_id":68,"name":"groond","steam_id":76561198309426720,"connected_time":3196000000000,"state":"active","ping":65},{"user_id":90,"name":"boymilk","steam_id":76561199074208922,"connected_time":1249000000000,"state":"active","ping":161},{"user_id":111,"name":"Sh3ba Spaniel","steam_id":76561198047412394,"connected_time":231000000000,"state":"active","ping":66},{"user_id":98,"name":"Hey Peter","steam_id":76561198107782200,"connected_time":884000000000,"state":"active","ping":73},{"user_id":105,"name":"Scooty.","steam_id":76561198138990283,"connected_time":363000000000,"state":"active","ping":67},{"user_id":71,"name":"Uncle","steam_id":76561197988647705,"connected_time":3011000000000,"state":"active","ping":62},{"user_id":49,"name":"Walter.J.Kovacs","steam_id":76561199034498380,"connected_time":4528000000000,"state":"active","ping":111},{"user_id":112,"name":"stall","steam_id":76561199152861652,"connected_time":216000000000,"state":"active","ping":120},{"user_id":113,"name":"Metal 9","steam_id":76561198178318343,"connected_time":210000000000,"state":"active","ping":71},{"user_id":95,"name":"Randy \"the Man\" Johnson","steam_id":76561198039124445,"connected_time":1183000000000,"state":"active","ping":90}]},{"server_id":36,"name":"Uncletopia | Chicago | 5 | All Maps","name_short":"chi-5","host":"chi-2.us.uncletopia.com","port":27015,"enabled":true,"region":"us-central","cc":"us","latitude":41.881832,"longitude":-87.62318,"reserved":0,"last_update":"0001-01-01T00:00:00Z","name_a2s":"Uncletopia | Chicago | 5 | All Maps","protocol":17,"map":"koth_nucleus","folder":"tf","game":"Team Fortress","app_id":440,"player_count":3,"max_players":24,"Bots":0,"server_type":"Dedicated","server_os":"Linux","password":true,"vac":true,"version":"7742253","steam_id":85568392924866362,"keywords":["cp","nocrits","nodmgspread","uncletopia"],"game_id":440,"stv_port":27016,"stv_name":"Uncletopia | Chicago | 5 | All Maps | STV","players":[{"user_id":11,"name":"THE DONUT LORD","steam_id":76561198946117409,"connected_time":2713000000000,"state":"active","ping":239},{"user_id":12,"name":"bean man","steam_id":76561198798516824,"connected_time":2699000000000,"state":"active","ping":155},{"user_id":17,"name":"jlaguzzi007","steam_id":76561199058140274,"connected_time":1114000000000,"state":"active","ping":78}]},{"server_id":37,"name":"Uncletopia | Chicago | 6 | All Maps","name_short":"chi-6","host":"chi-2.us.uncletopia.com","port":27025,"enabled":true,"region":"us-central","cc":"us","latitude":41.881832,"longitude":-87.62318,"reserved":0,"last_update":"0001-01-01T00:00:00Z","name_a2s":"Uncletopia | Chicago | 6 | All Maps","protocol":17,"map":"pl_upward","folder":"tf","game":"Team Fortress","app_id":440,"player_count":24,"max_players":24,"Bots":0,"server_type":"Dedicated","server_os":"Linux","password":true,"vac":true,"version":"7742253","steam_id":85568392924866363,"keywords":["nocrits","nodmgspread","payload","uncletopia"],"game_id":440,"stv_port":27026,"stv_name":"Uncletopia | Chicago | 6 | All Maps | STV","players":[{"user_id":134,"name":"Left 4 Life","steam_id":76561198080820057,"connected_time":880000000000,"state":"active","ping":129},{"user_id":124,"name":"fresco","steam_id":76561199101199477,"connected_time":1443000000000,"state":"active","ping":70},{"user_id":106,"name":"better off (dying)","steam_id":76561198066585785,"connected_time":3235000000000,"state":"active","ping":80},{"user_id":139,"name":"HanakoToast","steam_id":76561198045233131,"connected_time":431000000000,"state":"active","ping":97},{"user_id":101,"name":"Lullaby","steam_id":76561198061103166,"connected_time":4302000000000,"state":"active","ping":55},{"user_id":138,"name":"Discourse","steam_id":76561198984286678,"connected_time":561000000000,"state":"active","ping":48},{"user_id":133,"name":"Super Splint","steam_id":76561199465781208,"connected_time":903000000000,"state":"active","ping":66},{"user_id":116,"name":"NoShen","steam_id":76561198147434663,"connected_time":2845000000000,"state":"active","ping":67},{"user_id":117,"name":"Twitch.tv/WhatsWater","steam_id":76561198036410259,"connected_time":2653000000000,"state":"active","ping":69},{"user_id":109,"name":"potato pat","steam_id":76561198025489194,"connected_time":3192000000000,"state":"active","ping":78},{"user_id":81,"name":"send dudes","steam_id":76561198084277762,"connected_time":5108000000000,"state":"active","ping":61},{"user_id":125,"name":"CBTgaeming","steam_id":76561199089290128,"connected_time":1425000000000,"state":"active","ping":135},{"user_id":135,"name":"Koishi","steam_id":76561198054541054,"connected_time":877000000000,"state":"active","ping":54},{"user_id":136,"name":"poey","steam_id":76561198865346767,"connected_time":875000000000,"state":"active","ping":104},{"user_id":118,"name":"Jimmyjams1","steam_id":76561198869715324,"connected_time":2557000000000,"state":"active","ping":64},{"user_id":129,"name":"TravelerFinis","steam_id":76561199181244690,"connected_time":1237000000000,"state":"active","ping":115},{"user_id":105,"name":"basil","steam_id":76561198075758026,"connected_time":3404000000000,"state":"active","ping":93},{"user_id":83,"name":"Barry","steam_id":76561198371953939,"connected_time":5098000000000,"state":"active","ping":85},{"user_id":128,"name":"Nickson1","steam_id":76561198175839309,"connected_time":1365000000000,"state":"active","ping":68},{"user_id":94,"name":"ebbaxter13","steam_id":76561198839647688,"connected_time":4612000000000,"state":"active","ping":79},{"user_id":130,"name":"non_ai","steam_id":76561198270951938,"connected_time":1160000000000,"state":"active","ping":67},{"user_id":127,"name":"Lots0","steam_id":76561198043143145,"connected_time":1375000000000,"state":"active","ping":97},{"user_id":120,"name":"glitchy","steam_id":76561199009135766,"connected_time":2525000000000,"state":"active","ping":46},{"user_id":122,"name":"stop","steam_id":76561198268686419,"connected_time":1827000000000,"state":"active","ping":63}]},{"server_id":38,"name":"Uncletopia | Chicago | 7 | Stopwatch Beta","name_short":"chi-7","host":"chi-2.us.uncletopia.com","port":27035,"enabled":true,"region":"us-central","cc":"us","latitude":41.881832,"longitude":-87.62318,"reserved":0,"last_update":"0001-01-01T00:00:00Z","name_a2s":"Uncletopia | Chicago | 7 | Stopwatch Beta","protocol":17,"map":"pl_upward","folder":"tf","game":"Team Fortress","app_id":440,"player_count":0,"max_players":24,"Bots":0,"server_type":"Dedicated","server_os":"Linux","password":true,"vac":true,"version":"7742253","steam_id":85568392924866364,"keywords":["nocrits","nodmgspread","payload","uncletopia"],"game_id":440,"stv_port":27036,"stv_name":"Uncletopia | Chicago | 7 | Stopwatch Beta | STV","players":null},{"server_id":39,"name":"Uncletopia | Chicago | 8 | Community","name_short":"chi-8","host":"chi-2.us.uncletopia.com","port":27045,"enabled":true,"region":"us-central","cc":"us","latitude":41.881832,"longitude":-87.62318,"reserved":0,"last_update":"0001-01-01T00:00:00Z","name_a2s":"Uncletopia | Chicago | 8 | Community","protocol":17,"map":"workshop/pl_cactuscanyon_redux_rc4b.ugc2579644293","folder":"tf","game":"Team Fortress","app_id":440,"player_count":24,"max_players":24,"Bots":0,"server_type":"Dedicated","server_os":"Linux","password":true,"vac":true,"version":"7742253","steam_id":85568392924866365,"keywords":["nocrits","nodmgspread","payload","uncletopia"],"game_id":440,"stv_port":27046,"stv_name":"Uncletopia | Chicago | 8 | Community | STV","players":[{"user_id":160,"name":"Master Of Whales","steam_id":76561198349104889,"connected_time":1304000000000,"state":"active","ping":98},{"user_id":127,"name":"barker bill","steam_id":76561198018451994,"connected_time":4359000000000,"state":"active","ping":84},{"user_id":88,"name":"NUt","steam_id":76561198031007966,"connected_time":6069000000000,"state":"active","ping":60},{"user_id":171,"name":"Spy achungus","steam_id":76561198135651070,"connected_time":668000000000,"state":"active","ping":79},{"user_id":170,"name":"Happy_Boi","steam_id":76561198025156401,"connected_time":678000000000,"state":"active","ping":66},{"user_id":181,"name":"BlueSpy","steam_id":76561198134707089,"connected_time":125000000000,"state":"active","ping":67},{"user_id":173,"name":"Kzjytsugn","steam_id":76561198130241974,"connected_time":639000000000,"state":"active","ping":96},{"user_id":174,"name":"Backtotheeric","steam_id":76561198331228470,"connected_time":491000000000,"state":"active","ping":61},{"user_id":176,"name":"cock pushups","steam_id":76561199204276856,"connected_time":431000000000,"state":"active","ping":65},{"user_id":132,"name":"Kiddo0","steam_id":76561198359596849,"connected_time":4145000000000,"state":"active","ping":71},{"user_id":168,"name":"MR.meeseeks","steam_id":76561198294943420,"connected_time":709000000000,"state":"active","ping":68},{"user_id":122,"name":"Blitzy","steam_id":76561198149472890,"connected_time":4738000000000,"state":"active","ping":74},{"user_id":178,"name":"Âä†Ê≤πÁ´ôÊùÇËçâ","steam_id":76561198400959313,"connected_time":329000000000,"state":"active","ping":72},{"user_id":164,"name":"FATHER","steam_id":76561198041308977,"connected_time":1113000000000,"state":"active","ping":62},{"user_id":166,"name":"Rum and Death","steam_id":76561198095245223,"connected_time":1018000000000,"state":"active","ping":69},{"user_id":158,"name":"SapphireSalt","steam_id":76561198356921097,"connected_time":1943000000000,"state":"active","ping":73},{"user_id":138,"name":"Dr. FeelGoose","steam_id":76561198029496191,"connected_time":4057000000000,"state":"active","ping":91},{"user_id":137,"name":"Le Meilleur","steam_id":76561198054581325,"connected_time":4067000000000,"state":"active","ping":57},{"user_id":179,"name":"condom shard #27","steam_id":76561198060342804,"connected_time":328000000000,"state":"active","ping":77},{"user_id":182,"name":"CFDv20","steam_id":76561198450073779,"connected_time":100000000000,"state":"active","ping":104},{"user_id":40,"name":"üÖúüÖîüÖîüÖöüÖ¢üÖ£üÖî\ufffd\ufffd\ufffd","steam_id":76561197999748343,"connected_time":8184000000000,"state":"active","ping":64},{"user_id":183,"name":"Funk Monk","steam_id":76561198086523223,"connected_time":68000000000,"state":"active","ping":77},{"user_id":86,"name":"sebjzy","steam_id":76561198009959034,"connected_time":6253000000000,"state":"active","ping":83},{"user_id":141,"name":"Jolteo_","steam_id":76561198118018703,"connected_time":3997000000000,"state":"active","ping":80}]},{"server_id":8,"name":"Uncletopia | Dallas | 1 | All Maps","name_short":"dal-1","host":"dal-1.us.uncletopia.com","port":27015,"enabled":true,"region":"us-central","cc":"us","latitude":32.779167,"longitude":-96.80889,"reserved":0,"last_update":"0001-01-01T00:00:00Z","name_a2s":"Uncletopia | Dallas | 1 | All Maps","protocol":17,"map":"pl_borneo","folder":"tf","game":"Team Fortress","app_id":440,"player_count":24,"max_players":24,"Bots":0,"server_type":"Dedicated","server_os":"Linux","password":true,"vac":true,"version":"7742253","steam_id":85568392924469986,"keywords":["nocrits","nodmgspread","payload","uncletopia"],"game_id":440,"stv_port":27016,"stv_name":"Uncletopia | Dallas | 1 | All Maps | STV","players":[{"user_id":323,"name":"FoamyPirate.h","steam_id":76561197970312151,"connected_time":1166000000000,"state":"active","ping":73},{"user_id":331,"name":"Camrione","steam_id":76561198085405219,"connected_time":142000000000,"state":"active","ping":89},{"user_id":298,"name":"survivalist bubbie","steam_id":76561198860460013,"connected_time":2102000000000,"state":"active","ping":70},{"user_id":326,"name":"kermitcreeper(ZAZA)","steam_id":76561199222829972,"connected_time":501000000000,"state":"active","ping":61},{"user_id":330,"name":"Void","steam_id":76561198308290211,"connected_time":153000000000,"state":"active","ping":89},{"user_id":329,"name":"survivalist keeda","steam_id":76561198277979851,"connected_time":205000000000,"state":"active","ping":96},{"user_id":294,"name":"QuickJab","steam_id":76561198088891030,"connected_time":2223000000000,"state":"active","ping":46},{"user_id":240,"name":"Mitty","steam_id":76561198014177684,"connected_time":6291000000000,"state":"active","ping":80},{"user_id":325,"name":"GLG.Liz","steam_id":76561198021957956,"connected_time":572000000000,"state":"active","ping":54},{"user_id":237,"name":"gluechugger369","steam_id":76561198164037160,"connected_time":6628000000000,"state":"active","ping":85},{"user_id":184,"name":"deech","steam_id":76561198066429444,"connected_time":8790000000000,"state":"active","ping":87},{"user_id":211,"name":"The Robot Menace","steam_id":76561198043390413,"connected_time":7660000000000,"state":"active","ping":57},{"user_id":276,"name":"Grinski","steam_id":76561198054787727,"connected_time":3363000000000,"state":"active","ping":99},{"user_id":332,"name":"Tomato","steam_id":76561197996472649,"connected_time":128000000000,"state":"active","ping":91},{"user_id":302,"name":"Strang","steam_id":76561198046936399,"connected_time":1993000000000,"state":"active","ping":90},{"user_id":292,"name":"refrigerator","steam_id":76561198034385095,"connected_time":2436000000000,"state":"active","ping":57},{"user_id":314,"name":"TYPEFRUITS","steam_id":76561198860235676,"connected_time":1595000000000,"state":"active","ping":79},{"user_id":169,"name":"G. Howard Dee","steam_id":76561198058382812,"connected_time":9672000000000,"state":"active","ping":74},{"user_id":263,"name":"„ÄåJimbo Reference„Äç","steam_id":76561198016078541,"connected_time":4942000000000,"state":"active","ping":81},{"user_id":283,"name":"Detective obvious (f2p)","steam_id":76561198977045933,"connected_time":3279000000000,"state":"active","ping":95},{"user_id":309,"name":"JayK","steam_id":76561198046277492,"connected_time":1757000000000,"state":"active","ping":61},{"user_id":267,"name":"CalebDOTexe","steam_id":76561198042071293,"connected_time":4528000000000,"state":"active","ping":60},{"user_id":296,"name":"FG7","steam_id":76561198381197197,"connected_time":2125000000000,"state":"active","ping":109},{"user_id":210,"name":"flexer_2000","steam_id":76561198084422657,"connected_time":7726000000000,"state":"active","ping":79}]},{"server_id":108,"name":"Uncletopia | Dallas | 2 | All Maps","name_short":"dal-2","host":"dal-1.us.uncletopia.com","port":27025,"enabled":true,"region":"us-central","cc":"us","latitude":32.779167,"longitude":-96.80889,"reserved":0,"last_update":"0001-01-01T00:00:00Z","name_a2s":"Uncletopia | Dallas | 2 | All Maps","protocol":17,"map":"pl_swiftwater_final1","folder":"tf","game":"Team Fortress","app_id":440,"player_count":24,"max_players":24,"Bots":0,"server_type":"Dedicated","server_os":"Linux","password":true,"vac":true,"version":"7742253","steam_id":85568392924469988,"keywords":["nocrits","nodmgspread","payload","uncletopia"],"game_id":440,"stv_port":27026,"stv_name":"Uncletopia | Dallas | 2 | All Maps | STV","players":[{"user_id":271,"name":"aisu","steam_id":76561198043768507,"connected_time":1778000000000,"state":"active","ping":87},{"user_id":272,"name":"Female Gamer","steam_id":76561199366482682,"connected_time":1758000000000,"state":"active","ping":110},{"user_id":208,"name":"SodaKid_7","steam_id":76561198079419485,"connected_time":5717000000000,"state":"active","ping":67},{"user_id":286,"name":"Gromble","steam_id":76561198148876897,"connected_time":812000000000,"state":"active","ping":95},{"user_id":231,"name":"Rin \"Hindwing\" Redtail","steam_id":76561199074865638,"connected_time":4813000000000,"state":"active","ping":47},{"user_id":287,"name":"The Assistant Regional Manager","steam_id":76561199221484936,"connected_time":810000000000,"state":"active","ping":79},{"user_id":275,"name":"Also","steam_id":76561199033216399,"connected_time":1698000000000,"state":"active","ping":48},{"user_id":285,"name":"MarekHamm","steam_id":76561198239042642,"connected_time":827000000000,"state":"active","ping":65},{"user_id":268,"name":"Mason","steam_id":76561199057309626,"connected_time":1984000000000,"state":"active","ping":90},{"user_id":284,"name":"Space Movie from 1998","steam_id":76561199194960453,"connected_time":927000000000,"state":"active","ping":76},{"user_id":250,"name":"[LINUX] F2P=S*(M/B)+H || Spy!","steam_id":76561198093538786,"connected_time":3319000000000,"state":"active","ping":45},{"user_id":276,"name":"festive jester","steam_id":76561198079609974,"connected_time":1629000000000,"state":"active","ping":84},{"user_id":257,"name":"Iron","steam_id":76561198247918478,"connected_time":2752000000000,"state":"active","ping":67},{"user_id":258,"name":"FunGi","steam_id":76561198881418662,"connected_time":2743000000000,"state":"active","ping":70},{"user_id":283,"name":"1998 Ford Ranger XLT","steam_id":76561199121043102,"connected_time":1012000000000,"state":"active","ping":87},{"user_id":260,"name":"IxMic88","steam_id":76561198018552479,"connected_time":2689000000000,"state":"active","ping":50},{"user_id":179,"name":"Maximussergio","steam_id":76561198437220428,"connected_time":7425000000000,"state":"active","ping":157},{"user_id":277,"name":"Poop Deck Joe","steam_id":76561198271397568,"connected_time":1454000000000,"state":"active","ping":63},{"user_id":288,"name":"dudeguypersonmanhombre","steam_id":76561198052016845,"connected_time":805000000000,"state":"active","ping":77},{"user_id":279,"name":"Qliphoth dweller","steam_id":76561198195517770,"connected_time":1407000000000,"state":"active","ping":40},{"user_id":280,"name":"hunky dory","steam_id":76561198030422254,"connected_time":1393000000000,"state":"active","ping":101},{"user_id":289,"name":"Yakub","steam_id":76561198068856323,"connected_time":786000000000,"state":"active","ping":105},{"user_id":282,"name":"Sailor Jupiter","steam_id":76561198125094648,"connected_time":1242000000000,"state":"active","ping":93},{"user_id":223,"name":"civilian","steam_id":76561198289811981,"connected_time":5389000000000,"state":"active","ping":65}]},{"server_id":5,"name":"Uncletopia | Frankfurt | 1 | All Maps","name_short":"frk-1","host":"frk-1.de.uncletopia.com","port":27015,"enabled":true,"region":"eu","cc":"de","latitude":50.110924,"longitude":8.682127,"reserved":0,"last_update":"0001-01-01T00:00:00Z","name_a2s":"Uncletopia | Frankfurt | 1 | All Maps","protocol":17,"map":"pl_rumford_event","folder":"tf","game":"Team Fortress","app_id":440,"player_count":20,"max_players":24,"Bots":0,"server_type":"Dedicated","server_os":"Linux","password":true,"vac":true,"version":"7742253","steam_id":85568392924469989,"keywords":["nocrits","nodmgspread","payload","uncletopia"],"game_id":440,"stv_port":27016,"stv_name":"Uncletopia | Frankfurt | 1 | All Maps | STV","players":[{"user_id":693,"name":"Ricey","steam_id":76561198832961307,"connected_time":31000000000,"state":"active","ping":62},{"user_id":670,"name":"Emotional Crit","steam_id":76561198005251983,"connected_time":1895000000000,"state":"active","ping":62},{"user_id":607,"name":"r06u3","steam_id":76561198254099253,"connected_time":5295000000000,"state":"active","ping":184},{"user_id":667,"name":"GodOfGobboz","steam_id":76561198154677956,"connected_time":2175000000000,"state":"active","ping":74},{"user_id":694,"name":"Cazulas","steam_id":76561198027460283,"connected_time":0,"state":"connecting","ping":0},{"user_id":688,"name":"Unexpected","steam_id":76561198944781914,"connected_time":780000000000,"state":"active","ping":76},{"user_id":692,"name":"Coac","steam_id":76561198085265740,"connected_time":143000000000,"state":"active","ping":60},{"user_id":685,"name":"La-Li-Lu-Le-Lo","steam_id":76561198047990600,"connected_time":930000000000,"state":"active","ping":49},{"user_id":686,"name":"Wyro","steam_id":76561199176835169,"connected_time":880000000000,"state":"active","ping":66},{"user_id":674,"name":"linkinparkfan123","steam_id":76561199033782005,"connected_time":1605000000000,"state":"active","ping":79},{"user_id":683,"name":"Mandel","steam_id":76561199183213205,"connected_time":990000000000,"state":"active","ping":114},{"user_id":660,"name":"Grillem Dafoe","steam_id":76561198306874574,"connected_time":2223000000000,"state":"active","ping":77},{"user_id":682,"name":"doubletwist","steam_id":76561198062571317,"connected_time":1003000000000,"state":"active","ping":85},{"user_id":656,"name":"finger","steam_id":76561198032101031,"connected_time":2429000000000,"state":"active","ping":95},{"user_id":678,"name":"Uncle Owen","steam_id":76561198157999291,"connected_time":1084000000000,"state":"active","ping":81},{"user_id":672,"name":"‚òÜ‚òÜ Air Force Juan ‚òÜ‚òÜ","steam_id":76561198013240411,"connected_time":1855000000000,"state":"active","ping":70},{"user_id":648,"name":"Skullflesh","steam_id":76561198286722734,"connected_time":3195000000000,"state":"active","ping":62},{"user_id":676,"name":"Kolar","steam_id":76561198108583895,"connected_time":1465000000000,"state":"active","ping":46},{"user_id":653,"name":"Dummy","steam_id":76561198349741126,"connected_time":2472000000000,"state":"active","ping":62},{"user_id":649,"name":"rummy","steam_id":76561197997573379,"connected_time":3186000000000,"state":"active","ping":52}]},{"server_id":110,"name":"Uncletopia | Frankfurt | 2 | All Maps","name_short":"frk-2","host":"frk-1.de.uncletopia.com","port":27025,"enabled":true,"region":"eu","cc":"de","latitude":50.110924,"longitude":8.682127,"reserved":0,"last_update":"0001-01-01T00:00:00Z","name_a2s":"Uncletopia | Frankfurt | 2 | All Maps","protocol":17,"map":"pl_frontier_final","folder":"tf","game":"Team Fortress","app_id":440,"player_count":24,"max_players":24,"Bots":0,"server_type":"Dedicated","server_os":"Linux","password":true,"vac":true,"version":"7742253","steam_id":85568392924469990,"keywords":["nocrits","nodmgspread","payload","uncletopia"],"game_id":440,"stv_port":27026,"stv_name":"Uncletopia | Frankfurt | 2 | All Maps | STV","players":[{"user_id":591,"name":"Dolphin2011","steam_id":76561197997323419,"connected_time":316000000000,"state":"active","ping":90},{"user_id":571,"name":"A Succulent Chinese Meal","steam_id":76561198069472440,"connected_time":1746000000000,"state":"active","ping":93},{"user_id":546,"name":"zdX","steam_id":76561198163735277,"connected_time":3100000000000,"state":"active","ping":52},{"user_id":580,"name":"Zombi3","steam_id":76561198326290621,"connected_time":1250000000000,"state":"active","ping":70},{"user_id":592,"name":"BrickBobBrick","steam_id":76561198931770279,"connected_time":309000000000,"state":"active","ping":58},{"user_id":517,"name":"snake9544","steam_id":76561198083076205,"connected_time":5304000000000,"state":"active","ping":80},{"user_id":590,"name":"important photo","steam_id":76561199042045774,"connected_time":328000000000,"state":"active","ping":66},{"user_id":567,"name":"Buddy","steam_id":76561198050185582,"connected_time":2237000000000,"state":"active","ping":76},{"user_id":574,"name":"waddle dork","steam_id":76561198297349985,"connected_time":1717000000000,"state":"active","ping":54},{"user_id":544,"name":"20BB Raxor","steam_id":76561198239927434,"connected_time":3173000000000,"state":"active","ping":75},{"user_id":570,"name":"Lazulura","steam_id":76561198103569919,"connected_time":1760000000000,"state":"active","ping":90},{"user_id":587,"name":"Kratosbarra","steam_id":76561198114670173,"connected_time":587000000000,"state":"active","ping":77},{"user_id":588,"name":"KuhlerKarl","steam_id":76561198411211564,"connected_time":569000000000,"state":"active","ping":62},{"user_id":508,"name":"Jonas Destark","steam_id":76561198030327441,"connected_time":6116000000000,"state":"active","ping":65},{"user_id":584,"name":"Gryoss","steam_id":76561197999837111,"connected_time":1197000000000,"state":"active","ping":102},{"user_id":582,"name":"Flying Viking","steam_id":76561198137036430,"connected_time":1238000000000,"state":"active","ping":57},{"user_id":578,"name":"gaming","steam_id":76561198044461938,"connected_time":1405000000000,"state":"active","ping":56},{"user_id":579,"name":".bRdyyy","steam_id":76561198057256978,"connected_time":1280000000000,"state":"active","ping":48},{"user_id":583,"name":"torkoer","steam_id":76561198147391129,"connected_time":1232000000000,"state":"active","ping":66},{"user_id":595,"name":"Lemmy","steam_id":76561199038870751,"connected_time":44000000000,"state":"active","ping":95},{"user_id":593,"name":"Castellan","steam_id":76561197994861142,"connected_time":266000000000,"state":"active","ping":64},{"user_id":575,"name":"Burpman","steam_id":76561198022897937,"connected_time":1716000000000,"state":"active","ping":61},{"user_id":566,"name":"manKe","steam_id":76561198008564860,"connected_time":2301000000000,"state":"active","ping":57},{"user_id":594,"name":"ProfessorCrack","steam_id":76561199035475627,"connected_time":263000000000,"state":"active","ping":78}]},{"server_id":308,"name":"Uncletopia | Frankfurt | 3 | All Maps","name_short":"frk-3","host":"frk-1.de.uncletopia.com","port":27035,"enabled":true,"region":"eu","cc":"de","latitude":50.110924,"longitude":8.682127,"reserved":0,"last_update":"0001-01-01T00:00:00Z","name_a2s":"Uncletopia | Frankfurt | 3 | All Maps","protocol":17,"map":"pl_upward","folder":"tf","game":"Team Fortress","app_id":440,"player_count":24,"max_players":24,"Bots":0,"server_type":"Dedicated","server_os":"Linux","password":true,"vac":true,"version":"7742253","steam_id":85568392924504274,"keywords":["nocrits","nodmgspread","payload","uncletopia"],"game_id":440,"stv_port":27036,"stv_name":"Uncletopia | Frankfurt | 3 | All Maps | STV","players":[{"user_id":339,"name":"stoppen","steam_id":76561197960281482,"connected_time":508000000000,"state":"active","ping":68},{"user_id":308,"name":"Micha≈Ç","steam_id":76561198320346362,"connected_time":3416000000000,"state":"active","ping":60},{"user_id":337,"name":"tralalaOuiOui","steam_id":76561197963471507,"connected_time":839000000000,"state":"active","ping":45},{"user_id":341,"name":"Decadence","steam_id":76561198206829379,"connected_time":463000000000,"state":"active","ping":62},{"user_id":268,"name":"AWP Bodyshot :) ‚ù§","steam_id":76561198029928533,"connected_time":6293000000000,"state":"active","ping":45},{"user_id":340,"name":"Animatic","steam_id":76561198186421601,"connected_time":505000000000,"state":"active","ping":184},{"user_id":348,"name":"Rosalyn","steam_id":76561198103854248,"connected_time":314000000000,"state":"active","ping":59},{"user_id":284,"name":"ProMate","steam_id":76561198277138236,"connected_time":5029000000000,"state":"active","ping":66},{"user_id":338,"name":"Nakano","steam_id":76561198866569125,"connected_time":831000000000,"state":"active","ping":85},{"user_id":344,"name":"king chiba","steam_id":76561199143737200,"connected_time":442000000000,"state":"active","ping":84},{"user_id":278,"name":"donk","steam_id":76561198162676648,"connected_time":5373000000000,"state":"active","ping":75},{"user_id":347,"name":"zheel","steam_id":76561198354135485,"connected_time":332000000000,"state":"active","ping":73},{"user_id":298,"name":"FJADL","steam_id":76561198237008214,"connected_time":4051000000000,"state":"active","ping":57},{"user_id":332,"name":"punk","steam_id":76561199053880024,"connected_time":1063000000000,"state":"active","ping":47},{"user_id":312,"name":"lanzer","steam_id":76561198049983016,"connected_time":2604000000000,"state":"active","ping":92},{"user_id":346,"name":"the joy of recycling","steam_id":76561198415564349,"connected_time":430000000000,"state":"active","ping":74},{"user_id":323,"name":"Abby","steam_id":76561198170528489,"connected_time":2177000000000,"state":"active","ping":78},{"user_id":305,"name":"yourtruemedic","steam_id":76561198826881879,"connected_time":3483000000000,"state":"active","ping":64},{"user_id":330,"name":"tf2 snake","steam_id":76561198193971167,"connected_time":1226000000000,"state":"active","ping":57},{"user_id":311,"name":"sigma female","steam_id":76561198298576765,"connected_time":2637000000000,"state":"active","ping":82},{"user_id":325,"name":"AntsInMyAss","steam_id":76561198881037607,"connected_time":2171000000000,"state":"active","ping":79},{"user_id":331,"name":"sugcs","steam_id":76561199032984087,"connected_time":1193000000000,"state":"active","ping":46},{"user_id":317,"name":"eple","steam_id":76561198017686306,"connected_time":2563000000000,"state":"active","ping":58},{"user_id":335,"name":"Spore","steam_id":76561198889433116,"connected_time":1014000000000,"state":"active","ping":87}]},{"server_id":309,"name":"Uncletopia | Frankfurt | 4 | All Maps","name_short":"frk-4","host":"frk-1.de.uncletopia.com","port":27045,"enabled":true,"region":"eu","cc":"de","latitude":50.110924,"longitude":8.682127,"reserved":0,"last_update":"0001-01-01T00:00:00Z","name_a2s":"Uncletopia | Frankfurt | 4 | All Maps","protocol":17,"map":"pl_pier","folder":"tf","game":"Team Fortress","app_id":440,"player_count":24,"max_players":24,"Bots":0,"server_type":"Dedicated","server_os":"Linux","password":true,"vac":true,"version":"7742253","steam_id":85568392924504275,"keywords":["nocrits","nodmgspread","payload","uncletopia"],"game_id":440,"stv_port":27046,"stv_name":"Uncletopia | Frankfurt | 4 | All Maps | STV","players":[{"user_id":443,"name":"Taipan66","steam_id":76561198154094423,"connected_time":177000000000,"state":"active","ping":69},{"user_id":442,"name":"–ò–≤–∞–Ω","steam_id":76561198852621799,"connected_time":386000000000,"state":"active","ping":65},{"user_id":418,"name":"mex :3","steam_id":76561198091083324,"connected_time":1977000000000,"state":"active","ping":60},{"user_id":433,"name":"Heavy like a Brinks truck","steam_id":76561198197304886,"connected_time":683000000000,"state":"active","ping":115},{"user_id":434,"name":"Adam Sandler","steam_id":76561198310408309,"connected_time":680000000000,"state":"active","ping":67},{"user_id":407,"name":"The Big J","steam_id":76561198158202901,"connected_time":2093000000000,"state":"active","ping":46},{"user_id":421,"name":"FruityCrits","steam_id":76561198373779833,"connected_time":1883000000000,"state":"active","ping":51},{"user_id":424,"name":"Gebagemid","steam_id":76561198003684717,"connected_time":1780000000000,"state":"active","ping":65},{"user_id":440,"name":"xepnfogon","steam_id":76561198107127340,"connected_time":460000000000,"state":"active","ping":61},{"user_id":363,"name":"nvmHastee","steam_id":76561199371458295,"connected_time":4823000000000,"state":"active","ping":69},{"user_id":444,"name":"etc","steam_id":76561197998394797,"connected_time":131000000000,"state":"active","ping":58},{"user_id":428,"name":"thomas :-)","steam_id":76561198355097756,"connected_time":1180000000000,"state":"active","ping":62},{"user_id":411,"name":"Oskuri","steam_id":76561198155956047,"connected_time":2055000000000,"state":"active","ping":63},{"user_id":436,"name":"cereals","steam_id":76561198058656179,"connected_time":633000000000,"state":"active","ping":54},{"user_id":437,"name":"the ebic gamner","steam_id":76561199220801849,"connected_time":630000000000,"state":"active","ping":70},{"user_id":438,"name":"Sleepycoffyn","steam_id":76561199278648379,"connected_time":622000000000,"state":"active","ping":46},{"user_id":410,"name":"omnibombulator","steam_id":76561198025858897,"connected_time":2068000000000,"state":"active","ping":64},{"user_id":389,"name":"Ott","steam_id":76561198276464481,"connected_time":3433000000000,"state":"active","ping":68},{"user_id":429,"name":"Œª{|V|ilk}Officer Butterloins","steam_id":76561198011983546,"connected_time":1125000000000,"state":"active","ping":140},{"user_id":439,"name":"PlebCord","steam_id":76561198120685803,"connected_time":593000000000,"state":"active","ping":77},{"user_id":415,"name":"Grigori Rasputin","steam_id":76561198070810812,"connected_time":2035000000000,"state":"active","ping":94},{"user_id":416,"name":"And Hit It!","steam_id":76561198030956814,"connected_time":2028000000000,"state":"active","ping":59},{"user_id":417,"name":"Doofenschmirtz Gaming","steam_id":76561198061301085,"connected_time":2025000000000,"state":"active","ping":42},{"user_id":395,"name":"Prim","steam_id":76561198043191342,"connected_time":3127000000000,"state":"active","ping":71}]},{"server_id":310,"name":"Uncletopia | Frankfurt | 5 | All Maps","name_short":"frk-5","host":"frk-1.de.uncletopia.com","port":27055,"enabled":true,"region":"eu","cc":"de","latitude":50.110924,"longitude":8.682127,"reserved":0,"last_update":"0001-01-01T00:00:00Z","name_a2s":"Uncletopia | Frankfurt | 5 | All Maps","protocol":17,"map":"cp_process_final","folder":"tf","game":"Team Fortress","app_id":440,"player_count":23,"max_players":24,"Bots":0,"server_type":"Dedicated","server_os":"Linux","password":true,"vac":true,"version":"7742253","steam_id":85568392924504277,"keywords":["cp","nocrits","nodmgspread","uncletopia"],"game_id":440,"stv_port":27056,"stv_name":"Uncletopia | Frankfurt | 5 | All Maps | STV","players":[{"user_id":564,"name":"Osmo","steam_id":76561199286764992,"connected_time":122000000000,"state":"active","ping":86},{"user_id":499,"name":"saarfaarsik","steam_id":76561198043684537,"connected_time":3672000000000,"state":"active","ping":46},{"user_id":565,"name":"Filleman","steam_id":76561198159386946,"connected_time":110000000000,"state":"active","ping":56},{"user_id":548,"name":"MaypulSoyrup","steam_id":76561199213966821,"connected_time":1131000000000,"state":"active","ping":80},{"user_id":410,"name":"MAJAX","steam_id":76561198254828632,"connected_time":9346000000000,"state":"active","ping":59},{"user_id":518,"name":"Baki „ÉÑ","steam_id":76561198193615529,"connected_time":3091000000000,"state":"active","ping":59},{"user_id":538,"name":"dddd","steam_id":76561198120894372,"connected_time":1620000000000,"state":"active","ping":109},{"user_id":476,"name":"Meltryllis","steam_id":76561198157773041,"connected_time":5232000000000,"state":"active","ping":90},{"user_id":562,"name":"CarBombEnthusiast","steam_id":76561199448185434,"connected_time":336000000000,"state":"active","ping":66},{"user_id":557,"name":"glyph","steam_id":76561197980736364,"connected_time":528000000000,"state":"active","ping":77},{"user_id":508,"name":"LordWoodpecker","steam_id":76561198031647387,"connected_time":3404000000000,"state":"active","ping":53},{"user_id":549,"name":"htraB","steam_id":76561198043122677,"connected_time":1116000000000,"state":"active","ping":60},{"user_id":555,"name":"Fart of Doom","steam_id":76561198042593027,"connected_time":657000000000,"state":"active","ping":86},{"user_id":561,"name":"ArikMor","steam_id":76561199124472513,"connected_time":441000000000,"state":"active","ping":93},{"user_id":505,"name":"ZyZ 2.0","steam_id":76561199178204775,"connected_time":3474000000000,"state":"active","ping":107},{"user_id":563,"name":"the joy of recycling","steam_id":76561198138509827,"connected_time":195000000000,"state":"active","ping":87},{"user_id":509,"name":"SuperMiro107","steam_id":76561198806447155,"connected_time":3372000000000,"state":"active","ping":125},{"user_id":559,"name":"R!not","steam_id":76561197986328786,"connected_time":519000000000,"state":"active","ping":49},{"user_id":495,"name":"Good Ol' Frank","steam_id":76561198118490202,"connected_time":3894000000000,"state":"active","ping":60},{"user_id":566,"name":"Barbiehunter #SaveTF2","steam_id":76561198071630928,"connected_time":106000000000,"state":"active","ping":59},{"user_id":546,"name":"Fella","steam_id":76561199090136355,"connected_time":1234000000000,"state":"active","ping":66},{"user_id":552,"name":"Sreak","steam_id":76561198209131656,"connected_time":835000000000,"state":"active","ping":45},{"user_id":560,"name":"TRVelo„ÉÉ","steam_id":76561198280065050,"connected_time":500000000000,"state":"active","ping":128}]},{"server_id":311,"name":"Uncletopia | Frankfurt | 6 | All Maps","name_short":"frk-6","host":"frk-1.de.uncletopia.com","port":27065,"enabled":true,"region":"eu","cc":"de","latitude":50.110924,"longitude":8.682127,"reserved":0,"last_update":"0001-01-01T00:00:00Z","name_a2s":"Uncletopia | Frankfurt | 6 | All Maps","protocol":17,"map":"cp_altitude","folder":"tf","game":"Team Fortress","app_id":440,"player_count":0,"max_players":24,"Bots":0,"server_type":"Dedicated","server_os":"Linux","password":true,"vac":true,"version":"7742253","steam_id":85568392924504278,"keywords":["cp","nocrits","nodmgspread","uncletopia"],"game_id":440,"stv_port":27066,"stv_name":"Uncletopia | Frankfurt | 6 | All Maps | STV","players":null},{"server_id":23,"name":"Uncletopia | Frankfurt | 7 | Stopwatch Beta","name_short":"frk-7","host":"frk-1.de.uncletopia.com","port":27075,"enabled":true,"region":"eu","cc":"de","latitude":50.110924,"longitude":8.682127,"reserved":0,"last_update":"0001-01-01T00:00:00Z","name_a2s":"Uncletopia | Frankfurt | 7 | Stopwatch Beta","protocol":17,"map":"workshop/pl_barnblitz_pro7.ugc582280235","folder":"tf","game":"Team Fortress","app_id":440,"player_count":0,"max_players":24,"Bots":0,"server_type":"Dedicated","server_os":"Linux","password":true,"vac":true,"version":"7742253","steam_id":85568392924742827,"keywords":["nocrits","nodmgspread","payload","uncletopia"],"game_id":440,"stv_port":27076,"stv_name":"Uncletopia | Frankfurt | 7 | Stopwatch Beta | STV","players":null},{"server_id":24,"name":"Uncletopia | Frankfurt | 8 | Community","name_short":"frk-8","host":"frk-1.de.uncletopia.com","port":27085,"enabled":true,"region":"eu","cc":"de","latitude":50.110924,"longitude":8.682127,"reserved":0,"last_update":"0001-01-01T00:00:00Z","name_a2s":"Uncletopia | Frankfurt | 8 | Community","protocol":17,"map":"workshop/koth_bagel_rc5.ugc2514036946","folder":"tf","game":"Team Fortress","app_id":440,"player_count":22,"max_players":24,"Bots":0,"server_type":"Dedicated","server_os":"Linux","password":true,"vac":true,"version":"7742253","steam_id":85568392924742828,"keywords":["cp","nocrits","nodmgspread","uncletopia"],"game_id":440,"stv_port":27086,"stv_name":"Uncletopia | Frankfurt | 8 | Community | STV","players":[{"user_id":344,"name":"Lyla \u003c3","steam_id":76561198356692614,"connected_time":797000000000,"state":"active","ping":75},{"user_id":351,"name":"lun4tic","steam_id":76561198850496647,"connected_time":233000000000,"state":"active","ping":64},{"user_id":172,"name":"Fat Pigeon","steam_id":76561198817940142,"connected_time":12034000000000,"state":"active","ping":54},{"user_id":353,"name":"LenKineUltraGaming","steam_id":76561199195447283,"connected_time":23000000000,"state":"spawning","ping":194},{"user_id":327,"name":"chocolate flavoured femboy","steam_id":76561198819353867,"connected_time":2481000000000,"state":"active","ping":55},{"user_id":326,"name":"JustACoomer","steam_id":76561198151433181,"connected_time":2492000000000,"state":"active","ping":61},{"user_id":338,"name":"Pan W","steam_id":76561198384111099,"connected_time":1572000000000,"state":"active","ping":62},{"user_id":343,"name":"JC","steam_id":76561198029213352,"connected_time":1002000000000,"state":"active","ping":46},{"user_id":319,"name":"0vtis","steam_id":76561198056673592,"connected_time":3213000000000,"state":"active","ping":73},{"user_id":279,"name":"Baklava Enjoyer","steam_id":76561198990679631,"connected_time":6149000000000,"state":"active","ping":77},{"user_id":349,"name":"Error","steam_id":76561198308950067,"connected_time":404000000000,"state":"active","ping":57},{"user_id":340,"name":"kid named finger","steam_id":76561198364466446,"connected_time":1026000000000,"state":"active","ping":76},{"user_id":345,"name":"thorn","steam_id":76561198089287999,"connected_time":770000000000,"state":"active","ping":52},{"user_id":325,"name":"The Bean Man","steam_id":76561198046932811,"connected_time":2872000000000,"state":"active","ping":78},{"user_id":350,"name":"Bajas","steam_id":76561198179339326,"connected_time":388000000000,"state":"active","ping":75},{"user_id":354,"name":"Senator Armstrong","steam_id":76561198984346408,"connected_time":18000000000,"state":"spawning","ping":146},{"user_id":231,"name":"brokenphilip","steam_id":76561198080960604,"connected_time":9482000000000,"state":"active","ping":82},{"user_id":313,"name":"Sammy","steam_id":76561198303329392,"connected_time":3835000000000,"state":"active","ping":37},{"user_id":290,"name":"Welder","steam_id":76561198355300561,"connected_time":5208000000000,"state":"active","ping":68},{"user_id":329,"name":"LasagnaLarry22","steam_id":76561198089478290,"connected_time":2399000000000,"state":"active","ping":54},{"user_id":331,"name":"Hotgamerdad","steam_id":76561198085940613,"connected_time":2320000000000,"state":"active","ping":74}]},{"server_id":202,"name":"Uncletopia | Hong Kong | 1 | All Maps","name_short":"hgk-1","host":"hgk-1.hk.uncletopia.com","port":27015,"enabled":true,"region":"asia","cc":"hk","latitude":22.302711,"longitude":114.177216,"reserved":0,"last_update":"0001-01-01T00:00:00Z","name_a2s":"Uncletopia | Hong Kong | 1 | All Maps","protocol":17,"map":"plr_hightower","folder":"tf","game":"Team Fortress","app_id":440,"player_count":0,"max_players":24,"Bots":0,"server_type":"Dedicated","server_os":"Linux","password":true,"vac":true,"version":"7742253","steam_id":85568392924494504,"keywords":["nocrits","nodmgspread","payload","uncletopia"],"game_id":440,"stv_port":27016,"stv_name":"Uncletopia | Hong Kong | 1 | All Maps | STV","players":null},{"server_id":1,"name":"Uncletopia | Los Angeles | 1 | All Maps","name_short":"lax-1","host":"lax-1.us.uncletopia.com","port":27015,"enabled":true,"region":"us-west","cc":"us","latitude":33.94279,"longitude":-118.41004,"reserved":0,"last_update":"0001-01-01T00:00:00Z","name_a2s":"Uncletopia | Los Angeles | 1 | All Maps","protocol":17,"map":"koth_lakeside_final","folder":"tf","game":"Team Fortress","app_id":440,"player_count":23,"max_players":24,"Bots":0,"server_type":"Dedicated","server_os":"Linux","password":true,"vac":true,"version":"7742253","steam_id":85568392924469991,"keywords":["cp","nocrits","nodmgspread","uncletopia"],"game_id":440,"stv_port":27016,"stv_name":"Uncletopia | Los Angeles | 1 | All Maps | STV","players":[{"user_id":70,"name":"MasterGeek.MX","steam_id":76561198063355220,"connected_time":2710000000000,"state":"active","ping":158},{"user_id":80,"name":"TheJuanSh0t","steam_id":76561199073277824,"connected_time":2108000000000,"state":"active","ping":50},{"user_id":109,"name":"groovetomanny","steam_id":76561198371660675,"connected_time":641000000000,"state":"active","ping":52},{"user_id":68,"name":"berserker_tf2 ttv","steam_id":76561198303464488,"connected_time":2771000000000,"state":"active","ping":63},{"user_id":89,"name":"i ate atomic bomb","steam_id":76561198150406851,"connected_time":1566000000000,"state":"active","ping":60},{"user_id":114,"name":"DORATHEEXPLORER","steam_id":76561198124773931,"connected_time":319000000000,"state":"active","ping":53},{"user_id":93,"name":"Mr. Call You Back","steam_id":76561198025172811,"connected_time":1135000000000,"state":"active","ping":37},{"user_id":115,"name":"Roscoejustros","steam_id":76561198301189481,"connected_time":306000000000,"state":"active","ping":40},{"user_id":96,"name":"Ass Beater","steam_id":76561198106038100,"connected_time":1051000000000,"state":"active","ping":72},{"user_id":95,"name":"DeckofDragons","steam_id":76561198057398213,"connected_time":1104000000000,"state":"active","ping":82},{"user_id":74,"name":"Feel the bern","steam_id":76561198078824519,"connected_time":2437000000000,"state":"active","ping":43},{"user_id":120,"name":"tRiCkStAb","steam_id":76561197984716005,"connected_time":139000000000,"state":"active","ping":57},{"user_id":122,"name":"Aspen draws","steam_id":76561198174524831,"connected_time":87000000000,"state":"active","ping":152},{"user_id":113,"name":"Kira","steam_id":76561198021582061,"connected_time":396000000000,"state":"active","ping":52},{"user_id":110,"name":"vortexgamer","steam_id":76561197999435527,"connected_time":608000000000,"state":"active","ping":129},{"user_id":79,"name":"Mothma","steam_id":76561198353789504,"connected_time":2258000000000,"state":"active","ping":61},{"user_id":118,"name":"GROOVYROOM","steam_id":76561199153684166,"connected_time":248000000000,"state":"active","ping":49},{"user_id":119,"name":"broghafam","steam_id":76561199084913446,"connected_time":178000000000,"state":"active","ping":76},{"user_id":104,"name":"Chad the Sex Haver","steam_id":76561198058236528,"connected_time":730000000000,"state":"active","ping":47},{"user_id":103,"name":"jungus","steam_id":76561198129862008,"connected_time":800000000000,"state":"active","ping":45},{"user_id":123,"name":"grove","steam_id":76561198797049119,"connected_time":47000000000,"state":"active","ping":115},{"user_id":86,"name":"Rat Smacker","steam_id":76561199090197628,"connected_time":1903000000000,"state":"active","ping":77},{"user_id":101,"name":"Jadus","steam_id":76561199091462938,"connected_time":990000000000,"state":"active","ping":54}]},{"server_id":112,"name":"Uncletopia | Los Angeles | 2 | All Maps","name_short":"lax-2","host":"lax-1.us.uncletopia.com","port":27025,"enabled":true,"region":"us-west","cc":"us","latitude":33.94279,"longitude":-118.41004,"reserved":0,"last_update":"0001-01-01T00:00:00Z","name_a2s":"Uncletopia | Los Angeles | 2 | All Maps","protocol":17,"map":"pl_borneo","folder":"tf","game":"Team Fortress","app_id":440,"player_count":0,"max_players":24,"Bots":0,"server_type":"Dedicated","server_os":"Linux","password":true,"vac":true,"version":"7742253","steam_id":85568392924469992,"keywords":["nocrits","nodmgspread","payload","uncletopia"],"game_id":440,"stv_port":27026,"stv_name":"Uncletopia | Los Angeles | 2 | All Maps | STV","players":null},{"server_id":324,"name":"Uncletopia | Los Angeles | 3 | All Maps","name_short":"lax-3","host":"lax-1.us.uncletopia.com","port":27035,"enabled":true,"region":"us-west","cc":"us","latitude":33.94279,"longitude":-118.41004,"reserved":0,"last_update":"0001-01-01T00:00:00Z","name_a2s":"Uncletopia | Los Angeles | 3 | All Maps","protocol":17,"map":"pl_barnblitz","folder":"tf","game":"Team Fortress","app_id":440,"player_count":0,"max_players":24,"Bots":0,"server_type":"Dedicated","server_os":"Linux","password":true,"vac":true,"version":"7742253","steam_id":85568392924510198,"keywords":["nocrits","nodmgspread","payload","uncletopia"],"game_id":440,"stv_port":27036,"stv_name":"Uncletopia | Los Angeles | 3 | All Maps | STV","players":null},{"server_id":25,"name":"Uncletopia | Los Angeles | 4 | Stopwatch Beta","name_short":"lax-4","host":"lax-1.us.uncletopia.com","port":27045,"enabled":true,"region":"us-west","cc":"us","latitude":33.94279,"longitude":-118.41004,"reserved":0,"last_update":"0001-01-01T00:00:00Z","name_a2s":"Uncletopia | Los Angeles | 4 | Stopwatch Beta","protocol":17,"map":"workshop/koth_product_final.ugc454272353","folder":"tf","game":"Team Fortress","app_id":440,"player_count":0,"max_players":24,"Bots":0,"server_type":"Dedicated","server_os":"Linux","password":true,"vac":true,"version":"7742253","steam_id":85568392924510199,"keywords":["cp","nocrits","nodmgspread","uncletopia"],"game_id":440,"stv_port":27046,"stv_name":"Uncletopia | Los Angeles | 4 | Stopwatch Beta | STV","players":null},{"server_id":11,"name":"Uncletopia | London | 1 | All Maps","name_short":"lon-1","host":"lon-1.uk.uncletopia.com","port":27015,"enabled":true,"region":"eu","cc":"gb","latitude":51.509865,"longitude":-0.118092,"reserved":0,"last_update":"0001-01-01T00:00:00Z","name_a2s":"Uncletopia | London | 1 | All Maps","protocol":17,"map":"cp_sunshine","folder":"tf","game":"Team Fortress","app_id":440,"player_count":24,"max_players":24,"Bots":0,"server_type":"Dedicated","server_os":"Linux","password":true,"vac":true,"version":"7742253","steam_id":85568392924367362,"keywords":["cp","nocrits","nodmgspread","uncletopia"],"game_id":440,"stv_port":27016,"stv_name":"Uncletopia | London | 1 | All Maps | STV","players":[{"user_id":721,"name":"blade","steam_id":76561199308850812,"connected_time":343000000000,"state":"active","ping":73},{"user_id":671,"name":"Mancomb Seepgood","steam_id":76561197974116369,"connected_time":5268000000000,"state":"active","ping":39},{"user_id":703,"name":"Yrj√∂ Koskinen Yrj√∂-Koskinen","steam_id":76561198368181145,"connected_time":1265000000000,"state":"active","ping":90},{"user_id":707,"name":"bad gun spy","steam_id":76561198334042273,"connected_time":1125000000000,"state":"active","ping":84},{"user_id":704,"name":"‚ô•Yoshi‚ô•","steam_id":76561198081523101,"connected_time":1184000000000,"state":"active","ping":75},{"user_id":646,"name":"gnarly business","steam_id":76561198832688767,"connected_time":6567000000000,"state":"active","ping":47},{"user_id":711,"name":"jozkotrozko","steam_id":76561198355270729,"connected_time":1056000000000,"state":"active","ping":70},{"user_id":720,"name":"Sorky","steam_id":76561198007502339,"connected_time":558000000000,"state":"active","ping":72},{"user_id":722,"name":"eggslut","steam_id":76561198010752241,"connected_time":341000000000,"state":"active","ping":65},{"user_id":705,"name":"Real","steam_id":76561198322220924,"connected_time":1182000000000,"state":"active","ping":50},{"user_id":716,"name":"homeinvasion$","steam_id":76561199111905021,"connected_time":794000000000,"state":"active","ping":111},{"user_id":654,"name":"ShoobyDooby","steam_id":76561198118473910,"connected_time":5911000000000,"state":"active","ping":46},{"user_id":635,"name":"Milca_11","steam_id":76561198848650365,"connected_time":7185000000000,"state":"active","ping":85},{"user_id":691,"name":"teddy","steam_id":76561198007436837,"connected_time":2458000000000,"state":"active","ping":30},{"user_id":699,"name":"S1B0RG","steam_id":76561199025064312,"connected_time":1401000000000,"state":"active","ping":75},{"user_id":723,"name":"The Scoundrel","steam_id":76561199244090814,"connected_time":77000000000,"state":"active","ping":40},{"user_id":700,"name":"SoldierBugsBunny","steam_id":76561199307144598,"connected_time":1388000000000,"state":"active","ping":83},{"user_id":666,"name":"Tort","steam_id":76561198329646769,"connected_time":5454000000000,"state":"active","ping":50},{"user_id":701,"name":"Chloemew | TFConnect 2022!","steam_id":76561198042071762,"connected_time":1386000000000,"state":"active","ping":44},{"user_id":706,"name":"Limeg210","steam_id":76561198152671630,"connected_time":1174000000000,"state":"active","ping":83},{"user_id":713,"name":"\u003e:D","steam_id":76561198064212334,"connected_time":1028000000000,"state":"active","ping":67},{"user_id":717,"name":"HaruspexDyRaxion","steam_id":76561198271901927,"connected_time":747000000000,"state":"active","ping":57},{"user_id":708,"name":"Loading...","steam_id":76561198441894694,"connected_time":1122000000000,"state":"active","ping":79},{"user_id":719,"name":"Dominus.","steam_id":76561199065917088,"connected_time":736000000000,"state":"active","ping":62}]},{"server_id":114,"name":"Uncletopia | London | 2 | All Maps","name_short":"lon-2","host":"lon-1.uk.uncletopia.com","port":27025,"enabled":true,"region":"eu","cc":"gb","latitude":51.509865,"longitude":-0.118092,"reserved":0,"last_update":"0001-01-01T00:00:00Z","name_a2s":"Uncletopia | London | 2 | All Maps","protocol":17,"map":"pl_pier","folder":"tf","game":"Team Fortress","app_id":440,"player_count":24,"max_players":24,"Bots":0,"server_type":"Dedicated","server_os":"Linux","password":true,"vac":true,"version":"7742253","steam_id":85568392924470941,"keywords":["nocrits","nodmgspread","payload","uncletopia"],"game_id":440,"stv_port":27026,"stv_name":"Uncletopia | London | 2 | All Maps | STV","players":[{"user_id":370,"name":"Penis Contortionist","steam_id":76561198073663784,"connected_time":8571000000000,"state":"active","ping":45},{"user_id":518,"name":"Farmercy","steam_id":76561198000038039,"connected_time":1064000000000,"state":"active","ping":63},{"user_id":535,"name":"Vince","steam_id":76561199103000131,"connected_time":222000000000,"state":"active","ping":45},{"user_id":528,"name":"LegoKatt","steam_id":76561198064536870,"connected_time":875000000000,"state":"active","ping":123},{"user_id":520,"name":"A Featherless Biped","steam_id":76561198307904901,"connected_time":1049000000000,"state":"active","ping":35},{"user_id":529,"name":"jovi_","steam_id":76561198449280552,"connected_time":859000000000,"state":"active","ping":52},{"user_id":485,"name":"‚ùÄsnorlax","steam_id":76561198051629288,"connected_time":3123000000000,"state":"active","ping":61},{"user_id":515,"name":"DSL","steam_id":76561198186770547,"connected_time":1166000000000,"state":"active","ping":84},{"user_id":497,"name":"Dukuu_Topmuk","steam_id":76561198420338931,"connected_time":2269000000000,"state":"active","ping":46},{"user_id":517,"name":"rat performance","steam_id":76561198065854668,"connected_time":1087000000000,"state":"active","ping":44},{"user_id":474,"name":"Spycrab101","steam_id":76561198141836805,"connected_time":3719000000000,"state":"active","ping":50},{"user_id":521,"name":"dog w ricks","steam_id":76561198387405805,"connected_time":1039000000000,"state":"active","ping":70},{"user_id":525,"name":"bro.","steam_id":76561198053394831,"connected_time":955000000000,"state":"active","ping":70},{"user_id":494,"name":"spy amongus","steam_id":76561199129509545,"connected_time":2392000000000,"state":"active","ping":120},{"user_id":536,"name":"Miss Bari","steam_id":76561198365286092,"connected_time":187000000000,"state":"active","ping":38},{"user_id":508,"name":"Dellroy","steam_id":76561198161222252,"connected_time":1746000000000,"state":"active","ping":61},{"user_id":537,"name":"EchoBN","steam_id":76561198287127380,"connected_time":120000000000,"state":"active","ping":50},{"user_id":487,"name":"General Antifascista","steam_id":76561198194714570,"connected_time":3096000000000,"state":"active","ping":48},{"user_id":481,"name":"Sir Skyber","steam_id":76561198064440004,"connected_time":3356000000000,"state":"active","ping":99},{"user_id":526,"name":"The Fellow Feller","steam_id":76561198188864306,"connected_time":940000000000,"state":"active","ping":68},{"user_id":538,"name":"dr addict","steam_id":76561199220834459,"connected_time":113000000000,"state":"active","ping":74},{"user_id":527,"name":"deez","steam_id":76561198831476915,"connected_time":910000000000,"state":"active","ping":54},{"user_id":512,"name":"SuntanPikachu","steam_id":76561198121242476,"connected_time":1368000000000,"state":"active","ping":46},{"user_id":531,"name":"Aster","steam_id":76561198037920420,"connected_time":488000000000,"state":"active","ping":184}]},{"server_id":320,"name":"Uncletopia | London | 3 | All Maps","name_short":"lon-3","host":"lon-1.uk.uncletopia.com","port":27035,"enabled":true,"region":"eu","cc":"gb","latitude":51.509865,"longitude":-0.118092,"reserved":0,"last_update":"0001-01-01T00:00:00Z","name_a2s":"Uncletopia | London | 3 | All Maps","protocol":17,"map":"cp_snakewater_final1","folder":"tf","game":"Team Fortress","app_id":440,"player_count":24,"max_players":24,"Bots":0,"server_type":"Dedicated","server_os":"Linux","password":true,"vac":true,"version":"7742253","steam_id":85568392924510192,"keywords":["cp","nocrits","nodmgspread","uncletopia"],"game_id":440,"stv_port":27036,"stv_name":"Uncletopia | London | 3 | All Maps | STV","players":[{"user_id":654,"name":"Fish person [less endangered]","steam_id":76561198390645507,"connected_time":446000000000,"state":"active","ping":39},{"user_id":619,"name":"StabbyKnife","steam_id":76561198094010004,"connected_time":2906000000000,"state":"active","ping":81},{"user_id":663,"name":"Mei-Kuei","steam_id":76561198074493204,"connected_time":192000000000,"state":"active","ping":63},{"user_id":651,"name":"Koli","steam_id":76561197992428783,"connected_time":998000000000,"state":"active","ping":60},{"user_id":650,"name":"Mr.Bombastick","steam_id":76561199098725634,"connected_time":1021000000000,"state":"active","ping":107},{"user_id":657,"name":"Not Clickbait (not clickbait)","steam_id":76561198951275407,"connected_time":362000000000,"state":"active","ping":82},{"user_id":665,"name":"Pyrolander","steam_id":76561198050785450,"connected_time":60000000000,"state":"active","ping":48},{"user_id":658,"name":"Handy","steam_id":76561198125055365,"connected_time":350000000000,"state":"active","ping":74},{"user_id":620,"name":"Sneaky boi","steam_id":76561199195985387,"connected_time":2878000000000,"state":"active","ping":98},{"user_id":664,"name":"toothpaste vaper","steam_id":76561198078458780,"connected_time":177000000000,"state":"active","ping":38},{"user_id":577,"name":"Doogie","steam_id":76561198846924693,"connected_time":5203000000000,"state":"active","ping":51},{"user_id":644,"name":"Mega Saturn","steam_id":76561198024750500,"connected_time":1645000000000,"state":"active","ping":81},{"user_id":622,"name":"Cosmetic brain","steam_id":76561198055936410,"connected_time":2869000000000,"state":"active","ping":94},{"user_id":562,"name":"Lewylow","steam_id":76561198005425686,"connected_time":6403000000000,"state":"active","ping":56},{"user_id":659,"name":"soigan","steam_id":76561199375185205,"connected_time":339000000000,"state":"active","ping":64},{"user_id":621,"name":"Swayer","steam_id":76561198056192460,"connected_time":2875000000000,"state":"active","ping":57},{"user_id":551,"name":"Samus","steam_id":76561198045943019,"connected_time":7473000000000,"state":"active","ping":60},{"user_id":633,"name":"fikoby0","steam_id":76561198240871940,"connected_time":2118000000000,"state":"active","ping":91},{"user_id":554,"name":"TurboTabs","steam_id":76561198009785131,"connected_time":6880000000000,"state":"active","ping":55},{"user_id":660,"name":"loaded","steam_id":76561199123234063,"connected_time":286000000000,"state":"active","ping":71},{"user_id":666,"name":"zoink","steam_id":76561197973231019,"connected_time":56000000000,"state":"active","ping":60},{"user_id":565,"name":"Caesium_R4","steam_id":76561198432410602,"connected_time":6304000000000,"state":"active","ping":55},{"user_id":662,"name":"tiia (cold hends)","steam_id":76561198046196005,"connected_time":245000000000,"state":"active","ping":51},{"user_id":618,"name":"gagalak","steam_id":76561198089979108,"connected_time":2945000000000,"state":"active","ping":104}]},{"server_id":321,"name":"Uncletopia | London | 4 | All Maps","name_short":"lon-4","host":"lon-1.uk.uncletopia.com","port":27045,"enabled":true,"region":"eu","cc":"gb","latitude":51.509865,"longitude":-0.118092,"reserved":0,"last_update":"0001-01-01T00:00:00Z","name_a2s":"Uncletopia | London | 4 | All Maps","protocol":17,"map":"pl_badwater","folder":"tf","game":"Team Fortress","app_id":440,"player_count":24,"max_players":24,"Bots":0,"server_type":"Dedicated","server_os":"Linux","password":true,"vac":true,"version":"7742253","steam_id":85568392924510193,"keywords":["nocrits","nodmgspread","payload","uncletopia"],"game_id":440,"stv_port":27046,"stv_name":"Uncletopia | London | 4 | All Maps | STV","players":[{"user_id":459,"name":"filo","steam_id":76561198103633797,"connected_time":1325000000000,"state":"active","ping":95},{"user_id":470,"name":"GogsCrunchyNuts","steam_id":76561198150599213,"connected_time":159000000000,"state":"active","ping":85},{"user_id":471,"name":"cry","steam_id":76561198132995289,"connected_time":142000000000,"state":"active","ping":82},{"user_id":467,"name":"BingusDingus","steam_id":76561198310983903,"connected_time":914000000000,"state":"active","ping":46},{"user_id":466,"name":"randompixel","steam_id":76561198003941207,"connected_time":1108000000000,"state":"active","ping":49},{"user_id":464,"name":"Zelmor","steam_id":76561197997708311,"connected_time":1265000000000,"state":"active","ping":54},{"user_id":460,"name":"marf","steam_id":76561198014828037,"connected_time":1324000000000,"state":"active","ping":51},{"user_id":472,"name":"Adopted?","steam_id":76561198118667043,"connected_time":121000000000,"state":"active","ping":43},{"user_id":473,"name":"¬°AL TURR√ìN!","steam_id":76561198087022264,"connected_time":110000000000,"state":"active","ping":73},{"user_id":431,"name":"pl_badwater","steam_id":76561198152184280,"connected_time":4190000000000,"state":"active","ping":77},{"user_id":432,"name":"pl_z≈Çawoda","steam_id":76561198040588109,"connected_time":4121000000000,"state":"active","ping":80},{"user_id":433,"name":"emerge","steam_id":76561198186882891,"connected_time":4096000000000,"state":"active","ping":134},{"user_id":435,"name":"Psychicpie","steam_id":76561198126065206,"connected_time":4039000000000,"state":"active","ping":53},{"user_id":428,"name":"Obvi","steam_id":76561198088735927,"connected_time":4440000000000,"state":"active","ping":49},{"user_id":345,"name":"TylowStar","steam_id":76561198357107806,"connected_time":9288000000000,"state":"active","ping":76},{"user_id":468,"name":"festry","steam_id":76561198873296090,"connected_time":179000000000,"state":"active","ping":75},{"user_id":474,"name":"Kodutah","steam_id":76561198203405574,"connected_time":98000000000,"state":"active","ping":83},{"user_id":457,"name":"faccboi","steam_id":76561198137816642,"connected_time":1987000000000,"state":"active","ping":51},{"user_id":456,"name":"Windows Vista Cruiser","steam_id":76561198064102233,"connected_time":2232000000000,"state":"active","ping":59},{"user_id":469,"name":"MAKENTAKEN","steam_id":76561199127359587,"connected_time":176000000000,"state":"active","ping":95},{"user_id":475,"name":"panakid","steam_id":76561198364121077,"connected_time":82000000000,"state":"active","ping":90},{"user_id":448,"name":"obi","steam_id":76561198040154461,"connected_time":3018000000000,"state":"active","ping":60},{"user_id":455,"name":"Marioalexsan","steam_id":76561198125512367,"connected_time":2350000000000,"state":"active","ping":83},{"user_id":461,"name":"Noodle","steam_id":76561197997208006,"connected_time":1312000000000,"state":"active","ping":60}]},{"server_id":21,"name":"Uncletopia | London | 5 | All Maps","name_short":"lon-5","host":"lon-1.uk.uncletopia.com","port":27055,"enabled":true,"region":"eu","cc":"gb","latitude":51.509865,"longitude":-0.118092,"reserved":0,"last_update":"0001-01-01T00:00:00Z","name_a2s":"Uncletopia | London | 5 | All Maps","protocol":17,"map":"koth_viaduct","folder":"tf","game":"Team Fortress","app_id":440,"player_count":0,"max_players":24,"Bots":0,"server_type":"Dedicated","server_os":"Linux","password":true,"vac":true,"version":"7742253","steam_id":85568392924742829,"keywords":["cp","nocrits","nodmgspread","uncletopia"],"game_id":440,"stv_port":27056,"stv_name":"Uncletopia | London | 5 | All Maps | STV","players":null},{"server_id":22,"name":"Uncletopia | London | 6 | All Maps","name_short":"lon-6","host":"lon-1.uk.uncletopia.com","port":27065,"enabled":true,"region":"eu","cc":"gb","latitude":51.509865,"longitude":-0.118092,"reserved":0,"last_update":"0001-01-01T00:00:00Z","name_a2s":"Uncletopia | London | 6 | All Maps","protocol":17,"map":"ctf_2fort","folder":"tf","game":"Team Fortress","app_id":440,"player_count":20,"max_players":24,"Bots":0,"server_type":"Dedicated","server_os":"Linux","password":true,"vac":true,"version":"7742253","steam_id":85568392924742830,"keywords":["ctf","nocrits","nodmgspread","uncletopia"],"game_id":440,"stv_port":27066,"stv_name":"Uncletopia | London | 6 | All Maps | STV","players":[{"user_id":144,"name":"PROFILE NAME","steam_id":76561198180056982,"connected_time":2277000000000,"state":"active","ping":52},{"user_id":165,"name":"Dr Sex","steam_id":76561198029044617,"connected_time":516000000000,"state":"active","ping":46},{"user_id":174,"name":"The Power","steam_id":76561198060566884,"connected_time":31000000000,"state":"spawning","ping":68},{"user_id":175,"name":"arcSolver","steam_id":76561198212013944,"connected_time":9000000000,"state":"active","ping":174},{"user_id":156,"name":"pizzahawaiiEnjoyerwithbigdick","steam_id":76561198079752629,"connected_time":1006000000000,"state":"active","ping":64},{"user_id":159,"name":"Bandit","steam_id":76561198210490879,"connected_time":831000000000,"state":"active","ping":44},{"user_id":20,"name":"Cossack","steam_id":76561198076661772,"connected_time":7640000000000,"state":"active","ping":96},{"user_id":137,"name":"Ok","steam_id":76561198356826506,"connected_time":2407000000000,"state":"active","ping":63},{"user_id":150,"name":"Braderzzz009","steam_id":76561198815895618,"connected_time":1790000000000,"state":"active","ping":59},{"user_id":168,"name":"help","steam_id":76561199056338917,"connected_time":329000000000,"state":"active","ping":152},{"user_id":122,"name":"Belgorodec","steam_id":76561199383879505,"connected_time":3569000000000,"state":"active","ping":99},{"user_id":162,"name":"IX","steam_id":76561198039589783,"connected_time":564000000000,"state":"active","ping":51},{"user_id":170,"name":"hmscole09","steam_id":76561198811362788,"connected_time":221000000000,"state":"active","ping":60},{"user_id":142,"name":"ZePequenio","steam_id":76561197968506094,"connected_time":2311000000000,"state":"active","ping":47},{"user_id":128,"name":"Minimi","steam_id":76561198873850443,"connected_time":3033000000000,"state":"active","ping":36},{"user_id":164,"name":"Pinroe","steam_id":76561198968160899,"connected_time":534000000000,"state":"active","ping":108},{"user_id":146,"name":"Pinkchup","steam_id":76561198106802803,"connected_time":2214000000000,"state":"active","ping":79},{"user_id":139,"name":"tom","steam_id":76561198202442602,"connected_time":2402000000000,"state":"active","ping":75},{"user_id":54,"name":"Regan","steam_id":76561198100631086,"connected_time":6495000000000,"state":"active","ping":42},{"user_id":134,"name":"I am the one who donks","steam_id":76561198419583460,"connected_time":2711000000000,"state":"active","ping":65}]},{"server_id":40,"name":"Uncletopia | London | 7 | No Payload","name_short":"lon-7","host":"lon-1.uk.uncletopia.com","port":27075,"enabled":true,"region":"eu","cc":"gb","latitude":51.509865,"longitude":-0.118092,"reserved":0,"last_update":"0001-01-01T00:00:00Z","name_a2s":"Uncletopia | London | 7 | No Payload","protocol":17,"map":"koth_badlands","folder":"tf","game":"Team Fortress","app_id":440,"player_count":0,"max_players":24,"Bots":0,"server_type":"Dedicated","server_os":"Linux","password":true,"vac":true,"version":"7742253","steam_id":85568392924964314,"keywords":["cp","nocrits","nodmgspread","uncletopia"],"game_id":440,"stv_port":27076,"stv_name":"Uncletopia | London | 7 | No Payload | STV","players":null},{"server_id":41,"name":"Uncletopia | London | 8 | Community","name_short":"lon-8","host":"lon-1.uk.uncletopia.com","port":27085,"enabled":true,"region":"eu","cc":"gb","latitude":51.509865,"longitude":-0.118092,"reserved":0,"last_update":"0001-01-01T00:00:00Z","name_a2s":"Uncletopia | London | 8 | Community","protocol":17,"map":"workshop/pl_vigil_rc9.ugc1266210012","folder":"tf","game":"Team Fortress","app_id":440,"player_count":0,"max_players":24,"Bots":0,"server_type":"Dedicated","server_os":"Linux","password":true,"vac":true,"version":"7742253","steam_id":85568392924964315,"keywords":["nocrits","nodmgspread","payload","uncletopia"],"game_id":440,"stv_port":27086,"stv_name":"Uncletopia | London | 8 | Community | STV","players":null},{"server_id":300,"name":"Uncletopia | Montr√©al | 1 | All Maps","name_short":"mtl-1","host":"mtl-1.ca.uncletopia.com","port":27015,"enabled":true,"region":"us-east","cc":"ca","latitude":45.50889,"longitude":-73.56167,"reserved":0,"last_update":"0001-01-01T00:00:00Z","name_a2s":"Uncletopia | Montr√©al | 1 | All Maps","protocol":17,"map":"cp_snakewater_final1","folder":"tf","game":"Team Fortress","app_id":440,"player_count":23,"max_players":24,"Bots":0,"server_type":"Dedicated","server_os":"Linux","password":true,"vac":true,"version":"7742253","steam_id":85568392924500087,"keywords":["cp","nocrits","nodmgspread","uncletopia"],"game_id":440,"stv_port":27016,"stv_name":"Uncletopia | Montr√©al | 1 | All Maps | STV","players":[{"user_id":92,"name":"bobbyreinman2009","steam_id":76561198804763186,"connected_time":2860000000000,"state":"active","ping":46},{"user_id":82,"name":"pablo","steam_id":76561198395577807,"connected_time":3280000000000,"state":"active","ping":44},{"user_id":126,"name":"MenacingMekhet","steam_id":76561198053165462,"connected_time":849000000000,"state":"active","ping":75},{"user_id":130,"name":"leumas","steam_id":76561198240408540,"connected_time":654000000000,"state":"active","ping":67},{"user_id":127,"name":"Tony Hawk Underground 2 for PSP","steam_id":76561197999901620,"connected_time":826000000000,"state":"active","ping":63},{"user_id":131,"name":"E","steam_id":76561198238236044,"connected_time":382000000000,"state":"active","ping":92},{"user_id":38,"name":"Barack OBidoof","steam_id":76561198035142993,"connected_time":6548000000000,"state":"active","ping":63},{"user_id":132,"name":"DeathToCats","steam_id":76561198092238353,"connected_time":285000000000,"state":"active","ping":90},{"user_id":133,"name":"mr.edderkopper","steam_id":76561198152614478,"connected_time":279000000000,"state":"active","ping":80},{"user_id":134,"name":"Inevitable","steam_id":76561198210050169,"connected_time":277000000000,"state":"active","ping":45},{"user_id":128,"name":"A Cuppa Cat","steam_id":76561198401288612,"connected_time":810000000000,"state":"active","ping":60},{"user_id":125,"name":"plaiddd","steam_id":76561198353053169,"connected_time":889000000000,"state":"active","ping":64},{"user_id":119,"name":"Be!chqueen","steam_id":76561197961080789,"connected_time":1082000000000,"state":"active","ping":118},{"user_id":120,"name":"Post nut clarity","steam_id":76561198060246831,"connected_time":1059000000000,"state":"active","ping":61},{"user_id":74,"name":"ok","steam_id":76561198445140249,"connected_time":4189000000000,"state":"active","ping":77},{"user_id":57,"name":"who ate the cheese","steam_id":76561198275408467,"connected_time":5397000000000,"state":"active","ping":59},{"user_id":135,"name":"sonikro","steam_id":76561197989428692,"connected_time":251000000000,"state":"active","ping":61},{"user_id":121,"name":"God's Strongest FoW Scout","steam_id":76561198053046161,"connected_time":1047000000000,"state":"active","ping":52},{"user_id":107,"name":"Your Local Festive Furry","steam_id":76561199030190462,"connected_time":1462000000000,"state":"active","ping":60},{"user_id":103,"name":"‚òÖ‚òÖ‚òÜ‚òÜ‚òÜ","steam_id":76561198198984282,"connected_time":1741000000000,"state":"active","ping":58},{"user_id":122,"name":"Abe","steam_id":76561198079292761,"connected_time":1019000000000,"state":"active","ping":70},{"user_id":129,"name":"Andrew","steam_id":76561198070615190,"connected_time":808000000000,"state":"active","ping":75},{"user_id":136,"name":"aversa","steam_id":76561198840460101,"connected_time":238000000000,"state":"active","ping":55}]},{"server_id":301,"name":"Uncletopia | Montr√©al | 2 | All Maps","name_short":"mtl-2","host":"mtl-1.ca.uncletopia.com","port":27025,"enabled":true,"region":"us-east","cc":"ca","latitude":45.50889,"longitude":-73.56167,"reserved":0,"last_update":"0001-01-01T00:00:00Z","name_a2s":"Uncletopia | Montr√©al | 2 | All Maps","protocol":17,"map":"koth_highpass","folder":"tf","game":"Team Fortress","app_id":440,"player_count":0,"max_players":24,"Bots":0,"server_type":"Dedicated","server_os":"Linux","password":true,"vac":true,"version":"7742253","steam_id":85568392924500088,"keywords":["cp","nocrits","nodmgspread","uncletopia"],"game_id":440,"stv_port":27026,"stv_name":"Uncletopia | Montr√©al | 2 | All Maps | STV","players":null},{"server_id":302,"name":"Uncletopia | Montr√©al | 3 | All Maps","name_short":"mtl-3","host":"mtl-1.ca.uncletopia.com","port":27035,"enabled":true,"region":"us-east","cc":"ca","latitude":45.50889,"longitude":-73.56167,"reserved":0,"last_update":"0001-01-01T00:00:00Z","name_a2s":"Uncletopia | Montr√©al | 3 | All Maps","protocol":17,"map":"pl_swiftwater_final1","folder":"tf","game":"Team Fortress","app_id":440,"player_count":0,"max_players":24,"Bots":0,"server_type":"Dedicated","server_os":"Linux","password":true,"vac":true,"version":"7742253","steam_id":85568392924500089,"keywords":["nocrits","nodmgspread","payload","uncletopia"],"game_id":440,"stv_port":27036,"stv_name":"Uncletopia | Montr√©al | 3 | All Maps | STV","players":null},{"server_id":303,"name":"Uncletopia | Montr√©al | 4 | No Payload","name_short":"mtl-4","host":"mtl-1.ca.uncletopia.com","port":27045,"enabled":true,"region":"us-east","cc":"ca","latitude":45.50889,"longitude":-73.56167,"reserved":0,"last_update":"0001-01-01T00:00:00Z","name_a2s":"Uncletopia | Montr√©al | 4 | No Payload","protocol":17,"map":"koth_lazarus","folder":"tf","game":"Team Fortress","app_id":440,"player_count":0,"max_players":24,"Bots":0,"server_type":"Dedicated","server_os":"Linux","password":true,"vac":true,"version":"7742253","steam_id":85568392924500090,"keywords":["cp","nocrits","nodmgspread","uncletopia"],"game_id":440,"stv_port":27046,"stv_name":"Uncletopia | Montr√©al | 4 | No Payload | STV","players":null},{"server_id":13,"name":"Uncletopia | New York City | 1 | All Maps","name_short":"nyc-1","host":"nyc-1.us.uncletopia.com","port":27015,"enabled":true,"region":"us-east","cc":"us","latitude":40.73061,"longitude":-73.93524,"reserved":0,"last_update":"0001-01-01T00:00:00Z","name_a2s":"Uncletopia | New York City | 1 | All Maps","protocol":17,"map":"pl_pier","folder":"tf","game":"Team Fortress","app_id":440,"player_count":24,"max_players":24,"Bots":0,"server_type":"Dedicated","server_os":"Linux","password":true,"vac":true,"version":"7742253","steam_id":85568392924469993,"keywords":["nocrits","nodmgspread","payload","uncletopia"],"game_id":440,"stv_port":27016,"stv_name":"Uncletopia | New York City | 1 | All Maps | STV","players":[{"user_id":288,"name":"ValorPrime","steam_id":76561198048243338,"connected_time":1218000000000,"state":"active","ping":94},{"user_id":280,"name":"womthedom","steam_id":76561198088768287,"connected_time":2191000000000,"state":"active","ping":70},{"user_id":287,"name":"Greg Tree","steam_id":76561198449712775,"connected_time":1231000000000,"state":"active","ping":103},{"user_id":300,"name":"BigMudita","steam_id":76561198023119411,"connected_time":304000000000,"state":"active","ping":76},{"user_id":234,"name":"Seele","steam_id":76561198067833803,"connected_time":4759000000000,"state":"active","ping":55},{"user_id":290,"name":"Pixeled","steam_id":76561198088917077,"connected_time":1159000000000,"state":"active","ping":70},{"user_id":284,"name":"e","steam_id":76561198131245396,"connected_time":1337000000000,"state":"active","ping":70},{"user_id":291,"name":"F0rest","steam_id":76561199112458876,"connected_time":1143000000000,"state":"active","ping":47},{"user_id":268,"name":"comet sooicidy","steam_id":76561198025173479,"connected_time":2729000000000,"state":"active","ping":74},{"user_id":267,"name":"Portaldude626","steam_id":76561198954610452,"connected_time":2798000000000,"state":"active","ping":87},{"user_id":292,"name":"Facet","steam_id":76561197999782628,"connected_time":1084000000000,"state":"active","ping":84},{"user_id":293,"name":"Whole Grain Cocaine","steam_id":76561198322838586,"connected_time":1069000000000,"state":"active","ping":88},{"user_id":215,"name":"alopez","steam_id":76561199070225059,"connected_time":6468000000000,"state":"active","ping":39},{"user_id":296,"name":"hapi bananuh","steam_id":76561198091547092,"connected_time":957000000000,"state":"active","ping":79},{"user_id":275,"name":"CheeseCake488","steam_id":76561199407617942,"connected_time":2427000000000,"state":"active","ping":139},{"user_id":196,"name":"CRAZY engineer","steam_id":76561198887937902,"connected_time":7452000000000,"state":"active","ping":53},{"user_id":270,"name":"matchstick","steam_id":76561198190100027,"connected_time":2639000000000,"state":"active","ping":47},{"user_id":301,"name":"Room","steam_id":76561199174579733,"connected_time":153000000000,"state":"active","ping":54},{"user_id":285,"name":"Strange Diplomat","steam_id":76561198428191920,"connected_time":1324000000000,"state":"active","ping":48},{"user_id":294,"name":"KrashBoomBang","steam_id":76561199002978777,"connected_time":1062000000000,"state":"active","ping":39},{"user_id":131,"name":"PizzaPasta","steam_id":76561199125109082,"connected_time":12130000000000,"state":"active","ping":58},{"user_id":298,"name":"s33y00","steam_id":76561198005982232,"connected_time":681000000000,"state":"active","ping":78},{"user_id":297,"name":"Chase McCain","steam_id":76561198314538469,"connected_time":913000000000,"state":"active","ping":56},{"user_id":299,"name":"aiden","steam_id":76561198170381402,"connected_time":573000000000,"state":"active","ping":49}]},{"server_id":14,"name":"Uncletopia | New York City | 2 | All Maps","name_short":"nyc-2","host":"nyc-1.us.uncletopia.com","port":27025,"enabled":true,"region":"us-east","cc":"us","latitude":40.73061,"longitude":-73.93524,"reserved":0,"last_update":"0001-01-01T00:00:00Z","name_a2s":"Uncletopia | New York City | 2 | All Maps","protocol":17,"map":"pl_pier","folder":"tf","game":"Team Fortress","app_id":440,"player_count":24,"max_players":24,"Bots":0,"server_type":"Dedicated","server_os":"Linux","password":true,"vac":true,"version":"7742253","steam_id":85568392924469994,"keywords":["nocrits","nodmgspread","payload","uncletopia"],"game_id":440,"stv_port":27026,"stv_name":"Uncletopia | New York City | 2 | All Maps | STV","players":[{"user_id":237,"name":"Blervis","steam_id":76561198028754781,"connected_time":1447000000000,"state":"active","ping":84},{"user_id":246,"name":"irk!","steam_id":76561198009129049,"connected_time":1100000000000,"state":"active","ping":40},{"user_id":245,"name":"Bak'","steam_id":76561198044191512,"connected_time":1104000000000,"state":"active","ping":67},{"user_id":232,"name":"Shipmunk","steam_id":76561198063062670,"connected_time":1819000000000,"state":"active","ping":45},{"user_id":254,"name":"ÁÅ´Êòü | Marsy","steam_id":76561198014979892,"connected_time":869000000000,"state":"active","ping":63},{"user_id":213,"name":"uniwu - BUFF THE SPEED","steam_id":76561198864421290,"connected_time":2807000000000,"state":"active","ping":66},{"user_id":218,"name":"Venstiko","steam_id":76561199130318818,"connected_time":2643000000000,"state":"active","ping":67},{"user_id":219,"name":"Ironfyn","steam_id":76561198256850182,"connected_time":2597000000000,"state":"active","ping":54},{"user_id":255,"name":"what","steam_id":76561198082336619,"connected_time":320000000000,"state":"active","ping":40},{"user_id":233,"name":"Patisserie","steam_id":76561198239169752,"connected_time":1816000000000,"state":"active","ping":45},{"user_id":243,"name":"aizen","steam_id":76561198102681457,"connected_time":1135000000000,"state":"active","ping":77},{"user_id":248,"name":"Jolly evil little man","steam_id":76561198311053471,"connected_time":1081000000000,"state":"active","ping":81},{"user_id":242,"name":"Bashirider","steam_id":76561198260522253,"connected_time":1194000000000,"state":"active","ping":52},{"user_id":224,"name":"mammott toy","steam_id":76561199148512586,"connected_time":2415000000000,"state":"active","ping":50},{"user_id":225,"name":"FallenSage","steam_id":76561199226240159,"connected_time":2413000000000,"state":"active","ping":65},{"user_id":217,"name":"LE√ìN","steam_id":76561198257559257,"connected_time":2760000000000,"state":"active","ping":112},{"user_id":252,"name":"Uncle Majic the Hip Hop Magicia","steam_id":76561198107924303,"connected_time":932000000000,"state":"active","ping":46},{"user_id":253,"name":"Penrose42","steam_id":76561198288577396,"connected_time":877000000000,"state":"active","ping":67},{"user_id":169,"name":"Laelaps","steam_id":76561198100061416,"connected_time":5437000000000,"state":"active","ping":54},{"user_id":229,"name":"Brown_Dream","steam_id":76561198975766145,"connected_time":2319000000000,"state":"active","ping":64},{"user_id":236,"name":"Frajer","steam_id":76561198059129680,"connected_time":1558000000000,"state":"active","ping":65},{"user_id":249,"name":"BOT Bot","steam_id":76561197995225620,"connected_time":1070000000000,"state":"active","ping":57},{"user_id":227,"name":"Totally not a tf2 smurf","steam_id":76561199195934142,"connected_time":2397000000000,"state":"active","ping":50},{"user_id":241,"name":"B√âB√â BOSS","steam_id":76561198072893379,"connected_time":1347000000000,"state":"active","ping":59}]},{"server_id":15,"name":"Uncletopia | New York City | 3 | Stopwatch Beta","name_short":"nyc-3","host":"nyc-1.us.uncletopia.com","port":27035,"enabled":true,"region":"us-east","cc":"us","latitude":40.73061,"longitude":-73.93524,"reserved":0,"last_update":"0001-01-01T00:00:00Z","name_a2s":"Uncletopia | New York City | 3 | Stopwatch Beta","protocol":17,"map":"workshop/pl_badwater_pro_v12.ugc2142942074","folder":"tf","game":"Team Fortress","app_id":440,"player_count":0,"max_players":24,"Bots":0,"server_type":"Dedicated","server_os":"Linux","password":true,"vac":true,"version":"7742253","steam_id":85568392924742820,"keywords":["nocrits","nodmgspread","payload","uncletopia"],"game_id":440,"stv_port":27036,"stv_name":"Uncletopia | New York City | 3 | Stopwatch Beta | STV","players":null},{"server_id":16,"name":"Uncletopia | New York City | 4 | Community","name_short":"nyc-4","host":"nyc-1.us.uncletopia.com","port":27045,"enabled":true,"region":"us-east","cc":"us","latitude":40.73061,"longitude":-73.93524,"reserved":0,"last_update":"0001-01-01T00:00:00Z","name_a2s":"Uncletopia | New York City | 4 | Community","protocol":17,"map":"workshop/rd_asteroid_redux_b1.ugc2154902912","folder":"tf","game":"Team Fortress","app_id":440,"player_count":14,"max_players":24,"Bots":0,"server_type":"Dedicated","server_os":"Linux","password":true,"vac":true,"version":"7742253","steam_id":85568392924742821,"keywords":["beta","nocrits","nodmgspread","rd","uncletopia"],"game_id":440,"stv_port":27046,"stv_name":"Uncletopia | New York City | 4 | Community | STV","players":[{"user_id":51,"name":"whitebread9000","steam_id":76561198045391335,"connected_time":1591000000000,"state":"active","ping":69},{"user_id":79,"name":"Stupid","steam_id":76561198127348089,"connected_time":197000000000,"state":"active","ping":46},{"user_id":26,"name":"King Sans","steam_id":76561198294198517,"connected_time":3250000000000,"state":"active","ping":43},{"user_id":50,"name":"worldspawn","steam_id":76561198069646543,"connected_time":1691000000000,"state":"active","ping":47},{"user_id":57,"name":"Tibs","steam_id":76561198024348261,"connected_time":1137000000000,"state":"active","ping":65},{"user_id":58,"name":"StarB","steam_id":76561198149605368,"connected_time":1104000000000,"state":"active","ping":96},{"user_id":38,"name":"Lenny McLennington","steam_id":76561198263543388,"connected_time":2135000000000,"state":"active","ping":118},{"user_id":78,"name":"Pizzaguy108","steam_id":76561198972791353,"connected_time":369000000000,"state":"active","ping":89},{"user_id":68,"name":"Two-Teste Tommy","steam_id":76561198064308936,"connected_time":685000000000,"state":"active","ping":60},{"user_id":37,"name":"Smol Floofy Redhead","steam_id":76561198101813685,"connected_time":2207000000000,"state":"active","ping":127},{"user_id":66,"name":"defcon","steam_id":76561198100656328,"connected_time":797000000000,"state":"active","ping":88},{"user_id":69,"name":"cyb3r","steam_id":76561198054285934,"connected_time":632000000000,"state":"active","ping":60},{"user_id":46,"name":"Kevin the Minion","steam_id":76561198052380794,"connected_time":1848000000000,"state":"active","ping":69},{"user_id":73,"name":"sus!","steam_id":76561198202152448,"connected_time":570000000000,"state":"active","ping":49}]},{"server_id":142,"name":"Uncletopia | S√£o Paulo | 1 | All Maps","name_short":"sao-1","host":"sao-1.br.uncletopia.com","port":27015,"enabled":true,"region":"sa","cc":"br","latitude":-23.533773,"longitude":-46.62529,"reserved":0,"last_update":"0001-01-01T00:00:00Z","name_a2s":"Uncletopia | S√£o Paulo | 1 | All Maps","protocol":17,"map":"plr_hightower","folder":"tf","game":"Team Fortress","app_id":440,"player_count":1,"max_players":24,"Bots":0,"server_type":"Dedicated","server_os":"Linux","password":true,"vac":true,"version":"7742253","steam_id":85568392924469996,"keywords":["nocrits","nodmgspread","payload","uncletopia"],"game_id":440,"stv_port":27016,"stv_name":"Uncletopia | S√£o Paulo | 1 | All Maps | STV","players":[{"user_id":28,"name":"Sr. Franco","steam_id":76561199100714923,"connected_time":406000000000,"state":"active","ping":247}]},{"server_id":143,"name":"Uncletopia | S√£o Paulo | 2 | All Maps","name_short":"sao-2","host":"sao-2.br.uncletopia.com","port":27015,"enabled":true,"region":"sa","cc":"br","latitude":-23.533773,"longitude":-46.62529,"reserved":0,"last_update":"0001-01-01T00:00:00Z","name_a2s":"Uncletopia | S√£o Paulo | 2 | All Maps","protocol":17,"map":"cp_process_final","folder":"tf","game":"Team Fortress","app_id":440,"player_count":14,"max_players":24,"Bots":0,"server_type":"Dedicated","server_os":"Linux","password":true,"vac":true,"version":"7742253","steam_id":85568392924485349,"keywords":["cp","nocrits","nodmgspread","uncletopia"],"game_id":440,"stv_port":27016,"stv_name":"Uncletopia | S√£o Paulo | 2 | All Maps | STV","players":[{"user_id":18,"name":"SammyROCK","steam_id":76561197989570833,"connected_time":1211000000000,"state":"active","ping":30},{"user_id":25,"name":"Emperor Reinhard","steam_id":76561198181006839,"connected_time":664000000000,"state":"active","ping":48},{"user_id":13,"name":"Andriel","steam_id":76561198281652242,"connected_time":1925000000000,"state":"active","ping":43},{"user_id":14,"name":"Derretimento Geral 2017","steam_id":76561198194300069,"connected_time":1922000000000,"state":"active","ping":46},{"user_id":15,"name":"Sonia Metralha","steam_id":76561198983533099,"connected_time":1896000000000,"state":"active","ping":50},{"user_id":16,"name":"Death_Pow","steam_id":76561198312958718,"connected_time":1815000000000,"state":"active","ping":54},{"user_id":20,"name":"LaserMann","steam_id":76561198281073028,"connected_time":942000000000,"state":"active","ping":42},{"user_id":22,"name":"Josu√©Maneiros","steam_id":76561198177695750,"connected_time":891000000000,"state":"active","ping":76},{"user_id":27,"name":"Edge","steam_id":76561198850405241,"connected_time":477000000000,"state":"active","ping":42},{"user_id":26,"name":"DREAMVXIIILE","steam_id":76561199268197009,"connected_time":619000000000,"state":"active","ping":221},{"user_id":29,"name":"LT-25","steam_id":76561198140598278,"connected_time":275000000000,"state":"active","ping":58},{"user_id":30,"name":"Alaiye","steam_id":76561198099223854,"connected_time":241000000000,"state":"active","ping":185},{"user_id":31,"name":"siLViNHO.PonTo","steam_id":76561198061827771,"connected_time":107000000000,"state":"active","ping":35},{"user_id":32,"name":"C4u","steam_id":76561198876080606,"connected_time":77000000000,"state":"active","ping":39}]},{"server_id":7,"name":"Uncletopia | Seattle | 1 | All Maps","name_short":"sea-1","host":"sea-1.us.uncletopia.com","port":27015,"enabled":true,"region":"us-west","cc":"us","latitude":47.608013,"longitude":-122.33517,"reserved":0,"last_update":"0001-01-01T00:00:00Z","name_a2s":"Uncletopia | Seattle | 1 | All Maps","protocol":17,"map":"pl_pier","folder":"tf","game":"Team Fortress","app_id":440,"player_count":24,"max_players":24,"Bots":0,"server_type":"Dedicated","server_os":"Linux","password":true,"vac":true,"version":"7742253","steam_id":85568392924469997,"keywords":["nocrits","nodmgspread","payload","uncletopia"],"game_id":440,"stv_port":27016,"stv_name":"Uncletopia | Seattle | 1 | All Maps | STV","players":[{"user_id":216,"name":"Agent","steam_id":76561199389584938,"connected_time":3516000000000,"state":"active","ping":40},{"user_id":230,"name":"The Super Mario Bros. Movie","steam_id":76561198871692156,"connected_time":2147000000000,"state":"active","ping":54},{"user_id":176,"name":"Pneumo.","steam_id":76561197987911883,"connected_time":7647000000000,"state":"active","ping":54},{"user_id":223,"name":"dearender","steam_id":76561199427644498,"connected_time":2427000000000,"state":"active","ping":61},{"user_id":244,"name":"alice's adventures in pyroland","steam_id":76561198325306660,"connected_time":615000000000,"state":"active","ping":54},{"user_id":232,"name":"Merach","steam_id":76561197994544587,"connected_time":2027000000000,"state":"active","ping":47},{"user_id":247,"name":"titan fall2","steam_id":76561198841016072,"connected_time":29000000000,"state":"spawning","ping":52},{"user_id":194,"name":"squid game","steam_id":76561199248960166,"connected_time":5294000000000,"state":"active","ping":38},{"user_id":248,"name":"Buckethead","steam_id":76561198210181296,"connected_time":20000000000,"state":"active","ping":141},{"user_id":145,"name":"rat gets the cheese","steam_id":76561198031234032,"connected_time":9227000000000,"state":"active","ping":96},{"user_id":226,"name":"Thembo","steam_id":76561199037594575,"connected_time":2332000000000,"state":"active","ping":62},{"user_id":240,"name":"Dimple","steam_id":76561198980324190,"connected_time":768000000000,"state":"active","ping":52},{"user_id":235,"name":"MFIN HOG CRANKER","steam_id":76561198046073848,"connected_time":1179000000000,"state":"active","ping":46},{"user_id":161,"name":"oo","steam_id":76561198119626492,"connected_time":8174000000000,"state":"active","ping":90},{"user_id":207,"name":"John Smith","steam_id":76561198185776555,"connected_time":4660000000000,"state":"active","ping":33},{"user_id":160,"name":"Nolan","steam_id":76561198169648081,"connected_time":8272000000000,"state":"active","ping":94},{"user_id":236,"name":"Cardboardcoin","steam_id":76561199421284163,"connected_time":1157000000000,"state":"active","ping":63},{"user_id":249,"name":"some nerd","steam_id":76561198297272878,"connected_time":0,"state":"connecting","ping":0},{"user_id":211,"name":"doomshroom","steam_id":76561198092827250,"connected_time":4023000000000,"state":"active","ping":53},{"user_id":154,"name":"Fh","steam_id":76561198000903511,"connected_time":8664000000000,"state":"active","ping":74},{"user_id":205,"name":"Former US President Barack Obam","steam_id":76561198014215937,"connected_time":4751000000000,"state":"active","ping":128},{"user_id":246,"name":"Serene Salamander","steam_id":76561198001094770,"connected_time":245000000000,"state":"active","ping":91},{"user_id":243,"name":"MonteJT","steam_id":76561198055409360,"connected_time":659000000000,"state":"active","ping":132},{"user_id":179,"name":"Aardappel","steam_id":76561198030894676,"connected_time":7097000000000,"state":"active","ping":67}]},{"server_id":119,"name":"Uncletopia | Seattle | 2 | All Maps","name_short":"sea-2","host":"sea-1.us.uncletopia.com","port":27025,"enabled":true,"region":"us-west","cc":"us","latitude":47.608013,"longitude":-122.33517,"reserved":0,"last_update":"0001-01-01T00:00:00Z","name_a2s":"Uncletopia | Seattle | 2 | All Maps","protocol":17,"map":"cp_standin_final","folder":"tf","game":"Team Fortress","app_id":440,"player_count":18,"max_players":24,"Bots":0,"server_type":"Dedicated","server_os":"Linux","password":true,"vac":true,"version":"7742253","steam_id":85568392924469998,"keywords":["cp","nocrits","nodmgspread","uncletopia"],"game_id":440,"stv_port":27026,"stv_name":"Uncletopia | Seattle | 2 | All Maps | STV","players":[{"user_id":82,"name":"SilentScott","steam_id":76561198236688652,"connected_time":3079000000000,"state":"active","ping":44},{"user_id":123,"name":"Amateur Glaswegian","steam_id":76561198030851956,"connected_time":722000000000,"state":"active","ping":47},{"user_id":127,"name":"TurboRaspberry","steam_id":76561199215360629,"connected_time":538000000000,"state":"active","ping":41},{"user_id":120,"name":"tum","steam_id":76561198084712019,"connected_time":885000000000,"state":"active","ping":80},{"user_id":110,"name":"The Hoagie Hero","steam_id":76561198057569298,"connected_time":1704000000000,"state":"active","ping":136},{"user_id":76,"name":"fng","steam_id":76561197986015240,"connected_time":3617000000000,"state":"active","ping":72},{"user_id":126,"name":"finniboys","steam_id":76561198333287995,"connected_time":556000000000,"state":"active","ping":53},{"user_id":128,"name":"Siberian hoovy bear","steam_id":76561199106218517,"connected_time":474000000000,"state":"active","ping":57},{"user_id":136,"name":"Meth Bomb","steam_id":76561198365857261,"connected_time":5000000000,"state":"spawning","ping":89},{"user_id":132,"name":"OutOfSortsOne","steam_id":76561198836006858,"connected_time":306000000000,"state":"active","ping":77},{"user_id":131,"name":"twackpad","steam_id":76561198386955785,"connected_time":361000000000,"state":"active","ping":75},{"user_id":133,"name":"Jolly","steam_id":76561198381749192,"connected_time":306000000000,"state":"active","ping":87},{"user_id":135,"name":"meiro","steam_id":76561198029295714,"connected_time":123000000000,"state":"active","ping":90},{"user_id":134,"name":"snawg","steam_id":76561198141739280,"connected_time":170000000000,"state":"active","ping":83},{"user_id":97,"name":"Captain Barrel","steam_id":76561199061470542,"connected_time":2561000000000,"state":"active","ping":108},{"user_id":98,"name":"LAB8","steam_id":76561198047743526,"connected_time":2553000000000,"state":"active","ping":40},{"user_id":87,"name":"DrD","steam_id":76561198067266383,"connected_time":2971000000000,"state":"active","ping":34},{"user_id":116,"name":"zuna","steam_id":76561199038981515,"connected_time":1438000000000,"state":"active","ping":76}]},{"server_id":406,"name":"Uncletopia | Seattle | 3 | Stopwatch Beta","name_short":"sea-3","host":"sea-1.us.uncletopia.com","port":27035,"enabled":true,"region":"us-west","cc":"us","latitude":47.608013,"longitude":-122.33517,"reserved":0,"last_update":"0001-01-01T00:00:00Z","name_a2s":"Uncletopia | Seattle | 3 | Stopwatch Beta","protocol":17,"map":"workshop/koth_ramjam_rc1.ugc459778887","folder":"tf","game":"Team Fortress","app_id":440,"player_count":0,"max_players":24,"Bots":0,"server_type":"Dedicated","server_os":"Linux","password":true,"vac":true,"version":"7742253","steam_id":85568392924515217,"keywords":["cp","nocrits","nodmgspread","uncletopia"],"game_id":440,"stv_port":27036,"stv_name":"Uncletopia | Seattle | 3 | Stopwatch Beta | STV","players":null},{"server_id":17,"name":"Uncletopia | San Francisco | 1 | All Maps","name_short":"sfo-1","host":"sfo-1.us.uncletopia.com","port":27015,"enabled":true,"region":"us-west","cc":"us","latitude":37.77397,"longitude":-122.4313,"reserved":0,"last_update":"0001-01-01T00:00:00Z","name_a2s":"Uncletopia | San Francisco | 1 | All Maps","protocol":17,"map":"pl_barnblitz","folder":"tf","game":"Team Fortress","app_id":440,"player_count":0,"max_players":24,"Bots":0,"server_type":"Dedicated","server_os":"Linux","password":true,"vac":true,"version":"7742253","steam_id":85568392924469999,"keywords":["nocrits","nodmgspread","payload","uncletopia"],"game_id":440,"stv_port":27016,"stv_name":"Uncletopia | San Francisco | 1 | All Maps | STV","players":null},{"server_id":18,"name":"Uncletopia | San Francisco | 2 | All Maps","name_short":"sfo-2","host":"sfo-1.us.uncletopia.com","port":27025,"enabled":true,"region":"us-west","cc":"us","latitude":37.77397,"longitude":-122.4313,"reserved":0,"last_update":"0001-01-01T00:00:00Z","name_a2s":"Uncletopia | San Francisco | 2 | All Maps","protocol":17,"map":"pl_borneo","folder":"tf","game":"Team Fortress","app_id":440,"player_count":0,"max_players":24,"Bots":0,"server_type":"Dedicated","server_os":"Linux","password":true,"vac":true,"version":"7742253","steam_id":85568392924470000,"keywords":["nocrits","nodmgspread","payload","uncletopia"],"game_id":440,"stv_port":27026,"stv_name":"Uncletopia | San Francisco | 2 | All Maps | STV","players":null},{"server_id":19,"name":"Uncletopia | San Francisco | 3 | Stopwatch Beta","name_short":"sfo-3","host":"sfo-1.us.uncletopia.com","port":27035,"enabled":true,"region":"us-west","cc":"us","latitude":37.77397,"longitude":-122.4313,"reserved":0,"last_update":"0001-01-01T00:00:00Z","name_a2s":"Uncletopia | San Francisco | 3 | Stopwatch Beta","protocol":17,"map":"cp_snakewater_final1","folder":"tf","game":"Team Fortress","app_id":440,"player_count":0,"max_players":24,"Bots":0,"server_type":"Dedicated","server_os":"Linux","password":true,"vac":true,"version":"7742253","steam_id":85568392924742824,"keywords":["cp","nocrits","nodmgspread","uncletopia"],"game_id":440,"stv_port":27036,"stv_name":"Uncletopia | San Francisco | 3 | Stopwatch Beta | STV","players":null},{"server_id":20,"name":"Uncletopia | San Francisco | 4 | Community","name_short":"sfo-4","host":"sfo-1.us.uncletopia.com","port":27045,"enabled":true,"region":"us-west","cc":"us","latitude":37.77397,"longitude":-122.4313,"reserved":0,"last_update":"0001-01-01T00:00:00Z","name_a2s":"Uncletopia | San Francisco | 4 | Community","protocol":17,"map":"workshop/koth_bagel_rc5.ugc2514036946","folder":"tf","game":"Team Fortress","app_id":440,"player_count":2,"max_players":24,"Bots":0,"server_type":"Dedicated","server_os":"Linux","password":true,"vac":true,"version":"7742253","steam_id":85568392924742826,"keywords":["cp","nocrits","nodmgspread","uncletopia"],"game_id":440,"stv_port":27046,"stv_name":"Uncletopia | San Francisco | 4 | Community | STV","players":[{"user_id":9,"name":"SneakiestSoldier","steam_id":76561199048165658,"connected_time":372000000000,"state":"active","ping":60},{"user_id":10,"name":"werbots11","steam_id":76561199447199575,"connected_time":369000000000,"state":"active","ping":61}]},{"server_id":141,"name":"Uncletopia | Sydney | 1 | All Maps","name_short":"syd-1","host":"syd-1.au.uncletopia.com","port":27015,"enabled":true,"region":"au","cc":"au","latitude":-33.865143,"longitude":151.2099,"reserved":0,"last_update":"0001-01-01T00:00:00Z","name_a2s":"Uncletopia | Sydney | 1 | All Maps","protocol":17,"map":"koth_lakeside_final","folder":"tf","game":"Team Fortress","app_id":440,"player_count":3,"max_players":24,"Bots":0,"server_type":"Dedicated","server_os":"Linux","password":true,"vac":true,"version":"7742253","steam_id":85568392924470001,"keywords":["cp","nocrits","nodmgspread","uncletopia"],"game_id":440,"stv_port":27016,"stv_name":"Uncletopia | Sydney | 1 | All Maps | STV","players":[{"user_id":5,"name":"MayoMan","steam_id":76561199140828165,"connected_time":1005000000000,"state":"active","ping":37},{"user_id":6,"name":"IffyDuke","steam_id":76561199190195703,"connected_time":999000000000,"state":"active","ping":41},{"user_id":9,"name":"aBloodyKneecap","steam_id":76561198089940291,"connected_time":347000000000,"state":"active","ping":47}]},{"server_id":123,"name":"Uncletopia | Sydney | 2 | All Maps","name_short":"syd-2","host":"syd-1.au.uncletopia.com","port":27025,"enabled":true,"region":"au","cc":"au","latitude":-33.865143,"longitude":151.2099,"reserved":0,"last_update":"0001-01-01T00:00:00Z","name_a2s":"Uncletopia | Sydney | 2 | All Maps","protocol":17,"map":"cp_snakewater_final1","folder":"tf","game":"Team Fortress","app_id":440,"player_count":0,"max_players":24,"Bots":0,"server_type":"Dedicated","server_os":"Linux","password":true,"vac":true,"version":"7742253","steam_id":85568392924470002,"keywords":["cp","nocrits","nodmgspread","uncletopia"],"game_id":440,"stv_port":27026,"stv_name":"Uncletopia | Sydney | 2 | All Maps | STV","players":null},{"server_id":395,"name":"Uncletopia | Sydney | 3 | All Maps","name_short":"syd-3","host":"syd-1.au.uncletopia.com","port":27035,"enabled":true,"region":"au","cc":"au","latitude":-33.865143,"longitude":151.2099,"reserved":0,"last_update":"0001-01-01T00:00:00Z","name_a2s":"Uncletopia | Sydney | 3 | All Maps","protocol":17,"map":"koth_viaduct","folder":"tf","game":"Team Fortress","app_id":440,"player_count":0,"max_players":24,"Bots":0,"server_type":"Dedicated","server_os":"Linux","password":true,"vac":true,"version":"7742253","steam_id":85568392925194467,"keywords":["cp","nocrits","nodmgspread","uncletopia"],"game_id":440,"stv_port":27036,"stv_name":"Uncletopia | Sydney | 3 | All Maps | STV","players":null},{"server_id":396,"name":"Uncletopia | Sydney | 4 | All Maps","name_short":"syd-4","host":"syd-1.au.uncletopia.com","port":27045,"enabled":true,"region":"au","cc":"au","latitude":-33.865143,"longitude":151.2099,"reserved":0,"last_update":"0001-01-01T00:00:00Z","name_a2s":"Uncletopia | Sydney | 4 | All Maps","protocol":17,"map":"pl_frontier_final","folder":"tf","game":"Team Fortress","app_id":440,"player_count":0,"max_players":24,"Bots":0,"server_type":"Dedicated","server_os":"Linux","password":true,"vac":true,"version":"7742253","steam_id":85568392925397958,"keywords":["nocrits","nodmgspread","payload","uncletopia"],"game_id":440,"stv_port":27046,"stv_name":"Uncletopia | Sydney | 4 | All Maps | STV","players":null},{"server_id":58,"name":"Uncletopia | Sydney | 5 | Stopwatch Beta","name_short":"syd-5","host":"syd-1.au.uncletopia.com","port":27055,"enabled":true,"region":"au","cc":"au","latitude":-33.865143,"longitude":151.2099,"reserved":0,"last_update":"0001-01-01T00:00:00Z","name_a2s":"Uncletopia | Sydney | 5 | Stopwatch Beta","protocol":17,"map":"cp_granary","folder":"tf","game":"Team Fortress","app_id":440,"player_count":0,"max_players":24,"Bots":0,"server_type":"Dedicated","server_os":"Linux","password":true,"vac":true,"version":"7742253","steam_id":85568392925397959,"keywords":["cp","nocrits","nodmgspread","uncletopia"],"game_id":440,"stv_port":27056,"stv_name":"Uncletopia | Sydney | 5 | Stopwatch Beta | STV","players":null},{"server_id":59,"name":"Uncletopia | Sydney | 6 | Community","name_short":"syd-6","host":"syd-1.au.uncletopia.com","port":27065,"enabled":true,"region":"au","cc":"au","latitude":-33.865143,"longitude":151.2099,"reserved":0,"last_update":"0001-01-01T00:00:00Z","name_a2s":"Uncletopia | Sydney | 6 | Community","protocol":17,"map":"cp_dustbowl","folder":"tf","game":"Team Fortress","app_id":440,"player_count":0,"max_players":24,"Bots":0,"server_type":"Dedicated","server_os":"Linux","password":true,"vac":true,"version":"7742253","steam_id":85568392925397960,"keywords":["cp","nocrits","nodmgspread","uncletopia"],"game_id":440,"stv_port":27066,"stv_name":"Uncletopia | Sydney | 6 | Community | STV","players":null},{"server_id":49,"name":"Uncletopia | Warsaw | 1 | All Maps","name_short":"waw-1","host":"waw-1.pl.uncletopia.com","port":27015,"enabled":true,"region":"eu","cc":"pl","latitude":52.2297,"longitude":21.017532,"reserved":0,"last_update":"0001-01-01T00:00:00Z","name_a2s":"","protocol":0,"map":"","folder":"","game":"","app_id":0,"player_count":0,"max_players":0,"Bots":0,"server_type":"","server_os":"","password":false,"vac":false,"version":"","steam_id":0,"keywords":null,"game_id":0,"stv_port":0,"stv_name":"","players":null},{"server_id":50,"name":"Uncletopia | Warsaw | 2 | All Maps","name_short":"waw-2","host":"waw-1.pl.uncletopia.com","port":27025,"enabled":true,"region":"eu","cc":"pl","latitude":52.2297,"longitude":21.017532,"reserved":0,"last_update":"0001-01-01T00:00:00Z","name_a2s":"Uncletopia | Warsaw | 2 | All Maps","protocol":17,"map":"koth_lakeside_final","folder":"tf","game":"Team Fortress","app_id":440,"player_count":0,"max_players":24,"Bots":0,"server_type":"Dedicated","server_os":"Linux","password":true,"vac":true,"version":"7742253","steam_id":85568392925397851,"keywords":["cp","nocrits","nodmgspread","uncletopia"],"game_id":440,"stv_port":27026,"stv_name":"Uncletopia | Warsaw | 2 | All Maps | STV","players":null},{"server_id":51,"name":"Uncletopia | Warsaw | 3 | All Maps","name_short":"waw-3","host":"waw-1.pl.uncletopia.com","port":27035,"enabled":true,"region":"eu","cc":"pl","latitude":52.2297,"longitude":21.017532,"reserved":0,"last_update":"0001-01-01T00:00:00Z","name_a2s":"Uncletopia | Warsaw | 3 | All Maps","protocol":17,"map":"koth_lakeside_final","folder":"tf","game":"Team Fortress","app_id":440,"player_count":0,"max_players":24,"Bots":0,"server_type":"Dedicated","server_os":"Linux","password":true,"vac":true,"version":"7742253","steam_id":85568392925397852,"keywords":["cp","nocrits","nodmgspread","uncletopia"],"game_id":440,"stv_port":27036,"stv_name":"Uncletopia | Warsaw | 3 | All Maps | STV","players":null},{"server_id":52,"name":"Uncletopia | Warsaw | 4 | All Maps","name_short":"waw-4","host":"waw-1.pl.uncletopia.com","port":27045,"enabled":true,"region":"eu","cc":"pl","latitude":52.2297,"longitude":21.017532,"reserved":0,"last_update":"0001-01-01T00:00:00Z","name_a2s":"Uncletopia | Warsaw | 4 | All Maps","protocol":17,"map":"cp_sunshine","folder":"tf","game":"Team Fortress","app_id":440,"player_count":0,"max_players":24,"Bots":0,"server_type":"Dedicated","server_os":"Linux","password":true,"vac":true,"version":"7742253","steam_id":85568392925397853,"keywords":["cp","nocrits","nodmgspread","uncletopia"],"game_id":440,"stv_port":27046,"stv_name":"Uncletopia | Warsaw | 4 | All Maps | STV","players":null},{"server_id":53,"name":"Uncletopia | Warsaw | 5 | Stopwatch Beta","name_short":"waw-5","host":"waw-1.pl.uncletopia.com","port":27055,"enabled":true,"region":"eu","cc":"pl","latitude":52.2297,"longitude":21.017532,"reserved":0,"last_update":"0001-01-01T00:00:00Z","name_a2s":"Uncletopia | Warsaw | 5 | Stopwatch Beta","protocol":17,"map":"pl_swiftwater_final1","folder":"tf","game":"Team Fortress","app_id":440,"player_count":0,"max_players":24,"Bots":0,"server_type":"Dedicated","server_os":"Linux","password":true,"vac":true,"version":"7742253","steam_id":85568392925397854,"keywords":["nocrits","nodmgspread","payload","uncletopia"],"game_id":440,"stv_port":27056,"stv_name":"Uncletopia | Warsaw | 5 | Stopwatch Beta | STV","players":null},{"server_id":54,"name":"Uncletopia | Warsaw | 6 | Community","name_short":"waw-6","host":"waw-1.pl.uncletopia.com","port":27065,"enabled":true,"region":"eu","cc":"pl","latitude":52.2297,"longitude":21.017532,"reserved":0,"last_update":"0001-01-01T00:00:00Z","name_a2s":"Uncletopia | Warsaw | 6 | Community","protocol":17,"map":"workshop/koth_slaughter_rc1.ugc1712845210","folder":"tf","game":"Team Fortress","app_id":440,"player_count":0,"max_players":24,"Bots":0,"server_type":"Dedicated","server_os":"Linux","password":true,"vac":true,"version":"7742253","steam_id":85568392925397856,"keywords":["cp","nocrits","nodmgspread","uncletopia"],"game_id":440,"stv_port":27066,"stv_name":"Uncletopia | Warsaw | 6 | Community | STV","players":null}]}