{"status":true,"message":"","result":[{"server_id":9,"name":"Uncletopia | Atlanta | 1 | All Maps","name_short":"atl-1","host":"atl-1.us.uncletopia.com","port":27015,"enabled":true,"region":"us-east","cc":"us","latitude":33.753746,"longitude":-84.38633,"reserved":0,"last_update":"0001-01-01T00:00:00Z","name_a2s":"Uncletopia | Atlanta | 1 | All Maps","protocol":17,"map":"pl_borneo","folder":"tf","game":"Team Fortress","app_id":440,"player_count":24,"max_players":24,"Bots":0,"server_type":"Dedicated","server_os":"Linux","password":true,"vac":true,"version":"7708610","steam_id":85568392924469982,"keywords":["nocrits","nodmgspread","payload","uncletopia"],"game_id":440,"stv_port":27016,"stv_name":"Uncletopia | Atlanta | 1 | All Maps | STV","players":[{"user_id":238,"name":"AhegaoGodx","steam_id":76561198049989321,"connected_time":1043000000000,"state":"active","ping":75},{"user_id":239,"name":"gummie","steam_id":76561198998340318,"connected_time":1015000000000,"state":"active","ping":155},{"user_id":222,"name":"Strawberry","steam_id":76561198973740497,"connected_time":2634000000000,"state":"active","ping":90},{"user_id":230,"name":"AlwaysSmile","steam_id":76561198293385134,"connected_time":1416000000000,"state":"active","ping":72},{"user_id":241,"name":"ATL1 | Phestive Pango","steam_id":76561198069811545,"connected_time":810000000000,"state":"active","ping":45},{"user_id":213,"name":"Dealyo","steam_id":76561198282395338,"connected_time":3958000000000,"state":"active","ping":74},{"user_id":235,"name":"Big Black Zack","steam_id":76561198079770247,"connected_time":1173000000000,"state":"active","ping":50},{"user_id":236,"name":"Shuual","steam_id":76561198004395256,"connected_time":1066000000000,"state":"active","ping":61},{"user_id":148,"name":"SuperJagops","steam_id":76561198034689716,"connected_time":9687000000000,"state":"active","ping":77},{"user_id":219,"name":"space mann","steam_id":76561198174447043,"connected_time":2713000000000,"state":"active","ping":74},{"user_id":71,"name":"timesool","steam_id":76561198367583372,"connected_time":14568000000000,"state":"active","ping":79},{"user_id":182,"name":"tacofever","steam_id":76561198010966507,"connected_time":6265000000000,"state":"active","ping":111},{"user_id":244,"name":"demo main","steam_id":76561199043827112,"connected_time":690000000000,"state":"active","ping":73},{"user_id":246,"name":",","steam_id":76561199174579733,"connected_time":209000000000,"state":"active","ping":86},{"user_id":220,"name":"TheOneTrueDev","steam_id":76561198107400823,"connected_time":2712000000000,"state":"active","ping":74},{"user_id":153,"name":"Knightshade","steam_id":76561198047225393,"connected_time":9278000000000,"state":"active","ping":103},{"user_id":245,"name":"ultrax.extremex","steam_id":76561199201770653,"connected_time":438000000000,"state":"active","ping":80},{"user_id":247,"name":"Jitters","steam_id":76561198078898336,"connected_time":158000000000,"state":"active","ping":68},{"user_id":243,"name":"a baby","steam_id":76561198008662184,"connected_time":802000000000,"state":"active","ping":97},{"user_id":232,"name":"Young-OG","steam_id":76561198058800479,"connected_time":1411000000000,"state":"active","ping":69},{"user_id":207,"name":"ATL1 | Lancer Fan Club","steam_id":76561198355495948,"connected_time":4470000000000,"state":"active","ping":89},{"user_id":211,"name":"rolt bagger","steam_id":76561198026664629,"connected_time":4017000000000,"state":"active","ping":57},{"user_id":237,"name":"tonight's big loser","steam_id":76561199015781176,"connected_time":1066000000000,"state":"active","ping":67},{"user_id":205,"name":"ash","steam_id":76561198127890645,"connected_time":4511000000000,"state":"active","ping":64}]},{"server_id":400,"name":"Uncletopia | Atlanta | 3 | All Maps","name_short":"atl-3","host":"atl-1.us.uncletopia.com","port":27035,"enabled":true,"region":"us-east","cc":"us","latitude":33.753746,"longitude":-84.38633,"reserved":0,"last_update":"0001-01-01T00:00:00Z","name_a2s":"Uncletopia | Atlanta | 3 | All Maps","protocol":17,"map":"cp_snakewater_final1","folder":"tf","game":"Team Fortress","app_id":440,"player_count":23,"max_players":24,"Bots":0,"server_type":"Dedicated","server_os":"Linux","password":true,"vac":true,"version":"7708610","steam_id":85568392924515187,"keywords":["cp","nocrits","nodmgspread","uncletopia"],"game_id":440,"stv_port":27036,"stv_name":"Uncletopia | Atlanta | 3 | All Maps | STV","players":[{"user_id":112,"name":"my pee tastes like my poo","steam_id":76561198975505599,"connected_time":1305000000000,"state":"active","ping":84},{"user_id":119,"name":"Drilly22","steam_id":76561198068838338,"connected_time":1084000000000,"state":"active","ping":83},{"user_id":71,"name":"Epicus Lusor","steam_id":76561198271981088,"connected_time":3865000000000,"state":"active","ping":88},{"user_id":124,"name":"i hate gamers","steam_id":76561198288743767,"connected_time":886000000000,"state":"active","ping":107},{"user_id":125,"name":"Large Pad","steam_id":76561197994145172,"connected_time":864000000000,"state":"active","ping":90},{"user_id":135,"name":"Drift","steam_id":76561199157707578,"connected_time":348000000000,"state":"active","ping":78},{"user_id":93,"name":"Owl Pacino","steam_id":76561197979970666,"connected_time":2565000000000,"state":"active","ping":91},{"user_id":116,"name":"fudge lord","steam_id":76561198118318422,"connected_time":1118000000000,"state":"active","ping":59},{"user_id":130,"name":"Elias","steam_id":76561198106431732,"connected_time":729000000000,"state":"active","ping":60},{"user_id":115,"name":"PzVIIIMaus","steam_id":76561198346559365,"connected_time":1141000000000,"state":"active","ping":63},{"user_id":94,"name":"firetamer2","steam_id":76561198040886980,"connected_time":2561000000000,"state":"active","ping":66},{"user_id":131,"name":"Yengozi","steam_id":76561198448764748,"connected_time":693000000000,"state":"active","ping":57},{"user_id":111,"name":"Roz257","steam_id":76561198842844532,"connected_time":1334000000000,"state":"active","ping":86},{"user_id":65,"name":"Hipp-Dip","steam_id":76561199027874633,"connected_time":4457000000000,"state":"active","ping":64},{"user_id":117,"name":"hotgarbage","steam_id":76561197988541148,"connected_time":1113000000000,"state":"active","ping":89},{"user_id":74,"name":"Doof","steam_id":76561198034031819,"connected_time":3468000000000,"state":"active","ping":47},{"user_id":121,"name":"look buddy","steam_id":76561198161824724,"connected_time":1068000000000,"state":"active","ping":99},{"user_id":128,"name":"sagekiss","steam_id":76561198038831240,"connected_time":828000000000,"state":"active","ping":116},{"user_id":137,"name":"Mei","steam_id":76561198971753591,"connected_time":39000000000,"state":"active","ping":70},{"user_id":134,"name":"cav","steam_id":76561198066561225,"connected_time":505000000000,"state":"active","ping":83},{"user_id":97,"name":"jchan","steam_id":76561197990071754,"connected_time":2376000000000,"state":"active","ping":60},{"user_id":60,"name":"Eins","steam_id":76561199030343810,"connected_time":4753000000000,"state":"active","ping":46},{"user_id":136,"name":"Kace","steam_id":76561198847288697,"connected_time":337000000000,"state":"active","ping":84}]},{"server_id":401,"name":"Uncletopia | Atlanta | 4 | No Payload","name_short":"atl-4","host":"atl-1.us.uncletopia.com","port":27045,"enabled":true,"region":"us-east","cc":"us","latitude":33.753746,"longitude":-84.38633,"reserved":0,"last_update":"0001-01-01T00:00:00Z","name_a2s":"Uncletopia | Atlanta | 4 | No Payload","protocol":17,"map":"pl_upward","folder":"tf","game":"Team Fortress","app_id":440,"player_count":0,"max_players":24,"Bots":0,"server_type":"Dedicated","server_os":"Linux","password":true,"vac":true,"version":"7708610","steam_id":85568392924515188,"keywords":["nocrits","nodmgspread","payload","uncletopia"],"game_id":440,"stv_port":0,"stv_name":"","players":null},{"server_id":2,"name":"Uncletopia | Chicago | 1 | All Maps","name_short":"chi-1","host":"chi-1.us.uncletopia.com","port":27015,"enabled":true,"region":"us-central","cc":"us","latitude":41.881832,"longitude":-87.62318,"reserved":0,"last_update":"0001-01-01T00:00:00Z","name_a2s":"Uncletopia | Chicago | 1 | All Maps","protocol":17,"map":"cp_gorge","folder":"tf","game":"Team Fortress","app_id":440,"player_count":24,"max_players":24,"Bots":0,"server_type":"Dedicated","server_os":"Linux","password":true,"vac":true,"version":"7708610","steam_id":85568392924469984,"keywords":["cp","nocrits","nodmgspread","uncletopia"],"game_id":440,"stv_port":27016,"stv_name":"Uncletopia | Chicago | 1 | All Maps | STV","players":[{"user_id":13,"name":"Merchants of Misery","steam_id":76561199188142396,"connected_time":3372000000000,"state":"active","ping":72},{"user_id":16,"name":"C:\\PT/\\IN","steam_id":76561198038520307,"connected_time":2908000000000,"state":"active","ping":50},{"user_id":10,"name":"Fancyassasin","steam_id":76561198331864258,"connected_time":3767000000000,"state":"active","ping":46},{"user_id":56,"name":"Yarn","steam_id":76561199227148369,"connected_time":512000000000,"state":"active","ping":90},{"user_id":39,"name":"Gift-A-Tron 22.0","steam_id":76561198082202698,"connected_time":2240000000000,"state":"active","ping":66},{"user_id":40,"name":"Squatchamo","steam_id":76561198012968239,"connected_time":2203000000000,"state":"active","ping":74},{"user_id":50,"name":"jambie!","steam_id":76561198296042477,"connected_time":670000000000,"state":"active","ping":31},{"user_id":19,"name":"Mr.CoreyTubbz","steam_id":76561198109067617,"connected_time":2790000000000,"state":"active","ping":79},{"user_id":20,"name":"Kritzburgh","steam_id":76561198149466938,"connected_time":2787000000000,"state":"active","ping":62},{"user_id":46,"name":"DefectiveWarhead","steam_id":76561198067746049,"connected_time":1132000000000,"state":"active","ping":108},{"user_id":47,"name":"s0so ;)","steam_id":76561198339017271,"connected_time":999000000000,"state":"active","ping":89},{"user_id":44,"name":"Sir Loincloth","steam_id":76561198033073991,"connected_time":1400000000000,"state":"active","ping":75},{"user_id":24,"name":"dupie","steam_id":76561198066025224,"connected_time":2634000000000,"state":"active","ping":72},{"user_id":54,"name":"PROFILE NAME","steam_id":76561199438851854,"connected_time":621000000000,"state":"active","ping":95},{"user_id":53,"name":"Qball","steam_id":76561198179016466,"connected_time":628000000000,"state":"active","ping":50},{"user_id":27,"name":"Reggievich","steam_id":76561198173252835,"connected_time":2596000000000,"state":"active","ping":57},{"user_id":28,"name":"lag","steam_id":76561197963872739,"connected_time":2556000000000,"state":"active","ping":91},{"user_id":45,"name":"SuperEvilJohn","steam_id":76561198074625175,"connected_time":1400000000000,"state":"active","ping":140},{"user_id":48,"name":"Anon","steam_id":76561198109740776,"connected_time":732000000000,"state":"active","ping":119},{"user_id":31,"name":"dust","steam_id":76561198045218909,"connected_time":2456000000000,"state":"active","ping":85},{"user_id":34,"name":"gen","steam_id":76561199118569153,"connected_time":2423000000000,"state":"active","ping":63},{"user_id":55,"name":"KOOSTIFF","steam_id":76561198053727976,"connected_time":620000000000,"state":"active","ping":63},{"user_id":38,"name":"Tyler\u0026Fingers","steam_id":76561198085154485,"connected_time":2313000000000,"state":"active","ping":88},{"user_id":52,"name":"Veirū Viseris","steam_id":76561197989857176,"connected_time":670000000000,"state":"active","ping":156}]},{"server_id":106,"name":"Uncletopia | Chicago | 2 | All Maps","name_short":"chi-2","host":"chi-1.us.uncletopia.com","port":27025,"enabled":true,"region":"us-central","cc":"us","latitude":41.881832,"longitude":-87.62318,"reserved":0,"last_update":"0001-01-01T00:00:00Z","name_a2s":"Uncletopia | Chicago | 2 | All Maps","protocol":17,"map":"cp_sunshine","folder":"tf","game":"Team Fortress","app_id":440,"player_count":0,"max_players":24,"Bots":0,"server_type":"Dedicated","server_os":"Linux","password":true,"vac":true,"version":"7708610","steam_id":85568392924469985,"keywords":["cp","nocrits","nodmgspread","uncletopia"],"game_id":440,"stv_port":0,"stv_name":"","players":null},{"server_id":402,"name":"Uncletopia | Chicago | 3 | All Maps","name_short":"chi-3","host":"chi-1.us.uncletopia.com","port":27035,"enabled":true,"region":"us-central","cc":"us","latitude":41.881832,"longitude":-87.62318,"reserved":0,"last_update":"0001-01-01T00:00:00Z","name_a2s":"Uncletopia | Chicago | 3 | All Maps","protocol":17,"map":"cp_dustbowl","folder":"tf","game":"Team Fortress","app_id":440,"player_count":0,"max_players":24,"Bots":0,"server_type":"Dedicated","server_os":"Linux","password":true,"vac":true,"version":"7708610","steam_id":85568392924515191,"keywords":["cp","nocrits","nodmgspread","uncletopia"],"game_id":440,"stv_port":0,"stv_name":"","players":null},{"server_id":403,"name":"Uncletopia | Chicago | 4 | All Maps","name_short":"chi-4","host":"chi-1.us.uncletopia.com","port":27045,"enabled":true,"region":"us-central","cc":"us","latitude":41.881832,"longitude":-87.62318,"reserved":0,"last_update":"0001-01-01T00:00:00Z","name_a2s":"Uncletopia | Chicago | 4 | All Maps","protocol":17,"map":"koth_highpass","folder":"tf","game":"Team Fortress","app_id":440,"player_count":0,"max_players":24,"Bots":0,"server_type":"Dedicated","server_os":"Linux","password":true,"vac":true,"version":"7708610","steam_id":85568392924515193,"keywords":["cp","nocrits","nodmgspread","uncletopia"],"game_id":440,"stv_port":27046,"stv_name":"Uncletopia | Chicago | 4 | All Maps | STV","players":null},{"server_id":36,"name":"Uncletopia | Chicago | 5 | All Maps","name_short":"chi-5","host":"chi-2.us.uncletopia.com","port":27015,"enabled":true,"region":"us-central","cc":"us","latitude":41.881832,"longitude":-87.62318,"reserved":0,"last_update":"0001-01-01T00:00:00Z","name_a2s":"Uncletopia | Chicago | 5 | All Maps","protocol":17,"map":"cp_snakewater_final1","folder":"tf","game":"Team Fortress","app_id":440,"player_count":0,"max_players":24,"Bots":0,"server_type":"Dedicated","server_os":"Linux","password":true,"vac":true,"version":"7708610","steam_id":85568392924866362,"keywords":["cp","nocrits","nodmgspread","uncletopia"],"game_id":440,"stv_port":0,"stv_name":"","players":null},{"server_id":37,"name":"Uncletopia | Chicago | 6 | All Maps","name_short":"chi-6","host":"chi-2.us.uncletopia.com","port":27025,"enabled":true,"region":"us-central","cc":"us","latitude":41.881832,"longitude":-87.62318,"reserved":0,"last_update":"0001-01-01T00:00:00Z","name_a2s":"Uncletopia | Chicago | 6 | All Maps","protocol":17,"map":"koth_cascade","folder":"tf","game":"Team Fortress","app_id":440,"player_count":0,"max_players":24,"Bots":0,"server_type":"Dedicated","server_os":"Linux","password":true,"vac":true,"version":"7708610","steam_id":85568392924866363,"keywords":["cp","nocrits","nodmgspread","uncletopia"],"game_id":440,"stv_port":0,"stv_name":"","players":null},{"server_id":38,"name":"Uncletopia | Chicago | 7 | No Payload","name_short":"chi-7","host":"chi-2.us.uncletopia.com","port":27035,"enabled":true,"region":"us-central","cc":"us","latitude":41.881832,"longitude":-87.62318,"reserved":0,"last_update":"0001-01-01T00:00:00Z","name_a2s":"Uncletopia | Chicago | 7 | No Payload","protocol":17,"map":"koth_viaduct","folder":"tf","game":"Team Fortress","app_id":440,"player_count":0,"max_players":24,"Bots":0,"server_type":"Dedicated","server_os":"Linux","password":true,"vac":true,"version":"7708610","steam_id":85568392924866364,"keywords":["cp","nocrits","nodmgspread","uncletopia"],"game_id":440,"stv_port":0,"stv_name":"","players":null},{"server_id":39,"name":"Uncletopia | Chicago | 8 | Community","name_short":"chi-8","host":"chi-2.us.uncletopia.com","port":27045,"enabled":true,"region":"us-central","cc":"us","latitude":41.881832,"longitude":-87.62318,"reserved":0,"last_update":"0001-01-01T00:00:00Z","name_a2s":"Uncletopia | Chicago | 8 | Community","protocol":17,"map":"workshop/koth_bagel_rc5.ugc2514036946","folder":"tf","game":"Team Fortress","app_id":440,"player_count":0,"max_players":24,"Bots":0,"server_type":"Dedicated","server_os":"Linux","password":true,"vac":true,"version":"7708610","steam_id":85568392924866365,"keywords":["cp","nocrits","nodmgspread","uncletopia"],"game_id":440,"stv_port":27046,"stv_name":"Uncletopia | Chicago | 8 | Community | STV","players":null},{"server_id":8,"name":"Uncletopia | Dallas | 1 | All Maps","name_short":"dal-1","host":"dal-1.us.uncletopia.com","port":27015,"enabled":true,"region":"us-central","cc":"us","latitude":32.779167,"longitude":-96.80889,"reserved":0,"last_update":"0001-01-01T00:00:00Z","name_a2s":"Uncletopia | Dallas | 1 | All Maps","protocol":17,"map":"cp_gorge","folder":"tf","game":"Team Fortress","app_id":440,"player_count":23,"max_players":24,"Bots":0,"server_type":"Dedicated","server_os":"Linux","password":true,"vac":true,"version":"7708610","steam_id":85568392924469986,"keywords":["cp","nocrits","nodmgspread","uncletopia"],"game_id":440,"stv_port":27016,"stv_name":"Uncletopia | Dallas | 1 | All Maps | STV","players":[{"user_id":125,"name":"Dispenser (Goblin King)","steam_id":76561198157878163,"connected_time":1027000000000,"state":"active","ping":76},{"user_id":139,"name":"KHALLIT TELEPHONI 3ALA LFORNEAU","steam_id":76561198095000722,"connected_time":470000000000,"state":"active","ping":31},{"user_id":111,"name":"Anon","steam_id":76561198216668743,"connected_time":1530000000000,"state":"active","ping":145},{"user_id":114,"name":"Zobozo","steam_id":76561198028954297,"connected_time":1436000000000,"state":"active","ping":73},{"user_id":79,"name":"OwlOddity","steam_id":76561198389068053,"connected_time":3324000000000,"state":"active","ping":47},{"user_id":138,"name":"Seething Swine","steam_id":76561198079147566,"connected_time":493000000000,"state":"active","ping":85},{"user_id":131,"name":"fancy chef (not evil clown)","steam_id":76561198993641831,"connected_time":876000000000,"state":"active","ping":65},{"user_id":140,"name":"Pixler544","steam_id":76561198240575132,"connected_time":451000000000,"state":"active","ping":67},{"user_id":87,"name":"buttermilkjesus","steam_id":76561198984974048,"connected_time":3137000000000,"state":"active","ping":81},{"user_id":137,"name":"Soundproof","steam_id":76561198133392504,"connected_time":509000000000,"state":"active","ping":73},{"user_id":115,"name":"Herr Müller","steam_id":76561198064876829,"connected_time":1421000000000,"state":"active","ping":91},{"user_id":128,"name":"Kanadia-Chan","steam_id":76561198083703399,"connected_time":944000000000,"state":"active","ping":118},{"user_id":136,"name":"badspyplayer300","steam_id":76561198964306655,"connected_time":605000000000,"state":"active","ping":79},{"user_id":77,"name":"Leclerc","steam_id":76561198972619900,"connected_time":3603000000000,"state":"active","ping":42},{"user_id":36,"name":"Horizons","steam_id":76561198106417594,"connected_time":6232000000000,"state":"active","ping":36},{"user_id":144,"name":"Amygdala","steam_id":76561198289183352,"connected_time":214000000000,"state":"active","ping":154},{"user_id":142,"name":"Dominic","steam_id":76561198231056136,"connected_time":395000000000,"state":"active","ping":71},{"user_id":134,"name":"SliFox115","steam_id":76561198006657143,"connected_time":646000000000,"state":"active","ping":64},{"user_id":127,"name":"Roomsky","steam_id":76561198012827494,"connected_time":1000000000000,"state":"active","ping":103},{"user_id":106,"name":"the smiling zombie","steam_id":76561199246231090,"connected_time":1762000000000,"state":"active","ping":66},{"user_id":119,"name":"Laggy","steam_id":76561198125110756,"connected_time":1311000000000,"state":"active","ping":68},{"user_id":126,"name":"HarryjusttHarry","steam_id":76561198982810452,"connected_time":1015000000000,"state":"active","ping":84},{"user_id":132,"name":"creepycrawler","steam_id":76561198352016831,"connected_time":774000000000,"state":"active","ping":62}]},{"server_id":108,"name":"Uncletopia | Dallas | 2 | All Maps","name_short":"dal-2","host":"dal-1.us.uncletopia.com","port":27025,"enabled":true,"region":"us-central","cc":"us","latitude":32.779167,"longitude":-96.80889,"reserved":0,"last_update":"0001-01-01T00:00:00Z","name_a2s":"Uncletopia | Dallas | 2 | All Maps","protocol":17,"map":"cp_process_final","folder":"tf","game":"Team Fortress","app_id":440,"player_count":0,"max_players":24,"Bots":0,"server_type":"Dedicated","server_os":"Linux","password":true,"vac":true,"version":"7708610","steam_id":85568392924469988,"keywords":["cp","nocrits","nodmgspread","uncletopia"],"game_id":440,"stv_port":27026,"stv_name":"Uncletopia | Dallas | 2 | All Maps | STV","players":null},{"server_id":5,"name":"Uncletopia | Frankfurt | 1 | All Maps","name_short":"frk-1","host":"frk-1.de.uncletopia.com","port":27015,"enabled":true,"region":"eu","cc":"de","latitude":50.110924,"longitude":8.682127,"reserved":0,"last_update":"0001-01-01T00:00:00Z","name_a2s":"Uncletopia | Frankfurt | 1 | All Maps","protocol":17,"map":"cp_dustbowl","folder":"tf","game":"Team Fortress","app_id":440,"player_count":24,"max_players":24,"Bots":0,"server_type":"Dedicated","server_os":"Linux","password":true,"vac":true,"version":"7708610","steam_id":85568392924469989,"keywords":["cp","nocrits","nodmgspread","uncletopia"],"game_id":440,"stv_port":27016,"stv_name":"Uncletopia | Frankfurt | 1 | All Maps | STV","players":[{"user_id":322,"name":"Bones","steam_id":76561198065081225,"connected_time":5270000000000,"state":"active","ping":52},{"user_id":373,"name":"Kili","steam_id":76561198138456346,"connected_time":423000000000,"state":"active","ping":59},{"user_id":324,"name":"Rudebwoyyy","steam_id":76561199387956486,"connected_time":4916000000000,"state":"active","ping":54},{"user_id":368,"name":"what?","steam_id":76561198260569123,"connected_time":677000000000,"state":"active","ping":133},{"user_id":375,"name":"JackFighter","steam_id":76561198032798785,"connected_time":227000000000,"state":"active","ping":74},{"user_id":346,"name":"Rigby","steam_id":76561198021552128,"connected_time":2329000000000,"state":"active","ping":102},{"user_id":378,"name":"mordecai.nmc","steam_id":76561197997223851,"connected_time":199000000000,"state":"active","ping":60},{"user_id":376,"name":"Иванов","steam_id":76561198817596606,"connected_time":217000000000,"state":"active","ping":63},{"user_id":377,"name":"Sylbar","steam_id":76561198065379590,"connected_time":217000000000,"state":"active","ping":63},{"user_id":318,"name":"LarsInABox","steam_id":76561198028329262,"connected_time":5615000000000,"state":"active","ping":69},{"user_id":136,"name":"amogus","steam_id":76561198119439177,"connected_time":18698000000000,"state":"active","ping":59},{"user_id":382,"name":"Äärik ♣","steam_id":76561198131871737,"connected_time":28000000000,"state":"active","ping":52},{"user_id":379,"name":"eidis","steam_id":76561198314954479,"connected_time":183000000000,"state":"active","ping":109},{"user_id":356,"name":"NANOS","steam_id":76561198986670306,"connected_time":1679000000000,"state":"active","ping":83},{"user_id":358,"name":"The creator of sex","steam_id":76561199213901239,"connected_time":1468000000000,"state":"active","ping":57},{"user_id":380,"name":"heisenburger","steam_id":76561198284589853,"connected_time":171000000000,"state":"active","ping":94},{"user_id":369,"name":"Ecton","steam_id":76561198025103720,"connected_time":675000000000,"state":"active","ping":63},{"user_id":381,"name":"System","steam_id":76561199442503973,"connected_time":141000000000,"state":"active","ping":46},{"user_id":340,"name":"PWizard","steam_id":76561198026458489,"connected_time":3159000000000,"state":"active","ping":84},{"user_id":280,"name":"Festdoktor","steam_id":76561198058159271,"connected_time":7716000000000,"state":"active","ping":60},{"user_id":360,"name":"actually clujean","steam_id":76561198267579078,"connected_time":1033000000000,"state":"active","ping":70},{"user_id":343,"name":"Serton♝","steam_id":76561198011061126,"connected_time":2372000000000,"state":"active","ping":97},{"user_id":355,"name":"RAINZ","steam_id":76561198335370929,"connected_time":1689000000000,"state":"active","ping":129},{"user_id":370,"name":"Dicartal","steam_id":76561198295793592,"connected_time":674000000000,"state":"active","ping":130}]},{"server_id":110,"name":"Uncletopia | Frankfurt | 2 | All Maps","name_short":"frk-2","host":"frk-1.de.uncletopia.com","port":27025,"enabled":true,"region":"eu","cc":"de","latitude":50.110924,"longitude":8.682127,"reserved":0,"last_update":"0001-01-01T00:00:00Z","name_a2s":"Uncletopia | Frankfurt | 2 | All Maps","protocol":17,"map":"pl_borneo","folder":"tf","game":"Team Fortress","app_id":440,"player_count":24,"max_players":24,"Bots":0,"server_type":"Dedicated","server_os":"Linux","password":true,"vac":true,"version":"7708610","steam_id":85568392924469990,"keywords":["nocrits","nodmgspread","payload","uncletopia"],"game_id":440,"stv_port":27026,"stv_name":"Uncletopia | Frankfurt | 2 | All Maps | STV","players":[{"user_id":230,"name":"night.s","steam_id":76561198326287823,"connected_time":2200000000000,"state":"active","ping":86},{"user_id":220,"name":"mergha","steam_id":76561198091204331,"connected_time":2274000000000,"state":"active","ping":65},{"user_id":231,"name":"X-tis","steam_id":76561198043837480,"connected_time":2072000000000,"state":"active","ping":70},{"user_id":249,"name":"The man who snorts sand","steam_id":76561199012566222,"connected_time":115000000000,"state":"active","ping":53},{"user_id":192,"name":"tomix7","steam_id":76561198365122597,"connected_time":4257000000000,"state":"active","ping":55},{"user_id":246,"name":"The Bayrisch Brezel","steam_id":76561198061912743,"connected_time":326000000000,"state":"active","ping":50},{"user_id":207,"name":"Highnachtsmann","steam_id":76561198044784226,"connected_time":3389000000000,"state":"active","ping":53},{"user_id":247,"name":"Industrial Revolution","steam_id":76561198230811124,"connected_time":311000000000,"state":"active","ping":65},{"user_id":186,"name":"NikodemosPL","steam_id":76561198271226975,"connected_time":4656000000000,"state":"active","ping":109},{"user_id":218,"name":"♥ Cirno ♥","steam_id":76561198834982738,"connected_time":2623000000000,"state":"active","ping":60},{"user_id":233,"name":"steve","steam_id":76561198076135756,"connected_time":1848000000000,"state":"active","ping":45},{"user_id":238,"name":"Zero","steam_id":76561199383267408,"connected_time":1095000000000,"state":"active","ping":161},{"user_id":248,"name":"Lin","steam_id":76561198126946498,"connected_time":272000000000,"state":"active","ping":87},{"user_id":235,"name":"Der Herr Doktor","steam_id":76561198119476089,"connected_time":1633000000000,"state":"active","ping":52},{"user_id":237,"name":"Norbert Hallelujah","steam_id":76561198137876982,"connected_time":1111000000000,"state":"active","ping":63},{"user_id":109,"name":"jorj3821","steam_id":76561198844794367,"connected_time":9327000000000,"state":"active","ping":76},{"user_id":227,"name":"souvla enjoyer","steam_id":76561199368726811,"connected_time":2207000000000,"state":"active","ping":91},{"user_id":228,"name":"spiders","steam_id":76561198097583088,"connected_time":2204000000000,"state":"active","ping":137},{"user_id":229,"name":"Phiphler","steam_id":76561197994055715,"connected_time":2204000000000,"state":"active","ping":67},{"user_id":203,"name":"Dolcelatte","steam_id":76561198038501770,"connected_time":3721000000000,"state":"active","ping":50},{"user_id":202,"name":"Gordon Birdman","steam_id":76561198013382324,"connected_time":3740000000000,"state":"active","ping":74},{"user_id":244,"name":"Нечуй-Левицький","steam_id":76561198870926865,"connected_time":426000000000,"state":"active","ping":57},{"user_id":242,"name":"The Wolf Leader","steam_id":76561198038007462,"connected_time":740000000000,"state":"active","ping":62},{"user_id":240,"name":"guarda-chuva","steam_id":76561198078694330,"connected_time":945000000000,"state":"active","ping":58}]},{"server_id":308,"name":"Uncletopia | Frankfurt | 3 | All Maps","name_short":"frk-3","host":"frk-1.de.uncletopia.com","port":27035,"enabled":true,"region":"eu","cc":"de","latitude":50.110924,"longitude":8.682127,"reserved":0,"last_update":"0001-01-01T00:00:00Z","name_a2s":"Uncletopia | Frankfurt | 3 | All Maps","protocol":17,"map":"pl_barnblitz","folder":"tf","game":"Team Fortress","app_id":440,"player_count":24,"max_players":24,"Bots":0,"server_type":"Dedicated","server_os":"Linux","password":true,"vac":true,"version":"7708610","steam_id":85568392924504274,"keywords":["nocrits","nodmgspread","payload","uncletopia"],"game_id":440,"stv_port":27036,"stv_name":"Uncletopia | Frankfurt | 3 | All Maps | STV","players":[{"user_id":338,"name":"adriankurek","steam_id":76561199349026873,"connected_time":53000000000,"state":"active","ping":80},{"user_id":327,"name":"Cranjis McBasketball","steam_id":76561198051290193,"connected_time":1991000000000,"state":"active","ping":64},{"user_id":335,"name":"PONCHO 90","steam_id":76561198412197820,"connected_time":598000000000,"state":"active","ping":77},{"user_id":336,"name":"ok","steam_id":76561198052575567,"connected_time":596000000000,"state":"active","ping":83},{"user_id":303,"name":"Such XD","steam_id":76561198129454909,"connected_time":3306000000000,"state":"active","ping":64},{"user_id":318,"name":"-rikeOo-","steam_id":76561198303995379,"connected_time":2723000000000,"state":"active","ping":75},{"user_id":320,"name":"[CC]Nyafka","steam_id":76561198289878090,"connected_time":2508000000000,"state":"active","ping":115},{"user_id":324,"name":"moser23","steam_id":76561197960543171,"connected_time":2155000000000,"state":"active","ping":40},{"user_id":333,"name":"The One","steam_id":76561198827193499,"connected_time":817000000000,"state":"active","ping":61},{"user_id":319,"name":"Torben","steam_id":76561198377574408,"connected_time":2560000000000,"state":"active","ping":53},{"user_id":243,"name":"cacapo","steam_id":76561198022255760,"connected_time":7834000000000,"state":"active","ping":74},{"user_id":323,"name":"Party in the wall house","steam_id":76561199002798794,"connected_time":2208000000000,"state":"active","ping":91},{"user_id":322,"name":"pjena","steam_id":76561198207643025,"connected_time":2292000000000,"state":"active","ping":55},{"user_id":283,"name":"pl_zławoda","steam_id":76561198040588109,"connected_time":4648000000000,"state":"active","ping":116},{"user_id":330,"name":"Chysa","steam_id":76561198131794145,"connected_time":1735000000000,"state":"active","ping":61},{"user_id":284,"name":"filo","steam_id":76561198103633797,"connected_time":4616000000000,"state":"active","ping":118},{"user_id":329,"name":"lolimsogreat21","steam_id":76561199052033788,"connected_time":1758000000000,"state":"active","ping":63},{"user_id":305,"name":"Big Coke","steam_id":76561198132644586,"connected_time":3296000000000,"state":"active","ping":86},{"user_id":331,"name":"Darky","steam_id":76561198004733239,"connected_time":1729000000000,"state":"active","ping":47},{"user_id":314,"name":"freemantel30","steam_id":76561198065669800,"connected_time":2975000000000,"state":"active","ping":66},{"user_id":275,"name":"Miiukade","steam_id":76561198089157860,"connected_time":5524000000000,"state":"active","ping":142},{"user_id":332,"name":"Speibsackerl","steam_id":76561198058135257,"connected_time":1288000000000,"state":"active","ping":70},{"user_id":274,"name":"Raxor","steam_id":76561198239927434,"connected_time":5561000000000,"state":"active","ping":89},{"user_id":337,"name":"skeleton_archer_1","steam_id":76561198407636430,"connected_time":596000000000,"state":"active","ping":105}]},{"server_id":309,"name":"Uncletopia | Frankfurt | 4 | All Maps","name_short":"frk-4","host":"frk-1.de.uncletopia.com","port":27045,"enabled":true,"region":"eu","cc":"de","latitude":50.110924,"longitude":8.682127,"reserved":0,"last_update":"0001-01-01T00:00:00Z","name_a2s":"Uncletopia | Frankfurt | 4 | All Maps","protocol":17,"map":"cp_dustbowl","folder":"tf","game":"Team Fortress","app_id":440,"player_count":23,"max_players":24,"Bots":0,"server_type":"Dedicated","server_os":"Linux","password":true,"vac":true,"version":"7708610","steam_id":85568392924504275,"keywords":["cp","nocrits","nodmgspread","uncletopia"],"game_id":440,"stv_port":27046,"stv_name":"Uncletopia | Frankfurt | 4 | All Maps | STV","players":[{"user_id":420,"name":"Nummi","steam_id":76561198980901935,"connected_time":1483000000000,"state":"active","ping":82},{"user_id":447,"name":"Independent","steam_id":76561198068999873,"connected_time":166000000000,"state":"active","ping":81},{"user_id":446,"name":"aolo2","steam_id":76561198037233986,"connected_time":356000000000,"state":"active","ping":75},{"user_id":435,"name":"walpurgis","steam_id":76561199117720299,"connected_time":1186000000000,"state":"active","ping":59},{"user_id":418,"name":"Gwishin","steam_id":76561198257158275,"connected_time":1607000000000,"state":"active","ping":149},{"user_id":445,"name":"ruby (ribbit)","steam_id":76561198040870467,"connected_time":414000000000,"state":"active","ping":61},{"user_id":419,"name":"Nyreen Nebula","steam_id":76561199437842841,"connected_time":1542000000000,"state":"active","ping":108},{"user_id":421,"name":"Luke SpyWalker","steam_id":76561198008643276,"connected_time":1427000000000,"state":"active","ping":60},{"user_id":438,"name":"Dr Sex","steam_id":76561198029044617,"connected_time":1085000000000,"state":"active","ping":60},{"user_id":403,"name":"ɘƚɒ⅃ɘƚɒ⅃ /./ =)(= \\.\\","steam_id":76561198053339372,"connected_time":1988000000000,"state":"active","ping":56},{"user_id":423,"name":"Andy","steam_id":76561198136364381,"connected_time":1409000000000,"state":"active","ping":76},{"user_id":405,"name":"HYA HYA FOOWAAH!","steam_id":76561198193357946,"connected_time":1956000000000,"state":"active","ping":350},{"user_id":430,"name":"Supercle26","steam_id":76561199027147631,"connected_time":1258000000000,"state":"active","ping":52},{"user_id":407,"name":"Заднепроходец","steam_id":76561198059741978,"connected_time":1928000000000,"state":"active","ping":77},{"user_id":450,"name":"rei","steam_id":76561198273358760,"connected_time":58000000000,"state":"active","ping":63},{"user_id":409,"name":"kachow","steam_id":76561198202990635,"connected_time":1918000000000,"state":"active","ping":63},{"user_id":449,"name":"sperma gyerek","steam_id":76561198742407927,"connected_time":70000000000,"state":"active","ping":66},{"user_id":451,"name":"Solider Boy","steam_id":76561198118089326,"connected_time":16000000000,"state":"active","ping":102},{"user_id":428,"name":"DarkFloy | Hrvatska is in semif","steam_id":76561198070650206,"connected_time":1314000000000,"state":"active","ping":81},{"user_id":434,"name":"Mankor","steam_id":76561198020439322,"connected_time":1208000000000,"state":"active","ping":47},{"user_id":432,"name":"MrFumble","steam_id":76561198000555490,"connected_time":1253000000000,"state":"active","ping":95},{"user_id":433,"name":"40svartapungar","steam_id":76561199264277168,"connected_time":1249000000000,"state":"active","ping":66},{"user_id":441,"name":"Oak","steam_id":76561198412507725,"connected_time":911000000000,"state":"active","ping":109}]},{"server_id":310,"name":"Uncletopia | Frankfurt | 5 | All Maps","name_short":"frk-5","host":"frk-1.de.uncletopia.com","port":27055,"enabled":true,"region":"eu","cc":"de","latitude":50.110924,"longitude":8.682127,"reserved":0,"last_update":"0001-01-01T00:00:00Z","name_a2s":"Uncletopia | Frankfurt | 5 | All Maps","protocol":17,"map":"koth_viaduct","folder":"tf","game":"Team Fortress","app_id":440,"player_count":24,"max_players":24,"Bots":0,"server_type":"Dedicated","server_os":"Linux","password":true,"vac":true,"version":"7708610","steam_id":85568392924504277,"keywords":["cp","nocrits","nodmgspread","uncletopia"],"game_id":440,"stv_port":27056,"stv_name":"Uncletopia | Frankfurt | 5 | All Maps | STV","players":[{"user_id":354,"name":"gfjhsdf","steam_id":76561198136736426,"connected_time":2042000000000,"state":"active","ping":56},{"user_id":391,"name":"ImABush","steam_id":76561198304471896,"connected_time":90000000000,"state":"active","ping":47},{"user_id":365,"name":"Burgoo_King","steam_id":76561198133572225,"connected_time":1090000000000,"state":"active","ping":73},{"user_id":387,"name":"KarlRanzeier","steam_id":76561198066281337,"connected_time":238000000000,"state":"active","ping":47},{"user_id":355,"name":"The brown part of the banana","steam_id":76561198323425034,"connected_time":1976000000000,"state":"active","ping":76},{"user_id":342,"name":"sharkmax12312","steam_id":76561198996008569,"connected_time":2647000000000,"state":"active","ping":73},{"user_id":371,"name":"FrozenTiddies","steam_id":76561198271916832,"connected_time":618000000000,"state":"active","ping":48},{"user_id":375,"name":"Slick","steam_id":76561197994232008,"connected_time":569000000000,"state":"active","ping":65},{"user_id":370,"name":"PlebCord","steam_id":76561198120685803,"connected_time":695000000000,"state":"active","ping":84},{"user_id":388,"name":"kamekame","steam_id":76561198047108054,"connected_time":212000000000,"state":"active","ping":92},{"user_id":377,"name":"Amon Gus","steam_id":76561199094540960,"connected_time":556000000000,"state":"active","ping":62},{"user_id":392,"name":"htraB","steam_id":76561198043122677,"connected_time":76000000000,"state":"active","ping":61},{"user_id":378,"name":"Soerlssoelssöen","steam_id":76561197993060585,"connected_time":554000000000,"state":"active","ping":66},{"user_id":374,"name":"boat","steam_id":76561198044915818,"connected_time":591000000000,"state":"active","ping":93},{"user_id":390,"name":"Spike","steam_id":76561198306382723,"connected_time":191000000000,"state":"active","ping":61},{"user_id":361,"name":"SaltyCupcakes","steam_id":76561198256386417,"connected_time":1366000000000,"state":"active","ping":60},{"user_id":351,"name":"Big Gamer (real)","steam_id":76561198160114532,"connected_time":2415000000000,"state":"active","ping":48},{"user_id":315,"name":"roblan11","steam_id":76561198066839258,"connected_time":3877000000000,"state":"active","ping":52},{"user_id":379,"name":"Nichs","steam_id":76561198837475983,"connected_time":547000000000,"state":"active","ping":58},{"user_id":360,"name":"Accident","steam_id":76561198115160396,"connected_time":1378000000000,"state":"active","ping":78},{"user_id":386,"name":"curse these metal hands","steam_id":76561198056531586,"connected_time":296000000000,"state":"active","ping":61},{"user_id":382,"name":"PhantomBoy","steam_id":76561199195113687,"connected_time":523000000000,"state":"active","ping":139},{"user_id":385,"name":"RockFrenzy","steam_id":76561198005428050,"connected_time":317000000000,"state":"active","ping":62},{"user_id":384,"name":"Quog","steam_id":76561198058232598,"connected_time":509000000000,"state":"active","ping":72}]},{"server_id":311,"name":"Uncletopia | Frankfurt | 6 | All Maps","name_short":"frk-6","host":"frk-1.de.uncletopia.com","port":27065,"enabled":true,"region":"eu","cc":"de","latitude":50.110924,"longitude":8.682127,"reserved":0,"last_update":"0001-01-01T00:00:00Z","name_a2s":"Uncletopia | Frankfurt | 6 | All Maps","protocol":17,"map":"koth_lakeside_final","folder":"tf","game":"Team Fortress","app_id":440,"player_count":0,"max_players":24,"Bots":0,"server_type":"Dedicated","server_os":"Linux","password":true,"vac":true,"version":"7708610","steam_id":85568392924504278,"keywords":["cp","nocrits","nodmgspread","uncletopia"],"game_id":440,"stv_port":0,"stv_name":"","players":null},{"server_id":23,"name":"Uncletopia | Frankfurt | 7 | No Payload","name_short":"frk-7","host":"frk-1.de.uncletopia.com","port":27075,"enabled":true,"region":"eu","cc":"de","latitude":50.110924,"longitude":8.682127,"reserved":0,"last_update":"0001-01-01T00:00:00Z","name_a2s":"Uncletopia | Frankfurt | 7 | No Payload","protocol":17,"map":"cp_dustbowl","folder":"tf","game":"Team Fortress","app_id":440,"player_count":1,"max_players":24,"Bots":0,"server_type":"Dedicated","server_os":"Linux","password":true,"vac":true,"version":"7708610","steam_id":85568392924742827,"keywords":["cp","nocrits","nodmgspread","uncletopia"],"game_id":440,"stv_port":27076,"stv_name":"Uncletopia | Frankfurt | 7 | No Payload | STV","players":[{"user_id":17,"name":"Ghozt","steam_id":76561198289838374,"connected_time":1084000000000,"state":"active","ping":45}]},{"server_id":24,"name":"Uncletopia | Frankfurt | 8 | Community","name_short":"frk-8","host":"frk-1.de.uncletopia.com","port":27085,"enabled":true,"region":"eu","cc":"de","latitude":50.110924,"longitude":8.682127,"reserved":0,"last_update":"0001-01-01T00:00:00Z","name_a2s":"Uncletopia | Frankfurt | 8 | Community","protocol":17,"map":"workshop/koth_ashville_final.ugc2130459942","folder":"tf","game":"Team Fortress","app_id":440,"player_count":0,"max_players":24,"Bots":0,"server_type":"Dedicated","server_os":"Linux","password":true,"vac":true,"version":"7708610","steam_id":85568392924742828,"keywords":["cp","nocrits","nodmgspread","uncletopia"],"game_id":440,"stv_port":27086,"stv_name":"Uncletopia | Frankfurt | 8 | Community | STV","players":null},{"server_id":202,"name":"Uncletopia | Hong Kong | 1 | All Maps","name_short":"hgk-1","host":"hgk-1.hk.uncletopia.com","port":27015,"enabled":true,"region":"asia","cc":"hk","latitude":22.302711,"longitude":114.177216,"reserved":0,"last_update":"0001-01-01T00:00:00Z","name_a2s":"Uncletopia | Hong Kong | 1 | All Maps","protocol":17,"map":"plr_bananabay","folder":"tf","game":"Team Fortress","app_id":440,"player_count":3,"max_players":24,"Bots":0,"server_type":"Dedicated","server_os":"Linux","password":true,"vac":true,"version":"7708610","steam_id":85568392924494504,"keywords":["nocrits","nodmgspread","payload","uncletopia"],"game_id":440,"stv_port":27016,"stv_name":"Uncletopia | Hong Kong | 1 | All Maps | STV","players":[{"user_id":769,"name":"Đảng Cộng Sản Việt Nam","steam_id":76561199113304832,"connected_time":1055000000000,"state":"active","ping":61},{"user_id":770,"name":"GreggieBoi","steam_id":76561199085200364,"connected_time":916000000000,"state":"active","ping":109},{"user_id":773,"name":"TomProPlayer","steam_id":76561199223292521,"connected_time":541000000000,"state":"active","ping":59}]},{"server_id":1,"name":"Uncletopia | Los Angeles | 1 | All Maps","name_short":"lax-1","host":"lax-1.us.uncletopia.com","port":27015,"enabled":true,"region":"us-west","cc":"us","latitude":33.94279,"longitude":-118.41004,"reserved":0,"last_update":"0001-01-01T00:00:00Z","name_a2s":"Uncletopia | Los Angeles | 1 | All Maps","protocol":17,"map":"cp_process_final","folder":"tf","game":"Team Fortress","app_id":440,"player_count":0,"max_players":24,"Bots":0,"server_type":"Dedicated","server_os":"Linux","password":true,"vac":true,"version":"7708610","steam_id":85568392924469991,"keywords":["cp","nocrits","nodmgspread","uncletopia"],"game_id":440,"stv_port":0,"stv_name":"","players":null},{"server_id":112,"name":"Uncletopia | Los Angeles | 2 | All Maps","name_short":"lax-2","host":"lax-1.us.uncletopia.com","port":27025,"enabled":true,"region":"us-west","cc":"us","latitude":33.94279,"longitude":-118.41004,"reserved":0,"last_update":"0001-01-01T00:00:00Z","name_a2s":"Uncletopia | Los Angeles | 2 | All Maps","protocol":17,"map":"cp_altitude","folder":"tf","game":"Team Fortress","app_id":440,"player_count":0,"max_players":24,"Bots":0,"server_type":"Dedicated","server_os":"Linux","password":true,"vac":true,"version":"7708610","steam_id":85568392924469992,"keywords":["cp","nocrits","nodmgspread","uncletopia"],"game_id":440,"stv_port":0,"stv_name":"","players":null},{"server_id":324,"name":"Uncletopia | Los Angeles | 3 | All Maps","name_short":"lax-3","host":"lax-1.us.uncletopia.com","port":27035,"enabled":true,"region":"us-west","cc":"us","latitude":33.94279,"longitude":-118.41004,"reserved":0,"last_update":"0001-01-01T00:00:00Z","name_a2s":"Uncletopia | Los Angeles | 3 | All Maps","protocol":17,"map":"cp_altitude","folder":"tf","game":"Team Fortress","app_id":440,"player_count":0,"max_players":24,"Bots":0,"server_type":"Dedicated","server_os":"Linux","password":true,"vac":true,"version":"7708610","steam_id":85568392924510198,"keywords":["cp","nocrits","nodmgspread","uncletopia"],"game_id":440,"stv_port":0,"stv_name":"","players":null},{"server_id":25,"name":"Uncletopia | Los Angeles | 4 | No Payload","name_short":"lax-4","host":"lax-1.us.uncletopia.com","port":27045,"enabled":true,"region":"us-west","cc":"us","latitude":33.94279,"longitude":-118.41004,"reserved":0,"last_update":"0001-01-01T00:00:00Z","name_a2s":"Uncletopia | Los Angeles | 4 | No Payload","protocol":17,"map":"pl_upward","folder":"tf","game":"Team Fortress","app_id":440,"player_count":0,"max_players":24,"Bots":0,"server_type":"Dedicated","server_os":"Linux","password":true,"vac":true,"version":"7708610","steam_id":85568392924510199,"keywords":["nocrits","nodmgspread","payload","uncletopia"],"game_id":440,"stv_port":0,"stv_name":"","players":null},{"server_id":11,"name":"Uncletopia | London | 1 | All Maps","name_short":"lon-1","host":"lon-1.uk.uncletopia.com","port":27015,"enabled":true,"region":"eu","cc":"gb","latitude":51.509865,"longitude":-0.118092,"reserved":0,"last_update":"0001-01-01T00:00:00Z","name_a2s":"Uncletopia | London | 1 | All Maps","protocol":17,"map":"cp_sunshine","folder":"tf","game":"Team Fortress","app_id":440,"player_count":24,"max_players":24,"Bots":0,"server_type":"Dedicated","server_os":"Linux","password":true,"vac":true,"version":"7708610","steam_id":85568392924367362,"keywords":["cp","nocrits","nodmgspread","uncletopia"],"game_id":440,"stv_port":27016,"stv_name":"Uncletopia | London | 1 | All Maps | STV","players":[{"user_id":258,"name":"Bug","steam_id":76561198168268048,"connected_time":2499000000000,"state":"active","ping":47},{"user_id":294,"name":"Trexican","steam_id":76561198164129603,"connected_time":641000000000,"state":"active","ping":34},{"user_id":277,"name":"ZeeRoll","steam_id":76561198131129970,"connected_time":1441000000000,"state":"active","ping":71},{"user_id":280,"name":"Shrimpeee","steam_id":76561199012689768,"connected_time":1418000000000,"state":"active","ping":100},{"user_id":287,"name":"Farmercy","steam_id":76561198000038039,"connected_time":1360000000000,"state":"active","ping":71},{"user_id":268,"name":"GORILLA GRINDSET ⚠ #SOON ⚠","steam_id":76561198236008378,"connected_time":1767000000000,"state":"active","ping":126},{"user_id":270,"name":"orneps489","steam_id":76561199124755916,"connected_time":1621000000000,"state":"active","ping":118},{"user_id":292,"name":"PerskuleBenener","steam_id":76561198156899375,"connected_time":921000000000,"state":"active","ping":88},{"user_id":272,"name":"JohnTraveltime","steam_id":76561199244281754,"connected_time":1590000000000,"state":"active","ping":62},{"user_id":285,"name":"drifter","steam_id":76561197998271149,"connected_time":1402000000000,"state":"active","ping":60},{"user_id":289,"name":"Raymus","steam_id":76561198021330407,"connected_time":1248000000000,"state":"active","ping":53},{"user_id":239,"name":"EPH_1512","steam_id":76561199227441982,"connected_time":3040000000000,"state":"active","ping":377},{"user_id":296,"name":"engie?","steam_id":76561198331852832,"connected_time":499000000000,"state":"active","ping":68},{"user_id":247,"name":"Zerfesh","steam_id":76561198117534358,"connected_time":2850000000000,"state":"active","ping":98},{"user_id":243,"name":"Oak","steam_id":76561198067315672,"connected_time":2958000000000,"state":"active","ping":47},{"user_id":244,"name":"greatest legal mind i ever knew","steam_id":76561199234889615,"connected_time":2929000000000,"state":"active","ping":57},{"user_id":297,"name":"nudjura","steam_id":76561198281986139,"connected_time":305000000000,"state":"active","ping":48},{"user_id":248,"name":"Optimist 50","steam_id":76561198039631442,"connected_time":2829000000000,"state":"active","ping":90},{"user_id":249,"name":"Realist 40","steam_id":76561198052476979,"connected_time":2824000000000,"state":"active","ping":89},{"user_id":290,"name":"-.-gusfring-.-","steam_id":76561198986630786,"connected_time":984000000000,"state":"active","ping":44},{"user_id":283,"name":"Avitz","steam_id":76561197986150359,"connected_time":1411000000000,"state":"active","ping":73},{"user_id":253,"name":"Paper plane Mike","steam_id":76561198367921934,"connected_time":2787000000000,"state":"active","ping":47},{"user_id":284,"name":"Echo","steam_id":76561198162553034,"connected_time":1407000000000,"state":"active","ping":60},{"user_id":266,"name":"Tasukeru","steam_id":76561198011909704,"connected_time":1917000000000,"state":"active","ping":59}]},{"server_id":114,"name":"Uncletopia | London | 2 | All Maps","name_short":"lon-2","host":"lon-1.uk.uncletopia.com","port":27025,"enabled":true,"region":"eu","cc":"gb","latitude":51.509865,"longitude":-0.118092,"reserved":0,"last_update":"0001-01-01T00:00:00Z","name_a2s":"Uncletopia | London | 2 | All Maps","protocol":17,"map":"koth_highpass","folder":"tf","game":"Team Fortress","app_id":440,"player_count":2,"max_players":24,"Bots":0,"server_type":"Dedicated","server_os":"Linux","password":true,"vac":true,"version":"7708610","steam_id":85568392924470941,"keywords":["cp","nocrits","nodmgspread","uncletopia"],"game_id":440,"stv_port":27026,"stv_name":"Uncletopia | London | 2 | All Maps | STV","players":[{"user_id":21,"name":"Frank","steam_id":76561198086672774,"connected_time":171000000000,"state":"active","ping":52},{"user_id":19,"name":"Archie","steam_id":76561199061232100,"connected_time":377000000000,"state":"active","ping":71}]},{"server_id":320,"name":"Uncletopia | London | 3 | All Maps","name_short":"lon-3","host":"lon-1.uk.uncletopia.com","port":27035,"enabled":true,"region":"eu","cc":"gb","latitude":51.509865,"longitude":-0.118092,"reserved":0,"last_update":"0001-01-01T00:00:00Z","name_a2s":"Uncletopia | London | 3 | All Maps","protocol":17,"map":"pl_barnblitz","folder":"tf","game":"Team Fortress","app_id":440,"player_count":24,"max_players":24,"Bots":0,"server_type":"Dedicated","server_os":"Linux","password":true,"vac":true,"version":"7708610","steam_id":85568392924510192,"keywords":["nocrits","nodmgspread","payload","uncletopia"],"game_id":440,"stv_port":27036,"stv_name":"Uncletopia | London | 3 | All Maps | STV","players":[{"user_id":147,"name":"Zombi3","steam_id":76561198326290621,"connected_time":1391000000000,"state":"active","ping":65},{"user_id":125,"name":"CamoS1250","steam_id":76561198309917434,"connected_time":2983000000000,"state":"active","ping":146},{"user_id":155,"name":"basil gaming","steam_id":76561198164554641,"connected_time":269000000000,"state":"active","ping":50},{"user_id":111,"name":"firenickblood","steam_id":76561199302529256,"connected_time":3952000000000,"state":"active","ping":58},{"user_id":138,"name":"ToniGAM3S","steam_id":76561198128605351,"connected_time":2586000000000,"state":"active","ping":69},{"user_id":140,"name":"AWP Bodyshot :) ❤","steam_id":76561198029928533,"connected_time":2187000000000,"state":"active","ping":59},{"user_id":129,"name":"1 month Big Earner challenge","steam_id":76561198799097492,"connected_time":2777000000000,"state":"active","ping":46},{"user_id":54,"name":"clean carp","steam_id":76561198127053294,"connected_time":7478000000000,"state":"active","ping":66},{"user_id":145,"name":"ciliorkun18","steam_id":76561198228942500,"connected_time":1632000000000,"state":"active","ping":92},{"user_id":113,"name":"Biały","steam_id":76561197996016988,"connected_time":3836000000000,"state":"active","ping":80},{"user_id":156,"name":"Sim","steam_id":76561198086641180,"connected_time":257000000000,"state":"active","ping":59},{"user_id":157,"name":"compusMentus","steam_id":76561199134152606,"connected_time":166000000000,"state":"active","ping":75},{"user_id":96,"name":"Hexagon","steam_id":76561198151205758,"connected_time":4932000000000,"state":"active","ping":63},{"user_id":120,"name":"Nick (Mute banned on Uncletopia","steam_id":76561198036109469,"connected_time":3201000000000,"state":"active","ping":87},{"user_id":158,"name":"❤ s2 ❤","steam_id":76561198139952351,"connected_time":158000000000,"state":"active","ping":89},{"user_id":151,"name":"you (DK)","steam_id":76561198061472971,"connected_time":900000000000,"state":"active","ping":63},{"user_id":159,"name":"Ablativus","steam_id":76561198025698470,"connected_time":157000000000,"state":"active","ping":76},{"user_id":150,"name":"sumweeb","steam_id":76561198311624395,"connected_time":1222000000000,"state":"active","ping":40},{"user_id":146,"name":"NeoN™","steam_id":76561198117608366,"connected_time":1580000000000,"state":"active","ping":108},{"user_id":118,"name":"sigma female","steam_id":76561198298576765,"connected_time":3663000000000,"state":"active","ping":64},{"user_id":98,"name":"Blacksheep","steam_id":76561198019621063,"connected_time":4874000000000,"state":"active","ping":47},{"user_id":154,"name":"Bodyshot Gaming","steam_id":76561198079288943,"connected_time":392000000000,"state":"active","ping":149},{"user_id":92,"name":"Mr. Mundy","steam_id":76561198132008918,"connected_time":5110000000000,"state":"active","ping":83}]},{"server_id":321,"name":"Uncletopia | London | 4 | All Maps","name_short":"lon-4","host":"lon-1.uk.uncletopia.com","port":27045,"enabled":true,"region":"eu","cc":"gb","latitude":51.509865,"longitude":-0.118092,"reserved":0,"last_update":"0001-01-01T00:00:00Z","name_a2s":"Uncletopia | London | 4 | All Maps","protocol":17,"map":"koth_lakeside_final","folder":"tf","game":"Team Fortress","app_id":440,"player_count":24,"max_players":24,"Bots":0,"server_type":"Dedicated","server_os":"Linux","password":true,"vac":true,"version":"7708610","steam_id":85568392924510193,"keywords":["cp","nocrits","nodmgspread","uncletopia"],"game_id":440,"stv_port":27046,"stv_name":"Uncletopia | London | 4 | All Maps | STV","players":[{"user_id":438,"name":"gamer man","steam_id":76561198436817109,"connected_time":574000000000,"state":"active","ping":45},{"user_id":429,"name":"Paulie \"Walnuts\" Gualtieri","steam_id":76561198364121077,"connected_time":696000000000,"state":"active","ping":92},{"user_id":423,"name":"TealSpark","steam_id":76561198024972980,"connected_time":1236000000000,"state":"active","ping":44},{"user_id":400,"name":"RedPyro2009","steam_id":76561198935824363,"connected_time":2563000000000,"state":"active","ping":50},{"user_id":403,"name":"brtaba","steam_id":76561198796334790,"connected_time":2525000000000,"state":"active","ping":67},{"user_id":442,"name":"Pasta goblin with a touchpad","steam_id":76561198803330799,"connected_time":222000000000,"state":"active","ping":110},{"user_id":427,"name":"Kolmannen","steam_id":76561198288826376,"connected_time":707000000000,"state":"active","ping":89},{"user_id":334,"name":"Ixsus\u003c3","steam_id":76561198094756869,"connected_time":6264000000000,"state":"active","ping":67},{"user_id":436,"name":"Scipionemiliano","steam_id":76561198027646559,"connected_time":653000000000,"state":"active","ping":125},{"user_id":356,"name":"Pahlberg","steam_id":76561198208547929,"connected_time":5179000000000,"state":"active","ping":79},{"user_id":441,"name":"merisah4425","steam_id":76561199105003815,"connected_time":282000000000,"state":"active","ping":57},{"user_id":431,"name":"Jughead","steam_id":76561198000355410,"connected_time":683000000000,"state":"active","ping":34},{"user_id":413,"name":"Kvikk","steam_id":76561198063104117,"connected_time":1671000000000,"state":"active","ping":74},{"user_id":443,"name":"Derek Pappalardo Gaming","steam_id":76561198215428069,"connected_time":109000000000,"state":"active","ping":57},{"user_id":417,"name":"Economic crisis","steam_id":76561198063562843,"connected_time":1545000000000,"state":"active","ping":63},{"user_id":416,"name":"Milca_11","steam_id":76561198848650365,"connected_time":1580000000000,"state":"active","ping":79},{"user_id":392,"name":"Canis[Magnus]Pectus","steam_id":76561198363775072,"connected_time":3166000000000,"state":"active","ping":126},{"user_id":369,"name":"FRANKY!!!","steam_id":76561199211305343,"connected_time":4185000000000,"state":"active","ping":178},{"user_id":432,"name":"Kane","steam_id":76561198447582701,"connected_time":679000000000,"state":"active","ping":34},{"user_id":434,"name":"Blockle","steam_id":76561199141459287,"connected_time":667000000000,"state":"active","ping":80},{"user_id":435,"name":"NonProphet","steam_id":76561198280149820,"connected_time":666000000000,"state":"active","ping":55},{"user_id":437,"name":"HanhiGaming","steam_id":76561198877007477,"connected_time":650000000000,"state":"active","ping":88},{"user_id":420,"name":"Penguinmark","steam_id":76561199057089501,"connected_time":1349000000000,"state":"active","ping":274},{"user_id":418,"name":"Ponto-Cho","steam_id":76561198859709451,"connected_time":1447000000000,"state":"active","ping":45}]},{"server_id":21,"name":"Uncletopia | London | 5 | All Maps","name_short":"lon-5","host":"lon-1.uk.uncletopia.com","port":27055,"enabled":true,"region":"eu","cc":"gb","latitude":51.509865,"longitude":-0.118092,"reserved":0,"last_update":"0001-01-01T00:00:00Z","name_a2s":"Uncletopia | London | 5 | All Maps","protocol":17,"map":"pl_barnblitz","folder":"tf","game":"Team Fortress","app_id":440,"player_count":0,"max_players":24,"Bots":0,"server_type":"Dedicated","server_os":"Linux","password":true,"vac":true,"version":"7708610","steam_id":85568392924742829,"keywords":["nocrits","nodmgspread","payload","uncletopia"],"game_id":440,"stv_port":27056,"stv_name":"Uncletopia | London | 5 | All Maps | STV","players":null},{"server_id":22,"name":"Uncletopia | London | 6 | All Maps","name_short":"lon-6","host":"lon-1.uk.uncletopia.com","port":27065,"enabled":true,"region":"eu","cc":"gb","latitude":51.509865,"longitude":-0.118092,"reserved":0,"last_update":"0001-01-01T00:00:00Z","name_a2s":"Uncletopia | London | 6 | All Maps","protocol":17,"map":"cp_steel","folder":"tf","game":"Team Fortress","app_id":440,"player_count":0,"max_players":24,"Bots":0,"server_type":"Dedicated","server_os":"Linux","password":true,"vac":true,"version":"7708610","steam_id":85568392924742830,"keywords":["cp","nocrits","nodmgspread","uncletopia"],"game_id":440,"stv_port":27066,"stv_name":"Uncletopia | London | 6 | All Maps | STV","players":null},{"server_id":40,"name":"Uncletopia | London | 7 | No Payload","name_short":"lon-7","host":"lon-1.uk.uncletopia.com","port":27075,"enabled":true,"region":"eu","cc":"gb","latitude":51.509865,"longitude":-0.118092,"reserved":0,"last_update":"0001-01-01T00:00:00Z","name_a2s":"Uncletopia | London | 7 | No Payload","protocol":17,"map":"koth_king","folder":"tf","game":"Team Fortress","app_id":440,"player_count":0,"max_players":24,"Bots":0,"server_type":"Dedicated","server_os":"Linux","password":true,"vac":true,"version":"7708610","steam_id":85568392924964314,"keywords":["cp","nocrits","nodmgspread","uncletopia"],"game_id":440,"stv_port":27076,"stv_name":"Uncletopia | London | 7 | No Payload | STV","players":null},{"server_id":41,"name":"Uncletopia | London | 8 | Community","name_short":"lon-8","host":"lon-1.uk.uncletopia.com","port":27085,"enabled":true,"region":"eu","cc":"gb","latitude":51.509865,"longitude":-0.118092,"reserved":0,"last_update":"0001-01-01T00:00:00Z","name_a2s":"Uncletopia | London | 8 | Community","protocol":17,"map":"workshop/cp_overgrown_rc7b.ugc503939302","folder":"tf","game":"Team Fortress","app_id":440,"player_count":0,"max_players":24,"Bots":0,"server_type":"Dedicated","server_os":"Linux","password":true,"vac":true,"version":"7708610","steam_id":85568392924964315,"keywords":["cp","nocrits","nodmgspread","uncletopia"],"game_id":440,"stv_port":27086,"stv_name":"Uncletopia | London | 8 | Community | STV","players":null},{"server_id":300,"name":"Uncletopia | Montréal | 1 | All Maps","name_short":"mtl-1","host":"mtl-1.ca.uncletopia.com","port":27015,"enabled":true,"region":"us-east","cc":"ca","latitude":45.50889,"longitude":-73.56167,"reserved":0,"last_update":"0001-01-01T00:00:00Z","name_a2s":"Uncletopia | Montréal | 1 | All Maps","protocol":17,"map":"pl_barnblitz","folder":"tf","game":"Team Fortress","app_id":440,"player_count":0,"max_players":24,"Bots":0,"server_type":"Dedicated","server_os":"Linux","password":true,"vac":true,"version":"7708610","steam_id":85568392924500087,"keywords":["nocrits","nodmgspread","payload","uncletopia"],"game_id":440,"stv_port":0,"stv_name":"","players":null},{"server_id":301,"name":"Uncletopia | Montréal | 2 | All Maps","name_short":"mtl-2","host":"mtl-1.ca.uncletopia.com","port":27025,"enabled":true,"region":"us-east","cc":"ca","latitude":45.50889,"longitude":-73.56167,"reserved":0,"last_update":"0001-01-01T00:00:00Z","name_a2s":"Uncletopia | Montréal | 2 | All Maps","protocol":17,"map":"pl_frontier_final","folder":"tf","game":"Team Fortress","app_id":440,"player_count":0,"max_players":24,"Bots":0,"server_type":"Dedicated","server_os":"Linux","password":true,"vac":true,"version":"7708610","steam_id":85568392924500088,"keywords":["nocrits","nodmgspread","payload","uncletopia"],"game_id":440,"stv_port":0,"stv_name":"","players":null},{"server_id":302,"name":"Uncletopia | Montréal | 3 | All Maps","name_short":"mtl-3","host":"mtl-1.ca.uncletopia.com","port":27035,"enabled":true,"region":"us-east","cc":"ca","latitude":45.50889,"longitude":-73.56167,"reserved":0,"last_update":"0001-01-01T00:00:00Z","name_a2s":"Uncletopia | Montréal | 3 | All Maps","protocol":17,"map":"pl_snowycoast","folder":"tf","game":"Team Fortress","app_id":440,"player_count":0,"max_players":24,"Bots":0,"server_type":"Dedicated","server_os":"Linux","password":true,"vac":true,"version":"7708610","steam_id":85568392924500089,"keywords":["nocrits","nodmgspread","payload","uncletopia"],"game_id":440,"stv_port":0,"stv_name":"","players":null},{"server_id":303,"name":"Uncletopia | Montréal | 4 | No Payload","name_short":"mtl-4","host":"mtl-1.ca.uncletopia.com","port":27045,"enabled":true,"region":"us-east","cc":"ca","latitude":45.50889,"longitude":-73.56167,"reserved":0,"last_update":"0001-01-01T00:00:00Z","name_a2s":"Uncletopia | Montréal | 4 | No Payload","protocol":17,"map":"pl_frontier_final","folder":"tf","game":"Team Fortress","app_id":440,"player_count":0,"max_players":24,"Bots":0,"server_type":"Dedicated","server_os":"Linux","password":true,"vac":true,"version":"7708610","steam_id":85568392924500090,"keywords":["nocrits","nodmgspread","payload","uncletopia"],"game_id":440,"stv_port":0,"stv_name":"","players":null},{"server_id":13,"name":"Uncletopia | New York City | 1 | All Maps","name_short":"nyc-1","host":"nyc-1.us.uncletopia.com","port":27015,"enabled":true,"region":"us-east","cc":"us","latitude":40.73061,"longitude":-73.93524,"reserved":0,"last_update":"0001-01-01T00:00:00Z","name_a2s":"Uncletopia | New York City | 1 | All Maps","protocol":17,"map":"koth_highpass","folder":"tf","game":"Team Fortress","app_id":440,"player_count":25,"max_players":24,"Bots":0,"server_type":"Dedicated","server_os":"Linux","password":true,"vac":true,"version":"7708610","steam_id":85568392924469993,"keywords":["cp","nocrits","nodmgspread","uncletopia"],"game_id":440,"stv_port":27016,"stv_name":"Uncletopia | New York City | 1 | All Maps | STV","players":[{"user_id":13,"name":"rev174","steam_id":76561198027981090,"connected_time":1882000000000,"state":"active","ping":55},{"user_id":32,"name":"Papa Squat","steam_id":76561198045011208,"connected_time":566000000000,"state":"active","ping":82},{"user_id":15,"name":"Rugbmilk","steam_id":76561199389283507,"connected_time":1747000000000,"state":"active","ping":58},{"user_id":16,"name":"Fredfredfood","steam_id":76561198072824802,"connected_time":1590000000000,"state":"active","ping":77},{"user_id":19,"name":"Dehydrated lft nc","steam_id":76561198970587989,"connected_time":1242000000000,"state":"active","ping":147},{"user_id":22,"name":"Jenkinsrichmond","steam_id":76561198174051530,"connected_time":1091000000000,"state":"active","ping":41},{"user_id":28,"name":"racism gaming","steam_id":76561198072592309,"connected_time":695000000000,"state":"active","ping":151},{"user_id":26,"name":"Spammer206","steam_id":76561198045522549,"connected_time":939000000000,"state":"active","ping":52},{"user_id":24,"name":"Echo \u0026 The Funnymen","steam_id":76561198838282369,"connected_time":1048000000000,"state":"active","ping":70},{"user_id":37,"name":"ClanCat","steam_id":76561199033616639,"connected_time":468000000000,"state":"active","ping":61},{"user_id":44,"name":"Sully","steam_id":76561198310784589,"connected_time":158000000000,"state":"active","ping":48},{"user_id":30,"name":"flyingcube","steam_id":76561197960865187,"connected_time":633000000000,"state":"active","ping":61},{"user_id":31,"name":"Zogovro","steam_id":76561199163618880,"connected_time":615000000000,"state":"active","ping":121},{"user_id":33,"name":"Sea4","steam_id":76561198846451551,"connected_time":556000000000,"state":"active","ping":128},{"user_id":49,"name":"Kuyumiester","steam_id":76561198126835302,"connected_time":7000000000,"state":"spawning","ping":95},{"user_id":35,"name":"Pills","steam_id":76561198799440163,"connected_time":508000000000,"state":"active","ping":107},{"user_id":36,"name":"One Thing And I Dont Know Why","steam_id":76561198430721311,"connected_time":488000000000,"state":"active","ping":70},{"user_id":38,"name":"Google show me this guys balls","steam_id":76561198079994020,"connected_time":413000000000,"state":"active","ping":55},{"user_id":41,"name":"Kekarot","steam_id":76561198074368187,"connected_time":293000000000,"state":"active","ping":81},{"user_id":40,"name":"dum","steam_id":76561198053386482,"connected_time":311000000000,"state":"active","ping":57},{"user_id":42,"name":"extinct111","steam_id":76561199013696367,"connected_time":285000000000,"state":"active","ping":77},{"user_id":43,"name":"teamspeakisbeter","steam_id":76561198994349483,"connected_time":239000000000,"state":"active","ping":154},{"user_id":46,"name":"goo addict","steam_id":76561198036108965,"connected_time":132000000000,"state":"active","ping":50},{"user_id":47,"name":"Kamin","steam_id":76561198255299559,"connected_time":114000000000,"state":"active","ping":100},{"user_id":48,"name":"Mal","steam_id":76561198066074151,"connected_time":99000000000,"state":"active","ping":80}]},{"server_id":14,"name":"Uncletopia | New York City | 2 | All Maps","name_short":"nyc-2","host":"nyc-1.us.uncletopia.com","port":27025,"enabled":true,"region":"us-east","cc":"us","latitude":40.73061,"longitude":-73.93524,"reserved":0,"last_update":"0001-01-01T00:00:00Z","name_a2s":"Uncletopia | New York City | 2 | All Maps","protocol":17,"map":"cp_mountainlab","folder":"tf","game":"Team Fortress","app_id":440,"player_count":2,"max_players":24,"Bots":0,"server_type":"Dedicated","server_os":"Linux","password":true,"vac":true,"version":"7708610","steam_id":85568392924469994,"keywords":["cp","nocrits","nodmgspread","uncletopia"],"game_id":440,"stv_port":27026,"stv_name":"Uncletopia | New York City | 2 | All Maps | STV","players":[{"user_id":20,"name":"TapelessTiger","steam_id":76561198313023256,"connected_time":359000000000,"state":"active","ping":67},{"user_id":19,"name":"BallisticMelon","steam_id":76561198299243370,"connected_time":489000000000,"state":"active","ping":78}]},{"server_id":15,"name":"Uncletopia | New York City | 3 | All Maps","name_short":"nyc-3","host":"nyc-1.us.uncletopia.com","port":27035,"enabled":true,"region":"us-east","cc":"us","latitude":40.73061,"longitude":-73.93524,"reserved":0,"last_update":"0001-01-01T00:00:00Z","name_a2s":"Uncletopia | New York City | 3 | All Maps","protocol":17,"map":"cp_sunshine","folder":"tf","game":"Team Fortress","app_id":440,"player_count":0,"max_players":24,"Bots":0,"server_type":"Dedicated","server_os":"Linux","password":true,"vac":true,"version":"7708610","steam_id":85568392924742820,"keywords":["cp","nocrits","nodmgspread","uncletopia"],"game_id":440,"stv_port":0,"stv_name":"","players":null},{"server_id":16,"name":"Uncletopia | New York City | 4 | Community","name_short":"nyc-4","host":"nyc-1.us.uncletopia.com","port":27045,"enabled":true,"region":"us-east","cc":"us","latitude":40.73061,"longitude":-73.93524,"reserved":0,"last_update":"0001-01-01T00:00:00Z","name_a2s":"Uncletopia | New York City | 4 | Community","protocol":17,"map":"pl_badwater","folder":"tf","game":"Team Fortress","app_id":440,"player_count":0,"max_players":24,"Bots":0,"server_type":"Dedicated","server_os":"Linux","password":true,"vac":true,"version":"7708610","steam_id":85568392924742821,"keywords":["nocrits","nodmgspread","payload","uncletopia"],"game_id":440,"stv_port":0,"stv_name":"","players":null},{"server_id":142,"name":"Uncletopia | São Paulo | 1 | All Maps","name_short":"sao-1","host":"sao-1.br.uncletopia.com","port":27015,"enabled":true,"region":"sa","cc":"br","latitude":-23.533773,"longitude":-46.62529,"reserved":0,"last_update":"0001-01-01T00:00:00Z","name_a2s":"Uncletopia | São Paulo | 1 | All Maps","protocol":17,"map":"pl_upward","folder":"tf","game":"Team Fortress","app_id":440,"player_count":14,"max_players":24,"Bots":0,"server_type":"Dedicated","server_os":"Linux","password":true,"vac":true,"version":"7708610","steam_id":85568392924469996,"keywords":["nocrits","nodmgspread","payload","uncletopia"],"game_id":440,"stv_port":27016,"stv_name":"Uncletopia | São Paulo | 1 | All Maps | STV","players":[{"user_id":20,"name":"doutor anderson","steam_id":76561198262099488,"connected_time":2891000000000,"state":"active","ping":79},{"user_id":25,"name":"jr_rusty","steam_id":76561198313937899,"connected_time":2320000000000,"state":"active","ping":60},{"user_id":21,"name":"Momo","steam_id":76561198143438576,"connected_time":2840000000000,"state":"active","ping":29},{"user_id":38,"name":"caçarato | NTC ♛","steam_id":76561198186342414,"connected_time":407000000000,"state":"active","ping":49},{"user_id":28,"name":"Retro","steam_id":76561199245375089,"connected_time":1363000000000,"state":"active","ping":60},{"user_id":43,"name":"Gabrielやるき","steam_id":76561198332577325,"connected_time":133000000000,"state":"active","ping":44},{"user_id":44,"name":"InkKnight","steam_id":76561198927983566,"connected_time":117000000000,"state":"active","ping":134},{"user_id":36,"name":"space cowboy","steam_id":76561198384852263,"connected_time":616000000000,"state":"active","ping":113},{"user_id":33,"name":"brunotakeo12","steam_id":76561198449353746,"connected_time":904000000000,"state":"active","ping":40},{"user_id":34,"name":"Pr通りの伝説","steam_id":76561198976110673,"connected_time":892000000000,"state":"active","ping":62},{"user_id":39,"name":"brg","steam_id":76561198049993814,"connected_time":344000000000,"state":"active","ping":45},{"user_id":40,"name":"lol#recominion","steam_id":76561199157058940,"connected_time":224000000000,"state":"active","ping":104},{"user_id":41,"name":"web0n ._. 85","steam_id":76561199289115997,"connected_time":217000000000,"state":"active","ping":162},{"user_id":42,"name":"Salsicha Perigosa","steam_id":76561198283642265,"connected_time":160000000000,"state":"active","ping":54}]},{"server_id":143,"name":"Uncletopia | São Paulo | 2 | All Maps","name_short":"sao-2","host":"sao-2.br.uncletopia.com","port":27015,"enabled":true,"region":"sa","cc":"br","latitude":-23.533773,"longitude":-46.62529,"reserved":0,"last_update":"0001-01-01T00:00:00Z","name_a2s":"Uncletopia | São Paulo | 2 | All Maps","protocol":17,"map":"koth_lakeside_final","folder":"tf","game":"Team Fortress","app_id":440,"player_count":0,"max_players":24,"Bots":0,"server_type":"Dedicated","server_os":"Linux","password":true,"vac":true,"version":"7708610","steam_id":85568392924485349,"keywords":["cp","nocrits","nodmgspread","uncletopia"],"game_id":440,"stv_port":0,"stv_name":"","players":null},{"server_id":7,"name":"Uncletopia | Seattle | 1 | All Maps","name_short":"sea-1","host":"sea-1.us.uncletopia.com","port":27015,"enabled":true,"region":"us-west","cc":"us","latitude":47.608013,"longitude":-122.33517,"reserved":0,"last_update":"0001-01-01T00:00:00Z","name_a2s":"Uncletopia | Seattle | 1 | All Maps","protocol":17,"map":"koth_cascade","folder":"tf","game":"Team Fortress","app_id":440,"player_count":0,"max_players":24,"Bots":0,"server_type":"Dedicated","server_os":"Linux","password":true,"vac":true,"version":"7708610","steam_id":85568392924469997,"keywords":["cp","nocrits","nodmgspread","uncletopia"],"game_id":440,"stv_port":0,"stv_name":"","players":null},{"server_id":119,"name":"Uncletopia | Seattle | 2 | All Maps","name_short":"sea-2","host":"sea-1.us.uncletopia.com","port":27025,"enabled":true,"region":"us-west","cc":"us","latitude":47.608013,"longitude":-122.33517,"reserved":0,"last_update":"0001-01-01T00:00:00Z","name_a2s":"Uncletopia | Seattle | 2 | All Maps","protocol":17,"map":"cp_process_final","folder":"tf","game":"Team Fortress","app_id":440,"player_count":0,"max_players":24,"Bots":0,"server_type":"Dedicated","server_os":"Linux","password":true,"vac":true,"version":"7708610","steam_id":85568392924469998,"keywords":["cp","nocrits","nodmgspread","uncletopia"],"game_id":440,"stv_port":0,"stv_name":"","players":null},{"server_id":17,"name":"Uncletopia | San Francisco | 1 | All Maps","name_short":"sfo-1","host":"sfo-1.us.uncletopia.com","port":27015,"enabled":true,"region":"us-west","cc":"us","latitude":37.77397,"longitude":-122.4313,"reserved":0,"last_update":"0001-01-01T00:00:00Z","name_a2s":"Uncletopia | San Francisco | 1 | All Maps","protocol":17,"map":"cp_sunshine","folder":"tf","game":"Team Fortress","app_id":440,"player_count":0,"max_players":24,"Bots":0,"server_type":"Dedicated","server_os":"Linux","password":true,"vac":true,"version":"7708610","steam_id":85568392924469999,"keywords":["cp","nocrits","nodmgspread","uncletopia"],"game_id":440,"stv_port":0,"stv_name":"","players":null},{"server_id":18,"name":"Uncletopia | San Francisco | 2 | All Maps","name_short":"sfo-2","host":"sfo-1.us.uncletopia.com","port":27025,"enabled":true,"region":"us-west","cc":"us","latitude":37.77397,"longitude":-122.4313,"reserved":0,"last_update":"0001-01-01T00:00:00Z","name_a2s":"Uncletopia | San Francisco | 2 | All Maps","protocol":17,"map":"koth_cascade","folder":"tf","game":"Team Fortress","app_id":440,"player_count":0,"max_players":24,"Bots":0,"server_type":"Dedicated","server_os":"Linux","password":true,"vac":true,"version":"7708610","steam_id":85568392924470000,"keywords":["cp","nocrits","nodmgspread","uncletopia"],"game_id":440,"stv_port":0,"stv_name":"","players":null},{"server_id":19,"name":"Uncletopia | San Francisco | 3 | No Payload","name_short":"sfo-3","host":"sfo-1.us.uncletopia.com","port":27035,"enabled":true,"region":"us-west","cc":"us","latitude":37.77397,"longitude":-122.4313,"reserved":0,"last_update":"0001-01-01T00:00:00Z","name_a2s":"Uncletopia | San Francisco | 3 | No Payload","protocol":17,"map":"cp_snakewater_final1","folder":"tf","game":"Team Fortress","app_id":440,"player_count":0,"max_players":24,"Bots":0,"server_type":"Dedicated","server_os":"Linux","password":true,"vac":true,"version":"7708610","steam_id":85568392924742824,"keywords":["cp","nocrits","nodmgspread","uncletopia"],"game_id":440,"stv_port":0,"stv_name":"","players":null},{"server_id":20,"name":"Uncletopia | San Francisco | 4 | Community","name_short":"sfo-4","host":"sfo-1.us.uncletopia.com","port":27045,"enabled":true,"region":"us-west","cc":"us","latitude":37.77397,"longitude":-122.4313,"reserved":0,"last_update":"0001-01-01T00:00:00Z","name_a2s":"Uncletopia | San Francisco | 4 | Community","protocol":17,"map":"pl_barnblitz","folder":"tf","game":"Team Fortress","app_id":440,"player_count":0,"max_players":24,"Bots":0,"server_type":"Dedicated","server_os":"Linux","password":true,"vac":true,"version":"7708610","steam_id":85568392924742826,"keywords":["nocrits","nodmgspread","payload","uncletopia"],"game_id":440,"stv_port":0,"stv_name":"","players":null},{"server_id":141,"name":"Uncletopia | Sydney | 1 | All Maps","name_short":"syd-1","host":"syd-1.au.uncletopia.com","port":27015,"enabled":true,"region":"au","cc":"au","latitude":-33.865143,"longitude":151.2099,"reserved":0,"last_update":"0001-01-01T00:00:00Z","name_a2s":"Uncletopia | Sydney | 1 | All Maps","protocol":17,"map":"koth_cascade","folder":"tf","game":"Team Fortress","app_id":440,"player_count":0,"max_players":24,"Bots":0,"server_type":"Dedicated","server_os":"Linux","password":true,"vac":true,"version":"7708610","steam_id":85568392924470001,"keywords":["cp","nocrits","nodmgspread","uncletopia"],"game_id":440,"stv_port":27016,"stv_name":"Uncletopia | Sydney | 1 | All Maps | STV","players":null},{"server_id":123,"name":"Uncletopia | Sydney | 2 | All Maps","name_short":"syd-2","host":"syd-1.au.uncletopia.com","port":27025,"enabled":true,"region":"au","cc":"au","latitude":-33.865143,"longitude":151.2099,"reserved":0,"last_update":"0001-01-01T00:00:00Z","name_a2s":"Uncletopia | Sydney | 2 | All Maps","protocol":17,"map":"koth_cascade","folder":"tf","game":"Team Fortress","app_id":440,"player_count":0,"max_players":24,"Bots":0,"server_type":"Dedicated","server_os":"Linux","password":true,"vac":true,"version":"7708610","steam_id":85568392924470002,"keywords":["cp","nocrits","nodmgspread","uncletopia"],"game_id":440,"stv_port":27026,"stv_name":"Uncletopia | Sydney | 2 | All Maps | STV","players":null},{"server_id":395,"name":"Uncletopia | Sydney | 3 | All Maps","name_short":"syd-3","host":"syd-1.au.uncletopia.com","port":27035,"enabled":true,"region":"au","cc":"au","latitude":-33.865143,"longitude":151.2099,"reserved":0,"last_update":"0001-01-01T00:00:00Z","name_a2s":"Uncletopia | Sydney | 3 | All Maps","protocol":17,"map":"koth_viaduct","folder":"tf","game":"Team Fortress","app_id":440,"player_count":0,"max_players":24,"Bots":0,"server_type":"Dedicated","server_os":"Linux","password":true,"vac":true,"version":"7708610","steam_id":85568392925194467,"keywords":["cp","nocrits","nodmgspread","uncletopia"],"game_id":440,"stv_port":27036,"stv_name":"Uncletopia | Sydney | 3 | All Maps | STV","players":null},{"server_id":396,"name":"Uncletopia | Sydney | 4 | All Maps","name_short":"syd-4","host":"syd-1.au.uncletopia.com","port":27045,"enabled":true,"region":"au","cc":"au","latitude":-33.865143,"longitude":151.2099,"reserved":0,"last_update":"0001-01-01T00:00:00Z","name_a2s":"Uncletopia | Sydney | 4 | All Maps","protocol":17,"map":"pl_barnblitz","folder":"tf","game":"Team Fortress","app_id":440,"player_count":0,"max_players":24,"Bots":0,"server_type":"Dedicated","server_os":"Linux","password":true,"vac":true,"version":"7708610","steam_id":85568392925397958,"keywords":["nocrits","nodmgspread","payload","uncletopia"],"game_id":440,"stv_port":27046,"stv_name":"Uncletopia | Sydney | 4 | All Maps | STV","players":null},{"server_id":58,"name":"Uncletopia | Sydney | 5 | No Payload","name_short":"syd-5","host":"syd-1.au.uncletopia.com","port":27055,"enabled":true,"region":"au","cc":"au","latitude":-33.865143,"longitude":151.2099,"reserved":0,"last_update":"0001-01-01T00:00:00Z","name_a2s":"Uncletopia | Sydney | 5 | No Payload","protocol":17,"map":"koth_cascade","folder":"tf","game":"Team Fortress","app_id":440,"player_count":0,"max_players":24,"Bots":0,"server_type":"Dedicated","server_os":"Linux","password":true,"vac":true,"version":"7708610","steam_id":85568392925397959,"keywords":["cp","nocrits","nodmgspread","uncletopia"],"game_id":440,"stv_port":0,"stv_name":"","players":null},{"server_id":59,"name":"Uncletopia | Sydney | 6 | Community","name_short":"syd-6","host":"syd-1.au.uncletopia.com","port":27065,"enabled":true,"region":"au","cc":"au","latitude":-33.865143,"longitude":151.2099,"reserved":0,"last_update":"0001-01-01T00:00:00Z","name_a2s":"Uncletopia | Sydney | 6 | Community","protocol":17,"map":"workshop/koth_synthetic_rc6a.ugc1549817316","folder":"tf","game":"Team Fortress","app_id":440,"player_count":0,"max_players":24,"Bots":0,"server_type":"Dedicated","server_os":"Linux","password":true,"vac":true,"version":"7708610","steam_id":85568392925397960,"keywords":["cp","nocrits","nodmgspread","uncletopia"],"game_id":440,"stv_port":27066,"stv_name":"Uncletopia | Sydney | 6 | Community | STV","players":null},{"server_id":49,"name":"Uncletopia | Warsaw | 1 | All Maps","name_short":"waw-1","host":"waw-1.pl.uncletopia.com","port":27015,"enabled":true,"region":"eu","cc":"pl","latitude":52.2297,"longitude":21.017532,"reserved":0,"last_update":"0001-01-01T00:00:00Z","name_a2s":"Uncletopia | Warsaw | 1 | All Maps","protocol":17,"map":"cp_mountainlab","folder":"tf","game":"Team Fortress","app_id":440,"player_count":0,"max_players":24,"Bots":0,"server_type":"Dedicated","server_os":"Linux","password":true,"vac":true,"version":"7708610","steam_id":85568392925397850,"keywords":["cp","nocrits","nodmgspread","uncletopia"],"game_id":440,"stv_port":0,"stv_name":"","players":null},{"server_id":50,"name":"Uncletopia | Warsaw | 2 | All Maps","name_short":"waw-2","host":"waw-1.pl.uncletopia.com","port":27025,"enabled":true,"region":"eu","cc":"pl","latitude":52.2297,"longitude":21.017532,"reserved":0,"last_update":"0001-01-01T00:00:00Z","name_a2s":"Uncletopia | Warsaw | 2 | All Maps","protocol":17,"map":"koth_highpass","folder":"tf","game":"Team Fortress","app_id":440,"player_count":0,"max_players":24,"Bots":0,"server_type":"Dedicated","server_os":"Linux","password":true,"vac":true,"version":"7708610","steam_id":85568392925397851,"keywords":["cp","nocrits","nodmgspread","uncletopia"],"game_id":440,"stv_port":27026,"stv_name":"Uncletopia | Warsaw | 2 | All Maps | STV","players":null},{"server_id":51,"name":"Uncletopia | Warsaw | 3 | All Maps","name_short":"waw-3","host":"waw-1.pl.uncletopia.com","port":27035,"enabled":true,"region":"eu","cc":"pl","latitude":52.2297,"longitude":21.017532,"reserved":0,"last_update":"0001-01-01T00:00:00Z","name_a2s":"Uncletopia | Warsaw | 3 | All Maps","protocol":17,"map":"koth_cascade","folder":"tf","game":"Team Fortress","app_id":440,"player_count":0,"max_players":24,"Bots":0,"server_type":"Dedicated","server_os":"Linux","password":true,"vac":true,"version":"7708610","steam_id":85568392925397852,"keywords":["cp","nocrits","nodmgspread","uncletopia"],"game_id":440,"stv_port":0,"stv_name":"","players":null},{"server_id":52,"name":"Uncletopia | Warsaw | 4 | All Maps","name_short":"waw-4","host":"waw-1.pl.uncletopia.com","port":27045,"enabled":true,"region":"eu","cc":"pl","latitude":52.2297,"longitude":21.017532,"reserved":0,"last_update":"0001-01-01T00:00:00Z","name_a2s":"Uncletopia | Warsaw | 4 | All Maps","protocol":17,"map":"cp_dustbowl","folder":"tf","game":"Team Fortress","app_id":440,"player_count":0,"max_players":24,"Bots":0,"server_type":"Dedicated","server_os":"Linux","password":true,"vac":true,"version":"7708610","steam_id":85568392925397853,"keywords":["cp","nocrits","nodmgspread","uncletopia"],"game_id":440,"stv_port":27046,"stv_name":"Uncletopia | Warsaw | 4 | All Maps | STV","players":null},{"server_id":53,"name":"Uncletopia | Warsaw | 5 | No Payload","name_short":"waw-5","host":"waw-1.pl.uncletopia.com","port":27055,"enabled":true,"region":"eu","cc":"pl","latitude":52.2297,"longitude":21.017532,"reserved":0,"last_update":"0001-01-01T00:00:00Z","name_a2s":"Uncletopia | Warsaw | 5 | No Payload","protocol":17,"map":"koth_nucleus","folder":"tf","game":"Team Fortress","app_id":440,"player_count":0,"max_players":24,"Bots":0,"server_type":"Dedicated","server_os":"Linux","password":true,"vac":true,"version":"7708610","steam_id":85568392925397854,"keywords":["cp","nocrits","nodmgspread","uncletopia"],"game_id":440,"stv_port":27056,"stv_name":"Uncletopia | Warsaw | 5 | No Payload | STV","players":null},{"server_id":54,"name":"Uncletopia | Warsaw | 6 | Community","name_short":"waw-6","host":"waw-1.pl.uncletopia.com","port":27065,"enabled":true,"region":"eu","cc":"pl","latitude":52.2297,"longitude":21.017532,"reserved":0,"last_update":"0001-01-01T00:00:00Z","name_a2s":"Uncletopia | Warsaw | 6 | Community","protocol":17,"map":"koth_highpass","folder":"tf","game":"Team Fortress","app_id":440,"player_count":0,"max_players":24,"Bots":0,"server_type":"Dedicated","server_os":"Linux","password":true,"vac":true,"version":"7708610","steam_id":85568392925397856,"keywords":["cp","nocrits","nodmgspread","uncletopia"],"game_id":440,"stv_port":0,"stv_name":"","players":null}]}