{"status":true,"message":"","result":[{"server_id":9,"name":"Uncletopia | Atlanta | 1 | All Maps","name_short":"atl-1","host":"atl-1.us.uncletopia.com","port":27015,"enabled":true,"region":"us-east","cc":"us","latitude":33.753746,"longitude":-84.38633,"reserved":0,"last_update":"0001-01-01T00:00:00Z","name_a2s":"Uncletopia | Atlanta | 1 | All Maps","protocol":17,"map":"pl_upward","folder":"tf","game":"Team Fortress","app_id":440,"player_count":23,"max_players":24,"Bots":0,"server_type":"Dedicated","server_os":"Linux","password":true,"vac":true,"version":"7708610","steam_id":85568392924469982,"keywords":["nocrits","nodmgspread","payload","uncletopia"],"game_id":440,"stv_port":27016,"stv_name":"Uncletopia | Atlanta | 1 | All Maps | STV","players":[{"user_id":511,"name":"FancyBones","steam_id":76561198180198885,"connected_time":2386000000000,"state":"active","ping":66},{"user_id":536,"name":"buttermilkjesus","steam_id":76561198984974048,"connected_time":155000000000,"state":"active","ping":81},{"user_id":521,"name":"firetamer2","steam_id":76561198040886980,"connected_time":1876000000000,"state":"active","ping":63},{"user_id":467,"name":"bingle","steam_id":76561198359413453,"connected_time":5855000000000,"state":"active","ping":71},{"user_id":518,"name":"ATL1 | Mayhem","steam_id":76561199246637881,"connected_time":1894000000000,"state":"active","ping":57},{"user_id":532,"name":"ATL1 | p4ka","steam_id":76561198315291317,"connected_time":228000000000,"state":"active","ping":77},{"user_id":495,"name":"cola","steam_id":76561198374390458,"connected_time":4125000000000,"state":"active","ping":50},{"user_id":531,"name":"fi_ji","steam_id":76561198126087725,"connected_time":242000000000,"state":"active","ping":63},{"user_id":527,"name":"Towns","steam_id":76561198984662863,"connected_time":1106000000000,"state":"active","ping":115},{"user_id":524,"name":"therizzmaster7421","steam_id":76561197989592141,"connected_time":1670000000000,"state":"active","ping":47},{"user_id":503,"name":"PatientMist","steam_id":76561198801759853,"connected_time":3187000000000,"state":"active","ping":114},{"user_id":506,"name":"ATL1 | Phestive Pango","steam_id":76561198069811545,"connected_time":2827000000000,"state":"active","ping":46},{"user_id":534,"name":"Yoshimelon","steam_id":76561198253054325,"connected_time":162000000000,"state":"active","ping":61},{"user_id":435,"name":"Shuual","steam_id":76561198004395256,"connected_time":8159000000000,"state":"active","ping":55},{"user_id":535,"name":"Mosis","steam_id":76561198194686530,"connected_time":160000000000,"state":"active","ping":61},{"user_id":519,"name":"ButtholeMagic","steam_id":76561198865971290,"connected_time":1893000000000,"state":"active","ping":105},{"user_id":517,"name":"Jin Gulilo","steam_id":76561198065151242,"connected_time":1921000000000,"state":"active","ping":73},{"user_id":513,"name":"Smoky","steam_id":76561198418262145,"connected_time":2374000000000,"state":"active","ping":107},{"user_id":516,"name":"CH Y LA PIZZA","steam_id":76561198025668771,"connected_time":2112000000000,"state":"active","ping":106},{"user_id":537,"name":"Zeemii","steam_id":76561198809299581,"connected_time":133000000000,"state":"active","ping":59},{"user_id":493,"name":"Nukeboy","steam_id":76561198291998703,"connected_time":4226000000000,"state":"active","ping":122},{"user_id":484,"name":"ATL1 | a very merry ma0re","steam_id":76561199231971506,"connected_time":4366000000000,"state":"active","ping":67},{"user_id":500,"name":"FatCuddlyBear","steam_id":76561198133613253,"connected_time":3963000000000,"state":"active","ping":83}]},{"server_id":400,"name":"Uncletopia | Atlanta | 3 | All Maps","name_short":"atl-3","host":"atl-1.us.uncletopia.com","port":27035,"enabled":true,"region":"us-east","cc":"us","latitude":33.753746,"longitude":-84.38633,"reserved":0,"last_update":"0001-01-01T00:00:00Z","name_a2s":"Uncletopia | Atlanta | 3 | All Maps","protocol":17,"map":"pl_borneo","folder":"tf","game":"Team Fortress","app_id":440,"player_count":24,"max_players":24,"Bots":0,"server_type":"Dedicated","server_os":"Linux","password":true,"vac":true,"version":"7708610","steam_id":85568392924515187,"keywords":["nocrits","nodmgspread","payload","uncletopia"],"game_id":440,"stv_port":27036,"stv_name":"Uncletopia | Atlanta | 3 | All Maps | STV","players":[{"user_id":417,"name":"Anhkrehg","steam_id":76561197963201684,"connected_time":751000000000,"state":"active","ping":94},{"user_id":412,"name":"=PB=","steam_id":76561197999146612,"connected_time":1004000000000,"state":"active","ping":135},{"user_id":416,"name":"Memed2Much","steam_id":76561199032248010,"connected_time":757000000000,"state":"active","ping":60},{"user_id":388,"name":"Lemony Lilly (She/Her)","steam_id":76561198042479066,"connected_time":2816000000000,"state":"active","ping":66},{"user_id":396,"name":"Pierce","steam_id":76561198043747953,"connected_time":2510000000000,"state":"active","ping":44},{"user_id":415,"name":"Joe Guyson","steam_id":76561198027664328,"connected_time":932000000000,"state":"active","ping":117},{"user_id":406,"name":"Sabaman55","steam_id":76561198212267979,"connected_time":1800000000000,"state":"active","ping":54},{"user_id":366,"name":"opnvben50 ","steam_id":76561198137111933,"connected_time":4175000000000,"state":"active","ping":117},{"user_id":372,"name":"Noticeme","steam_id":76561198393790024,"connected_time":3567000000000,"state":"active","ping":165},{"user_id":419,"name":"xFactr","steam_id":76561198129007422,"connected_time":734000000000,"state":"active","ping":59},{"user_id":418,"name":"Jimothy","steam_id":76561199044357624,"connected_time":742000000000,"state":"active","ping":62},{"user_id":420,"name":"Luucyf3r","steam_id":76561198141820085,"connected_time":726000000000,"state":"active","ping":60},{"user_id":397,"name":"Sonicperez03","steam_id":76561198838109378,"connected_time":2501000000000,"state":"active","ping":60},{"user_id":430,"name":"Strangelove","steam_id":76561198353773611,"connected_time":111000000000,"state":"active","ping":88},{"user_id":423,"name":"Muffin","steam_id":76561199064341106,"connected_time":635000000000,"state":"active","ping":92},{"user_id":426,"name":"The Sasquatch Assassin","steam_id":76561198129551179,"connected_time":492000000000,"state":"active","ping":88},{"user_id":428,"name":"Van","steam_id":76561198073518712,"connected_time":253000000000,"state":"active","ping":71},{"user_id":389,"name":"jigglypuff","steam_id":76561198215414915,"connected_time":2816000000000,"state":"active","ping":56},{"user_id":421,"name":"JustWavvy","steam_id":76561199069626068,"connected_time":723000000000,"state":"active","ping":75},{"user_id":422,"name":"demo main","steam_id":76561199043827112,"connected_time":720000000000,"state":"active","ping":76},{"user_id":407,"name":"Passive-Aggressive Land Whale","steam_id":76561198058057999,"connected_time":1320000000000,"state":"active","ping":47},{"user_id":405,"name":"Rocco__","steam_id":76561197992824074,"connected_time":1854000000000,"state":"active","ping":88},{"user_id":424,"name":"Timo010","steam_id":76561198832395256,"connected_time":630000000000,"state":"active","ping":183},{"user_id":395,"name":"Pixeled","steam_id":76561198088917077,"connected_time":2617000000000,"state":"active","ping":72}]},{"server_id":401,"name":"Uncletopia | Atlanta | 4 | No Payload","name_short":"atl-4","host":"atl-1.us.uncletopia.com","port":27045,"enabled":true,"region":"us-east","cc":"us","latitude":33.753746,"longitude":-84.38633,"reserved":0,"last_update":"0001-01-01T00:00:00Z","name_a2s":"Uncletopia | Atlanta | 4 | No Payload","protocol":17,"map":"plr_bananabay","folder":"tf","game":"Team Fortress","app_id":440,"player_count":0,"max_players":24,"Bots":0,"server_type":"Dedicated","server_os":"Linux","password":true,"vac":true,"version":"7708610","steam_id":85568392924515188,"keywords":["nocrits","nodmgspread","payload","uncletopia"],"game_id":440,"stv_port":27046,"stv_name":"Uncletopia | Atlanta | 4 | No Payload | STV","players":null},{"server_id":2,"name":"Uncletopia | Chicago | 1 | All Maps","name_short":"chi-1","host":"chi-1.us.uncletopia.com","port":27015,"enabled":true,"region":"us-central","cc":"us","latitude":41.881832,"longitude":-87.62318,"reserved":0,"last_update":"0001-01-01T00:00:00Z","name_a2s":"Uncletopia | Chicago | 1 | All Maps","protocol":17,"map":"plr_bananabay","folder":"tf","game":"Team Fortress","app_id":440,"player_count":23,"max_players":24,"Bots":0,"server_type":"Dedicated","server_os":"Linux","password":true,"vac":true,"version":"7708610","steam_id":85568392924469984,"keywords":["nocrits","nodmgspread","payload","uncletopia"],"game_id":440,"stv_port":27016,"stv_name":"Uncletopia | Chicago | 1 | All Maps | STV","players":[{"user_id":345,"name":"motorized bar of soap","steam_id":76561198882404753,"connected_time":2864000000000,"state":"spawning","ping":93},{"user_id":370,"name":"ThatTechDude","steam_id":76561198342630635,"connected_time":734000000000,"state":"spawning","ping":59},{"user_id":381,"name":"fumo","steam_id":76561199089453214,"connected_time":10000000000,"state":"spawning","ping":157},{"user_id":314,"name":"NotSoMewwo","steam_id":76561198130067099,"connected_time":4801000000000,"state":"spawning","ping":75},{"user_id":372,"name":"flyingcube","steam_id":76561197960865187,"connected_time":670000000000,"state":"spawning","ping":45},{"user_id":368,"name":"mel0n","steam_id":76561198034817244,"connected_time":817000000000,"state":"active","ping":48},{"user_id":375,"name":"xZackAttack27x","steam_id":76561198035446639,"connected_time":537000000000,"state":"active","ping":94},{"user_id":360,"name":"Aggressive Pedestrian","steam_id":76561199229771413,"connected_time":1568000000000,"state":"active","ping":96},{"user_id":382,"name":"BlackCity","steam_id":76561198404495042,"connected_time":5000000000,"state":"spawning","ping":65},{"user_id":342,"name":"Hooked","steam_id":76561198007302139,"connected_time":3069000000000,"state":"spawning","ping":85},{"user_id":298,"name":"AmirKhaan","steam_id":76561198992403254,"connected_time":5851000000000,"state":"active","ping":75},{"user_id":271,"name":"blob","steam_id":76561198122375328,"connected_time":7661000000000,"state":"spawning","ping":59},{"user_id":383,"name":"slep.py","steam_id":76561197988287144,"connected_time":3000000000,"state":"spawning","ping":43},{"user_id":378,"name":"Seller of Waffles","steam_id":76561198296018138,"connected_time":206000000000,"state":"active","ping":64},{"user_id":356,"name":"Arttur","steam_id":76561199080503175,"connected_time":1990000000000,"state":"spawning","ping":157},{"user_id":135,"name":"Ras","steam_id":76561198123546775,"connected_time":17727000000000,"state":"active","ping":122},{"user_id":377,"name":"Ghostmeal","steam_id":76561198042380299,"connected_time":316000000000,"state":"active","ping":81},{"user_id":344,"name":"Big Tobacco","steam_id":76561198130165656,"connected_time":2977000000000,"state":"spawning","ping":56},{"user_id":374,"name":"Jerry Bondle","steam_id":76561198337512213,"connected_time":549000000000,"state":"active","ping":99},{"user_id":371,"name":"Ｃｏｃｏｇｏａｔ","steam_id":76561198057508810,"connected_time":734000000000,"state":"active","ping":72},{"user_id":336,"name":"Recarsonated","steam_id":76561198171454785,"connected_time":3423000000000,"state":"spawning","ping":63},{"user_id":349,"name":"family guy im peter","steam_id":76561199229169396,"connected_time":2687000000000,"state":"active","ping":51},{"user_id":361,"name":"Lia_Reindeer","steam_id":76561198151569597,"connected_time":1433000000000,"state":"active","ping":172}]},{"server_id":106,"name":"Uncletopia | Chicago | 2 | All Maps","name_short":"chi-2","host":"chi-1.us.uncletopia.com","port":27025,"enabled":true,"region":"us-central","cc":"us","latitude":41.881832,"longitude":-87.62318,"reserved":0,"last_update":"0001-01-01T00:00:00Z","name_a2s":"Uncletopia | Chicago | 2 | All Maps","protocol":17,"map":"pl_upward","folder":"tf","game":"Team Fortress","app_id":440,"player_count":20,"max_players":24,"Bots":0,"server_type":"Dedicated","server_os":"Linux","password":true,"vac":true,"version":"7708610","steam_id":85568392924469985,"keywords":["nocrits","nodmgspread","payload","uncletopia"],"game_id":440,"stv_port":27026,"stv_name":"Uncletopia | Chicago | 2 | All Maps | STV","players":[{"user_id":281,"name":"Souper Scott","steam_id":76561198045518926,"connected_time":3342000000000,"state":"active","ping":52},{"user_id":317,"name":"fannyfumbler19","steam_id":76561198073269122,"connected_time":310000000000,"state":"active","ping":62},{"user_id":316,"name":"KingEgamer_03","steam_id":76561199283258364,"connected_time":367000000000,"state":"active","ping":59},{"user_id":258,"name":"aisu","steam_id":76561198043768507,"connected_time":4853000000000,"state":"active","ping":66},{"user_id":286,"name":"sasharudzik","steam_id":76561199126617781,"connected_time":2712000000000,"state":"active","ping":62},{"user_id":318,"name":"primordialheath","steam_id":76561199386942638,"connected_time":306000000000,"state":"active","ping":61},{"user_id":296,"name":"savagedachshund","steam_id":76561199208468955,"connected_time":2519000000000,"state":"active","ping":91},{"user_id":326,"name":"Mopar Man","steam_id":76561198077030510,"connected_time":100000000000,"state":"active","ping":59},{"user_id":319,"name":"Koalas","steam_id":76561198035248379,"connected_time":303000000000,"state":"active","ping":102},{"user_id":246,"name":"a baby","steam_id":76561198008662184,"connected_time":5791000000000,"state":"active","ping":62},{"user_id":320,"name":"Rohi Mig","steam_id":76561198113623627,"connected_time":274000000000,"state":"active","ping":65},{"user_id":276,"name":"Flacco Throat GOAT","steam_id":76561198057374871,"connected_time":3599000000000,"state":"active","ping":57},{"user_id":292,"name":"brappy","steam_id":76561198024958319,"connected_time":2552000000000,"state":"active","ping":55},{"user_id":321,"name":"Quietsharp","steam_id":76561198277968438,"connected_time":249000000000,"state":"active","ping":105},{"user_id":312,"name":"newboi (F2P)","steam_id":76561199273882768,"connected_time":1531000000000,"state":"active","ping":63},{"user_id":310,"name":"Winter the Witchie","steam_id":76561198151971178,"connected_time":1916000000000,"state":"active","ping":55},{"user_id":308,"name":"Robbie Rotten","steam_id":76561198426759305,"connected_time":1981000000000,"state":"active","ping":67},{"user_id":314,"name":"Donk x2","steam_id":76561198406895347,"connected_time":827000000000,"state":"active","ping":65},{"user_id":322,"name":"Lady Duckland","steam_id":76561198077092840,"connected_time":228000000000,"state":"active","ping":59},{"user_id":324,"name":"A Black Square","steam_id":76561198043570320,"connected_time":153000000000,"state":"active","ping":71}]},{"server_id":402,"name":"Uncletopia | Chicago | 3 | All Maps","name_short":"chi-3","host":"chi-1.us.uncletopia.com","port":27035,"enabled":true,"region":"us-central","cc":"us","latitude":41.881832,"longitude":-87.62318,"reserved":0,"last_update":"0001-01-01T00:00:00Z","name_a2s":"Uncletopia | Chicago | 3 | All Maps","protocol":17,"map":"pl_pier","folder":"tf","game":"Team Fortress","app_id":440,"player_count":24,"max_players":24,"Bots":0,"server_type":"Dedicated","server_os":"Linux","password":true,"vac":true,"version":"7708610","steam_id":85568392924515191,"keywords":["nocrits","nodmgspread","payload","uncletopia"],"game_id":440,"stv_port":27036,"stv_name":"Uncletopia | Chicago | 3 | All Maps | STV","players":[{"user_id":119,"name":"D:\u003c","steam_id":76561198017121314,"connected_time":1049000000000,"state":"active","ping":69},{"user_id":95,"name":"a real gummy krabby patty","steam_id":76561198238842076,"connected_time":2673000000000,"state":"active","ping":70},{"user_id":102,"name":"u/unhinged_person","steam_id":76561198085839920,"connected_time":1896000000000,"state":"active","ping":71},{"user_id":94,"name":"Cobrayen","steam_id":76561198066505280,"connected_time":2902000000000,"state":"active","ping":68},{"user_id":112,"name":"valtiel","steam_id":76561198165212575,"connected_time":1541000000000,"state":"active","ping":69},{"user_id":128,"name":"Raniel Dicciardo","steam_id":76561198053859538,"connected_time":6000000000,"state":"spawning","ping":75},{"user_id":91,"name":"jerma enthusiast","steam_id":76561198359466264,"connected_time":3014000000000,"state":"active","ping":70},{"user_id":120,"name":"Stormz64","steam_id":76561198239036482,"connected_time":979000000000,"state":"active","ping":55},{"user_id":114,"name":"Lenny","steam_id":76561198183943137,"connected_time":1479000000000,"state":"active","ping":58},{"user_id":103,"name":"SirJameston","steam_id":76561198035674306,"connected_time":1877000000000,"state":"active","ping":54},{"user_id":121,"name":"Lopsided Larry","steam_id":76561198332704108,"connected_time":928000000000,"state":"active","ping":51},{"user_id":115,"name":"Clean Lines","steam_id":76561197960691518,"connected_time":1476000000000,"state":"active","ping":55},{"user_id":125,"name":"sebjzy","steam_id":76561198009959034,"connected_time":440000000000,"state":"active","ping":83},{"user_id":123,"name":"Highway Gothic","steam_id":76561198118102935,"connected_time":461000000000,"state":"active","ping":73},{"user_id":117,"name":"Michaelpc1","steam_id":76561198088365519,"connected_time":1379000000000,"state":"active","ping":87},{"user_id":98,"name":"gerbal doing heroin","steam_id":76561198255787237,"connected_time":2259000000000,"state":"active","ping":76},{"user_id":99,"name":"Starslinger","steam_id":76561198285216510,"connected_time":1989000000000,"state":"active","ping":56},{"user_id":126,"name":"FUSION","steam_id":76561197972659738,"connected_time":407000000000,"state":"active","ping":60},{"user_id":106,"name":"Hanselpup","steam_id":76561198165480226,"connected_time":1716000000000,"state":"active","ping":84},{"user_id":118,"name":"Kzjytsugn","steam_id":76561198130241974,"connected_time":1332000000000,"state":"active","ping":94},{"user_id":127,"name":"Miramar","steam_id":76561198022057653,"connected_time":371000000000,"state":"active","ping":70},{"user_id":92,"name":"Level 1 Crook","steam_id":76561198441098132,"connected_time":3007000000000,"state":"active","ping":59},{"user_id":70,"name":"BooBoo lft","steam_id":76561198150772294,"connected_time":4197000000000,"state":"active","ping":60},{"user_id":110,"name":"Captain Zyrin","steam_id":76561197983121824,"connected_time":1582000000000,"state":"active","ping":67}]},{"server_id":403,"name":"Uncletopia | Chicago | 4 | All Maps","name_short":"chi-4","host":"chi-1.us.uncletopia.com","port":27045,"enabled":true,"region":"us-central","cc":"us","latitude":41.881832,"longitude":-87.62318,"reserved":0,"last_update":"0001-01-01T00:00:00Z","name_a2s":"Uncletopia | Chicago | 4 | All Maps","protocol":17,"map":"pl_swiftwater_final1","folder":"tf","game":"Team Fortress","app_id":440,"player_count":24,"max_players":24,"Bots":0,"server_type":"Dedicated","server_os":"Linux","password":true,"vac":true,"version":"7708610","steam_id":85568392924515193,"keywords":["nocrits","nodmgspread","payload","uncletopia"],"game_id":440,"stv_port":27046,"stv_name":"Uncletopia | Chicago | 4 | All Maps | STV","players":[{"user_id":249,"name":"mullet kang","steam_id":76561199388768566,"connected_time":1966000000000,"state":"active","ping":60},{"user_id":269,"name":"Yamons","steam_id":76561198449431941,"connected_time":1038000000000,"state":"active","ping":62},{"user_id":270,"name":"gonk","steam_id":76561198061206732,"connected_time":1026000000000,"state":"active","ping":83},{"user_id":209,"name":"DeckofDragons","steam_id":76561198057398213,"connected_time":4391000000000,"state":"active","ping":68},{"user_id":237,"name":"Owl Pacino","steam_id":76561197979970666,"connected_time":2959000000000,"state":"active","ping":54},{"user_id":252,"name":"Skippies","steam_id":76561198131280715,"connected_time":1675000000000,"state":"active","ping":67},{"user_id":274,"name":"Olive","steam_id":76561198003474783,"connected_time":698000000000,"state":"active","ping":141},{"user_id":254,"name":"Kamin","steam_id":76561198255299559,"connected_time":1605000000000,"state":"active","ping":83},{"user_id":255,"name":"Sir Tea","steam_id":76561198353912752,"connected_time":1573000000000,"state":"active","ping":58},{"user_id":256,"name":"Cassette","steam_id":76561198064965251,"connected_time":1531000000000,"state":"active","ping":60},{"user_id":276,"name":"Dullahan","steam_id":76561198119668908,"connected_time":161000000000,"state":"active","ping":101},{"user_id":225,"name":"lasagnalarry","steam_id":76561197972369020,"connected_time":3366000000000,"state":"active","ping":62},{"user_id":260,"name":"Mossy","steam_id":76561198156401277,"connected_time":1441000000000,"state":"active","ping":68},{"user_id":258,"name":"fat tits haver","steam_id":76561198081681647,"connected_time":1482000000000,"state":"active","ping":65},{"user_id":259,"name":"Rugbmilk","steam_id":76561199389283507,"connected_time":1475000000000,"state":"active","ping":71},{"user_id":271,"name":"Senator Armstrong","steam_id":76561198097998607,"connected_time":1023000000000,"state":"active","ping":50},{"user_id":262,"name":"[BBC] Justario","steam_id":76561198016095410,"connected_time":1403000000000,"state":"active","ping":61},{"user_id":272,"name":"The Foolish Samurai","steam_id":76561198094494945,"connected_time":1013000000000,"state":"active","ping":110},{"user_id":275,"name":"schwicky shwag","steam_id":76561198037921140,"connected_time":494000000000,"state":"active","ping":91},{"user_id":273,"name":"King Cotton","steam_id":76561198292444376,"connected_time":1008000000000,"state":"active","ping":82},{"user_id":231,"name":"Trollamoo","steam_id":76561198865767224,"connected_time":3279000000000,"state":"active","ping":47},{"user_id":266,"name":"Ronnie","steam_id":76561198045894586,"connected_time":1303000000000,"state":"active","ping":81},{"user_id":267,"name":"free_azr","steam_id":76561198147746558,"connected_time":1300000000000,"state":"active","ping":67},{"user_id":268,"name":"Pebbles","steam_id":76561197985155770,"connected_time":1293000000000,"state":"active","ping":68}]},{"server_id":36,"name":"Uncletopia | Chicago | 5 | All Maps","name_short":"chi-5","host":"chi-2.us.uncletopia.com","port":27015,"enabled":true,"region":"us-central","cc":"us","latitude":41.881832,"longitude":-87.62318,"reserved":0,"last_update":"0001-01-01T00:00:00Z","name_a2s":"Uncletopia | Chicago | 5 | All Maps","protocol":17,"map":"pl_frontier_final","folder":"tf","game":"Team Fortress","app_id":440,"player_count":24,"max_players":24,"Bots":0,"server_type":"Dedicated","server_os":"Linux","password":true,"vac":true,"version":"7708610","steam_id":85568392924866362,"keywords":["nocrits","nodmgspread","payload","uncletopia"],"game_id":440,"stv_port":27016,"stv_name":"Uncletopia | Chicago | 5 | All Maps | STV","players":[{"user_id":61,"name":"Christoph Waltz eating a burger","steam_id":76561199215811448,"connected_time":1439000000000,"state":"active","ping":71},{"user_id":72,"name":"MEGATRON","steam_id":76561198212585407,"connected_time":579000000000,"state":"active","ping":81},{"user_id":76,"name":"SorcererCat","steam_id":76561199219316179,"connected_time":498000000000,"state":"active","ping":149},{"user_id":43,"name":"space mann","steam_id":76561198174447043,"connected_time":2329000000000,"state":"active","ping":54},{"user_id":45,"name":"Rooster Miami Man","steam_id":76561199001393067,"connected_time":2188000000000,"state":"active","ping":114},{"user_id":74,"name":"psy","steam_id":76561198013195018,"connected_time":564000000000,"state":"active","ping":77},{"user_id":49,"name":"a garbage can","steam_id":76561198403626105,"connected_time":2141000000000,"state":"active","ping":51},{"user_id":25,"name":"Dunmaglass","steam_id":76561198128928443,"connected_time":3347000000000,"state":"active","ping":75},{"user_id":28,"name":"Raincool","steam_id":76561198042953645,"connected_time":3227000000000,"state":"active","ping":68},{"user_id":59,"name":"Slowth","steam_id":76561198093849916,"connected_time":1801000000000,"state":"active","ping":89},{"user_id":50,"name":"Waffle Wannabe","steam_id":76561198064510650,"connected_time":2136000000000,"state":"active","ping":58},{"user_id":54,"name":"caption cool","steam_id":76561197990612056,"connected_time":1934000000000,"state":"active","ping":52},{"user_id":77,"name":"Knox#","steam_id":76561198998636709,"connected_time":476000000000,"state":"active","ping":68},{"user_id":55,"name":"starer","steam_id":76561199229966290,"connected_time":1928000000000,"state":"active","ping":73},{"user_id":65,"name":"PROD CHAMPION","steam_id":76561199245670274,"connected_time":1228000000000,"state":"active","ping":101},{"user_id":63,"name":"Pork Tenderloin","steam_id":76561198138663842,"connected_time":1276000000000,"state":"active","ping":55},{"user_id":22,"name":"Polygunner","steam_id":76561199165741650,"connected_time":3463000000000,"state":"active","ping":76},{"user_id":75,"name":"Papa Squat","steam_id":76561198045011208,"connected_time":525000000000,"state":"active","ping":65},{"user_id":69,"name":"Etoilelun","steam_id":76561198106568214,"connected_time":1053000000000,"state":"active","ping":100},{"user_id":39,"name":"Lonedragun99","steam_id":76561198100505832,"connected_time":3033000000000,"state":"active","ping":67},{"user_id":66,"name":"Ahzain","steam_id":76561198035894333,"connected_time":1225000000000,"state":"active","ping":130},{"user_id":35,"name":"Tass","steam_id":76561198037116475,"connected_time":3113000000000,"state":"active","ping":79},{"user_id":78,"name":"Boy","steam_id":76561199147107859,"connected_time":434000000000,"state":"active","ping":55},{"user_id":81,"name":"slurpeur de bite","steam_id":76561199174579733,"connected_time":199000000000,"state":"active","ping":124}]},{"server_id":37,"name":"Uncletopia | Chicago | 6 | All Maps","name_short":"chi-6","host":"chi-2.us.uncletopia.com","port":27025,"enabled":true,"region":"us-central","cc":"us","latitude":41.881832,"longitude":-87.62318,"reserved":0,"last_update":"0001-01-01T00:00:00Z","name_a2s":"Uncletopia | Chicago | 6 | All Maps","protocol":17,"map":"koth_cascade","folder":"tf","game":"Team Fortress","app_id":440,"player_count":0,"max_players":24,"Bots":0,"server_type":"Dedicated","server_os":"Linux","password":true,"vac":true,"version":"7708610","steam_id":85568392924866363,"keywords":["cp","nocrits","nodmgspread","uncletopia"],"game_id":440,"stv_port":0,"stv_name":"","players":null},{"server_id":38,"name":"Uncletopia | Chicago | 7 | No Payload","name_short":"chi-7","host":"chi-2.us.uncletopia.com","port":27035,"enabled":true,"region":"us-central","cc":"us","latitude":41.881832,"longitude":-87.62318,"reserved":0,"last_update":"0001-01-01T00:00:00Z","name_a2s":"Uncletopia | Chicago | 7 | No Payload","protocol":17,"map":"koth_viaduct","folder":"tf","game":"Team Fortress","app_id":440,"player_count":0,"max_players":24,"Bots":0,"server_type":"Dedicated","server_os":"Linux","password":true,"vac":true,"version":"7708610","steam_id":85568392924866364,"keywords":["cp","nocrits","nodmgspread","uncletopia"],"game_id":440,"stv_port":0,"stv_name":"","players":null},{"server_id":39,"name":"Uncletopia | Chicago | 8 | Community","name_short":"chi-8","host":"chi-2.us.uncletopia.com","port":27045,"enabled":true,"region":"us-central","cc":"us","latitude":41.881832,"longitude":-87.62318,"reserved":0,"last_update":"0001-01-01T00:00:00Z","name_a2s":"Uncletopia | Chicago | 8 | Community","protocol":17,"map":"workshop/koth_bagel_rc5.ugc2514036946","folder":"tf","game":"Team Fortress","app_id":440,"player_count":0,"max_players":24,"Bots":0,"server_type":"Dedicated","server_os":"Linux","password":true,"vac":true,"version":"7708610","steam_id":85568392924866365,"keywords":["cp","nocrits","nodmgspread","uncletopia"],"game_id":440,"stv_port":27046,"stv_name":"Uncletopia | Chicago | 8 | Community | STV","players":null},{"server_id":8,"name":"Uncletopia | Dallas | 1 | All Maps","name_short":"dal-1","host":"dal-1.us.uncletopia.com","port":27015,"enabled":true,"region":"us-central","cc":"us","latitude":32.779167,"longitude":-96.80889,"reserved":0,"last_update":"0001-01-01T00:00:00Z","name_a2s":"Uncletopia | Dallas | 1 | All Maps","protocol":17,"map":"pl_frontier_final","folder":"tf","game":"Team Fortress","app_id":440,"player_count":24,"max_players":24,"Bots":0,"server_type":"Dedicated","server_os":"Linux","password":true,"vac":true,"version":"7708610","steam_id":85568392924469986,"keywords":["nocrits","nodmgspread","payload","uncletopia"],"game_id":440,"stv_port":27016,"stv_name":"Uncletopia | Dallas | 1 | All Maps | STV","players":[{"user_id":461,"name":"WingedKid","steam_id":76561198983668257,"connected_time":808000000000,"state":"active","ping":100},{"user_id":453,"name":"Cilisarite","steam_id":76561198322111174,"connected_time":1387000000000,"state":"active","ping":64},{"user_id":414,"name":"Gumball Comics","steam_id":76561199105258784,"connected_time":4257000000000,"state":"active","ping":46},{"user_id":416,"name":"Phosu","steam_id":76561198180162801,"connected_time":4215000000000,"state":"active","ping":62},{"user_id":435,"name":"SpinnerSpecial","steam_id":76561198065661869,"connected_time":2791000000000,"state":"active","ping":102},{"user_id":477,"name":"LuciD","steam_id":76561198242842394,"connected_time":124000000000,"state":"active","ping":64},{"user_id":469,"name":"the stallion","steam_id":76561198212242403,"connected_time":575000000000,"state":"active","ping":60},{"user_id":448,"name":"GarretGood","steam_id":76561198071881495,"connected_time":1522000000000,"state":"active","ping":84},{"user_id":476,"name":"realheavy","steam_id":76561198114603745,"connected_time":125000000000,"state":"active","ping":89},{"user_id":460,"name":"Charlotte","steam_id":76561199084344266,"connected_time":866000000000,"state":"active","ping":77},{"user_id":425,"name":"spaaaaace","steam_id":76561199085974120,"connected_time":3716000000000,"state":"active","ping":83},{"user_id":479,"name":"Feel the bern","steam_id":76561198078824519,"connected_time":63000000000,"state":"active","ping":96},{"user_id":473,"name":"Auto","steam_id":76561198086430895,"connected_time":169000000000,"state":"active","ping":47},{"user_id":475,"name":"Vec","steam_id":76561198044505262,"connected_time":135000000000,"state":"active","ping":90},{"user_id":463,"name":"BuhByeFalecia","steam_id":76561198364710587,"connected_time":784000000000,"state":"active","ping":53},{"user_id":478,"name":"Chaotic Rushu","steam_id":76561198170054407,"connected_time":121000000000,"state":"spawning","ping":399},{"user_id":449,"name":"Dulahan","steam_id":76561198109149008,"connected_time":1519000000000,"state":"active","ping":104},{"user_id":450,"name":"FULCRUM faded than a ho","steam_id":76561198274959371,"connected_time":1515000000000,"state":"active","ping":93},{"user_id":447,"name":"airbudenjoyer2012","steam_id":76561198150428763,"connected_time":1581000000000,"state":"active","ping":159},{"user_id":455,"name":"Amogous Supreme","steam_id":76561198025476774,"connected_time":1303000000000,"state":"active","ping":86},{"user_id":472,"name":"GabetIV femboy","steam_id":76561198145700338,"connected_time":354000000000,"state":"active","ping":47},{"user_id":480,"name":"Lkymn","steam_id":76561198020277553,"connected_time":59000000000,"state":"active","ping":81},{"user_id":481,"name":"Periergos","steam_id":76561198062030412,"connected_time":42000000000,"state":"active","ping":55},{"user_id":482,"name":"tumn","steam_id":76561199241694808,"connected_time":21000000000,"state":"active","ping":41}]},{"server_id":108,"name":"Uncletopia | Dallas | 2 | All Maps","name_short":"dal-2","host":"dal-1.us.uncletopia.com","port":27025,"enabled":true,"region":"us-central","cc":"us","latitude":32.779167,"longitude":-96.80889,"reserved":0,"last_update":"0001-01-01T00:00:00Z","name_a2s":"Uncletopia | Dallas | 2 | All Maps","protocol":17,"map":"koth_cascade","folder":"tf","game":"Team Fortress","app_id":440,"player_count":0,"max_players":24,"Bots":0,"server_type":"Dedicated","server_os":"Linux","password":true,"vac":true,"version":"7708610","steam_id":85568392924469988,"keywords":["cp","nocrits","nodmgspread","uncletopia"],"game_id":440,"stv_port":27026,"stv_name":"Uncletopia | Dallas | 2 | All Maps | STV","players":null},{"server_id":5,"name":"Uncletopia | Frankfurt | 1 | All Maps","name_short":"frk-1","host":"frk-1.de.uncletopia.com","port":27015,"enabled":true,"region":"eu","cc":"de","latitude":50.110924,"longitude":8.682127,"reserved":0,"last_update":"0001-01-01T00:00:00Z","name_a2s":"Uncletopia | Frankfurt | 1 | All Maps","protocol":17,"map":"pl_pier","folder":"tf","game":"Team Fortress","app_id":440,"player_count":24,"max_players":24,"Bots":0,"server_type":"Dedicated","server_os":"Linux","password":true,"vac":true,"version":"7708610","steam_id":85568392924469989,"keywords":["nocrits","nodmgspread","payload","uncletopia"],"game_id":440,"stv_port":27016,"stv_name":"Uncletopia | Frankfurt | 1 | All Maps | STV","players":[{"user_id":736,"name":"Senator Armstrong","steam_id":76561198984346408,"connected_time":1024000000000,"state":"active","ping":66},{"user_id":740,"name":"Cahl","steam_id":76561198980863125,"connected_time":198000000000,"state":"active","ping":60},{"user_id":725,"name":"randem_","steam_id":76561198338793755,"connected_time":1385000000000,"state":"active","ping":74},{"user_id":737,"name":"Dr Sex","steam_id":76561198029044617,"connected_time":916000000000,"state":"active","ping":63},{"user_id":682,"name":"Volterion #SaveTf2","steam_id":76561198293088484,"connected_time":3597000000000,"state":"active","ping":66},{"user_id":741,"name":"fl1p","steam_id":76561198148565659,"connected_time":165000000000,"state":"active","ping":75},{"user_id":681,"name":"Anko","steam_id":76561198214180388,"connected_time":3836000000000,"state":"active","ping":79},{"user_id":720,"name":"midnight at midnight","steam_id":76561198238955540,"connected_time":1855000000000,"state":"active","ping":77},{"user_id":729,"name":"ZRD83[FR]","steam_id":76561198411341922,"connected_time":1323000000000,"state":"active","ping":67},{"user_id":701,"name":"ViktorYoshi","steam_id":76561199157555246,"connected_time":2839000000000,"state":"active","ping":61},{"user_id":711,"name":"sHIFTINGvORTEX","steam_id":76561198231648332,"connected_time":2559000000000,"state":"active","ping":72},{"user_id":677,"name":"Spoody #JustPassing","steam_id":76561198031523769,"connected_time":4593000000000,"state":"active","ping":46},{"user_id":731,"name":"Evoxyre","steam_id":76561198382531285,"connected_time":1305000000000,"state":"active","ping":48},{"user_id":695,"name":"deri100","steam_id":76561198397588574,"connected_time":3255000000000,"state":"active","ping":74},{"user_id":739,"name":"Demolag","steam_id":76561198070502025,"connected_time":492000000000,"state":"active","ping":62},{"user_id":730,"name":"i'm going super racist","steam_id":76561198179461907,"connected_time":1313000000000,"state":"active","ping":71},{"user_id":742,"name":"PlebCord","steam_id":76561198120685803,"connected_time":165000000000,"state":"active","ping":82},{"user_id":732,"name":"Backup","steam_id":76561197999557567,"connected_time":1303000000000,"state":"active","ping":57},{"user_id":733,"name":"Fengerros","steam_id":76561199008363999,"connected_time":1295000000000,"state":"active","ping":70},{"user_id":706,"name":"Berdly","steam_id":76561199029872533,"connected_time":2738000000000,"state":"active","ping":64},{"user_id":738,"name":"njofra","steam_id":76561199143737200,"connected_time":567000000000,"state":"active","ping":88},{"user_id":708,"name":"Le Unabomber","steam_id":76561198869003596,"connected_time":2728000000000,"state":"active","ping":77},{"user_id":721,"name":"0FCKGVN","steam_id":76561198076787036,"connected_time":1851000000000,"state":"active","ping":64},{"user_id":709,"name":"YEEET","steam_id":76561198914938199,"connected_time":2704000000000,"state":"active","ping":92}]},{"server_id":110,"name":"Uncletopia | Frankfurt | 2 | All Maps","name_short":"frk-2","host":"frk-1.de.uncletopia.com","port":27025,"enabled":true,"region":"eu","cc":"de","latitude":50.110924,"longitude":8.682127,"reserved":0,"last_update":"0001-01-01T00:00:00Z","name_a2s":"Uncletopia | Frankfurt | 2 | All Maps","protocol":17,"map":"pl_borneo","folder":"tf","game":"Team Fortress","app_id":440,"player_count":0,"max_players":24,"Bots":0,"server_type":"Dedicated","server_os":"Linux","password":true,"vac":true,"version":"7708610","steam_id":85568392924469990,"keywords":["nocrits","nodmgspread","payload","uncletopia"],"game_id":440,"stv_port":27026,"stv_name":"Uncletopia | Frankfurt | 2 | All Maps | STV","players":null},{"server_id":308,"name":"Uncletopia | Frankfurt | 3 | All Maps","name_short":"frk-3","host":"frk-1.de.uncletopia.com","port":27035,"enabled":true,"region":"eu","cc":"de","latitude":50.110924,"longitude":8.682127,"reserved":0,"last_update":"0001-01-01T00:00:00Z","name_a2s":"Uncletopia | Frankfurt | 3 | All Maps","protocol":17,"map":"koth_viaduct","folder":"tf","game":"Team Fortress","app_id":440,"player_count":0,"max_players":24,"Bots":0,"server_type":"Dedicated","server_os":"Linux","password":true,"vac":true,"version":"7708610","steam_id":85568392924504274,"keywords":["cp","nocrits","nodmgspread","uncletopia"],"game_id":440,"stv_port":27036,"stv_name":"Uncletopia | Frankfurt | 3 | All Maps | STV","players":null},{"server_id":309,"name":"Uncletopia | Frankfurt | 4 | All Maps","name_short":"frk-4","host":"frk-1.de.uncletopia.com","port":27045,"enabled":true,"region":"eu","cc":"de","latitude":50.110924,"longitude":8.682127,"reserved":0,"last_update":"0001-01-01T00:00:00Z","name_a2s":"Uncletopia | Frankfurt | 4 | All Maps","protocol":17,"map":"cp_dustbowl","folder":"tf","game":"Team Fortress","app_id":440,"player_count":2,"max_players":24,"Bots":0,"server_type":"Dedicated","server_os":"Linux","password":true,"vac":true,"version":"7708610","steam_id":85568392924504275,"keywords":["cp","nocrits","nodmgspread","uncletopia"],"game_id":440,"stv_port":27046,"stv_name":"Uncletopia | Frankfurt | 4 | All Maps | STV","players":[{"user_id":681,"name":"Archie","steam_id":76561199061232100,"connected_time":8055000000000,"state":"active","ping":64},{"user_id":695,"name":"furry uwu gf","steam_id":76561199229766865,"connected_time":5599000000000,"state":"active","ping":102}]},{"server_id":310,"name":"Uncletopia | Frankfurt | 5 | All Maps","name_short":"frk-5","host":"frk-1.de.uncletopia.com","port":27055,"enabled":true,"region":"eu","cc":"de","latitude":50.110924,"longitude":8.682127,"reserved":0,"last_update":"0001-01-01T00:00:00Z","name_a2s":"Uncletopia | Frankfurt | 5 | All Maps","protocol":17,"map":"pl_barnblitz","folder":"tf","game":"Team Fortress","app_id":440,"player_count":24,"max_players":24,"Bots":0,"server_type":"Dedicated","server_os":"Linux","password":true,"vac":true,"version":"7708610","steam_id":85568392924504277,"keywords":["nocrits","nodmgspread","payload","uncletopia"],"game_id":440,"stv_port":27056,"stv_name":"Uncletopia | Frankfurt | 5 | All Maps | STV","players":[{"user_id":757,"name":"snowi","steam_id":76561198006502679,"connected_time":671000000000,"state":"active","ping":66},{"user_id":666,"name":"dustee","steam_id":76561198023486582,"connected_time":7890000000000,"state":"active","ping":75},{"user_id":709,"name":"\u003cinsert name here\u003e","steam_id":76561198040352646,"connected_time":4946000000000,"state":"active","ping":61},{"user_id":719,"name":"Coal","steam_id":76561198072152132,"connected_time":4246000000000,"state":"active","ping":68},{"user_id":748,"name":"TucTuc","steam_id":76561198140656686,"connected_time":1941000000000,"state":"active","ping":82},{"user_id":759,"name":"Femboy Gaming","steam_id":76561198174108515,"connected_time":596000000000,"state":"active","ping":52},{"user_id":770,"name":"The Rabid Oyster","steam_id":76561198148707022,"connected_time":263000000000,"state":"active","ping":154},{"user_id":771,"name":"traudinix","steam_id":76561198061363420,"connected_time":254000000000,"state":"active","ping":41},{"user_id":768,"name":"Scary Gary","steam_id":76561198128659449,"connected_time":291000000000,"state":"active","ping":133},{"user_id":762,"name":"Andrew Tate TF2EASY.COM","steam_id":76561198408907123,"connected_time":552000000000,"state":"active","ping":76},{"user_id":755,"name":"XPullaHiiri","steam_id":76561198031652375,"connected_time":1061000000000,"state":"active","ping":87},{"user_id":758,"name":"3 Italians in a trenchcoat.","steam_id":76561198094993151,"connected_time":658000000000,"state":"active","ping":58},{"user_id":651,"name":"tm`","steam_id":76561197993580412,"connected_time":8698000000000,"state":"active","ping":54},{"user_id":726,"name":"Milca_11","steam_id":76561198848650365,"connected_time":4072000000000,"state":"active","ping":82},{"user_id":764,"name":"steaks_","steam_id":76561198124464188,"connected_time":430000000000,"state":"active","ping":57},{"user_id":765,"name":"baijro","steam_id":76561198061001376,"connected_time":358000000000,"state":"active","ping":75},{"user_id":716,"name":"NotaSimp","steam_id":76561197971394640,"connected_time":4469000000000,"state":"active","ping":185},{"user_id":670,"name":"Beans on toast","steam_id":76561198007308717,"connected_time":7840000000000,"state":"active","ping":64},{"user_id":773,"name":"Chalim","steam_id":76561198194442382,"connected_time":236000000000,"state":"active","ping":63},{"user_id":642,"name":"Zateske","steam_id":76561198047446276,"connected_time":9390000000000,"state":"active","ping":61},{"user_id":746,"name":"simn","steam_id":76561198159182269,"connected_time":2166000000000,"state":"active","ping":50},{"user_id":777,"name":"Prox","steam_id":76561198351490981,"connected_time":63000000000,"state":"active","ping":57},{"user_id":776,"name":"ego944","steam_id":76561197999290923,"connected_time":143000000000,"state":"active","ping":55},{"user_id":753,"name":"rmz.ssj","steam_id":76561198329613930,"connected_time":1443000000000,"state":"active","ping":68}]},{"server_id":311,"name":"Uncletopia | Frankfurt | 6 | All Maps","name_short":"frk-6","host":"frk-1.de.uncletopia.com","port":27065,"enabled":true,"region":"eu","cc":"de","latitude":50.110924,"longitude":8.682127,"reserved":0,"last_update":"0001-01-01T00:00:00Z","name_a2s":"Uncletopia | Frankfurt | 6 | All Maps","protocol":17,"map":"cp_snakewater_final1","folder":"tf","game":"Team Fortress","app_id":440,"player_count":22,"max_players":24,"Bots":0,"server_type":"Dedicated","server_os":"Linux","password":true,"vac":true,"version":"7708610","steam_id":85568392924504278,"keywords":["cp","nocrits","nodmgspread","uncletopia"],"game_id":440,"stv_port":27066,"stv_name":"Uncletopia | Frankfurt | 6 | All Maps | STV","players":[{"user_id":300,"name":"opaacic","steam_id":76561199158514501,"connected_time":3001000000000,"state":"active","ping":73},{"user_id":338,"name":"☞LaZe☜","steam_id":76561198202191400,"connected_time":94000000000,"state":"active","ping":61},{"user_id":330,"name":"Reimu Hakurei","steam_id":76561198038078831,"connected_time":863000000000,"state":"active","ping":50},{"user_id":332,"name":"krypton","steam_id":76561198066723324,"connected_time":653000000000,"state":"active","ping":73},{"user_id":290,"name":"NyaifuWaifu","steam_id":76561198101624996,"connected_time":3722000000000,"state":"active","ping":90},{"user_id":306,"name":"I Don't Know","steam_id":76561198841011430,"connected_time":2246000000000,"state":"active","ping":58},{"user_id":299,"name":"Transgender E-girl","steam_id":76561198168589809,"connected_time":3290000000000,"state":"active","ping":56},{"user_id":309,"name":"Beef Bacon","steam_id":76561198066212413,"connected_time":2214000000000,"state":"active","ping":82},{"user_id":244,"name":"Zerfesh","steam_id":76561198117534358,"connected_time":6479000000000,"state":"active","ping":84},{"user_id":334,"name":"BD[PL]","steam_id":76561198115995871,"connected_time":551000000000,"state":"active","ping":74},{"user_id":297,"name":"Midoriaga","steam_id":76561198010699090,"connected_time":3567000000000,"state":"active","ping":45},{"user_id":323,"name":"bionicnecromancer","steam_id":76561198091768310,"connected_time":1459000000000,"state":"active","ping":69},{"user_id":339,"name":"washed up","steam_id":76561198275742101,"connected_time":30000000000,"state":"active","ping":46},{"user_id":292,"name":"Gurgula","steam_id":76561198021253678,"connected_time":3706000000000,"state":"active","ping":77},{"user_id":337,"name":"Uncle Lame","steam_id":76561198089003514,"connected_time":235000000000,"state":"active","ping":45},{"user_id":325,"name":"Michelin Starred Chilli Pete","steam_id":76561197996149548,"connected_time":1399000000000,"state":"active","ping":66},{"user_id":298,"name":"Belithe","steam_id":76561198082612324,"connected_time":3563000000000,"state":"active","ping":62},{"user_id":315,"name":"flare","steam_id":76561199109721258,"connected_time":2072000000000,"state":"active","ping":69},{"user_id":333,"name":"stonebum","steam_id":76561198057004606,"connected_time":653000000000,"state":"active","ping":59},{"user_id":288,"name":"Steen","steam_id":76561198122992510,"connected_time":3864000000000,"state":"active","ping":45},{"user_id":331,"name":"SanDuTheFOX","steam_id":76561198398609235,"connected_time":791000000000,"state":"active","ping":80},{"user_id":329,"name":"Eimantas","steam_id":76561198041701187,"connected_time":895000000000,"state":"active","ping":60}]},{"server_id":23,"name":"Uncletopia | Frankfurt | 7 | No Payload","name_short":"frk-7","host":"frk-1.de.uncletopia.com","port":27075,"enabled":true,"region":"eu","cc":"de","latitude":50.110924,"longitude":8.682127,"reserved":0,"last_update":"0001-01-01T00:00:00Z","name_a2s":"Uncletopia | Frankfurt | 7 | No Payload","protocol":17,"map":"plr_pipeline","folder":"tf","game":"Team Fortress","app_id":440,"player_count":19,"max_players":24,"Bots":0,"server_type":"Dedicated","server_os":"Linux","password":true,"vac":true,"version":"7708610","steam_id":85568392924742827,"keywords":["nocrits","nodmgspread","payload","uncletopia"],"game_id":440,"stv_port":27076,"stv_name":"Uncletopia | Frankfurt | 7 | No Payload | STV","players":[{"user_id":286,"name":"zepal","steam_id":76561197980984607,"connected_time":1172000000000,"state":"active","ping":54},{"user_id":282,"name":"jeff","steam_id":76561198272815746,"connected_time":1682000000000,"state":"active","ping":58},{"user_id":281,"name":"Rimx","steam_id":76561198053034840,"connected_time":1916000000000,"state":"active","ping":91},{"user_id":294,"name":"Duarte™","steam_id":76561198131456324,"connected_time":192000000000,"state":"active","ping":87},{"user_id":280,"name":"Toasty5050","steam_id":76561198073540881,"connected_time":2041000000000,"state":"active","ping":44},{"user_id":287,"name":"BabarNed","steam_id":76561198066682369,"connected_time":1156000000000,"state":"active","ping":47},{"user_id":260,"name":"Chicanery","steam_id":76561198068213670,"connected_time":3478000000000,"state":"active","ping":46},{"user_id":261,"name":"nyanezt","steam_id":76561198253734265,"connected_time":3472000000000,"state":"active","ping":98},{"user_id":288,"name":"Swet","steam_id":76561198118256552,"connected_time":1156000000000,"state":"active","ping":44},{"user_id":248,"name":"Baklava Enjoyer","steam_id":76561198990679631,"connected_time":4179000000000,"state":"active","ping":125},{"user_id":254,"name":"pryate","steam_id":76561198135960359,"connected_time":3868000000000,"state":"active","ping":63},{"user_id":289,"name":"Gandalf","steam_id":76561199072668363,"connected_time":1145000000000,"state":"active","ping":75},{"user_id":279,"name":"Mr.Schnittlauch","steam_id":76561198295868113,"connected_time":2331000000000,"state":"active","ping":53},{"user_id":264,"name":"Double_Donker","steam_id":76561198283949131,"connected_time":3337000000000,"state":"active","ping":59},{"user_id":295,"name":"alexeikasyanenko2007@palevo.ru","steam_id":76561198042130002,"connected_time":121000000000,"state":"active","ping":82},{"user_id":296,"name":"Azzazzin x","steam_id":76561198045488608,"connected_time":84000000000,"state":"active","ping":84},{"user_id":249,"name":"Him","steam_id":76561198086400484,"connected_time":4177000000000,"state":"active","ping":65},{"user_id":297,"name":"tturb1ne","steam_id":76561198861796319,"connected_time":71000000000,"state":"active","ping":97},{"user_id":271,"name":"scout TF2","steam_id":76561198072037878,"connected_time":3118000000000,"state":"active","ping":74}]},{"server_id":24,"name":"Uncletopia | Frankfurt | 8 | Community","name_short":"frk-8","host":"frk-1.de.uncletopia.com","port":27085,"enabled":true,"region":"eu","cc":"de","latitude":50.110924,"longitude":8.682127,"reserved":0,"last_update":"0001-01-01T00:00:00Z","name_a2s":"Uncletopia | Frankfurt | 8 | Community","protocol":17,"map":"workshop/koth_slaughter_rc1.ugc1712845210","folder":"tf","game":"Team Fortress","app_id":440,"player_count":0,"max_players":24,"Bots":0,"server_type":"Dedicated","server_os":"Linux","password":true,"vac":true,"version":"7708610","steam_id":85568392924742828,"keywords":["cp","nocrits","nodmgspread","uncletopia"],"game_id":440,"stv_port":27086,"stv_name":"Uncletopia | Frankfurt | 8 | Community | STV","players":null},{"server_id":202,"name":"Uncletopia | Hong Kong | 1 | All Maps","name_short":"hgk-1","host":"hgk-1.hk.uncletopia.com","port":27015,"enabled":true,"region":"asia","cc":"hk","latitude":22.302711,"longitude":114.177216,"reserved":0,"last_update":"0001-01-01T00:00:00Z","name_a2s":"Uncletopia | Hong Kong | 1 | All Maps","protocol":17,"map":"pl_upward","folder":"tf","game":"Team Fortress","app_id":440,"player_count":0,"max_players":24,"Bots":0,"server_type":"Dedicated","server_os":"Linux","password":true,"vac":true,"version":"7708610","steam_id":85568392924494504,"keywords":["nocrits","nodmgspread","payload","uncletopia"],"game_id":440,"stv_port":0,"stv_name":"","players":null},{"server_id":1,"name":"Uncletopia | Los Angeles | 1 | All Maps","name_short":"lax-1","host":"lax-1.us.uncletopia.com","port":27015,"enabled":true,"region":"us-west","cc":"us","latitude":33.94279,"longitude":-118.41004,"reserved":0,"last_update":"0001-01-01T00:00:00Z","name_a2s":"Uncletopia | Los Angeles | 1 | All Maps","protocol":17,"map":"koth_lakeside_final","folder":"tf","game":"Team Fortress","app_id":440,"player_count":0,"max_players":24,"Bots":0,"server_type":"Dedicated","server_os":"Linux","password":true,"vac":true,"version":"7708610","steam_id":85568392924469991,"keywords":["cp","nocrits","nodmgspread","uncletopia"],"game_id":440,"stv_port":27016,"stv_name":"Uncletopia | Los Angeles | 1 | All Maps | STV","players":null},{"server_id":112,"name":"Uncletopia | Los Angeles | 2 | All Maps","name_short":"lax-2","host":"lax-1.us.uncletopia.com","port":27025,"enabled":true,"region":"us-west","cc":"us","latitude":33.94279,"longitude":-118.41004,"reserved":0,"last_update":"0001-01-01T00:00:00Z","name_a2s":"Uncletopia | Los Angeles | 2 | All Maps","protocol":17,"map":"pl_upward","folder":"tf","game":"Team Fortress","app_id":440,"player_count":24,"max_players":24,"Bots":0,"server_type":"Dedicated","server_os":"Linux","password":true,"vac":true,"version":"7708610","steam_id":85568392924469992,"keywords":["nocrits","nodmgspread","payload","uncletopia"],"game_id":440,"stv_port":27026,"stv_name":"Uncletopia | Los Angeles | 2 | All Maps | STV","players":[{"user_id":41,"name":"dust","steam_id":76561198045218909,"connected_time":923000000000,"state":"active","ping":60},{"user_id":40,"name":"El Doktor","steam_id":76561198413013439,"connected_time":924000000000,"state":"active","ping":46},{"user_id":11,"name":"🐺-Iwky-🦊","steam_id":76561198185616311,"connected_time":2938000000000,"state":"active","ping":61},{"user_id":12,"name":"Risky","steam_id":76561198231029328,"connected_time":2436000000000,"state":"active","ping":50},{"user_id":13,"name":"Krazy","steam_id":76561198835502709,"connected_time":2214000000000,"state":"active","ping":43},{"user_id":14,"name":"blue duck the 2nd","steam_id":76561198263142765,"connected_time":2091000000000,"state":"active","ping":129},{"user_id":15,"name":"cardboardwarrior1","steam_id":76561199145044693,"connected_time":2090000000000,"state":"active","ping":130},{"user_id":48,"name":"Jack from Jack in The Box","steam_id":76561199083594971,"connected_time":180000000000,"state":"active","ping":51},{"user_id":17,"name":"Ownniceguy","steam_id":76561199216772555,"connected_time":1899000000000,"state":"active","ping":86},{"user_id":51,"name":"Saulce","steam_id":76561198066142119,"connected_time":23000000000,"state":"spawning","ping":68},{"user_id":21,"name":"Strange Potato","steam_id":76561199059013304,"connected_time":1810000000000,"state":"active","ping":52},{"user_id":22,"name":"Quick-Fix Fan","steam_id":76561198872845740,"connected_time":1804000000000,"state":"active","ping":109},{"user_id":43,"name":"Octobella Enthusiast","steam_id":76561198199266047,"connected_time":815000000000,"state":"active","ping":93},{"user_id":49,"name":"Jesus","steam_id":76561198018890911,"connected_time":176000000000,"state":"active","ping":80},{"user_id":46,"name":"geg hafly","steam_id":76561198123679124,"connected_time":706000000000,"state":"active","ping":60},{"user_id":36,"name":"benglengler","steam_id":76561198150137369,"connected_time":1372000000000,"state":"active","ping":56},{"user_id":50,"name":"Magnet Dood","steam_id":76561198364178746,"connected_time":77000000000,"state":"active","ping":100},{"user_id":29,"name":"Susan","steam_id":76561198045705049,"connected_time":1649000000000,"state":"active","ping":48},{"user_id":37,"name":"Verult (doesn't)Trade","steam_id":76561199018000017,"connected_time":1277000000000,"state":"active","ping":49},{"user_id":31,"name":"🌸Red🌸","steam_id":76561198037346199,"connected_time":1645000000000,"state":"active","ping":147},{"user_id":32,"name":"Rich Money McNickelson","steam_id":76561198352427247,"connected_time":1627000000000,"state":"active","ping":67},{"user_id":33,"name":"1993rainin","steam_id":76561199443478548,"connected_time":1609000000000,"state":"active","ping":75},{"user_id":34,"name":"❤madeleine❤","steam_id":76561198110142386,"connected_time":1597000000000,"state":"active","ping":55},{"user_id":39,"name":"High Cotton","steam_id":76561197998894854,"connected_time":1156000000000,"state":"active","ping":107}]},{"server_id":324,"name":"Uncletopia | Los Angeles | 3 | All Maps","name_short":"lax-3","host":"lax-1.us.uncletopia.com","port":27035,"enabled":true,"region":"us-west","cc":"us","latitude":33.94279,"longitude":-118.41004,"reserved":0,"last_update":"0001-01-01T00:00:00Z","name_a2s":"Uncletopia | Los Angeles | 3 | All Maps","protocol":17,"map":"koth_viaduct","folder":"tf","game":"Team Fortress","app_id":440,"player_count":0,"max_players":24,"Bots":0,"server_type":"Dedicated","server_os":"Linux","password":true,"vac":true,"version":"7708610","steam_id":85568392924510198,"keywords":["cp","nocrits","nodmgspread","uncletopia"],"game_id":440,"stv_port":27036,"stv_name":"Uncletopia | Los Angeles | 3 | All Maps | STV","players":null},{"server_id":25,"name":"Uncletopia | Los Angeles | 4 | No Payload","name_short":"lax-4","host":"lax-1.us.uncletopia.com","port":27045,"enabled":true,"region":"us-west","cc":"us","latitude":33.94279,"longitude":-118.41004,"reserved":0,"last_update":"0001-01-01T00:00:00Z","name_a2s":"Uncletopia | Los Angeles | 4 | No Payload","protocol":17,"map":"cp_freight_final1","folder":"tf","game":"Team Fortress","app_id":440,"player_count":0,"max_players":24,"Bots":0,"server_type":"Dedicated","server_os":"Linux","password":true,"vac":true,"version":"7708610","steam_id":85568392924510199,"keywords":["cp","nocrits","nodmgspread","uncletopia"],"game_id":440,"stv_port":27046,"stv_name":"Uncletopia | Los Angeles | 4 | No Payload | STV","players":null},{"server_id":11,"name":"Uncletopia | London | 1 | All Maps","name_short":"lon-1","host":"lon-1.uk.uncletopia.com","port":27015,"enabled":true,"region":"eu","cc":"gb","latitude":51.509865,"longitude":-0.118092,"reserved":0,"last_update":"0001-01-01T00:00:00Z","name_a2s":"Uncletopia | London | 1 | All Maps","protocol":17,"map":"koth_brazil","folder":"tf","game":"Team Fortress","app_id":440,"player_count":24,"max_players":24,"Bots":0,"server_type":"Dedicated","server_os":"Linux","password":true,"vac":true,"version":"7708610","steam_id":85568392924367362,"keywords":["cp","nocrits","nodmgspread","uncletopia"],"game_id":440,"stv_port":27016,"stv_name":"Uncletopia | London | 1 | All Maps | STV","players":[{"user_id":517,"name":"gnarly business","steam_id":76561198832688767,"connected_time":4293000000000,"state":"active","ping":49},{"user_id":526,"name":"festive jones","steam_id":76561198073975078,"connected_time":3536000000000,"state":"active","ping":88},{"user_id":543,"name":"ahh, eto... nya. :3","steam_id":76561198878171763,"connected_time":1498000000000,"state":"active","ping":49},{"user_id":549,"name":"DDUUCCKK","steam_id":76561198141953050,"connected_time":407000000000,"state":"active","ping":55},{"user_id":541,"name":"Krismas","steam_id":76561198021772843,"connected_time":1595000000000,"state":"active","ping":59},{"user_id":547,"name":"lowdash","steam_id":76561198327827635,"connected_time":493000000000,"state":"active","ping":60},{"user_id":453,"name":"Mango","steam_id":76561198139555709,"connected_time":11895000000000,"state":"active","ping":60},{"user_id":534,"name":"Saddest Wettest Eyes","steam_id":76561198000369215,"connected_time":3207000000000,"state":"active","ping":50},{"user_id":527,"name":"♥ඞlilyඞ♥","steam_id":76561198049840460,"connected_time":3299000000000,"state":"active","ping":50},{"user_id":510,"name":"merry beebo","steam_id":76561199120277007,"connected_time":5714000000000,"state":"active","ping":48},{"user_id":491,"name":"Jingleboob's Elf","steam_id":76561198067204908,"connected_time":7315000000000,"state":"active","ping":59},{"user_id":548,"name":"charlotte","steam_id":76561198075129898,"connected_time":429000000000,"state":"active","ping":44},{"user_id":536,"name":"nudjura","steam_id":76561198281986139,"connected_time":2188000000000,"state":"active","ping":49},{"user_id":538,"name":"most sane santa believer","steam_id":76561198310095220,"connected_time":1811000000000,"state":"active","ping":31},{"user_id":551,"name":"Cabbch","steam_id":76561198045955679,"connected_time":249000000000,"state":"active","ping":54},{"user_id":552,"name":"SOPHIIEE","steam_id":76561198443798981,"connected_time":223000000000,"state":"active","ping":57},{"user_id":529,"name":"chrissymas","steam_id":76561198096547662,"connected_time":3291000000000,"state":"active","ping":55},{"user_id":530,"name":"lepicohohoho","steam_id":76561198797345502,"connected_time":3286000000000,"state":"active","ping":43},{"user_id":511,"name":"Festive Yuletart","steam_id":76561198023918830,"connected_time":5057000000000,"state":"active","ping":45},{"user_id":531,"name":"Zoran Snajper","steam_id":76561198312564061,"connected_time":3266000000000,"state":"active","ping":72},{"user_id":553,"name":"Spaenny","steam_id":76561198035850165,"connected_time":30000000000,"state":"spawning","ping":62},{"user_id":545,"name":"Johnny Amoeba Of Christmas Past","steam_id":76561198079530054,"connected_time":1131000000000,"state":"active","ping":50},{"user_id":554,"name":"Yilow","steam_id":76561198040036642,"connected_time":7000000000,"state":"spawning","ping":84},{"user_id":525,"name":"lvl. 50 honkler","steam_id":76561198061688660,"connected_time":3755000000000,"state":"active","ping":115}]},{"server_id":114,"name":"Uncletopia | London | 2 | All Maps","name_short":"lon-2","host":"lon-1.uk.uncletopia.com","port":27025,"enabled":true,"region":"eu","cc":"gb","latitude":51.509865,"longitude":-0.118092,"reserved":0,"last_update":"0001-01-01T00:00:00Z","name_a2s":"Uncletopia | London | 2 | All Maps","protocol":17,"map":"cp_gorge","folder":"tf","game":"Team Fortress","app_id":440,"player_count":22,"max_players":24,"Bots":0,"server_type":"Dedicated","server_os":"Linux","password":true,"vac":true,"version":"7708610","steam_id":85568392924470941,"keywords":["cp","nocrits","nodmgspread","uncletopia"],"game_id":440,"stv_port":27026,"stv_name":"Uncletopia | London | 2 | All Maps | STV","players":[{"user_id":418,"name":"ghostie","steam_id":76561199097303487,"connected_time":18000000000,"state":"active","ping":48},{"user_id":391,"name":"Cherr1Bomb","steam_id":76561198967510260,"connected_time":1507000000000,"state":"active","ping":48},{"user_id":392,"name":"cropping","steam_id":76561198026586456,"connected_time":1490000000000,"state":"active","ping":60},{"user_id":388,"name":"Skaza","steam_id":76561198010292540,"connected_time":1711000000000,"state":"active","ping":76},{"user_id":393,"name":"tngAlfie","steam_id":76561198001399616,"connected_time":1373000000000,"state":"active","ping":41},{"user_id":394,"name":"IndigoJones","steam_id":76561198050284262,"connected_time":1366000000000,"state":"active","ping":47},{"user_id":397,"name":"ACG_Dubsy","steam_id":76561198797308565,"connected_time":1175000000000,"state":"active","ping":50},{"user_id":398,"name":"pibel","steam_id":76561199139066133,"connected_time":1150000000000,"state":"active","ping":59},{"user_id":399,"name":"Cylinder Mann","steam_id":76561198219128033,"connected_time":1146000000000,"state":"active","ping":45},{"user_id":377,"name":"TommyNom","steam_id":76561197975300526,"connected_time":2945000000000,"state":"active","ping":45},{"user_id":400,"name":"torn","steam_id":76561198223003236,"connected_time":1125000000000,"state":"active","ping":37},{"user_id":415,"name":"Heisenberg","steam_id":76561199060575719,"connected_time":125000000000,"state":"active","ping":144},{"user_id":416,"name":"random_player691","steam_id":76561199209946306,"connected_time":64000000000,"state":"active","ping":59},{"user_id":413,"name":"akakez","steam_id":76561198095432821,"connected_time":372000000000,"state":"active","ping":111},{"user_id":414,"name":"rat performance","steam_id":76561198065854668,"connected_time":272000000000,"state":"active","ping":41},{"user_id":404,"name":"KeeperOfDreams","steam_id":76561198081965556,"connected_time":1038000000000,"state":"active","ping":58},{"user_id":405,"name":"Saken","steam_id":76561198049075295,"connected_time":977000000000,"state":"active","ping":71},{"user_id":417,"name":"PenQuill","steam_id":76561198077915071,"connected_time":42000000000,"state":"active","ping":53},{"user_id":407,"name":"Dolphin2011","steam_id":76561197997323419,"connected_time":957000000000,"state":"active","ping":78},{"user_id":408,"name":"swallowed 10 pennies please hel","steam_id":76561198055816412,"connected_time":944000000000,"state":"active","ping":54},{"user_id":409,"name":"Commando Icecream","steam_id":76561198042763526,"connected_time":926000000000,"state":"active","ping":45},{"user_id":410,"name":"lark","steam_id":76561198091724522,"connected_time":908000000000,"state":"active","ping":58}]},{"server_id":320,"name":"Uncletopia | London | 3 | All Maps","name_short":"lon-3","host":"lon-1.uk.uncletopia.com","port":27035,"enabled":true,"region":"eu","cc":"gb","latitude":51.509865,"longitude":-0.118092,"reserved":0,"last_update":"0001-01-01T00:00:00Z","name_a2s":"Uncletopia | London | 3 | All Maps","protocol":17,"map":"cp_badlands","folder":"tf","game":"Team Fortress","app_id":440,"player_count":0,"max_players":24,"Bots":0,"server_type":"Dedicated","server_os":"Linux","password":true,"vac":true,"version":"7708610","steam_id":85568392924510192,"keywords":["cp","nocrits","nodmgspread","uncletopia"],"game_id":440,"stv_port":27036,"stv_name":"Uncletopia | London | 3 | All Maps | STV","players":null},{"server_id":321,"name":"Uncletopia | London | 4 | All Maps","name_short":"lon-4","host":"lon-1.uk.uncletopia.com","port":27045,"enabled":true,"region":"eu","cc":"gb","latitude":51.509865,"longitude":-0.118092,"reserved":0,"last_update":"0001-01-01T00:00:00Z","name_a2s":"Uncletopia | London | 4 | All Maps","protocol":17,"map":"pl_upward","folder":"tf","game":"Team Fortress","app_id":440,"player_count":23,"max_players":24,"Bots":0,"server_type":"Dedicated","server_os":"Linux","password":true,"vac":true,"version":"7708610","steam_id":85568392924510193,"keywords":["nocrits","nodmgspread","payload","uncletopia"],"game_id":440,"stv_port":27046,"stv_name":"Uncletopia | London | 4 | All Maps | STV","players":[{"user_id":811,"name":"JUST ANOTHER CAT","steam_id":76561199225524540,"connected_time":422000000000,"state":"active","ping":117},{"user_id":638,"name":"Proto-arc","steam_id":76561198012776747,"connected_time":14726000000000,"state":"active","ping":53},{"user_id":803,"name":"Burpman","steam_id":76561198022897937,"connected_time":856000000000,"state":"active","ping":48},{"user_id":789,"name":"Manlet_King","steam_id":76561198047873374,"connected_time":1573000000000,"state":"active","ping":68},{"user_id":804,"name":"No Turkey, Jeremy!?","steam_id":76561198081627014,"connected_time":846000000000,"state":"active","ping":49},{"user_id":786,"name":"|SoW| IgI","steam_id":76561198001541383,"connected_time":1619000000000,"state":"active","ping":55},{"user_id":781,"name":"Clitorina","steam_id":76561198077570815,"connected_time":1764000000000,"state":"active","ping":39},{"user_id":795,"name":"Micheal","steam_id":76561198010791637,"connected_time":1434000000000,"state":"active","ping":57},{"user_id":805,"name":"RIFT","steam_id":76561198991622379,"connected_time":792000000000,"state":"active","ping":35},{"user_id":800,"name":"finger","steam_id":76561198032101031,"connected_time":980000000000,"state":"active","ping":90},{"user_id":813,"name":"The Right Hand Of Vegeta","steam_id":76561198048481082,"connected_time":240000000000,"state":"active","ping":53},{"user_id":783,"name":"Труп Володя","steam_id":76561198035718457,"connected_time":1693000000000,"state":"active","ping":89},{"user_id":814,"name":"loveless","steam_id":76561198142256651,"connected_time":228000000000,"state":"active","ping":84},{"user_id":784,"name":"DoctorPacman","steam_id":76561198228084504,"connected_time":1660000000000,"state":"active","ping":48},{"user_id":747,"name":"RockFrenzy","steam_id":76561198005428050,"connected_time":4801000000000,"state":"active","ping":61},{"user_id":777,"name":"Scavenger","steam_id":76561199067000038,"connected_time":2767000000000,"state":"active","ping":48},{"user_id":807,"name":"ToniGAM3S","steam_id":76561198128605351,"connected_time":720000000000,"state":"active","ping":73},{"user_id":810,"name":"Raven","steam_id":76561198036076305,"connected_time":464000000000,"state":"active","ping":45},{"user_id":802,"name":"R A S M U S","steam_id":76561198279799226,"connected_time":974000000000,"state":"active","ping":50},{"user_id":712,"name":"nedilya","steam_id":76561198039692077,"connected_time":8040000000000,"state":"active","ping":63},{"user_id":792,"name":"Tort","steam_id":76561198329646769,"connected_time":1529000000000,"state":"active","ping":48},{"user_id":812,"name":"MOLITOV","steam_id":76561198392150484,"connected_time":370000000000,"state":"active","ping":84},{"user_id":798,"name":"[PW]aloxuhik","steam_id":76561197997042174,"connected_time":1113000000000,"state":"active","ping":70}]},{"server_id":21,"name":"Uncletopia | London | 5 | All Maps","name_short":"lon-5","host":"lon-1.uk.uncletopia.com","port":27055,"enabled":true,"region":"eu","cc":"gb","latitude":51.509865,"longitude":-0.118092,"reserved":0,"last_update":"0001-01-01T00:00:00Z","name_a2s":"Uncletopia | London | 5 | All Maps","protocol":17,"map":"pl_badwater","folder":"tf","game":"Team Fortress","app_id":440,"player_count":1,"max_players":24,"Bots":0,"server_type":"Dedicated","server_os":"Linux","password":true,"vac":true,"version":"7708610","steam_id":85568392924742829,"keywords":["nocrits","nodmgspread","payload","uncletopia"],"game_id":440,"stv_port":27056,"stv_name":"Uncletopia | London | 5 | All Maps | STV","players":[{"user_id":133,"name":"R8N - Obismal","steam_id":76561198007482714,"connected_time":645000000000,"state":"active","ping":62}]},{"server_id":22,"name":"Uncletopia | London | 6 | All Maps","name_short":"lon-6","host":"lon-1.uk.uncletopia.com","port":27065,"enabled":true,"region":"eu","cc":"gb","latitude":51.509865,"longitude":-0.118092,"reserved":0,"last_update":"0001-01-01T00:00:00Z","name_a2s":"Uncletopia | London | 6 | All Maps","protocol":17,"map":"koth_viaduct","folder":"tf","game":"Team Fortress","app_id":440,"player_count":0,"max_players":24,"Bots":0,"server_type":"Dedicated","server_os":"Linux","password":true,"vac":true,"version":"7708610","steam_id":85568392924742830,"keywords":["cp","nocrits","nodmgspread","uncletopia"],"game_id":440,"stv_port":27066,"stv_name":"Uncletopia | London | 6 | All Maps | STV","players":null},{"server_id":40,"name":"Uncletopia | London | 7 | No Payload","name_short":"lon-7","host":"lon-1.uk.uncletopia.com","port":27075,"enabled":true,"region":"eu","cc":"gb","latitude":51.509865,"longitude":-0.118092,"reserved":0,"last_update":"0001-01-01T00:00:00Z","name_a2s":"Uncletopia | London | 7 | No Payload","protocol":17,"map":"koth_cascade","folder":"tf","game":"Team Fortress","app_id":440,"player_count":0,"max_players":24,"Bots":0,"server_type":"Dedicated","server_os":"Linux","password":true,"vac":true,"version":"7708610","steam_id":85568392924964314,"keywords":["cp","nocrits","nodmgspread","uncletopia"],"game_id":440,"stv_port":27076,"stv_name":"Uncletopia | London | 7 | No Payload | STV","players":null},{"server_id":41,"name":"Uncletopia | London | 8 | Community","name_short":"lon-8","host":"lon-1.uk.uncletopia.com","port":27085,"enabled":true,"region":"eu","cc":"gb","latitude":51.509865,"longitude":-0.118092,"reserved":0,"last_update":"0001-01-01T00:00:00Z","name_a2s":"Uncletopia | London | 8 | Community","protocol":17,"map":"workshop/koth_synthetic_rc6a.ugc1549817316","folder":"tf","game":"Team Fortress","app_id":440,"player_count":0,"max_players":24,"Bots":0,"server_type":"Dedicated","server_os":"Linux","password":true,"vac":true,"version":"7708610","steam_id":85568392924964315,"keywords":["cp","nocrits","nodmgspread","uncletopia"],"game_id":440,"stv_port":27086,"stv_name":"Uncletopia | London | 8 | Community | STV","players":null},{"server_id":300,"name":"Uncletopia | Montréal | 1 | All Maps","name_short":"mtl-1","host":"mtl-1.ca.uncletopia.com","port":27015,"enabled":true,"region":"us-east","cc":"ca","latitude":45.50889,"longitude":-73.56167,"reserved":0,"last_update":"0001-01-01T00:00:00Z","name_a2s":"Uncletopia | Montréal | 1 | All Maps","protocol":17,"map":"cp_altitude","folder":"tf","game":"Team Fortress","app_id":440,"player_count":0,"max_players":24,"Bots":0,"server_type":"Dedicated","server_os":"Linux","password":true,"vac":true,"version":"7708610","steam_id":85568392924500087,"keywords":["cp","nocrits","nodmgspread","uncletopia"],"game_id":440,"stv_port":27016,"stv_name":"Uncletopia | Montréal | 1 | All Maps | STV","players":null},{"server_id":301,"name":"Uncletopia | Montréal | 2 | All Maps","name_short":"mtl-2","host":"mtl-1.ca.uncletopia.com","port":27025,"enabled":true,"region":"us-east","cc":"ca","latitude":45.50889,"longitude":-73.56167,"reserved":0,"last_update":"0001-01-01T00:00:00Z","name_a2s":"Uncletopia | Montréal | 2 | All Maps","protocol":17,"map":"koth_lakeside_final","folder":"tf","game":"Team Fortress","app_id":440,"player_count":0,"max_players":24,"Bots":0,"server_type":"Dedicated","server_os":"Linux","password":true,"vac":true,"version":"7708610","steam_id":85568392924500088,"keywords":["cp","nocrits","nodmgspread","uncletopia"],"game_id":440,"stv_port":27026,"stv_name":"Uncletopia | Montréal | 2 | All Maps | STV","players":null},{"server_id":302,"name":"Uncletopia | Montréal | 3 | All Maps","name_short":"mtl-3","host":"mtl-1.ca.uncletopia.com","port":27035,"enabled":true,"region":"us-east","cc":"ca","latitude":45.50889,"longitude":-73.56167,"reserved":0,"last_update":"0001-01-01T00:00:00Z","name_a2s":"Uncletopia | Montréal | 3 | All Maps","protocol":17,"map":"cp_sunshine","folder":"tf","game":"Team Fortress","app_id":440,"player_count":0,"max_players":24,"Bots":0,"server_type":"Dedicated","server_os":"Linux","password":true,"vac":true,"version":"7708610","steam_id":85568392924500089,"keywords":["cp","nocrits","nodmgspread","uncletopia"],"game_id":440,"stv_port":27036,"stv_name":"Uncletopia | Montréal | 3 | All Maps | STV","players":null},{"server_id":303,"name":"Uncletopia | Montréal | 4 | No Payload","name_short":"mtl-4","host":"mtl-1.ca.uncletopia.com","port":27045,"enabled":true,"region":"us-east","cc":"ca","latitude":45.50889,"longitude":-73.56167,"reserved":0,"last_update":"0001-01-01T00:00:00Z","name_a2s":"Uncletopia | Montréal | 4 | No Payload","protocol":17,"map":"cp_mercenarypark","folder":"tf","game":"Team Fortress","app_id":440,"player_count":3,"max_players":24,"Bots":0,"server_type":"Dedicated","server_os":"Linux","password":true,"vac":true,"version":"7708610","steam_id":85568392924500090,"keywords":["cp","nocrits","nodmgspread","uncletopia"],"game_id":440,"stv_port":27046,"stv_name":"Uncletopia | Montréal | 4 | No Payload | STV","players":[{"user_id":3,"name":"fire guy","steam_id":76561199026721671,"connected_time":3431000000000,"state":"active","ping":93},{"user_id":4,"name":"Scout","steam_id":76561199033381009,"connected_time":3417000000000,"state":"active","ping":88},{"user_id":5,"name":"qheck10","steam_id":76561199431198011,"connected_time":2077000000000,"state":"active","ping":95}]},{"server_id":13,"name":"Uncletopia | New York City | 1 | All Maps","name_short":"nyc-1","host":"nyc-1.us.uncletopia.com","port":27015,"enabled":true,"region":"us-east","cc":"us","latitude":40.73061,"longitude":-73.93524,"reserved":0,"last_update":"0001-01-01T00:00:00Z","name_a2s":"Uncletopia | New York City | 1 | All Maps","protocol":17,"map":"pl_upward","folder":"tf","game":"Team Fortress","app_id":440,"player_count":24,"max_players":24,"Bots":0,"server_type":"Dedicated","server_os":"Linux","password":true,"vac":true,"version":"7708610","steam_id":85568392924469993,"keywords":["nocrits","nodmgspread","payload","uncletopia"],"game_id":440,"stv_port":27016,"stv_name":"Uncletopia | New York City | 1 | All Maps | STV","players":[{"user_id":441,"name":"Neoplix","steam_id":76561199012756422,"connected_time":212000000000,"state":"active","ping":47},{"user_id":440,"name":"Xx_TNTRED_xX","steam_id":76561198357704703,"connected_time":292000000000,"state":"active","ping":98},{"user_id":428,"name":"febfowl","steam_id":76561198023888890,"connected_time":1596000000000,"state":"active","ping":77},{"user_id":398,"name":"Mr. Call You Back","steam_id":76561198025172811,"connected_time":3375000000000,"state":"active","ping":79},{"user_id":445,"name":"Uncle","steam_id":76561197988647705,"connected_time":78000000000,"state":"active","ping":76},{"user_id":406,"name":"Epicus Lusor","steam_id":76561198271981088,"connected_time":2571000000000,"state":"active","ping":70},{"user_id":411,"name":"Calo","steam_id":76561198364414012,"connected_time":2442000000000,"state":"active","ping":58},{"user_id":432,"name":"Dramatic","steam_id":76561199012990268,"connected_time":1001000000000,"state":"active","ping":44},{"user_id":331,"name":"if watermelons were human","steam_id":76561199044624946,"connected_time":7164000000000,"state":"active","ping":43},{"user_id":430,"name":"Radical Centrist","steam_id":76561198071883643,"connected_time":1193000000000,"state":"active","ping":74},{"user_id":412,"name":"Styx","steam_id":76561198104657428,"connected_time":2404000000000,"state":"active","ping":71},{"user_id":446,"name":"Quansen","steam_id":76561198151594550,"connected_time":10000000000,"state":"active","ping":75},{"user_id":358,"name":"e0e0","steam_id":76561198293839750,"connected_time":5790000000000,"state":"active","ping":46},{"user_id":429,"name":"Kritzburgh","steam_id":76561198149466938,"connected_time":1305000000000,"state":"active","ping":52},{"user_id":418,"name":"Snazzi","steam_id":76561198085208276,"connected_time":2284000000000,"state":"active","ping":76},{"user_id":364,"name":"Coop","steam_id":76561198042839356,"connected_time":5298000000000,"state":"active","ping":55},{"user_id":433,"name":"Yunaa","steam_id":76561198244315088,"connected_time":979000000000,"state":"active","ping":53},{"user_id":393,"name":"Your Local Jester","steam_id":76561199120223717,"connected_time":3767000000000,"state":"active","ping":62},{"user_id":346,"name":"Xavibite","steam_id":76561198209380493,"connected_time":6723000000000,"state":"active","ping":44},{"user_id":422,"name":"Santa Claus","steam_id":76561198041437251,"connected_time":2222000000000,"state":"active","ping":55},{"user_id":394,"name":"ZylalyZ","steam_id":76561198050324378,"connected_time":3763000000000,"state":"active","ping":80},{"user_id":431,"name":"aimee","steam_id":76561198834309212,"connected_time":1076000000000,"state":"active","ping":55},{"user_id":444,"name":"tokemaster69","steam_id":76561198083996924,"connected_time":134000000000,"state":"active","ping":79},{"user_id":424,"name":"WizardlyDuck","steam_id":76561199013244646,"connected_time":2197000000000,"state":"active","ping":75}]},{"server_id":14,"name":"Uncletopia | New York City | 2 | All Maps","name_short":"nyc-2","host":"nyc-1.us.uncletopia.com","port":27025,"enabled":true,"region":"us-east","cc":"us","latitude":40.73061,"longitude":-73.93524,"reserved":0,"last_update":"0001-01-01T00:00:00Z","name_a2s":"Uncletopia | New York City | 2 | All Maps","protocol":17,"map":"pl_borneo","folder":"tf","game":"Team Fortress","app_id":440,"player_count":24,"max_players":24,"Bots":0,"server_type":"Dedicated","server_os":"Linux","password":true,"vac":true,"version":"7708610","steam_id":85568392924469994,"keywords":["nocrits","nodmgspread","payload","uncletopia"],"game_id":440,"stv_port":27026,"stv_name":"Uncletopia | New York City | 2 | All Maps | STV","players":[{"user_id":295,"name":"Trout","steam_id":76561199021874173,"connected_time":2958000000000,"state":"active","ping":49},{"user_id":336,"name":"igbygames","steam_id":76561199169224041,"connected_time":861000000000,"state":"active","ping":75},{"user_id":346,"name":"C papi","steam_id":76561198027779564,"connected_time":44000000000,"state":"active","ping":59},{"user_id":337,"name":"火星 | Marsy","steam_id":76561198014979892,"connected_time":847000000000,"state":"active","ping":55},{"user_id":330,"name":"Vladikr1","steam_id":76561198401495362,"connected_time":1431000000000,"state":"active","ping":70},{"user_id":322,"name":"abomination","steam_id":76561198167974713,"connected_time":1779000000000,"state":"active","ping":65},{"user_id":345,"name":"dr peppah chug!","steam_id":76561198068835693,"connected_time":105000000000,"state":"active","ping":80},{"user_id":332,"name":"layabout","steam_id":76561198130892117,"connected_time":1305000000000,"state":"active","ping":54},{"user_id":303,"name":"Plsl","steam_id":76561199029876372,"connected_time":2411000000000,"state":"active","ping":160},{"user_id":338,"name":"BeerPowder","steam_id":76561198058129400,"connected_time":765000000000,"state":"active","ping":36},{"user_id":339,"name":"Kivertsy","steam_id":76561199162661290,"connected_time":725000000000,"state":"active","ping":66},{"user_id":307,"name":"pain. suffering even.","steam_id":76561198411973380,"connected_time":2302000000000,"state":"active","ping":51},{"user_id":296,"name":"stewfat","steam_id":76561198084066964,"connected_time":2764000000000,"state":"active","ping":52},{"user_id":290,"name":"Hank","steam_id":76561198094830509,"connected_time":3399000000000,"state":"active","ping":63},{"user_id":340,"name":"derdds","steam_id":76561198034339940,"connected_time":672000000000,"state":"active","ping":33},{"user_id":294,"name":"Vagineer Gaming","steam_id":76561198276179693,"connected_time":3161000000000,"state":"active","ping":65},{"user_id":282,"name":"--_Cook_--","steam_id":76561198080855748,"connected_time":4245000000000,"state":"active","ping":59},{"user_id":319,"name":"ElectronX","steam_id":76561198116034988,"connected_time":1920000000000,"state":"active","ping":99},{"user_id":341,"name":"Wetman","steam_id":76561197998443325,"connected_time":669000000000,"state":"active","ping":125},{"user_id":342,"name":"Dewgong (real)","steam_id":76561198045999391,"connected_time":632000000000,"state":"active","ping":78},{"user_id":344,"name":"FunnyUsernameWow","steam_id":76561198324177635,"connected_time":205000000000,"state":"active","ping":50},{"user_id":311,"name":"explosives anonymous","steam_id":76561198141862936,"connected_time":2258000000000,"state":"active","ping":94},{"user_id":328,"name":"Casper","steam_id":76561198012055967,"connected_time":1588000000000,"state":"active","ping":75},{"user_id":348,"name":"crabapples","steam_id":76561198075818655,"connected_time":19000000000,"state":"active","ping":73}]},{"server_id":15,"name":"Uncletopia | New York City | 3 | All Maps","name_short":"nyc-3","host":"nyc-1.us.uncletopia.com","port":27035,"enabled":true,"region":"us-east","cc":"us","latitude":40.73061,"longitude":-73.93524,"reserved":0,"last_update":"0001-01-01T00:00:00Z","name_a2s":"Uncletopia | New York City | 3 | All Maps","protocol":17,"map":"cp_altitude","folder":"tf","game":"Team Fortress","app_id":440,"player_count":2,"max_players":24,"Bots":0,"server_type":"Dedicated","server_os":"Linux","password":true,"vac":true,"version":"7708610","steam_id":85568392924742820,"keywords":["cp","nocrits","nodmgspread","uncletopia"],"game_id":440,"stv_port":27036,"stv_name":"Uncletopia | New York City | 3 | All Maps | STV","players":[{"user_id":14,"name":"No cost too great","steam_id":76561198892462283,"connected_time":803000000000,"state":"active","ping":45},{"user_id":15,"name":"finn #savetf2 (he/him)","steam_id":76561198257531708,"connected_time":799000000000,"state":"active","ping":47}]},{"server_id":16,"name":"Uncletopia | New York City | 4 | Community","name_short":"nyc-4","host":"nyc-1.us.uncletopia.com","port":27045,"enabled":true,"region":"us-east","cc":"us","latitude":40.73061,"longitude":-73.93524,"reserved":0,"last_update":"0001-01-01T00:00:00Z","name_a2s":"Uncletopia | New York City | 4 | Community","protocol":17,"map":"workshop/cp_villa_b19.ugc2113052569","folder":"tf","game":"Team Fortress","app_id":440,"player_count":0,"max_players":24,"Bots":0,"server_type":"Dedicated","server_os":"Linux","password":true,"vac":true,"version":"7708610","steam_id":85568392924742821,"keywords":["cp","nocrits","nodmgspread","uncletopia"],"game_id":440,"stv_port":27046,"stv_name":"Uncletopia | New York City | 4 | Community | STV","players":null},{"server_id":142,"name":"Uncletopia | São Paulo | 1 | All Maps","name_short":"sao-1","host":"sao-1.br.uncletopia.com","port":27015,"enabled":true,"region":"sa","cc":"br","latitude":-23.533773,"longitude":-46.62529,"reserved":0,"last_update":"0001-01-01T00:00:00Z","name_a2s":"Uncletopia | São Paulo | 1 | All Maps","protocol":17,"map":"cp_mountainlab","folder":"tf","game":"Team Fortress","app_id":440,"player_count":24,"max_players":24,"Bots":0,"server_type":"Dedicated","server_os":"Linux","password":true,"vac":true,"version":"7708610","steam_id":85568392924469996,"keywords":["cp","nocrits","nodmgspread","uncletopia"],"game_id":440,"stv_port":27016,"stv_name":"Uncletopia | São Paulo | 1 | All Maps | STV","players":[{"user_id":336,"name":"(1)salgado","steam_id":76561198036432218,"connected_time":1064000000000,"state":"active","ping":78},{"user_id":344,"name":"gordhums eskrotums","steam_id":76561198275619464,"connected_time":770000000000,"state":"active","ping":50},{"user_id":345,"name":"Salgado","steam_id":76561198382883824,"connected_time":745000000000,"state":"active","ping":121},{"user_id":298,"name":"Pr通りの伝説","steam_id":76561198976110673,"connected_time":5786000000000,"state":"active","ping":68},{"user_id":338,"name":"MattFright","steam_id":76561198083429635,"connected_time":1018000000000,"state":"active","ping":45},{"user_id":207,"name":"mimimito","steam_id":76561198002565927,"connected_time":13958000000000,"state":"active","ping":35},{"user_id":339,"name":"jumpbot @MOGUIGI @logitech","steam_id":76561198267234526,"connected_time":984000000000,"state":"active","ping":72},{"user_id":334,"name":"Matheus Alves(Youtube)","steam_id":76561198163920834,"connected_time":1913000000000,"state":"active","ping":52},{"user_id":210,"name":"Cherry Cupcake","steam_id":76561198012448942,"connected_time":13865000000000,"state":"active","ping":44},{"user_id":277,"name":"CATS","steam_id":76561198103172108,"connected_time":7687000000000,"state":"active","ping":63},{"user_id":340,"name":"Besteirol Coruscant","steam_id":76561198354898457,"connected_time":897000000000,"state":"active","ping":37},{"user_id":341,"name":"admouse","steam_id":76561198251951784,"connected_time":888000000000,"state":"active","ping":41},{"user_id":342,"name":"ailuros","steam_id":76561198171349369,"connected_time":878000000000,"state":"active","ping":44},{"user_id":343,"name":"Godzi","steam_id":76561198142664110,"connected_time":850000000000,"state":"active","ping":90},{"user_id":346,"name":"matheus_lanches","steam_id":76561199359501901,"connected_time":689000000000,"state":"active","ping":45},{"user_id":347,"name":"Murphy!","steam_id":76561198054881743,"connected_time":689000000000,"state":"active","ping":37},{"user_id":348,"name":"ddddavi","steam_id":76561198004606025,"connected_time":667000000000,"state":"active","ping":55},{"user_id":349,"name":"mvfm™","steam_id":76561198126068677,"connected_time":660000000000,"state":"active","ping":71},{"user_id":335,"name":"terzo","steam_id":76561198044494120,"connected_time":1487000000000,"state":"active","ping":51},{"user_id":313,"name":"burghley","steam_id":76561199148843299,"connected_time":4453000000000,"state":"active","ping":83},{"user_id":350,"name":"Becker23","steam_id":76561198048735075,"connected_time":642000000000,"state":"active","ping":52},{"user_id":325,"name":"Blepy","steam_id":76561198199455773,"connected_time":3171000000000,"state":"active","ping":105},{"user_id":351,"name":"gibo gabo","steam_id":76561198348787458,"connected_time":593000000000,"state":"active","ping":51},{"user_id":307,"name":"padero","steam_id":76561198097431370,"connected_time":4996000000000,"state":"active","ping":77}]},{"server_id":143,"name":"Uncletopia | São Paulo | 2 | All Maps","name_short":"sao-2","host":"sao-2.br.uncletopia.com","port":27015,"enabled":true,"region":"sa","cc":"br","latitude":-23.533773,"longitude":-46.62529,"reserved":0,"last_update":"0001-01-01T00:00:00Z","name_a2s":"Uncletopia | São Paulo | 2 | All Maps","protocol":17,"map":"koth_cascade","folder":"tf","game":"Team Fortress","app_id":440,"player_count":0,"max_players":24,"Bots":0,"server_type":"Dedicated","server_os":"Linux","password":true,"vac":true,"version":"7708610","steam_id":85568392924485349,"keywords":["cp","nocrits","nodmgspread","uncletopia"],"game_id":440,"stv_port":27016,"stv_name":"Uncletopia | São Paulo | 2 | All Maps | STV","players":null},{"server_id":7,"name":"Uncletopia | Seattle | 1 | All Maps","name_short":"sea-1","host":"sea-1.us.uncletopia.com","port":27015,"enabled":true,"region":"us-west","cc":"us","latitude":47.608013,"longitude":-122.33517,"reserved":0,"last_update":"0001-01-01T00:00:00Z","name_a2s":"Uncletopia | Seattle | 1 | All Maps","protocol":17,"map":"pl_pier","folder":"tf","game":"Team Fortress","app_id":440,"player_count":24,"max_players":24,"Bots":0,"server_type":"Dedicated","server_os":"Linux","password":true,"vac":true,"version":"7708610","steam_id":85568392924469997,"keywords":["nocrits","nodmgspread","payload","uncletopia"],"game_id":440,"stv_port":27016,"stv_name":"Uncletopia | Seattle | 1 | All Maps | STV","players":[{"user_id":291,"name":"KingTinkerer","steam_id":76561198226856548,"connected_time":26000000000,"state":"active","ping":58},{"user_id":252,"name":"Infineable","steam_id":76561198358100698,"connected_time":2876000000000,"state":"active","ping":108},{"user_id":286,"name":"грустный","steam_id":76561198274550638,"connected_time":419000000000,"state":"active","ping":106},{"user_id":191,"name":"Dimple","steam_id":76561198980324190,"connected_time":7326000000000,"state":"active","ping":47},{"user_id":243,"name":"burts bee","steam_id":76561198147966219,"connected_time":3362000000000,"state":"active","ping":93},{"user_id":222,"name":"ZEKKER","steam_id":76561197967968980,"connected_time":4616000000000,"state":"active","ping":54},{"user_id":265,"name":"Mr. Nobody","steam_id":76561199048222977,"connected_time":2715000000000,"state":"active","ping":108},{"user_id":198,"name":"oo","steam_id":76561198119626492,"connected_time":6212000000000,"state":"active","ping":85},{"user_id":272,"name":"ASCII | Dr.keinmann","steam_id":76561198360305514,"connected_time":2431000000000,"state":"active","ping":46},{"user_id":236,"name":"Sleuth\u0026\u0026Cypher","steam_id":76561198418288939,"connected_time":3934000000000,"state":"active","ping":62},{"user_id":285,"name":"Frongus","steam_id":76561197979056451,"connected_time":916000000000,"state":"active","ping":45},{"user_id":289,"name":"Liquid Gold","steam_id":76561198347510093,"connected_time":159000000000,"state":"active","ping":62},{"user_id":284,"name":"Skeleton Bones Ghoulie","steam_id":76561199138772722,"connected_time":1305000000000,"state":"active","ping":75},{"user_id":261,"name":"Oberynne","steam_id":76561198081868308,"connected_time":2762000000000,"state":"active","ping":55},{"user_id":270,"name":"ASCII | kymeira","steam_id":76561198340743816,"connected_time":2471000000000,"state":"active","ping":75},{"user_id":263,"name":"Nyx","steam_id":76561198100929724,"connected_time":2745000000000,"state":"active","ping":33},{"user_id":290,"name":"grape","steam_id":76561197993980328,"connected_time":141000000000,"state":"active","ping":54},{"user_id":279,"name":"Batso","steam_id":76561198106589452,"connected_time":1751000000000,"state":"active","ping":79},{"user_id":287,"name":"huiei","steam_id":76561198073763735,"connected_time":358000000000,"state":"active","ping":75},{"user_id":282,"name":"201rudolf","steam_id":76561197999260528,"connected_time":1591000000000,"state":"active","ping":130},{"user_id":280,"name":"moe","steam_id":76561198929586245,"connected_time":1631000000000,"state":"active","ping":82},{"user_id":288,"name":"Wafflemuscle","steam_id":76561198868628982,"connected_time":163000000000,"state":"active","ping":37},{"user_id":246,"name":"sora","steam_id":76561198094256973,"connected_time":2987000000000,"state":"active","ping":74},{"user_id":247,"name":"Cactus™ ♥","steam_id":76561198036441270,"connected_time":2986000000000,"state":"active","ping":116}]},{"server_id":119,"name":"Uncletopia | Seattle | 2 | All Maps","name_short":"sea-2","host":"sea-1.us.uncletopia.com","port":27025,"enabled":true,"region":"us-west","cc":"us","latitude":47.608013,"longitude":-122.33517,"reserved":0,"last_update":"0001-01-01T00:00:00Z","name_a2s":"Uncletopia | Seattle | 2 | All Maps","protocol":17,"map":"koth_suijin","folder":"tf","game":"Team Fortress","app_id":440,"player_count":22,"max_players":24,"Bots":0,"server_type":"Dedicated","server_os":"Linux","password":true,"vac":true,"version":"7708610","steam_id":85568392924469998,"keywords":["cp","nocrits","nodmgspread","uncletopia"],"game_id":440,"stv_port":27026,"stv_name":"Uncletopia | Seattle | 2 | All Maps | STV","players":[{"user_id":169,"name":"Krow Lyngin (she/her)","steam_id":76561198085410622,"connected_time":3350000000000,"state":"active","ping":48},{"user_id":178,"name":"[Bandit]","steam_id":76561197986919852,"connected_time":1878000000000,"state":"active","ping":46},{"user_id":223,"name":"Wohzey","steam_id":76561198364858489,"connected_time":318000000000,"state":"active","ping":84},{"user_id":155,"name":"Bear264","steam_id":76561198038712485,"connected_time":3627000000000,"state":"active","ping":49},{"user_id":217,"name":"Anon","steam_id":76561198109740776,"connected_time":393000000000,"state":"active","ping":88},{"user_id":218,"name":"PROFILE NAME","steam_id":76561199438851854,"connected_time":385000000000,"state":"active","ping":51},{"user_id":197,"name":"bullet man","steam_id":76561198080058079,"connected_time":1195000000000,"state":"active","ping":50},{"user_id":212,"name":"PotatoeChisps","steam_id":76561198142556383,"connected_time":573000000000,"state":"active","ping":118},{"user_id":156,"name":"The Mighty Walrus","steam_id":76561198162613314,"connected_time":3619000000000,"state":"active","ping":42},{"user_id":205,"name":"a chicken","steam_id":76561198313121580,"connected_time":934000000000,"state":"active","ping":76},{"user_id":189,"name":"cielael","steam_id":76561198043971956,"connected_time":1388000000000,"state":"active","ping":81},{"user_id":207,"name":"Savant","steam_id":76561197969881916,"connected_time":755000000000,"state":"active","ping":47},{"user_id":147,"name":"paypur -rng","steam_id":76561198214370515,"connected_time":4030000000000,"state":"active","ping":110},{"user_id":208,"name":"xenolith","steam_id":76561198041496496,"connected_time":739000000000,"state":"active","ping":106},{"user_id":116,"name":"Danger Noodle","steam_id":76561198130841014,"connected_time":6041000000000,"state":"active","ping":59},{"user_id":186,"name":"Oomitch","steam_id":76561198071702759,"connected_time":1597000000000,"state":"active","ping":47},{"user_id":209,"name":"zeltwood","steam_id":76561198982593544,"connected_time":693000000000,"state":"active","ping":72},{"user_id":216,"name":"Shark Goblin","steam_id":76561198170426663,"connected_time":430000000000,"state":"active","ping":59},{"user_id":221,"name":"Spunk Mikunkel","steam_id":76561198116765135,"connected_time":326000000000,"state":"active","ping":41},{"user_id":193,"name":"ｘＸＲＡＥＰＸｘ","steam_id":76561198156292715,"connected_time":1309000000000,"state":"active","ping":74},{"user_id":191,"name":"Nibotshooter","steam_id":76561199284825579,"connected_time":1380000000000,"state":"active","ping":83},{"user_id":211,"name":"Ramsheed","steam_id":76561198434094412,"connected_time":617000000000,"state":"active","ping":48}]},{"server_id":17,"name":"Uncletopia | San Francisco | 1 | All Maps","name_short":"sfo-1","host":"sfo-1.us.uncletopia.com","port":27015,"enabled":true,"region":"us-west","cc":"us","latitude":37.77397,"longitude":-122.4313,"reserved":0,"last_update":"0001-01-01T00:00:00Z","name_a2s":"Uncletopia | San Francisco | 1 | All Maps","protocol":17,"map":"koth_cascade","folder":"tf","game":"Team Fortress","app_id":440,"player_count":0,"max_players":24,"Bots":0,"server_type":"Dedicated","server_os":"Linux","password":true,"vac":true,"version":"7708610","steam_id":85568392924469999,"keywords":["cp","nocrits","nodmgspread","uncletopia"],"game_id":440,"stv_port":27016,"stv_name":"Uncletopia | San Francisco | 1 | All Maps | STV","players":null},{"server_id":18,"name":"Uncletopia | San Francisco | 2 | All Maps","name_short":"sfo-2","host":"sfo-1.us.uncletopia.com","port":27025,"enabled":true,"region":"us-west","cc":"us","latitude":37.77397,"longitude":-122.4313,"reserved":0,"last_update":"0001-01-01T00:00:00Z","name_a2s":"Uncletopia | San Francisco | 2 | All Maps","protocol":17,"map":"koth_cascade","folder":"tf","game":"Team Fortress","app_id":440,"player_count":0,"max_players":24,"Bots":0,"server_type":"Dedicated","server_os":"Linux","password":true,"vac":true,"version":"7708610","steam_id":85568392924470000,"keywords":["cp","nocrits","nodmgspread","uncletopia"],"game_id":440,"stv_port":0,"stv_name":"","players":null},{"server_id":19,"name":"Uncletopia | San Francisco | 3 | No Payload","name_short":"sfo-3","host":"sfo-1.us.uncletopia.com","port":27035,"enabled":true,"region":"us-west","cc":"us","latitude":37.77397,"longitude":-122.4313,"reserved":0,"last_update":"0001-01-01T00:00:00Z","name_a2s":"Uncletopia | San Francisco | 3 | No Payload","protocol":17,"map":"cp_5gorge","folder":"tf","game":"Team Fortress","app_id":440,"player_count":0,"max_players":24,"Bots":0,"server_type":"Dedicated","server_os":"Linux","password":true,"vac":true,"version":"7708610","steam_id":85568392924742824,"keywords":["cp","nocrits","nodmgspread","uncletopia"],"game_id":440,"stv_port":27036,"stv_name":"Uncletopia | San Francisco | 3 | No Payload | STV","players":null},{"server_id":20,"name":"Uncletopia | San Francisco | 4 | Community","name_short":"sfo-4","host":"sfo-1.us.uncletopia.com","port":27045,"enabled":true,"region":"us-west","cc":"us","latitude":37.77397,"longitude":-122.4313,"reserved":0,"last_update":"0001-01-01T00:00:00Z","name_a2s":"Uncletopia | San Francisco | 4 | Community","protocol":17,"map":"pl_barnblitz","folder":"tf","game":"Team Fortress","app_id":440,"player_count":0,"max_players":24,"Bots":0,"server_type":"Dedicated","server_os":"Linux","password":true,"vac":true,"version":"7708610","steam_id":85568392924742826,"keywords":["nocrits","nodmgspread","payload","uncletopia"],"game_id":440,"stv_port":0,"stv_name":"","players":null},{"server_id":141,"name":"Uncletopia | Sydney | 1 | All Maps","name_short":"syd-1","host":"syd-1.au.uncletopia.com","port":27015,"enabled":true,"region":"au","cc":"au","latitude":-33.865143,"longitude":151.2099,"reserved":0,"last_update":"0001-01-01T00:00:00Z","name_a2s":"Uncletopia | Sydney | 1 | All Maps","protocol":17,"map":"pl_snowycoast","folder":"tf","game":"Team Fortress","app_id":440,"player_count":21,"max_players":24,"Bots":0,"server_type":"Dedicated","server_os":"Linux","password":true,"vac":true,"version":"7708610","steam_id":85568392924470001,"keywords":["nocrits","nodmgspread","payload","uncletopia"],"game_id":440,"stv_port":27016,"stv_name":"Uncletopia | Sydney | 1 | All Maps | STV","players":[{"user_id":24,"name":"Marzell","steam_id":76561198151276153,"connected_time":2700000000000,"state":"active","ping":80},{"user_id":54,"name":"mr c Snifma","steam_id":76561198128695488,"connected_time":611000000000,"state":"active","ping":60},{"user_id":53,"name":"Jacobmeister","steam_id":76561198071652927,"connected_time":740000000000,"state":"active","ping":76},{"user_id":38,"name":"nojnosbod11","steam_id":76561199176012151,"connected_time":1386000000000,"state":"active","ping":64},{"user_id":61,"name":"Deezes nutticus","steam_id":76561198855041563,"connected_time":11000000000,"state":"spawning","ping":72},{"user_id":59,"name":"Tom Fulp RReal","steam_id":76561198263204763,"connected_time":135000000000,"state":"active","ping":48},{"user_id":60,"name":"Ben","steam_id":76561198008829355,"connected_time":129000000000,"state":"active","ping":46},{"user_id":37,"name":"5lick0","steam_id":76561198016119944,"connected_time":1399000000000,"state":"active","ping":55},{"user_id":48,"name":"R3V","steam_id":76561198807634069,"connected_time":1102000000000,"state":"active","ping":47},{"user_id":39,"name":"TigerThorn","steam_id":76561198930701873,"connected_time":1379000000000,"state":"active","ping":57},{"user_id":31,"name":"Evojr","steam_id":76561198211512664,"connected_time":2171000000000,"state":"active","ping":38},{"user_id":32,"name":"A Burnt Cheeseburger","steam_id":76561198044178223,"connected_time":2153000000000,"state":"active","ping":61},{"user_id":55,"name":"heather","steam_id":76561198145136439,"connected_time":542000000000,"state":"active","ping":50},{"user_id":34,"name":"GTSW1FT","steam_id":76561198315785054,"connected_time":2046000000000,"state":"active","ping":75},{"user_id":35,"name":"Sprytt","steam_id":76561198153838550,"connected_time":1935000000000,"state":"active","ping":37},{"user_id":56,"name":"Inkyboy","steam_id":76561199098990856,"connected_time":435000000000,"state":"active","ping":64},{"user_id":44,"name":"kcajnosbod","steam_id":76561198400431574,"connected_time":1185000000000,"state":"active","ping":59},{"user_id":45,"name":"qeuvl","steam_id":76561198170727659,"connected_time":1178000000000,"state":"active","ping":70},{"user_id":46,"name":"BigMuscleBill","steam_id":76561198824970218,"connected_time":1159000000000,"state":"active","ping":81},{"user_id":57,"name":"Da_Pigeon","steam_id":76561199442623633,"connected_time":286000000000,"state":"active","ping":65},{"user_id":50,"name":"SBS | uber_gamer92","steam_id":76561198029766209,"connected_time":1000000000000,"state":"active","ping":50}]},{"server_id":123,"name":"Uncletopia | Sydney | 2 | All Maps","name_short":"syd-2","host":"syd-1.au.uncletopia.com","port":27025,"enabled":true,"region":"au","cc":"au","latitude":-33.865143,"longitude":151.2099,"reserved":0,"last_update":"0001-01-01T00:00:00Z","name_a2s":"Uncletopia | Sydney | 2 | All Maps","protocol":17,"map":"pl_snowycoast","folder":"tf","game":"Team Fortress","app_id":440,"player_count":0,"max_players":24,"Bots":0,"server_type":"Dedicated","server_os":"Linux","password":true,"vac":true,"version":"7708610","steam_id":85568392924470002,"keywords":["nocrits","nodmgspread","payload","uncletopia"],"game_id":440,"stv_port":0,"stv_name":"","players":null},{"server_id":395,"name":"Uncletopia | Sydney | 3 | All Maps","name_short":"syd-3","host":"syd-1.au.uncletopia.com","port":27035,"enabled":true,"region":"au","cc":"au","latitude":-33.865143,"longitude":151.2099,"reserved":0,"last_update":"0001-01-01T00:00:00Z","name_a2s":"Uncletopia | Sydney | 3 | All Maps","protocol":17,"map":"cp_process_final","folder":"tf","game":"Team Fortress","app_id":440,"player_count":0,"max_players":24,"Bots":0,"server_type":"Dedicated","server_os":"Linux","password":true,"vac":true,"version":"7708610","steam_id":85568392925194467,"keywords":["cp","nocrits","nodmgspread","uncletopia"],"game_id":440,"stv_port":27036,"stv_name":"Uncletopia | Sydney | 3 | All Maps | STV","players":null},{"server_id":396,"name":"Uncletopia | Sydney | 4 | All Maps","name_short":"syd-4","host":"syd-1.au.uncletopia.com","port":27045,"enabled":true,"region":"au","cc":"au","latitude":-33.865143,"longitude":151.2099,"reserved":0,"last_update":"0001-01-01T00:00:00Z","name_a2s":"Uncletopia | Sydney | 4 | All Maps","protocol":17,"map":"koth_lakeside_final","folder":"tf","game":"Team Fortress","app_id":440,"player_count":0,"max_players":24,"Bots":0,"server_type":"Dedicated","server_os":"Linux","password":true,"vac":true,"version":"7708610","steam_id":85568392925397958,"keywords":["cp","nocrits","nodmgspread","uncletopia"],"game_id":440,"stv_port":0,"stv_name":"","players":null},{"server_id":58,"name":"Uncletopia | Sydney | 5 | No Payload","name_short":"syd-5","host":"syd-1.au.uncletopia.com","port":27055,"enabled":true,"region":"au","cc":"au","latitude":-33.865143,"longitude":151.2099,"reserved":0,"last_update":"0001-01-01T00:00:00Z","name_a2s":"Uncletopia | Sydney | 5 | No Payload","protocol":17,"map":"koth_cascade","folder":"tf","game":"Team Fortress","app_id":440,"player_count":0,"max_players":24,"Bots":0,"server_type":"Dedicated","server_os":"Linux","password":true,"vac":true,"version":"7708610","steam_id":85568392925397959,"keywords":["cp","nocrits","nodmgspread","uncletopia"],"game_id":440,"stv_port":0,"stv_name":"","players":null},{"server_id":59,"name":"Uncletopia | Sydney | 6 | Community","name_short":"syd-6","host":"syd-1.au.uncletopia.com","port":27065,"enabled":true,"region":"au","cc":"au","latitude":-33.865143,"longitude":151.2099,"reserved":0,"last_update":"0001-01-01T00:00:00Z","name_a2s":"Uncletopia | Sydney | 6 | Community","protocol":17,"map":"pl_borneo","folder":"tf","game":"Team Fortress","app_id":440,"player_count":0,"max_players":24,"Bots":0,"server_type":"Dedicated","server_os":"Linux","password":true,"vac":true,"version":"7708610","steam_id":85568392925397960,"keywords":["nocrits","nodmgspread","payload","uncletopia"],"game_id":440,"stv_port":0,"stv_name":"","players":null},{"server_id":49,"name":"Uncletopia | Warsaw | 1 | All Maps","name_short":"waw-1","host":"waw-1.pl.uncletopia.com","port":27015,"enabled":true,"region":"eu","cc":"pl","latitude":52.2297,"longitude":21.017532,"reserved":0,"last_update":"0001-01-01T00:00:00Z","name_a2s":"Uncletopia | Warsaw | 1 | All Maps","protocol":17,"map":"cp_process_final","folder":"tf","game":"Team Fortress","app_id":440,"player_count":0,"max_players":24,"Bots":0,"server_type":"Dedicated","server_os":"Linux","password":true,"vac":true,"version":"7708610","steam_id":85568392925397850,"keywords":["cp","nocrits","nodmgspread","uncletopia"],"game_id":440,"stv_port":27016,"stv_name":"Uncletopia | Warsaw | 1 | All Maps | STV","players":null},{"server_id":50,"name":"Uncletopia | Warsaw | 2 | All Maps","name_short":"waw-2","host":"waw-1.pl.uncletopia.com","port":27025,"enabled":true,"region":"eu","cc":"pl","latitude":52.2297,"longitude":21.017532,"reserved":0,"last_update":"0001-01-01T00:00:00Z","name_a2s":"Uncletopia | Warsaw | 2 | All Maps","protocol":17,"map":"koth_highpass","folder":"tf","game":"Team Fortress","app_id":440,"player_count":0,"max_players":24,"Bots":0,"server_type":"Dedicated","server_os":"Linux","password":true,"vac":true,"version":"7708610","steam_id":85568392925397851,"keywords":["cp","nocrits","nodmgspread","uncletopia"],"game_id":440,"stv_port":27026,"stv_name":"Uncletopia | Warsaw | 2 | All Maps | STV","players":null},{"server_id":51,"name":"Uncletopia | Warsaw | 3 | All Maps","name_short":"waw-3","host":"waw-1.pl.uncletopia.com","port":27035,"enabled":true,"region":"eu","cc":"pl","latitude":52.2297,"longitude":21.017532,"reserved":0,"last_update":"0001-01-01T00:00:00Z","name_a2s":"Uncletopia | Warsaw | 3 | All Maps","protocol":17,"map":"koth_cascade","folder":"tf","game":"Team Fortress","app_id":440,"player_count":0,"max_players":24,"Bots":0,"server_type":"Dedicated","server_os":"Linux","password":true,"vac":true,"version":"7708610","steam_id":85568392925397852,"keywords":["cp","nocrits","nodmgspread","uncletopia"],"game_id":440,"stv_port":0,"stv_name":"","players":null},{"server_id":52,"name":"Uncletopia | Warsaw | 4 | All Maps","name_short":"waw-4","host":"waw-1.pl.uncletopia.com","port":27045,"enabled":true,"region":"eu","cc":"pl","latitude":52.2297,"longitude":21.017532,"reserved":0,"last_update":"0001-01-01T00:00:00Z","name_a2s":"Uncletopia | Warsaw | 4 | All Maps","protocol":17,"map":"cp_process_final","folder":"tf","game":"Team Fortress","app_id":440,"player_count":0,"max_players":24,"Bots":0,"server_type":"Dedicated","server_os":"Linux","password":true,"vac":true,"version":"7708610","steam_id":85568392925397853,"keywords":["cp","nocrits","nodmgspread","uncletopia"],"game_id":440,"stv_port":27046,"stv_name":"Uncletopia | Warsaw | 4 | All Maps | STV","players":null},{"server_id":53,"name":"Uncletopia | Warsaw | 5 | No Payload","name_short":"waw-5","host":"waw-1.pl.uncletopia.com","port":27055,"enabled":true,"region":"eu","cc":"pl","latitude":52.2297,"longitude":21.017532,"reserved":0,"last_update":"0001-01-01T00:00:00Z","name_a2s":"Uncletopia | Warsaw | 5 | No Payload","protocol":17,"map":"cp_steel","folder":"tf","game":"Team Fortress","app_id":440,"player_count":0,"max_players":24,"Bots":0,"server_type":"Dedicated","server_os":"Linux","password":true,"vac":true,"version":"7708610","steam_id":85568392925397854,"keywords":["cp","nocrits","nodmgspread","uncletopia"],"game_id":440,"stv_port":27056,"stv_name":"Uncletopia | Warsaw | 5 | No Payload | STV","players":null},{"server_id":54,"name":"Uncletopia | Warsaw | 6 | Community","name_short":"waw-6","host":"waw-1.pl.uncletopia.com","port":27065,"enabled":true,"region":"eu","cc":"pl","latitude":52.2297,"longitude":21.017532,"reserved":0,"last_update":"0001-01-01T00:00:00Z","name_a2s":"Uncletopia | Warsaw | 6 | Community","protocol":17,"map":"workshop/pl_vigil_rc9.ugc1266210012","folder":"tf","game":"Team Fortress","app_id":440,"player_count":0,"max_players":24,"Bots":0,"server_type":"Dedicated","server_os":"Linux","password":true,"vac":true,"version":"7708610","steam_id":85568392925397856,"keywords":["nocrits","nodmgspread","payload","uncletopia"],"game_id":440,"stv_port":27066,"stv_name":"Uncletopia | Warsaw | 6 | Community | STV","players":null}]}