{"status":true,"message":"","result":[{"server_id":9,"name":"Uncletopia | Atlanta | 1 | All Maps","name_short":"atl-1","host":"atl-1.us.uncletopia.com","port":27015,"enabled":true,"region":"us-east","cc":"us","latitude":33.753746,"longitude":-84.38633,"reserved":0,"last_update":"0001-01-01T00:00:00Z","name_a2s":"Uncletopia | Atlanta | 1 | All Maps","protocol":17,"map":"pl_borneo","folder":"tf","game":"Team Fortress","app_id":440,"player_count":24,"max_players":24,"Bots":0,"server_type":"Dedicated","server_os":"Linux","password":true,"vac":true,"version":"7961495","steam_id":85568392924469982,"keywords":["nocrits","nodmgspread","payload","uncletopia"],"game_id":440,"stv_port":27016,"stv_name":"Uncletopia | Atlanta | 1 | All Maps | STV","players":[{"user_id":538,"name":"lynt","steam_id":76561198988333976,"connected_time":2627000000000,"state":"active","ping":44},{"user_id":467,"name":"Hydroxianchaos","steam_id":76561198043786828,"connected_time":4341000000000,"state":"active","ping":69},{"user_id":544,"name":"Chernov","steam_id":76561198014463424,"connected_time":1241000000000,"state":"active","ping":55},{"user_id":541,"name":"shinon","steam_id":76561198373626848,"connected_time":2047000000000,"state":"active","ping":60},{"user_id":462,"name":"johnny wang","steam_id":76561198969143876,"connected_time":4944000000000,"state":"active","ping":70},{"user_id":563,"name":"Vee (very cool)","steam_id":76561198330432889,"connected_time":230000000000,"state":"active","ping":62},{"user_id":562,"name":"lil hog","steam_id":76561199230929836,"connected_time":385000000000,"state":"active","ping":82},{"user_id":559,"name":"OGwafflesss","steam_id":76561198212767081,"connected_time":760000000000,"state":"active","ping":76},{"user_id":558,"name":"Leeous","steam_id":76561198081083248,"connected_time":763000000000,"state":"active","ping":72},{"user_id":540,"name":"zacmattsmith","steam_id":76561199027704149,"connected_time":2289000000000,"state":"active","ping":72},{"user_id":534,"name":"Heathcliff","steam_id":76561198044288534,"connected_time":3058000000000,"state":"active","ping":79},{"user_id":545,"name":"Albino Jellyfish","steam_id":76561198208561097,"connected_time":1209000000000,"state":"active","ping":56},{"user_id":546,"name":"mangokip","steam_id":76561198156471516,"connected_time":1205000000000,"state":"active","ping":48},{"user_id":547,"name":"Erchius (she/her)","steam_id":76561198256892300,"connected_time":1155000000000,"state":"active","ping":58},{"user_id":463,"name":"ATL1 | Uganda (Steel enjoyer)","steam_id":76561199121276474,"connected_time":4589000000000,"state":"active","ping":78},{"user_id":549,"name":"Decolour","steam_id":76561199045608372,"connected_time":1131000000000,"state":"active","ping":84},{"user_id":482,"name":"Pango","steam_id":76561198069811545,"connected_time":3733000000000,"state":"active","ping":56},{"user_id":552,"name":"help","steam_id":76561199056338917,"connected_time":983000000000,"state":"active","ping":93},{"user_id":452,"name":"DuckMann","steam_id":76561198197058638,"connected_time":5931000000000,"state":"active","ping":51},{"user_id":531,"name":"sansa musa","steam_id":76561198163723555,"connected_time":3158000000000,"state":"active","ping":67},{"user_id":542,"name":"marguerite","steam_id":76561198170873495,"connected_time":1247000000000,"state":"active","ping":56},{"user_id":490,"name":"Lily (she/her)","steam_id":76561198355495948,"connected_time":3657000000000,"state":"active","ping":55},{"user_id":472,"name":"pootispogger69","steam_id":76561198249206656,"connected_time":4077000000000,"state":"active","ping":87},{"user_id":561,"name":"row","steam_id":76561198040946044,"connected_time":735000000000,"state":"active","ping":88}]},{"server_id":104,"name":"Uncletopia | Atlanta | 2 | All Maps","name_short":"atl-2","host":"atl-1.us.uncletopia.com","port":27025,"enabled":true,"region":"us-east","cc":"us","latitude":33.753746,"longitude":-84.38633,"reserved":0,"last_update":"0001-01-01T00:00:00Z","name_a2s":"Uncletopia | Atlanta | 2 | All Maps","protocol":17,"map":"cp_gorge","folder":"tf","game":"Team Fortress","app_id":440,"player_count":24,"max_players":24,"Bots":0,"server_type":"Dedicated","server_os":"Linux","password":true,"vac":true,"version":"7961495","steam_id":85568392924469983,"keywords":["cp","nocrits","nodmgspread","uncletopia"],"game_id":440,"stv_port":27026,"stv_name":"Uncletopia | Atlanta | 2 | All Maps | STV","players":[{"user_id":83,"name":"Mr. Squirt","steam_id":76561198174755679,"connected_time":6235000000000,"state":"active","ping":55},{"user_id":157,"name":"gooshpapepe","steam_id":76561198159069482,"connected_time":1847000000000,"state":"active","ping":55},{"user_id":233,"name":"ChoccyMiltank","steam_id":76561198981474284,"connected_time":251000000000,"state":"active","ping":98},{"user_id":150,"name":"TF2C | fac","steam_id":76561198009818412,"connected_time":2477000000000,"state":"active","ping":72},{"user_id":82,"name":"el vengador de la tienda","steam_id":76561199081928341,"connected_time":6282000000000,"state":"active","ping":77},{"user_id":123,"name":"Professor K","steam_id":76561198255775561,"connected_time":3829000000000,"state":"active","ping":120},{"user_id":165,"name":"SPLOODGE","steam_id":76561198820288864,"connected_time":1346000000000,"state":"active","ping":63},{"user_id":214,"name":"duBstep","steam_id":76561198353928965,"connected_time":603000000000,"state":"active","ping":61},{"user_id":207,"name":"Yes!","steam_id":76561198084208477,"connected_time":684000000000,"state":"active","ping":69},{"user_id":104,"name":"JasonYELL","steam_id":76561198054943788,"connected_time":5034000000000,"state":"active","ping":80},{"user_id":155,"name":"WinterKnight Dresden","steam_id":76561198135672513,"connected_time":1899000000000,"state":"active","ping":74},{"user_id":236,"name":"Rae","steam_id":76561198171461153,"connected_time":212000000000,"state":"active","ping":56},{"user_id":239,"name":"TGD","steam_id":76561198197582594,"connected_time":159000000000,"state":"active","ping":75},{"user_id":234,"name":"FMM","steam_id":76561198017539604,"connected_time":246000000000,"state":"active","ping":52},{"user_id":199,"name":"Dragon_Spiced","steam_id":76561198097517957,"connected_time":770000000000,"state":"active","ping":62},{"user_id":182,"name":"Prsm","steam_id":76561198053344995,"connected_time":1003000000000,"state":"active","ping":55},{"user_id":225,"name":"Mask","steam_id":76561198877649728,"connected_time":369000000000,"state":"active","ping":135},{"user_id":237,"name":"Shrebbie","steam_id":76561198875230824,"connected_time":207000000000,"state":"active","ping":93},{"user_id":197,"name":"Nog","steam_id":76561198078576303,"connected_time":784000000000,"state":"active","ping":74},{"user_id":232,"name":"Worminator","steam_id":76561198051951919,"connected_time":278000000000,"state":"active","ping":82},{"user_id":112,"name":"Octomal800","steam_id":76561199453595616,"connected_time":4475000000000,"state":"active","ping":81},{"user_id":238,"name":"Cuppy","steam_id":76561198125931754,"connected_time":165000000000,"state":"active","ping":86},{"user_id":171,"name":"LaloSalamanca","steam_id":76561199040341109,"connected_time":1249000000000,"state":"active","ping":112},{"user_id":88,"name":"CheetoSmoke7","steam_id":76561198095217273,"connected_time":5907000000000,"state":"active","ping":62}]},{"server_id":400,"name":"Uncletopia | Atlanta | 3 | Stopwatch","name_short":"atl-3","host":"atl-1.us.uncletopia.com","port":27035,"enabled":true,"region":"us-east","cc":"us","latitude":33.753746,"longitude":-84.38633,"reserved":0,"last_update":"0001-01-01T00:00:00Z","name_a2s":"Uncletopia | Atlanta | 3 | Stopwatch","protocol":17,"map":"koth_highpass","folder":"tf","game":"Team Fortress","app_id":440,"player_count":0,"max_players":24,"Bots":0,"server_type":"Dedicated","server_os":"Linux","password":true,"vac":true,"version":"7961495","steam_id":85568392924515187,"keywords":["cp","nocrits","nodmgspread","uncletopia"],"game_id":440,"stv_port":27036,"stv_name":"Uncletopia | Atlanta | 3 | Stopwatch | STV","players":null},{"server_id":401,"name":"Uncletopia | Atlanta | 4 | Community","name_short":"atl-4","host":"atl-1.us.uncletopia.com","port":27045,"enabled":true,"region":"us-east","cc":"us","latitude":33.753746,"longitude":-84.38633,"reserved":0,"last_update":"0001-01-01T00:00:00Z","name_a2s":"Uncletopia | Atlanta | 4 | Community","protocol":17,"map":"workshop/koth_bagel_rc6.ugc2514036946","folder":"tf","game":"Team Fortress","app_id":440,"player_count":0,"max_players":24,"Bots":0,"server_type":"Dedicated","server_os":"Linux","password":true,"vac":true,"version":"7961495","steam_id":85568392924515188,"keywords":["cp","nocrits","nodmgspread","uncletopia"],"game_id":440,"stv_port":27046,"stv_name":"Uncletopia | Atlanta | 4 | Community | STV","players":null},{"server_id":2,"name":"Uncletopia | Chicago | 1 | All Maps","name_short":"chi-1","host":"chi-1.us.uncletopia.com","port":27015,"enabled":true,"region":"us-central","cc":"us","latitude":41.881832,"longitude":-87.62318,"reserved":0,"last_update":"0001-01-01T00:00:00Z","name_a2s":"Uncletopia | Chicago | 1 | All Maps","protocol":17,"map":"pl_snowycoast","folder":"tf","game":"Team Fortress","app_id":440,"player_count":24,"max_players":24,"Bots":0,"server_type":"Dedicated","server_os":"Linux","password":true,"vac":true,"version":"7961495","steam_id":85568392924469984,"keywords":["nocrits","nodmgspread","payload","uncletopia"],"game_id":440,"stv_port":27016,"stv_name":"Uncletopia | Chicago | 1 | All Maps | STV","players":[{"user_id":325,"name":"Tom","steam_id":76561198070630154,"connected_time":2193000000000,"state":"active","ping":88},{"user_id":335,"name":"Oh, it's Zach","steam_id":76561198103309672,"connected_time":1354000000000,"state":"active","ping":51},{"user_id":304,"name":"Trepidpotato","steam_id":76561199230865007,"connected_time":4265000000000,"state":"active","ping":43},{"user_id":342,"name":"triangleman","steam_id":76561198972733542,"connected_time":458000000000,"state":"active","ping":50},{"user_id":305,"name":"Traceback","steam_id":76561197993212340,"connected_time":4208000000000,"state":"active","ping":73},{"user_id":322,"name":"jordanfer111","steam_id":76561198044993097,"connected_time":2265000000000,"state":"active","ping":100},{"user_id":323,"name":"the_wolfman111","steam_id":76561198880434275,"connected_time":2253000000000,"state":"active","ping":52},{"user_id":341,"name":"Captain","steam_id":76561198003428369,"connected_time":1194000000000,"state":"active","ping":92},{"user_id":343,"name":"DanielGarka","steam_id":76561198302972656,"connected_time":444000000000,"state":"active","ping":156},{"user_id":348,"name":"PickleHater13","steam_id":76561198259380127,"connected_time":134000000000,"state":"active","ping":45},{"user_id":320,"name":"FattSucc","steam_id":76561198009500503,"connected_time":2391000000000,"state":"active","ping":88},{"user_id":290,"name":"✧.*Remzy✧.*","steam_id":76561199239412094,"connected_time":6021000000000,"state":"active","ping":148},{"user_id":329,"name":"Ajaxica","steam_id":76561198220666152,"connected_time":2094000000000,"state":"active","ping":69},{"user_id":307,"name":"SammyD","steam_id":76561198057216118,"connected_time":4049000000000,"state":"active","ping":60},{"user_id":340,"name":"eyes on the prize","steam_id":76561198184076165,"connected_time":1288000000000,"state":"active","ping":148},{"user_id":315,"name":"Griffin","steam_id":76561198159339442,"connected_time":2938000000000,"state":"active","ping":62},{"user_id":311,"name":"a rabbit with a keyboard","steam_id":76561198129051488,"connected_time":3619000000000,"state":"active","ping":60},{"user_id":284,"name":"Nate","steam_id":76561198044469419,"connected_time":6453000000000,"state":"active","ping":80},{"user_id":331,"name":"Belvidere","steam_id":76561198121336953,"connected_time":2072000000000,"state":"active","ping":78},{"user_id":321,"name":"chok","steam_id":76561198242016100,"connected_time":2355000000000,"state":"active","ping":90},{"user_id":319,"name":"bird enthusiast","steam_id":76561198087661713,"connected_time":2475000000000,"state":"active","ping":53},{"user_id":249,"name":"Lia_Rein","steam_id":76561198151569597,"connected_time":8920000000000,"state":"active","ping":134},{"user_id":345,"name":"✧.*i kiss boys✧.*","steam_id":76561198870687570,"connected_time":156000000000,"state":"active","ping":75},{"user_id":347,"name":"jb","steam_id":76561198038607085,"connected_time":147000000000,"state":"active","ping":75}]},{"server_id":106,"name":"Uncletopia | Chicago | 2 | All Maps","name_short":"chi-2","host":"chi-1.us.uncletopia.com","port":27025,"enabled":true,"region":"us-central","cc":"us","latitude":41.881832,"longitude":-87.62318,"reserved":0,"last_update":"0001-01-01T00:00:00Z","name_a2s":"Uncletopia | Chicago | 2 | All Maps","protocol":17,"map":"pl_frontier_final","folder":"tf","game":"Team Fortress","app_id":440,"player_count":24,"max_players":24,"Bots":0,"server_type":"Dedicated","server_os":"Linux","password":true,"vac":true,"version":"7961495","steam_id":85568392924469985,"keywords":["nocrits","nodmgspread","payload","uncletopia"],"game_id":440,"stv_port":27026,"stv_name":"Uncletopia | Chicago | 2 | All Maps | STV","players":[{"user_id":385,"name":"Pixel","steam_id":76561198129243055,"connected_time":1925000000000,"state":"active","ping":62},{"user_id":389,"name":"IDK_LIZORD","steam_id":76561199244260952,"connected_time":1535000000000,"state":"active","ping":83},{"user_id":386,"name":"subdromeda","steam_id":76561198884351860,"connected_time":1884000000000,"state":"active","ping":70},{"user_id":420,"name":"Input Angle","steam_id":76561198042398878,"connected_time":13000000000,"state":"spawning","ping":89},{"user_id":391,"name":"Asthmatic boi","steam_id":76561198197796766,"connected_time":1510000000000,"state":"active","ping":59},{"user_id":414,"name":"The Fiend","steam_id":76561199229771413,"connected_time":319000000000,"state":"active","ping":68},{"user_id":356,"name":"punk cock","steam_id":76561198418182764,"connected_time":4275000000000,"state":"active","ping":71},{"user_id":421,"name":"can anteaters love?","steam_id":76561198034955422,"connected_time":11000000000,"state":"active","ping":172},{"user_id":363,"name":"olivia","steam_id":76561198288130849,"connected_time":3673000000000,"state":"active","ping":76},{"user_id":401,"name":"mousejumper","steam_id":76561198220181353,"connected_time":1300000000000,"state":"active","ping":77},{"user_id":412,"name":"Poelis","steam_id":76561198089582674,"connected_time":414000000000,"state":"active","ping":87},{"user_id":392,"name":"marshmellowguy","steam_id":76561199008710694,"connected_time":1496000000000,"state":"active","ping":108},{"user_id":418,"name":"rf","steam_id":76561198195359229,"connected_time":206000000000,"state":"active","ping":84},{"user_id":417,"name":"nascarfan1966@hotmail.com","steam_id":76561198046972750,"connected_time":228000000000,"state":"active","ping":106},{"user_id":407,"name":"Vore is Love","steam_id":76561198980062131,"connected_time":854000000000,"state":"active","ping":73},{"user_id":419,"name":"the amish","steam_id":76561198327703300,"connected_time":114000000000,"state":"active","ping":64},{"user_id":416,"name":"self sufficient kitten ♥","steam_id":76561197960592612,"connected_time":235000000000,"state":"active","ping":100},{"user_id":384,"name":"❤ Ashleyyy ❤","steam_id":76561198056428303,"connected_time":2346000000000,"state":"active","ping":105},{"user_id":394,"name":"ohhhl0rd","steam_id":76561199066793578,"connected_time":1487000000000,"state":"active","ping":66},{"user_id":382,"name":"Uwu Micster","steam_id":76561198843890616,"connected_time":2557000000000,"state":"active","ping":81},{"user_id":413,"name":"TheoLynwood","steam_id":76561198079596878,"connected_time":371000000000,"state":"active","ping":68},{"user_id":325,"name":"hearthian","steam_id":76561198113235260,"connected_time":5850000000000,"state":"active","ping":95},{"user_id":398,"name":"Dr.Pig","steam_id":76561198069496754,"connected_time":1421000000000,"state":"active","ping":80},{"user_id":415,"name":"gooselover42069","steam_id":76561198059562839,"connected_time":295000000000,"state":"active","ping":57}]},{"server_id":402,"name":"Uncletopia | Chicago | 3 | All Maps","name_short":"chi-3","host":"chi-1.us.uncletopia.com","port":27035,"enabled":true,"region":"us-central","cc":"us","latitude":41.881832,"longitude":-87.62318,"reserved":0,"last_update":"0001-01-01T00:00:00Z","name_a2s":"Uncletopia | Chicago | 3 | All Maps","protocol":17,"map":"cp_process_final","folder":"tf","game":"Team Fortress","app_id":440,"player_count":24,"max_players":24,"Bots":0,"server_type":"Dedicated","server_os":"Linux","password":true,"vac":true,"version":"7961495","steam_id":85568392924515191,"keywords":["cp","nocrits","nodmgspread","uncletopia"],"game_id":440,"stv_port":27036,"stv_name":"Uncletopia | Chicago | 3 | All Maps | STV","players":[{"user_id":27,"name":"bane","steam_id":76561198196769297,"connected_time":7218000000000,"state":"active","ping":58},{"user_id":158,"name":"gen","steam_id":76561199118569153,"connected_time":421000000000,"state":"active","ping":56},{"user_id":24,"name":"Wild_Rumpus","steam_id":76561198066393719,"connected_time":7869000000000,"state":"active","ping":51},{"user_id":156,"name":"Walla","steam_id":76561198103379757,"connected_time":478000000000,"state":"active","ping":51},{"user_id":154,"name":"Wiggee","steam_id":76561197972792989,"connected_time":759000000000,"state":"active","ping":66},{"user_id":161,"name":"PewPew","steam_id":76561198011299099,"connected_time":218000000000,"state":"active","ping":74},{"user_id":163,"name":"VX Ghost","steam_id":76561198072541436,"connected_time":154000000000,"state":"active","ping":48},{"user_id":125,"name":"not gotten","steam_id":76561198033033884,"connected_time":2457000000000,"state":"active","ping":71},{"user_id":122,"name":"Lulee","steam_id":76561198044410549,"connected_time":2636000000000,"state":"active","ping":79},{"user_id":160,"name":"IlikeChowMien","steam_id":76561199466131782,"connected_time":269000000000,"state":"active","ping":94},{"user_id":150,"name":"joethygar","steam_id":76561198040559918,"connected_time":790000000000,"state":"active","ping":106},{"user_id":155,"name":"Renota","steam_id":76561198058224488,"connected_time":757000000000,"state":"active","ping":60},{"user_id":136,"name":"THEY DONT KNOWWWWWW","steam_id":76561198062991744,"connected_time":1716000000000,"state":"active","ping":61},{"user_id":149,"name":"deimos","steam_id":76561198148357768,"connected_time":907000000000,"state":"active","ping":75},{"user_id":159,"name":"Acro","steam_id":76561198092451804,"connected_time":356000000000,"state":"active","ping":81},{"user_id":146,"name":"sonikro","steam_id":76561197989428692,"connected_time":1140000000000,"state":"active","ping":58},{"user_id":138,"name":"Dick to ball ratio","steam_id":76561198072205512,"connected_time":1669000000000,"state":"active","ping":76},{"user_id":54,"name":"Lennu","steam_id":76561198060730154,"connected_time":4302000000000,"state":"active","ping":74},{"user_id":140,"name":"guac","steam_id":76561198025481672,"connected_time":1647000000000,"state":"active","ping":72},{"user_id":113,"name":"duck","steam_id":76561198040671133,"connected_time":2831000000000,"state":"active","ping":88},{"user_id":121,"name":"Faerun_F","steam_id":76561198443906094,"connected_time":2781000000000,"state":"active","ping":90},{"user_id":141,"name":"Vlad","steam_id":76561198150626637,"connected_time":1631000000000,"state":"active","ping":75},{"user_id":144,"name":"b","steam_id":76561198156336213,"connected_time":1346000000000,"state":"active","ping":86},{"user_id":102,"name":"Shaby_Frost","steam_id":76561198401334563,"connected_time":3059000000000,"state":"active","ping":64}]},{"server_id":403,"name":"Uncletopia | Chicago | 4 | All Maps","name_short":"chi-4","host":"chi-1.us.uncletopia.com","port":27045,"enabled":true,"region":"us-central","cc":"us","latitude":41.881832,"longitude":-87.62318,"reserved":0,"last_update":"0001-01-01T00:00:00Z","name_a2s":"Uncletopia | Chicago | 4 | All Maps","protocol":17,"map":"pl_swiftwater_final1","folder":"tf","game":"Team Fortress","app_id":440,"player_count":24,"max_players":24,"Bots":0,"server_type":"Dedicated","server_os":"Linux","password":true,"vac":true,"version":"7961495","steam_id":85568392924515193,"keywords":["nocrits","nodmgspread","payload","uncletopia"],"game_id":440,"stv_port":27046,"stv_name":"Uncletopia | Chicago | 4 | All Maps | STV","players":[{"user_id":497,"name":"kernstjean97","steam_id":76561199216661045,"connected_time":2828000000000,"state":"active","ping":89},{"user_id":513,"name":"Dr Gregory House, MD","steam_id":76561198986281248,"connected_time":1624000000000,"state":"active","ping":73},{"user_id":524,"name":"Mikael_01","steam_id":76561199080253129,"connected_time":641000000000,"state":"active","ping":182},{"user_id":496,"name":"brains","steam_id":76561198197388678,"connected_time":2909000000000,"state":"active","ping":46},{"user_id":464,"name":"Drewgs","steam_id":76561198012531221,"connected_time":4431000000000,"state":"active","ping":63},{"user_id":485,"name":"CrushforceX","steam_id":76561198367985723,"connected_time":3474000000000,"state":"active","ping":78},{"user_id":521,"name":"Jaflampe","steam_id":76561198175827647,"connected_time":1177000000000,"state":"active","ping":76},{"user_id":514,"name":"Butters495","steam_id":76561197998689042,"connected_time":1582000000000,"state":"active","ping":77},{"user_id":523,"name":"♦♣Quadric♥♠","steam_id":76561198061003853,"connected_time":688000000000,"state":"active","ping":66},{"user_id":519,"name":"Gargathor the Entity Catcher","steam_id":76561198189429665,"connected_time":1391000000000,"state":"active","ping":68},{"user_id":528,"name":"Shrim","steam_id":76561198068455981,"connected_time":154000000000,"state":"active","ping":73},{"user_id":459,"name":"FutabaUchiha","steam_id":76561199436467630,"connected_time":4813000000000,"state":"active","ping":79},{"user_id":489,"name":"PhD Flopper","steam_id":76561198961051809,"connected_time":3257000000000,"state":"active","ping":105},{"user_id":522,"name":"Daruke","steam_id":76561198300686262,"connected_time":780000000000,"state":"active","ping":51},{"user_id":422,"name":"..!","steam_id":76561198882483441,"connected_time":7612000000000,"state":"active","ping":81},{"user_id":517,"name":"Power","steam_id":76561197978508626,"connected_time":1484000000000,"state":"active","ping":77},{"user_id":498,"name":"reis","steam_id":76561199232952016,"connected_time":2755000000000,"state":"active","ping":185},{"user_id":518,"name":"oh hi im a huge splooging guy","steam_id":76561198074678273,"connected_time":1460000000000,"state":"active","ping":53},{"user_id":482,"name":"lethargy incarnate","steam_id":76561198072095399,"connected_time":3654000000000,"state":"active","ping":47},{"user_id":509,"name":"Mr. Squiggles","steam_id":76561197963304088,"connected_time":2123000000000,"state":"active","ping":67},{"user_id":526,"name":"YunKoツ","steam_id":76561199107366261,"connected_time":637000000000,"state":"active","ping":84},{"user_id":515,"name":"zheon","steam_id":76561198318622241,"connected_time":1581000000000,"state":"active","ping":61},{"user_id":495,"name":"chaffy","steam_id":76561198021754567,"connected_time":3075000000000,"state":"active","ping":60},{"user_id":527,"name":"Dom","steam_id":76561198156431338,"connected_time":630000000000,"state":"active","ping":47}]},{"server_id":36,"name":"Uncletopia | Chicago | 5 | All Maps","name_short":"chi-5","host":"chi-2.us.uncletopia.com","port":27015,"enabled":true,"region":"us-central","cc":"us","latitude":41.881832,"longitude":-87.62318,"reserved":0,"last_update":"0001-01-01T00:00:00Z","name_a2s":"Uncletopia | Chicago | 5 | All Maps","protocol":17,"map":"koth_viaduct","folder":"tf","game":"Team Fortress","app_id":440,"player_count":24,"max_players":24,"Bots":0,"server_type":"Dedicated","server_os":"Linux","password":true,"vac":true,"version":"7961495","steam_id":85568392924866362,"keywords":["cp","nocrits","nodmgspread","uncletopia"],"game_id":440,"stv_port":27016,"stv_name":"Uncletopia | Chicago | 5 | All Maps | STV","players":[{"user_id":207,"name":"mopsyNYAA","steam_id":76561199044347663,"connected_time":2672000000000,"state":"active","ping":47},{"user_id":247,"name":"Grandma Fleece","steam_id":76561199013752329,"connected_time":696000000000,"state":"active","ping":81},{"user_id":221,"name":"El Bondin","steam_id":76561198820792434,"connected_time":1868000000000,"state":"active","ping":101},{"user_id":236,"name":"Skudge Sister","steam_id":76561198041766766,"connected_time":1440000000000,"state":"active","ping":81},{"user_id":217,"name":"sagekiss","steam_id":76561198038831240,"connected_time":1936000000000,"state":"active","ping":105},{"user_id":250,"name":"The Communist Daughter","steam_id":76561198202458288,"connected_time":152000000000,"state":"active","ping":106},{"user_id":244,"name":"menonamed","steam_id":76561198199564382,"connected_time":1115000000000,"state":"active","ping":69},{"user_id":239,"name":"Maverick","steam_id":76561199160592961,"connected_time":1278000000000,"state":"active","ping":65},{"user_id":251,"name":"snakeeatr","steam_id":76561198147652684,"connected_time":142000000000,"state":"active","ping":102},{"user_id":222,"name":"On The Bright Side...","steam_id":76561198168785883,"connected_time":1859000000000,"state":"active","ping":46},{"user_id":245,"name":"CherryPieRed2023","steam_id":76561198998007496,"connected_time":1084000000000,"state":"active","ping":113},{"user_id":249,"name":"BLANK3T They/He Femboy on THC","steam_id":76561198028875624,"connected_time":418000000000,"state":"active","ping":101},{"user_id":229,"name":"Overduecat","steam_id":76561198092452824,"connected_time":1603000000000,"state":"active","ping":72},{"user_id":226,"name":"Space Captainface","steam_id":76561197995103493,"connected_time":1793000000000,"state":"active","ping":68},{"user_id":188,"name":"chaos","steam_id":76561198055462404,"connected_time":3625000000000,"state":"active","ping":88},{"user_id":211,"name":"mak","steam_id":76561198071535971,"connected_time":2491000000000,"state":"active","ping":105},{"user_id":238,"name":"tim-","steam_id":76561199119101315,"connected_time":1326000000000,"state":"active","ping":75},{"user_id":200,"name":"Flea103","steam_id":76561198085863864,"connected_time":2776000000000,"state":"active","ping":84},{"user_id":242,"name":"oni","steam_id":76561198082038479,"connected_time":1224000000000,"state":"active","ping":108},{"user_id":230,"name":"Reverie","steam_id":76561198987005784,"connected_time":1587000000000,"state":"active","ping":63},{"user_id":246,"name":"shnowshner","steam_id":76561198066450438,"connected_time":806000000000,"state":"active","ping":77},{"user_id":248,"name":"TURN IT INTO LOVE","steam_id":76561198072179483,"connected_time":652000000000,"state":"active","ping":93},{"user_id":206,"name":"Hater","steam_id":76561198124685704,"connected_time":2701000000000,"state":"active","ping":91},{"user_id":187,"name":"popfulmail","steam_id":76561198865971290,"connected_time":3739000000000,"state":"active","ping":84}]},{"server_id":37,"name":"Uncletopia | Chicago | 6 | All Maps","name_short":"chi-6","host":"chi-2.us.uncletopia.com","port":27025,"enabled":true,"region":"us-central","cc":"us","latitude":41.881832,"longitude":-87.62318,"reserved":0,"last_update":"0001-01-01T00:00:00Z","name_a2s":"Uncletopia | Chicago | 6 | All Maps","protocol":17,"map":"pl_thundermountain","folder":"tf","game":"Team Fortress","app_id":440,"player_count":23,"max_players":24,"Bots":0,"server_type":"Dedicated","server_os":"Linux","password":true,"vac":true,"version":"7961495","steam_id":85568392924866363,"keywords":["nocrits","nodmgspread","payload","uncletopia"],"game_id":440,"stv_port":27026,"stv_name":"Uncletopia | Chicago | 6 | All Maps | STV","players":[{"user_id":636,"name":"14 INCH TGIRL SCHLONG","steam_id":76561198122059018,"connected_time":1790000000000,"state":"active","ping":54},{"user_id":640,"name":"4Real","steam_id":76561199051709367,"connected_time":1575000000000,"state":"active","ping":75},{"user_id":601,"name":"starfungus","steam_id":76561198158312789,"connected_time":3413000000000,"state":"active","ping":80},{"user_id":666,"name":"coc","steam_id":76561198079668789,"connected_time":99000000000,"state":"active","ping":76},{"user_id":657,"name":"Navysealdemoman","steam_id":76561199048625312,"connected_time":560000000000,"state":"active","ping":72},{"user_id":633,"name":"slammin","steam_id":76561197965022076,"connected_time":2001000000000,"state":"active","ping":59},{"user_id":659,"name":"astrobob911","steam_id":76561199099110654,"connected_time":543000000000,"state":"active","ping":77},{"user_id":665,"name":"Smoky Haus","steam_id":76561199040586542,"connected_time":127000000000,"state":"active","ping":69},{"user_id":654,"name":"r0biN","steam_id":76561198097861434,"connected_time":701000000000,"state":"active","ping":116},{"user_id":581,"name":"Shtupid","steam_id":76561198842691655,"connected_time":4601000000000,"state":"active","ping":99},{"user_id":643,"name":"Blaze","steam_id":76561198043797702,"connected_time":1333000000000,"state":"active","ping":70},{"user_id":650,"name":"Dr Smeggman","steam_id":76561197966614845,"connected_time":833000000000,"state":"active","ping":137},{"user_id":661,"name":"edgebug b-roll","steam_id":76561198043558709,"connected_time":365000000000,"state":"active","ping":91},{"user_id":648,"name":"yuuki","steam_id":76561199179253649,"connected_time":895000000000,"state":"active","ping":79},{"user_id":660,"name":"BoomShroom","steam_id":76561199055085058,"connected_time":541000000000,"state":"active","ping":110},{"user_id":618,"name":"Sneed-poster","steam_id":76561198206198937,"connected_time":2744000000000,"state":"active","ping":80},{"user_id":630,"name":"sometimes your made of stupid \u003c","steam_id":76561198849924462,"connected_time":2113000000000,"state":"active","ping":81},{"user_id":647,"name":"brotein","steam_id":76561198053743602,"connected_time":918000000000,"state":"active","ping":58},{"user_id":591,"name":"mister slippery","steam_id":76561198057076267,"connected_time":4324000000000,"state":"active","ping":85},{"user_id":662,"name":"Dewey Obababa-ooo Mamma-say Mam","steam_id":76561198142756572,"connected_time":316000000000,"state":"active","ping":60},{"user_id":611,"name":"bitchmade","steam_id":76561198194078077,"connected_time":3120000000000,"state":"active","ping":53},{"user_id":612,"name":"shadow wizard money gang","steam_id":76561198067487745,"connected_time":3091000000000,"state":"active","ping":59},{"user_id":614,"name":"papa","steam_id":76561198109308860,"connected_time":3016000000000,"state":"active","ping":60}]},{"server_id":38,"name":"Uncletopia | Chicago | 7 | Stopwatch","name_short":"chi-7","host":"chi-2.us.uncletopia.com","port":27035,"enabled":true,"region":"us-central","cc":"us","latitude":41.881832,"longitude":-87.62318,"reserved":0,"last_update":"0001-01-01T00:00:00Z","name_a2s":"Uncletopia | Chicago | 7 | Stopwatch","protocol":17,"map":"pl_upward","folder":"tf","game":"Team Fortress","app_id":440,"player_count":3,"max_players":24,"Bots":0,"server_type":"Dedicated","server_os":"Linux","password":true,"vac":true,"version":"7961495","steam_id":85568392924866364,"keywords":["nocrits","nodmgspread","payload","uncletopia"],"game_id":440,"stv_port":27036,"stv_name":"Uncletopia | Chicago | 7 | Stopwatch | STV","players":[{"user_id":23,"name":"Pentium4Guy","steam_id":76561198303077613,"connected_time":606000000000,"state":"active","ping":49},{"user_id":24,"name":"BulbousJupiter7","steam_id":76561198163167652,"connected_time":594000000000,"state":"active","ping":94},{"user_id":27,"name":"MrPeanutBetter","steam_id":76561199149697526,"connected_time":167000000000,"state":"active","ping":96}]},{"server_id":39,"name":"Uncletopia | Chicago | 8 | Community","name_short":"chi-8","host":"chi-2.us.uncletopia.com","port":27045,"enabled":true,"region":"us-central","cc":"us","latitude":41.881832,"longitude":-87.62318,"reserved":0,"last_update":"0001-01-01T00:00:00Z","name_a2s":"Uncletopia | Chicago | 8 | Community","protocol":17,"map":"workshop/cp_caldera_rc3.ugc2834196889","folder":"tf","game":"Team Fortress","app_id":440,"player_count":0,"max_players":24,"Bots":0,"server_type":"Dedicated","server_os":"Linux","password":true,"vac":true,"version":"7961495","steam_id":85568392924866365,"keywords":["cp","nocrits","nodmgspread","uncletopia"],"game_id":440,"stv_port":27046,"stv_name":"Uncletopia | Chicago | 8 | Community | STV","players":null},{"server_id":8,"name":"Uncletopia | Dallas | 1 | All Maps","name_short":"dal-1","host":"dal-1.us.uncletopia.com","port":27015,"enabled":true,"region":"us-central","cc":"us","latitude":32.779167,"longitude":-96.80889,"reserved":0,"last_update":"0001-01-01T00:00:00Z","name_a2s":"Uncletopia | Dallas | 1 | All Maps","protocol":17,"map":"pl_badwater","folder":"tf","game":"Team Fortress","app_id":440,"player_count":24,"max_players":24,"Bots":0,"server_type":"Dedicated","server_os":"Linux","password":true,"vac":true,"version":"7961495","steam_id":85568392924469986,"keywords":["nocrits","nodmgspread","payload","uncletopia"],"game_id":440,"stv_port":27016,"stv_name":"Uncletopia | Dallas | 1 | All Maps | STV","players":[{"user_id":281,"name":"Kc","steam_id":76561198210734407,"connected_time":630000000000,"state":"active","ping":73},{"user_id":288,"name":"Wounded","steam_id":76561199440954924,"connected_time":171000000000,"state":"active","ping":110},{"user_id":271,"name":"elcarlos1010","steam_id":76561198201986832,"connected_time":1860000000000,"state":"active","ping":46},{"user_id":254,"name":"flu walrus","steam_id":76561198207940136,"connected_time":2260000000000,"state":"active","ping":59},{"user_id":277,"name":"TheAilingSword","steam_id":76561198250350844,"connected_time":1443000000000,"state":"active","ping":47},{"user_id":287,"name":"gooners never say die","steam_id":76561198045670632,"connected_time":455000000000,"state":"active","ping":76},{"user_id":111,"name":"Perry (The White Fang Grunt)","steam_id":76561198870926636,"connected_time":12179000000000,"state":"active","ping":88},{"user_id":249,"name":"what're ya buyin","steam_id":76561199277633460,"connected_time":2528000000000,"state":"active","ping":59},{"user_id":282,"name":"DMM","steam_id":76561198065426171,"connected_time":624000000000,"state":"active","ping":59},{"user_id":283,"name":"Thunder","steam_id":76561198097721532,"connected_time":590000000000,"state":"active","ping":80},{"user_id":276,"name":"Drinkable Milk","steam_id":76561199418706430,"connected_time":1651000000000,"state":"active","ping":53},{"user_id":278,"name":"Neptune˖⁺｡˚⋆˙♥","steam_id":76561199054203198,"connected_time":1223000000000,"state":"active","ping":80},{"user_id":251,"name":"zenwork","steam_id":76561199094467477,"connected_time":2438000000000,"state":"active","ping":89},{"user_id":289,"name":"CHIKN","steam_id":76561198277792665,"connected_time":163000000000,"state":"active","ping":84},{"user_id":284,"name":"paws outstretched","steam_id":76561197987115648,"connected_time":589000000000,"state":"active","ping":64},{"user_id":242,"name":"Srg-Waffle","steam_id":76561198204555116,"connected_time":2983000000000,"state":"active","ping":97},{"user_id":286,"name":"cruky","steam_id":76561199097185897,"connected_time":548000000000,"state":"active","ping":88},{"user_id":285,"name":"BIG HOG","steam_id":76561198079923652,"connected_time":581000000000,"state":"active","ping":60},{"user_id":257,"name":"cardsfish","steam_id":76561199195316687,"connected_time":2218000000000,"state":"active","ping":47},{"user_id":262,"name":"Imrgrim","steam_id":76561198135866481,"connected_time":2000000000000,"state":"active","ping":72},{"user_id":258,"name":"SHADOW","steam_id":76561198207768148,"connected_time":2205000000000,"state":"active","ping":97},{"user_id":259,"name":"Mogwarrior41","steam_id":76561199388063817,"connected_time":2179000000000,"state":"active","ping":67},{"user_id":260,"name":"Derblitz","steam_id":76561198040953176,"connected_time":2177000000000,"state":"active","ping":88},{"user_id":275,"name":"Critical","steam_id":76561198123744966,"connected_time":1832000000000,"state":"active","ping":87}]},{"server_id":108,"name":"Uncletopia | Dallas | 2 | All Maps","name_short":"dal-2","host":"dal-1.us.uncletopia.com","port":27025,"enabled":true,"region":"us-central","cc":"us","latitude":32.779167,"longitude":-96.80889,"reserved":0,"last_update":"0001-01-01T00:00:00Z","name_a2s":"Uncletopia | Dallas | 2 | All Maps","protocol":17,"map":"pl_upward","folder":"tf","game":"Team Fortress","app_id":440,"player_count":24,"max_players":24,"Bots":0,"server_type":"Dedicated","server_os":"Linux","password":true,"vac":true,"version":"7961495","steam_id":85568392924469988,"keywords":["nocrits","nodmgspread","payload","uncletopia"],"game_id":440,"stv_port":27026,"stv_name":"Uncletopia | Dallas | 2 | All Maps | STV","players":[{"user_id":349,"name":"trucksforducks","steam_id":76561198122970888,"connected_time":2108000000000,"state":"active","ping":44},{"user_id":389,"name":"ุ","steam_id":76561198170624701,"connected_time":441000000000,"state":"active","ping":84},{"user_id":379,"name":"explosives anonymous","steam_id":76561198141862936,"connected_time":521000000000,"state":"active","ping":79},{"user_id":373,"name":"Cottoneyes","steam_id":76561197994730627,"connected_time":989000000000,"state":"active","ping":64},{"user_id":361,"name":"LargerThanAverageDragon","steam_id":76561198152036300,"connected_time":1721000000000,"state":"active","ping":44},{"user_id":395,"name":"kason","steam_id":76561198282279788,"connected_time":271000000000,"state":"active","ping":46},{"user_id":360,"name":"kratomSnorter.1quarter","steam_id":76561198946987511,"connected_time":1723000000000,"state":"active","ping":87},{"user_id":381,"name":"robert","steam_id":76561198063313115,"connected_time":506000000000,"state":"active","ping":90},{"user_id":393,"name":"Sanic","steam_id":76561198083124962,"connected_time":360000000000,"state":"active","ping":73},{"user_id":369,"name":"Provocator","steam_id":76561197961830410,"connected_time":1323000000000,"state":"active","ping":83},{"user_id":391,"name":"Pile of Spinach","steam_id":76561198043068841,"connected_time":410000000000,"state":"active","ping":88},{"user_id":382,"name":"PyroPlayer","steam_id":76561199494166539,"connected_time":487000000000,"state":"active","ping":54},{"user_id":370,"name":"Major_Pippy","steam_id":76561198004482878,"connected_time":1257000000000,"state":"active","ping":102},{"user_id":383,"name":"Mr.Pan","steam_id":76561198069030613,"connected_time":483000000000,"state":"active","ping":65},{"user_id":384,"name":"The Wind Fucker Lives","steam_id":76561198275362375,"connected_time":471000000000,"state":"active","ping":90},{"user_id":394,"name":"$2.99 grease cups","steam_id":76561198077272494,"connected_time":286000000000,"state":"active","ping":67},{"user_id":396,"name":"Chief Inspector Detector","steam_id":76561198027171160,"connected_time":221000000000,"state":"active","ping":60},{"user_id":371,"name":"bansheerubber","steam_id":76561198042009362,"connected_time":1251000000000,"state":"active","ping":75},{"user_id":397,"name":"SaxyThePhone","steam_id":76561199439167761,"connected_time":144000000000,"state":"active","ping":78},{"user_id":387,"name":"dog","steam_id":76561198263873491,"connected_time":449000000000,"state":"active","ping":61},{"user_id":365,"name":"My Tummy Hurts :(","steam_id":76561198168976029,"connected_time":1647000000000,"state":"active","ping":105},{"user_id":345,"name":"The Benefactor","steam_id":76561198307247913,"connected_time":3444000000000,"state":"active","ping":85},{"user_id":388,"name":"transfem atsuko kagari","steam_id":76561198217402847,"connected_time":446000000000,"state":"active","ping":96},{"user_id":390,"name":"turnip","steam_id":76561197999375941,"connected_time":425000000000,"state":"active","ping":54}]},{"server_id":404,"name":"Uncletopia | Dallas | 3 | All Maps","name_short":"dal-3","host":"dal-1.us.uncletopia.com","port":27035,"enabled":true,"region":"us-central","cc":"us","latitude":32.779167,"longitude":-96.80889,"reserved":0,"last_update":"0001-01-01T00:00:00Z","name_a2s":"Uncletopia | Dallas | 3 | All Maps","protocol":17,"map":"koth_suijin","folder":"tf","game":"Team Fortress","app_id":440,"player_count":24,"max_players":24,"Bots":0,"server_type":"Dedicated","server_os":"Linux","password":true,"vac":true,"version":"7961495","steam_id":85568392924515219,"keywords":["cp","nocrits","nodmgspread","uncletopia"],"game_id":440,"stv_port":27036,"stv_name":"Uncletopia | Dallas | 3 | All Maps | STV","players":[{"user_id":233,"name":"Kuwait Grips","steam_id":76561198292689973,"connected_time":574000000000,"state":"active","ping":74},{"user_id":207,"name":"YoteDab McFapDab.jpg","steam_id":76561197984870380,"connected_time":1994000000000,"state":"active","ping":111},{"user_id":217,"name":"dantheman","steam_id":76561199486390813,"connected_time":1378000000000,"state":"active","ping":73},{"user_id":218,"name":"Timmy The Tyrant","steam_id":76561199156409732,"connected_time":1135000000000,"state":"active","ping":40},{"user_id":219,"name":"PENIS","steam_id":76561198151531499,"connected_time":1116000000000,"state":"active","ping":68},{"user_id":224,"name":"Prinz","steam_id":76561198175476071,"connected_time":780000000000,"state":"active","ping":79},{"user_id":222,"name":"mrpineapple070","steam_id":76561199088278757,"connected_time":949000000000,"state":"active","ping":60},{"user_id":228,"name":"Whyamidoingthisaaaa","steam_id":76561199168837342,"connected_time":673000000000,"state":"active","ping":81},{"user_id":246,"name":"Cosmolian","steam_id":76561199178160545,"connected_time":323000000000,"state":"active","ping":91},{"user_id":247,"name":"Command Grabbed","steam_id":76561199035402139,"connected_time":30000000000,"state":"active","ping":104},{"user_id":237,"name":"bunga_grunga","steam_id":76561199127325952,"connected_time":508000000000,"state":"active","ping":103},{"user_id":240,"name":"bakkhertz","steam_id":76561198046745579,"connected_time":498000000000,"state":"active","ping":107},{"user_id":234,"name":"Letch","steam_id":76561198354078799,"connected_time":569000000000,"state":"active","ping":96},{"user_id":232,"name":"seplis","steam_id":76561199509831509,"connected_time":603000000000,"state":"active","ping":111},{"user_id":243,"name":"jon pickle water","steam_id":76561199036212135,"connected_time":439000000000,"state":"active","ping":114},{"user_id":205,"name":"Jugguz","steam_id":76561197991942641,"connected_time":2105000000000,"state":"active","ping":62},{"user_id":209,"name":"silicasandwhich","steam_id":76561198178809821,"connected_time":1842000000000,"state":"active","ping":92},{"user_id":236,"name":"Mat-Shades","steam_id":76561198013998031,"connected_time":545000000000,"state":"active","ping":91},{"user_id":238,"name":"comet sooicidy","steam_id":76561198025173479,"connected_time":506000000000,"state":"active","ping":96},{"user_id":239,"name":"BlueSpy","steam_id":76561198134707089,"connected_time":502000000000,"state":"active","ping":96},{"user_id":245,"name":"LerN","steam_id":76561198083463877,"connected_time":370000000000,"state":"active","ping":76},{"user_id":171,"name":"lucky","steam_id":76561198323426623,"connected_time":4703000000000,"state":"active","ping":94},{"user_id":242,"name":"Glue Sniffer","steam_id":76561198289642788,"connected_time":489000000000,"state":"active","ping":110},{"user_id":244,"name":"Hogman","steam_id":76561198088935064,"connected_time":420000000000,"state":"active","ping":107}]},{"server_id":405,"name":"Uncletopia | Dallas | 4 | Community","name_short":"dal-4","host":"dal-1.us.uncletopia.com","port":27045,"enabled":true,"region":"us-central","cc":"us","latitude":32.779167,"longitude":-96.80889,"reserved":0,"last_update":"0001-01-01T00:00:00Z","name_a2s":"Uncletopia | Dallas | 4 | Community","protocol":17,"map":"workshop/pl_cashworks_final1.ugc2904065412","folder":"tf","game":"Team Fortress","app_id":440,"player_count":0,"max_players":24,"Bots":0,"server_type":"Dedicated","server_os":"Linux","password":true,"vac":true,"version":"7961495","steam_id":85568392924515220,"keywords":["nocrits","nodmgspread","payload","uncletopia"],"game_id":440,"stv_port":27046,"stv_name":"Uncletopia | Dallas | 4 | Community | STV","players":null},{"server_id":5,"name":"Uncletopia | Frankfurt | 1 | All Maps","name_short":"frk-1","host":"frk-1.de.uncletopia.com","port":27015,"enabled":true,"region":"eu","cc":"de","latitude":50.110924,"longitude":8.682127,"reserved":0,"last_update":"0001-01-01T00:00:00Z","name_a2s":"Uncletopia | Frankfurt | 1 | All Maps","protocol":17,"map":"pl_pier","folder":"tf","game":"Team Fortress","app_id":440,"player_count":24,"max_players":24,"Bots":0,"server_type":"Dedicated","server_os":"Linux","password":true,"vac":true,"version":"7961495","steam_id":85568392924469989,"keywords":["nocrits","nodmgspread","payload","uncletopia"],"game_id":440,"stv_port":27016,"stv_name":"Uncletopia | Frankfurt | 1 | All Maps | STV","players":[{"user_id":795,"name":"Emperor Mateus","steam_id":76561198263503740,"connected_time":1683000000000,"state":"active","ping":75},{"user_id":833,"name":"Dei Genetrix","steam_id":76561198305678122,"connected_time":245000000000,"state":"active","ping":61},{"user_id":813,"name":"☁ Lou1smeister ☁","steam_id":76561198004032968,"connected_time":846000000000,"state":"active","ping":60},{"user_id":774,"name":"anabolic steroids","steam_id":76561199470147761,"connected_time":2604000000000,"state":"active","ping":132},{"user_id":812,"name":"Pinkchup","steam_id":76561198106802803,"connected_time":922000000000,"state":"active","ping":75},{"user_id":787,"name":"beurgeur","steam_id":76561198872426314,"connected_time":1928000000000,"state":"active","ping":45},{"user_id":824,"name":"Armadillos","steam_id":76561199247300983,"connected_time":641000000000,"state":"active","ping":87},{"user_id":766,"name":"Sosig","steam_id":76561199012155377,"connected_time":2970000000000,"state":"active","ping":43},{"user_id":789,"name":"literallyjasonx","steam_id":76561198835895387,"connected_time":1830000000000,"state":"active","ping":71},{"user_id":811,"name":"Minimi","steam_id":76561198873850443,"connected_time":944000000000,"state":"active","ping":51},{"user_id":814,"name":"Borat","steam_id":76561198122226417,"connected_time":819000000000,"state":"active","ping":46},{"user_id":815,"name":"Proto-arc","steam_id":76561198012776747,"connected_time":791000000000,"state":"active","ping":51},{"user_id":816,"name":"Mach","steam_id":76561198952487564,"connected_time":780000000000,"state":"active","ping":165},{"user_id":825,"name":"GunGuy","steam_id":76561198124510978,"connected_time":621000000000,"state":"active","ping":60},{"user_id":817,"name":"Piellino","steam_id":76561198156873276,"connected_time":766000000000,"state":"active","ping":90},{"user_id":829,"name":"gaming (official)","steam_id":76561198106012909,"connected_time":407000000000,"state":"active","ping":68},{"user_id":820,"name":"EpicShot","steam_id":76561197962680270,"connected_time":709000000000,"state":"active","ping":70},{"user_id":806,"name":"glorbian","steam_id":76561198995673730,"connected_time":1366000000000,"state":"active","ping":87},{"user_id":798,"name":"A_L_D","steam_id":76561198276095539,"connected_time":1639000000000,"state":"active","ping":88},{"user_id":822,"name":"Hatador","steam_id":76561198074501986,"connected_time":684000000000,"state":"active","ping":53},{"user_id":826,"name":"Edla","steam_id":76561198062815315,"connected_time":598000000000,"state":"active","ping":132},{"user_id":830,"name":"[Heavy Mandarin]","steam_id":76561198531978435,"connected_time":388000000000,"state":"active","ping":63},{"user_id":831,"name":"judasz","steam_id":76561198057378108,"connected_time":370000000000,"state":"active","ping":84},{"user_id":834,"name":"SuperBob103","steam_id":76561199175360012,"connected_time":227000000000,"state":"active","ping":60}]},{"server_id":110,"name":"Uncletopia | Frankfurt | 2 | All Maps","name_short":"frk-2","host":"frk-1.de.uncletopia.com","port":27025,"enabled":true,"region":"eu","cc":"de","latitude":50.110924,"longitude":8.682127,"reserved":0,"last_update":"0001-01-01T00:00:00Z","name_a2s":"Uncletopia | Frankfurt | 2 | All Maps","protocol":17,"map":"cp_process_final","folder":"tf","game":"Team Fortress","app_id":440,"player_count":0,"max_players":24,"Bots":0,"server_type":"Dedicated","server_os":"Linux","password":true,"vac":true,"version":"7961495","steam_id":85568392924469990,"keywords":["cp","nocrits","nodmgspread","uncletopia"],"game_id":440,"stv_port":27026,"stv_name":"Uncletopia | Frankfurt | 2 | All Maps | STV","players":null},{"server_id":308,"name":"Uncletopia | Frankfurt | 3 | All Maps","name_short":"frk-3","host":"frk-1.de.uncletopia.com","port":27035,"enabled":true,"region":"eu","cc":"de","latitude":50.110924,"longitude":8.682127,"reserved":0,"last_update":"0001-01-01T00:00:00Z","name_a2s":"Uncletopia | Frankfurt | 3 | All Maps","protocol":17,"map":"koth_cascade","folder":"tf","game":"Team Fortress","app_id":440,"player_count":0,"max_players":24,"Bots":0,"server_type":"Dedicated","server_os":"Linux","password":true,"vac":true,"version":"7961495","steam_id":85568392924504274,"keywords":["cp","nocrits","nodmgspread","uncletopia"],"game_id":440,"stv_port":27036,"stv_name":"Uncletopia | Frankfurt | 3 | All Maps | STV","players":null},{"server_id":309,"name":"Uncletopia | Frankfurt | 4 | All Maps","name_short":"frk-4","host":"frk-1.de.uncletopia.com","port":27045,"enabled":true,"region":"eu","cc":"de","latitude":50.110924,"longitude":8.682127,"reserved":0,"last_update":"0001-01-01T00:00:00Z","name_a2s":"Uncletopia | Frankfurt | 4 | All Maps","protocol":17,"map":"cp_granary","folder":"tf","game":"Team Fortress","app_id":440,"player_count":0,"max_players":24,"Bots":0,"server_type":"Dedicated","server_os":"Linux","password":true,"vac":true,"version":"7961495","steam_id":85568392924504275,"keywords":["cp","nocrits","nodmgspread","uncletopia"],"game_id":440,"stv_port":27046,"stv_name":"Uncletopia | Frankfurt | 4 | All Maps | STV","players":null},{"server_id":310,"name":"Uncletopia | Frankfurt | 5 | All Maps","name_short":"frk-5","host":"frk-1.de.uncletopia.com","port":27055,"enabled":true,"region":"eu","cc":"de","latitude":50.110924,"longitude":8.682127,"reserved":0,"last_update":"0001-01-01T00:00:00Z","name_a2s":"Uncletopia | Frankfurt | 5 | All Maps","protocol":17,"map":"pl_pier","folder":"tf","game":"Team Fortress","app_id":440,"player_count":24,"max_players":24,"Bots":0,"server_type":"Dedicated","server_os":"Linux","password":true,"vac":true,"version":"7961495","steam_id":85568392924504277,"keywords":["nocrits","nodmgspread","payload","uncletopia"],"game_id":440,"stv_port":27056,"stv_name":"Uncletopia | Frankfurt | 5 | All Maps | STV","players":[{"user_id":749,"name":"Limber","steam_id":76561198406320611,"connected_time":1634000000000,"state":"active","ping":74},{"user_id":739,"name":"Osaka","steam_id":76561198088909286,"connected_time":2019000000000,"state":"active","ping":84},{"user_id":772,"name":"Soapy","steam_id":76561198111652667,"connected_time":25000000000,"state":"active","ping":61},{"user_id":740,"name":"Rahmed","steam_id":76561198136056704,"connected_time":2003000000000,"state":"active","ping":54},{"user_id":757,"name":"King Nugget","steam_id":76561198134037464,"connected_time":493000000000,"state":"active","ping":60},{"user_id":698,"name":"Doctor Marijuana","steam_id":76561198288289879,"connected_time":6962000000000,"state":"active","ping":62},{"user_id":738,"name":"Doritoshredder","steam_id":76561198826710752,"connected_time":2026000000000,"state":"active","ping":108},{"user_id":758,"name":"mechanic person","steam_id":76561199007707341,"connected_time":491000000000,"state":"active","ping":67},{"user_id":759,"name":"the rat","steam_id":76561198079101313,"connected_time":480000000000,"state":"active","ping":62},{"user_id":750,"name":"Chiers","steam_id":76561198073461642,"connected_time":1512000000000,"state":"active","ping":57},{"user_id":718,"name":"Littleyoshifan","steam_id":76561198445491045,"connected_time":3673000000000,"state":"active","ping":55},{"user_id":769,"name":"elijah","steam_id":76561198093936708,"connected_time":277000000000,"state":"active","ping":72},{"user_id":761,"name":"Phalcon","steam_id":76561197987051394,"connected_time":341000000000,"state":"active","ping":75},{"user_id":763,"name":"Bobirulez","steam_id":76561198009125458,"connected_time":331000000000,"state":"active","ping":75},{"user_id":754,"name":"Lyncurion","steam_id":76561199260022725,"connected_time":690000000000,"state":"active","ping":75},{"user_id":764,"name":"piotr gryf","steam_id":76561198194817222,"connected_time":321000000000,"state":"active","ping":61},{"user_id":771,"name":"CumbustiblePunda","steam_id":76561197974274677,"connected_time":68000000000,"state":"active","ping":56},{"user_id":737,"name":"Ott","steam_id":76561198276464481,"connected_time":2227000000000,"state":"active","ping":68},{"user_id":766,"name":"DarthMurloc_OW","steam_id":76561198075577711,"connected_time":314000000000,"state":"active","ping":69},{"user_id":735,"name":"LiterallyRyanGosling","steam_id":76561199017856691,"connected_time":2315000000000,"state":"active","ping":65},{"user_id":753,"name":"tonium (tone' (real))","steam_id":76561198055552635,"connected_time":1169000000000,"state":"active","ping":45},{"user_id":767,"name":"heuji","steam_id":76561197971067828,"connected_time":300000000000,"state":"active","ping":65},{"user_id":768,"name":"krzysztof principal","steam_id":76561198313368161,"connected_time":285000000000,"state":"active","ping":38},{"user_id":747,"name":"Suetolog","steam_id":76561199053090212,"connected_time":1885000000000,"state":"active","ping":49}]},{"server_id":311,"name":"Uncletopia | Frankfurt | 6 | All Maps","name_short":"frk-6","host":"frk-1.de.uncletopia.com","port":27065,"enabled":true,"region":"eu","cc":"de","latitude":50.110924,"longitude":8.682127,"reserved":0,"last_update":"0001-01-01T00:00:00Z","name_a2s":"Uncletopia | Frankfurt | 6 | All Maps","protocol":17,"map":"pl_badwater","folder":"tf","game":"Team Fortress","app_id":440,"player_count":0,"max_players":24,"Bots":0,"server_type":"Dedicated","server_os":"Linux","password":true,"vac":true,"version":"7961495","steam_id":85568392924504278,"keywords":["nocrits","nodmgspread","payload","uncletopia"],"game_id":440,"stv_port":27066,"stv_name":"Uncletopia | Frankfurt | 6 | All Maps | STV","players":null},{"server_id":23,"name":"Uncletopia | Frankfurt | 7 | Stopwatch","name_short":"frk-7","host":"frk-1.de.uncletopia.com","port":27075,"enabled":true,"region":"eu","cc":"de","latitude":50.110924,"longitude":8.682127,"reserved":0,"last_update":"0001-01-01T00:00:00Z","name_a2s":"Uncletopia | Frankfurt | 7 | Stopwatch","protocol":17,"map":"koth_lakeside_final","folder":"tf","game":"Team Fortress","app_id":440,"player_count":0,"max_players":24,"Bots":0,"server_type":"Dedicated","server_os":"Linux","password":true,"vac":true,"version":"7961495","steam_id":85568392924742827,"keywords":["cp","nocrits","nodmgspread","uncletopia"],"game_id":440,"stv_port":27076,"stv_name":"Uncletopia | Frankfurt | 7 | Stopwatch | STV","players":null},{"server_id":24,"name":"Uncletopia | Frankfurt | 8 | Community","name_short":"frk-8","host":"frk-1.de.uncletopia.com","port":27085,"enabled":true,"region":"eu","cc":"de","latitude":50.110924,"longitude":8.682127,"reserved":0,"last_update":"0001-01-01T00:00:00Z","name_a2s":"Uncletopia | Frankfurt | 8 | Community","protocol":17,"map":"workshop/koth_relic_rc3.ugc2965301326","folder":"tf","game":"Team Fortress","app_id":440,"player_count":0,"max_players":24,"Bots":0,"server_type":"Dedicated","server_os":"Linux","password":true,"vac":true,"version":"7961495","steam_id":85568392924742828,"keywords":["cp","nocrits","nodmgspread","uncletopia"],"game_id":440,"stv_port":27086,"stv_name":"Uncletopia | Frankfurt | 8 | Community | STV","players":null},{"server_id":202,"name":"Uncletopia | Hong Kong | 1 | All Maps","name_short":"hgk-1","host":"hgk-1.hk.uncletopia.com","port":27015,"enabled":true,"region":"asia","cc":"hk","latitude":22.302711,"longitude":114.177216,"reserved":0,"last_update":"0001-01-01T00:00:00Z","name_a2s":"Uncletopia | Hong Kong | 1 | All Maps","protocol":17,"map":"cp_metalworks","folder":"tf","game":"Team Fortress","app_id":440,"player_count":0,"max_players":24,"Bots":0,"server_type":"Dedicated","server_os":"Linux","password":true,"vac":true,"version":"7961495","steam_id":85568392924494504,"keywords":["cp","nocrits","nodmgspread","uncletopia"],"game_id":440,"stv_port":27016,"stv_name":"Uncletopia | Hong Kong | 1 | All Maps | STV","players":null},{"server_id":1,"name":"Uncletopia | Los Angeles | 1 | All Maps","name_short":"lax-1","host":"lax-1.us.uncletopia.com","port":27015,"enabled":true,"region":"us-west","cc":"us","latitude":33.94279,"longitude":-118.41004,"reserved":0,"last_update":"0001-01-01T00:00:00Z","name_a2s":"Uncletopia | Los Angeles | 1 | All Maps","protocol":17,"map":"plr_hightower","folder":"tf","game":"Team Fortress","app_id":440,"player_count":0,"max_players":24,"Bots":0,"server_type":"Dedicated","server_os":"Linux","password":true,"vac":true,"version":"7961495","steam_id":85568392924469991,"keywords":["nocrits","nodmgspread","payload","uncletopia"],"game_id":440,"stv_port":27016,"stv_name":"Uncletopia | Los Angeles | 1 | All Maps | STV","players":null},{"server_id":112,"name":"Uncletopia | Los Angeles | 2 | All Maps","name_short":"lax-2","host":"lax-1.us.uncletopia.com","port":27025,"enabled":true,"region":"us-west","cc":"us","latitude":33.94279,"longitude":-118.41004,"reserved":0,"last_update":"0001-01-01T00:00:00Z","name_a2s":"Uncletopia | Los Angeles | 2 | All Maps","protocol":17,"map":"cp_junction_final","folder":"tf","game":"Team Fortress","app_id":440,"player_count":24,"max_players":24,"Bots":0,"server_type":"Dedicated","server_os":"Linux","password":true,"vac":true,"version":"7961495","steam_id":85568392924469992,"keywords":["cp","nocrits","nodmgspread","uncletopia"],"game_id":440,"stv_port":27026,"stv_name":"Uncletopia | Los Angeles | 2 | All Maps | STV","players":[{"user_id":125,"name":"SoCal Kaizer","steam_id":76561198334361081,"connected_time":500000000000,"state":"active","ping":71},{"user_id":128,"name":"noceof","steam_id":76561198043656816,"connected_time":460000000000,"state":"active","ping":165},{"user_id":62,"name":"HOG RIDER","steam_id":76561198298589502,"connected_time":7559000000000,"state":"active","ping":45},{"user_id":98,"name":"immonky","steam_id":76561198170080898,"connected_time":3797000000000,"state":"active","ping":110},{"user_id":131,"name":"ForAPessimistImPrettyOptimistic","steam_id":76561198170128009,"connected_time":311000000000,"state":"active","ping":53},{"user_id":99,"name":"Many Bees' Chilling","steam_id":76561198079641282,"connected_time":3741000000000,"state":"active","ping":102},{"user_id":106,"name":"Rascallyyy","steam_id":76561198184552369,"connected_time":2668000000000,"state":"active","ping":51},{"user_id":85,"name":"FI LO","steam_id":76561198976530881,"connected_time":5091000000000,"state":"active","ping":31},{"user_id":87,"name":"Mocha Josie","steam_id":76561198066452726,"connected_time":4988000000000,"state":"active","ping":74},{"user_id":126,"name":"MechanizedContortion","steam_id":76561199146092247,"connected_time":489000000000,"state":"active","ping":52},{"user_id":78,"name":"johnny","steam_id":76561198050225055,"connected_time":5537000000000,"state":"active","ping":45},{"user_id":130,"name":"FortniteJimmy2008","steam_id":76561198821567852,"connected_time":423000000000,"state":"active","ping":55},{"user_id":132,"name":"sativa steve","steam_id":76561198106291969,"connected_time":113000000000,"state":"active","ping":104},{"user_id":113,"name":"Cheesed Burger","steam_id":76561198066425198,"connected_time":1817000000000,"state":"active","ping":54},{"user_id":103,"name":"TeeVeeGee","steam_id":76561198009869685,"connected_time":3370000000000,"state":"active","ping":58},{"user_id":83,"name":"cielael","steam_id":76561198043971956,"connected_time":5094000000000,"state":"active","ping":57},{"user_id":112,"name":"SunkenSole9132","steam_id":76561198359562446,"connected_time":1854000000000,"state":"active","ping":63},{"user_id":129,"name":"nescoceo","steam_id":76561198040801160,"connected_time":444000000000,"state":"active","ping":47},{"user_id":96,"name":"Whisper!","steam_id":76561198119609795,"connected_time":3986000000000,"state":"active","ping":55},{"user_id":123,"name":"Smoke","steam_id":76561198071892587,"connected_time":1030000000000,"state":"active","ping":89},{"user_id":97,"name":"Chalupa Jones","steam_id":76561198335855588,"connected_time":3819000000000,"state":"active","ping":45},{"user_id":124,"name":"Cars 2 Enjoyer","steam_id":76561198880355236,"connected_time":873000000000,"state":"active","ping":52},{"user_id":114,"name":"lordstinkdemon666","steam_id":76561198073914311,"connected_time":1772000000000,"state":"active","ping":44},{"user_id":116,"name":"K2f","steam_id":76561198049600563,"connected_time":1524000000000,"state":"active","ping":45}]},{"server_id":324,"name":"Uncletopia | Los Angeles | 3 | All Maps","name_short":"lax-3","host":"lax-1.us.uncletopia.com","port":27035,"enabled":true,"region":"us-west","cc":"us","latitude":33.94279,"longitude":-118.41004,"reserved":0,"last_update":"0001-01-01T00:00:00Z","name_a2s":"Uncletopia | Los Angeles | 3 | All Maps","protocol":17,"map":"pl_borneo","folder":"tf","game":"Team Fortress","app_id":440,"player_count":0,"max_players":24,"Bots":0,"server_type":"Dedicated","server_os":"Linux","password":true,"vac":true,"version":"7961495","steam_id":85568392924510198,"keywords":["nocrits","nodmgspread","payload","uncletopia"],"game_id":440,"stv_port":27036,"stv_name":"Uncletopia | Los Angeles | 3 | All Maps | STV","players":null},{"server_id":25,"name":"Uncletopia | Los Angeles | 4 | Stopwatch","name_short":"lax-4","host":"lax-1.us.uncletopia.com","port":27045,"enabled":true,"region":"us-west","cc":"us","latitude":33.94279,"longitude":-118.41004,"reserved":0,"last_update":"0001-01-01T00:00:00Z","name_a2s":"Uncletopia | Los Angeles | 4 | Stopwatch","protocol":17,"map":"pl_upward","folder":"tf","game":"Team Fortress","app_id":440,"player_count":0,"max_players":24,"Bots":0,"server_type":"Dedicated","server_os":"Linux","password":true,"vac":true,"version":"7961495","steam_id":85568392924510199,"keywords":["nocrits","nodmgspread","payload","uncletopia"],"game_id":440,"stv_port":27046,"stv_name":"Uncletopia | Los Angeles | 4 | Stopwatch | STV","players":null},{"server_id":11,"name":"Uncletopia | London | 1 | All Maps","name_short":"lon-1","host":"lon-1.uk.uncletopia.com","port":27015,"enabled":true,"region":"eu","cc":"gb","latitude":51.509865,"longitude":-0.118092,"reserved":0,"last_update":"0001-01-01T00:00:00Z","name_a2s":"Uncletopia | London | 1 | All Maps","protocol":17,"map":"cp_altitude","folder":"tf","game":"Team Fortress","app_id":440,"player_count":0,"max_players":24,"Bots":0,"server_type":"Dedicated","server_os":"Linux","password":true,"vac":true,"version":"7961495","steam_id":85568392924367362,"keywords":["cp","nocrits","nodmgspread","uncletopia"],"game_id":440,"stv_port":27016,"stv_name":"Uncletopia | London | 1 | All Maps | STV","players":null},{"server_id":114,"name":"Uncletopia | London | 2 | All Maps","name_short":"lon-2","host":"lon-1.uk.uncletopia.com","port":27025,"enabled":true,"region":"eu","cc":"gb","latitude":51.509865,"longitude":-0.118092,"reserved":0,"last_update":"0001-01-01T00:00:00Z","name_a2s":"Uncletopia | London | 2 | All Maps","protocol":17,"map":"cp_mountainlab","folder":"tf","game":"Team Fortress","app_id":440,"player_count":0,"max_players":24,"Bots":0,"server_type":"Dedicated","server_os":"Linux","password":true,"vac":true,"version":"7961495","steam_id":85568392924470941,"keywords":["cp","nocrits","nodmgspread","uncletopia"],"game_id":440,"stv_port":27026,"stv_name":"Uncletopia | London | 2 | All Maps | STV","players":null},{"server_id":320,"name":"Uncletopia | London | 3 | All Maps","name_short":"lon-3","host":"lon-1.uk.uncletopia.com","port":27035,"enabled":true,"region":"eu","cc":"gb","latitude":51.509865,"longitude":-0.118092,"reserved":0,"last_update":"0001-01-01T00:00:00Z","name_a2s":"Uncletopia | London | 3 | All Maps","protocol":17,"map":"pl_barnblitz","folder":"tf","game":"Team Fortress","app_id":440,"player_count":24,"max_players":24,"Bots":0,"server_type":"Dedicated","server_os":"Linux","password":true,"vac":true,"version":"7961495","steam_id":85568392924510192,"keywords":["nocrits","nodmgspread","payload","uncletopia"],"game_id":440,"stv_port":27036,"stv_name":"Uncletopia | London | 3 | All Maps | STV","players":[{"user_id":315,"name":"Cryo","steam_id":76561198324132940,"connected_time":4369000000000,"state":"active","ping":51},{"user_id":348,"name":"Esquiloz","steam_id":76561198075645336,"connected_time":1635000000000,"state":"active","ping":64},{"user_id":351,"name":"sticks","steam_id":76561198127099299,"connected_time":1062000000000,"state":"active","ping":40},{"user_id":354,"name":"Benzo Fury","steam_id":76561198025259336,"connected_time":893000000000,"state":"active","ping":45},{"user_id":325,"name":"Lemon","steam_id":76561198188535947,"connected_time":4052000000000,"state":"active","ping":75},{"user_id":317,"name":"KittyKate ❤","steam_id":76561198116340817,"connected_time":4196000000000,"state":"active","ping":63},{"user_id":318,"name":"BuzzBees ❤","steam_id":76561198101502273,"connected_time":4187000000000,"state":"active","ping":47},{"user_id":326,"name":"Burbie","steam_id":76561198046069449,"connected_time":3924000000000,"state":"active","ping":45},{"user_id":343,"name":"Laru","steam_id":76561197998838438,"connected_time":2693000000000,"state":"active","ping":76},{"user_id":346,"name":"Over Extended","steam_id":76561199089290269,"connected_time":2545000000000,"state":"active","ping":55},{"user_id":328,"name":"tired","steam_id":76561198046838168,"connected_time":3783000000000,"state":"active","ping":54},{"user_id":352,"name":"Superiumentarius","steam_id":76561198081642249,"connected_time":1025000000000,"state":"active","ping":57},{"user_id":347,"name":"Cabbch","steam_id":76561198045955679,"connected_time":1954000000000,"state":"active","ping":59},{"user_id":321,"name":"Neeeiks","steam_id":76561198009156801,"connected_time":4181000000000,"state":"active","ping":80},{"user_id":344,"name":"teddy","steam_id":76561198007436837,"connected_time":2647000000000,"state":"active","ping":38},{"user_id":349,"name":"Wee bit espresso","steam_id":76561198067204908,"connected_time":1465000000000,"state":"active","ping":54},{"user_id":330,"name":"lugi","steam_id":76561198026903673,"connected_time":3495000000000,"state":"active","ping":69},{"user_id":301,"name":"Coac","steam_id":76561198085265740,"connected_time":5503000000000,"state":"active","ping":71},{"user_id":339,"name":"Ryan Gosling (Literally me)","steam_id":76561198438150893,"connected_time":3005000000000,"state":"active","ping":100},{"user_id":333,"name":"Venwood","steam_id":76561198126973175,"connected_time":3400000000000,"state":"active","ping":49},{"user_id":355,"name":"ChPerette 🎮","steam_id":76561198060004887,"connected_time":891000000000,"state":"active","ping":45},{"user_id":335,"name":"C.I.","steam_id":76561197972438196,"connected_time":3344000000000,"state":"active","ping":47},{"user_id":306,"name":"goofy goober","steam_id":76561198068054530,"connected_time":4922000000000,"state":"active","ping":84},{"user_id":353,"name":"knorg","steam_id":76561198876259318,"connected_time":1017000000000,"state":"active","ping":67}]},{"server_id":321,"name":"Uncletopia | London | 4 | All Maps","name_short":"lon-4","host":"lon-1.uk.uncletopia.com","port":27045,"enabled":true,"region":"eu","cc":"gb","latitude":51.509865,"longitude":-0.118092,"reserved":0,"last_update":"0001-01-01T00:00:00Z","name_a2s":"Uncletopia | London | 4 | All Maps","protocol":17,"map":"pl_barnblitz","folder":"tf","game":"Team Fortress","app_id":440,"player_count":24,"max_players":24,"Bots":0,"server_type":"Dedicated","server_os":"Linux","password":true,"vac":true,"version":"7961495","steam_id":85568392924510193,"keywords":["nocrits","nodmgspread","payload","uncletopia"],"game_id":440,"stv_port":27046,"stv_name":"Uncletopia | London | 4 | All Maps | STV","players":[{"user_id":464,"name":"Totally_faraam","steam_id":76561199230162663,"connected_time":170000000000,"state":"active","ping":127},{"user_id":439,"name":"Wilderhammer","steam_id":76561198132133702,"connected_time":2685000000000,"state":"active","ping":52},{"user_id":429,"name":"Crystal Kerosene","steam_id":76561198963378933,"connected_time":3496000000000,"state":"active","ping":43},{"user_id":465,"name":"Shmig","steam_id":76561199039358883,"connected_time":81000000000,"state":"active","ping":159},{"user_id":448,"name":"Aftiks","steam_id":76561198875182686,"connected_time":1966000000000,"state":"active","ping":98},{"user_id":458,"name":"Biglet","steam_id":76561198077243439,"connected_time":670000000000,"state":"active","ping":58},{"user_id":433,"name":"Elf Slut C-./S/.-センはブ\ufffd\ufffd","steam_id":76561198124567224,"connected_time":3001000000000,"state":"active","ping":78},{"user_id":459,"name":"etc","steam_id":76561197998394797,"connected_time":658000000000,"state":"active","ping":49},{"user_id":460,"name":"Krill","steam_id":76561198252192070,"connected_time":650000000000,"state":"active","ping":63},{"user_id":466,"name":"doorknob","steam_id":76561198447600537,"connected_time":29000000000,"state":"active","ping":132},{"user_id":409,"name":"60hz \u003e","steam_id":76561198307037169,"connected_time":4653000000000,"state":"active","ping":47},{"user_id":422,"name":"that shit got me middle handed","steam_id":76561198010239925,"connected_time":3964000000000,"state":"active","ping":45},{"user_id":440,"name":"vani","steam_id":76561197991778291,"connected_time":2637000000000,"state":"active","ping":74},{"user_id":457,"name":"Transcendence Fernando","steam_id":76561197987115316,"connected_time":1328000000000,"state":"active","ping":46},{"user_id":441,"name":"watch thief","steam_id":76561198036730191,"connected_time":2605000000000,"state":"active","ping":46},{"user_id":461,"name":"bingchilling","steam_id":76561198091737723,"connected_time":646000000000,"state":"active","ping":38},{"user_id":463,"name":"gitlitwitit","steam_id":76561197980019054,"connected_time":571000000000,"state":"active","ping":70},{"user_id":449,"name":"Lizard Wizard","steam_id":76561198077224982,"connected_time":1957000000000,"state":"active","ping":76},{"user_id":462,"name":"Blar","steam_id":76561198042438229,"connected_time":590000000000,"state":"active","ping":55},{"user_id":401,"name":"Collet-Gaming69","steam_id":76561198335486000,"connected_time":5223000000000,"state":"active","ping":63},{"user_id":447,"name":"Nox Equites","steam_id":76561198115438449,"connected_time":2073000000000,"state":"active","ping":86},{"user_id":450,"name":"ice spice","steam_id":76561198276681691,"connected_time":1936000000000,"state":"active","ping":55},{"user_id":428,"name":"UltimateSlayer","steam_id":76561198384109309,"connected_time":3765000000000,"state":"active","ping":59},{"user_id":415,"name":"I'M JUST SCHIZOPHRENIC","steam_id":76561198798803845,"connected_time":4475000000000,"state":"active","ping":51}]},{"server_id":21,"name":"Uncletopia | London | 5 | All Maps","name_short":"lon-5","host":"lon-1.uk.uncletopia.com","port":27055,"enabled":true,"region":"eu","cc":"gb","latitude":51.509865,"longitude":-0.118092,"reserved":0,"last_update":"0001-01-01T00:00:00Z","name_a2s":"Uncletopia | London | 5 | All Maps","protocol":17,"map":"pl_pier","folder":"tf","game":"Team Fortress","app_id":440,"player_count":14,"max_players":24,"Bots":0,"server_type":"Dedicated","server_os":"Linux","password":true,"vac":true,"version":"7961495","steam_id":85568392924742829,"keywords":["nocrits","nodmgspread","payload","uncletopia"],"game_id":440,"stv_port":27056,"stv_name":"Uncletopia | London | 5 | All Maps | STV","players":[{"user_id":862,"name":"full power heart attack","steam_id":76561199196568965,"connected_time":51000000000,"state":"active","ping":91},{"user_id":857,"name":"sarcasticsatan69","steam_id":76561198407566842,"connected_time":582000000000,"state":"active","ping":52},{"user_id":863,"name":"Bappo","steam_id":76561199110482906,"connected_time":49000000000,"state":"active","ping":185},{"user_id":852,"name":"harryhux","steam_id":76561198228052940,"connected_time":1252000000000,"state":"active","ping":37},{"user_id":842,"name":"the beast","steam_id":76561198115505914,"connected_time":2016000000000,"state":"active","ping":45},{"user_id":866,"name":"Solima","steam_id":76561198045349099,"connected_time":1000000000,"state":"spawning","ping":30},{"user_id":854,"name":"lawn","steam_id":76561198001243486,"connected_time":1105000000000,"state":"active","ping":43},{"user_id":795,"name":"jeff","steam_id":76561198272815746,"connected_time":6501000000000,"state":"active","ping":47},{"user_id":864,"name":"1 in a Trillion Football Moment","steam_id":76561199075279565,"connected_time":35000000000,"state":"active","ping":137},{"user_id":835,"name":"Brian","steam_id":76561198077756206,"connected_time":2416000000000,"state":"active","ping":36},{"user_id":865,"name":"wooper","steam_id":76561198953870572,"connected_time":22000000000,"state":"active","ping":161},{"user_id":840,"name":"Maximilian1359","steam_id":76561198152439608,"connected_time":2197000000000,"state":"active","ping":49},{"user_id":846,"name":"takyon","steam_id":76561198119449463,"connected_time":1573000000000,"state":"active","ping":58},{"user_id":839,"name":"Weegee","steam_id":76561198150308523,"connected_time":2235000000000,"state":"active","ping":46}]},{"server_id":22,"name":"Uncletopia | London | 6 | All Maps","name_short":"lon-6","host":"lon-1.uk.uncletopia.com","port":27065,"enabled":true,"region":"eu","cc":"gb","latitude":51.509865,"longitude":-0.118092,"reserved":0,"last_update":"0001-01-01T00:00:00Z","name_a2s":"Uncletopia | London | 6 | All Maps","protocol":17,"map":"pl_upward","folder":"tf","game":"Team Fortress","app_id":440,"player_count":0,"max_players":24,"Bots":0,"server_type":"Dedicated","server_os":"Linux","password":true,"vac":true,"version":"7961495","steam_id":85568392924742830,"keywords":["nocrits","nodmgspread","payload","uncletopia"],"game_id":440,"stv_port":27066,"stv_name":"Uncletopia | London | 6 | All Maps | STV","players":null},{"server_id":40,"name":"Uncletopia | London | 7 | Stopwatch","name_short":"lon-7","host":"lon-1.uk.uncletopia.com","port":27075,"enabled":true,"region":"eu","cc":"gb","latitude":51.509865,"longitude":-0.118092,"reserved":0,"last_update":"0001-01-01T00:00:00Z","name_a2s":"Uncletopia | London | 7 | Stopwatch","protocol":17,"map":"workshop/koth_clearcut_b15.ugc2107050255","folder":"tf","game":"Team Fortress","app_id":440,"player_count":0,"max_players":24,"Bots":0,"server_type":"Dedicated","server_os":"Linux","password":true,"vac":true,"version":"7961495","steam_id":85568392924964314,"keywords":["cp","nocrits","nodmgspread","uncletopia"],"game_id":440,"stv_port":27076,"stv_name":"Uncletopia | London | 7 | Stopwatch | STV","players":null},{"server_id":41,"name":"Uncletopia | London | 8 | Community","name_short":"lon-8","host":"lon-1.uk.uncletopia.com","port":27085,"enabled":true,"region":"eu","cc":"gb","latitude":51.509865,"longitude":-0.118092,"reserved":0,"last_update":"0001-01-01T00:00:00Z","name_a2s":"Uncletopia | London | 8 | Community","protocol":17,"map":"workshop/koth_kemptown_rc1.ugc767410655","folder":"tf","game":"Team Fortress","app_id":440,"player_count":0,"max_players":24,"Bots":0,"server_type":"Dedicated","server_os":"Linux","password":true,"vac":true,"version":"7961495","steam_id":85568392924964315,"keywords":["cp","nocrits","nodmgspread","uncletopia"],"game_id":440,"stv_port":27086,"stv_name":"Uncletopia | London | 8 | Community | STV","players":null},{"server_id":300,"name":"Uncletopia | Montréal | 1 | One Thousand Uncles","name_short":"mtl-1","host":"mtl-1.ca.uncletopia.com","port":27015,"enabled":true,"region":"us-east","cc":"ca","latitude":45.50889,"longitude":-73.56167,"reserved":0,"last_update":"0001-01-01T00:00:00Z","name_a2s":"Uncletopia | Montréal | 1 | One Thousand Uncles","protocol":17,"map":"pl_thundermountain","folder":"tf","game":"Team Fortress","app_id":440,"player_count":32,"max_players":32,"Bots":20,"server_type":"Dedicated","server_os":"Linux","password":true,"vac":true,"version":"7961495","steam_id":85568392924500087,"keywords":["alltalk","bots","danepve","increased_maxplayers","norespawntime","payload","uncletopia"],"game_id":440,"stv_port":0,"stv_name":"","players":[{"user_id":194,"name":"pyroclastic flow","steam_id":76561198095121758,"connected_time":4197000000000,"state":"active","ping":118},{"user_id":244,"name":"abhorrence","steam_id":76561198208849751,"connected_time":1903000000000,"state":"active","ping":84},{"user_id":254,"name":"DoggyDogWhirl","steam_id":76561198042841344,"connected_time":1289000000000,"state":"active","ping":79},{"user_id":219,"name":"ExplodingPie","steam_id":76561199007746780,"connected_time":3358000000000,"state":"active","ping":79},{"user_id":259,"name":"catgirl w/ fat ass","steam_id":76561199040286026,"connected_time":681000000000,"state":"active","ping":69},{"user_id":260,"name":"Big Deacs","steam_id":76561198121019509,"connected_time":437000000000,"state":"active","ping":99},{"user_id":261,"name":"Enzo","steam_id":76561197975076681,"connected_time":235000000000,"state":"active","ping":69},{"user_id":258,"name":"manbearswineflu","steam_id":76561198083945137,"connected_time":831000000000,"state":"active","ping":87},{"user_id":225,"name":"cheesecake hunter","steam_id":76561198097769060,"connected_time":2852000000000,"state":"active","ping":150},{"user_id":257,"name":"Mr. Fluffy Penguins","steam_id":76561198172538149,"connected_time":906000000000,"state":"active","ping":130},{"user_id":228,"name":"Witicka Dot Com","steam_id":76561198050361870,"connected_time":2749000000000,"state":"active","ping":41},{"user_id":230,"name":"pyroshark tf2","steam_id":76561199077122531,"connected_time":2293000000000,"state":"active","ping":92}]},{"server_id":301,"name":"Uncletopia | Montréal | 2 | One Thousand Uncles","name_short":"mtl-2","host":"mtl-1.ca.uncletopia.com","port":27025,"enabled":true,"region":"us-east","cc":"ca","latitude":45.50889,"longitude":-73.56167,"reserved":0,"last_update":"0001-01-01T00:00:00Z","name_a2s":"Uncletopia | Montréal | 2 | One Thousand Uncles","protocol":17,"map":"pl_swiftwater_final1","folder":"tf","game":"Team Fortress","app_id":440,"player_count":0,"max_players":32,"Bots":0,"server_type":"Dedicated","server_os":"Linux","password":true,"vac":true,"version":"7961495","steam_id":85568392924500088,"keywords":["alltalk","danepve","increased_maxplayers","norespawntime","payload","uncletopia"],"game_id":440,"stv_port":0,"stv_name":"","players":null},{"server_id":302,"name":"Uncletopia | Montréal | 3 | One Thousand Uncles","name_short":"mtl-3","host":"mtl-1.ca.uncletopia.com","port":27035,"enabled":true,"region":"us-east","cc":"ca","latitude":45.50889,"longitude":-73.56167,"reserved":0,"last_update":"0001-01-01T00:00:00Z","name_a2s":"Uncletopia | Montréal | 3 | One Thousand Uncles","protocol":17,"map":"pl_swiftwater_final1","folder":"tf","game":"Team Fortress","app_id":440,"player_count":0,"max_players":32,"Bots":0,"server_type":"Dedicated","server_os":"Linux","password":true,"vac":true,"version":"7961495","steam_id":85568392924500089,"keywords":["alltalk","danepve","increased_maxplayers","norespawntime","payload","uncletopia"],"game_id":440,"stv_port":0,"stv_name":"","players":null},{"server_id":13,"name":"Uncletopia | New York City | 1 | All Maps","name_short":"nyc-1","host":"nyc-1.us.uncletopia.com","port":27015,"enabled":true,"region":"us-east","cc":"us","latitude":40.73061,"longitude":-73.93524,"reserved":0,"last_update":"0001-01-01T00:00:00Z","name_a2s":"Uncletopia | New York City | 1 | All Maps","protocol":17,"map":"pl_borneo","folder":"tf","game":"Team Fortress","app_id":440,"player_count":24,"max_players":24,"Bots":0,"server_type":"Dedicated","server_os":"Linux","password":true,"vac":true,"version":"7961495","steam_id":85568392924469993,"keywords":["nocrits","nodmgspread","payload","uncletopia"],"game_id":440,"stv_port":27016,"stv_name":"Uncletopia | New York City | 1 | All Maps | STV","players":[{"user_id":526,"name":"What in the godamn...","steam_id":76561198016095410,"connected_time":820000000000,"state":"active","ping":46},{"user_id":521,"name":"DRACO$","steam_id":76561198389198223,"connected_time":933000000000,"state":"active","ping":110},{"user_id":507,"name":"Mythic","steam_id":76561198028616665,"connected_time":1266000000000,"state":"active","ping":52},{"user_id":498,"name":"Hamhog","steam_id":76561198353967566,"connected_time":2356000000000,"state":"active","ping":59},{"user_id":537,"name":"Madame Meow Meow","steam_id":76561198111399111,"connected_time":475000000000,"state":"active","ping":63},{"user_id":531,"name":"Novu","steam_id":76561198886997024,"connected_time":713000000000,"state":"active","ping":81},{"user_id":535,"name":"Government Plates","steam_id":76561198140866252,"connected_time":627000000000,"state":"active","ping":58},{"user_id":468,"name":"ṽ⧉ cookie","steam_id":76561197998884823,"connected_time":4850000000000,"state":"active","ping":68},{"user_id":536,"name":"LikeASir","steam_id":76561198042209721,"connected_time":596000000000,"state":"active","ping":62},{"user_id":501,"name":"psychoactive tf2","steam_id":76561198007494744,"connected_time":2220000000000,"state":"active","ping":135},{"user_id":539,"name":"󠁳 ⁧fortnite56K(Nick/Ger)","steam_id":76561198404564240,"connected_time":103000000000,"state":"active","ping":56},{"user_id":519,"name":"uhProphet","steam_id":76561198185986917,"connected_time":1033000000000,"state":"active","ping":91},{"user_id":491,"name":"1-800-GHOST-DANCE","steam_id":76561198835430429,"connected_time":3063000000000,"state":"active","ping":66},{"user_id":514,"name":"AyeDuckDuck","steam_id":76561198244122486,"connected_time":1187000000000,"state":"active","ping":56},{"user_id":527,"name":"The Hose on Upward","steam_id":76561197965092192,"connected_time":806000000000,"state":"active","ping":66},{"user_id":466,"name":"Willis","steam_id":76561198802561549,"connected_time":4878000000000,"state":"active","ping":185},{"user_id":467,"name":"Sagusky","steam_id":76561199020014535,"connected_time":4865000000000,"state":"active","ping":163},{"user_id":484,"name":"Dwanor","steam_id":76561198039571887,"connected_time":3714000000000,"state":"active","ping":60},{"user_id":117,"name":"CDBeans","steam_id":76561198046990367,"connected_time":28594000000000,"state":"active","ping":86},{"user_id":517,"name":"S25","steam_id":76561198424979656,"connected_time":1149000000000,"state":"active","ping":113},{"user_id":538,"name":"Fuzzele","steam_id":76561199199532696,"connected_time":403000000000,"state":"active","ping":89},{"user_id":515,"name":"Rotarius","steam_id":76561198109893506,"connected_time":1168000000000,"state":"active","ping":141},{"user_id":529,"name":"spaces","steam_id":76561199467168236,"connected_time":796000000000,"state":"active","ping":126},{"user_id":530,"name":"Chillin Turt","steam_id":76561198025796849,"connected_time":759000000000,"state":"active","ping":70}]},{"server_id":14,"name":"Uncletopia | New York City | 2 | All Maps","name_short":"nyc-2","host":"nyc-1.us.uncletopia.com","port":27025,"enabled":true,"region":"us-east","cc":"us","latitude":40.73061,"longitude":-73.93524,"reserved":0,"last_update":"0001-01-01T00:00:00Z","name_a2s":"Uncletopia | New York City | 2 | All Maps","protocol":17,"map":"cp_dustbowl","folder":"tf","game":"Team Fortress","app_id":440,"player_count":24,"max_players":24,"Bots":0,"server_type":"Dedicated","server_os":"Linux","password":true,"vac":true,"version":"7961495","steam_id":85568392924469994,"keywords":["cp","nocrits","nodmgspread","uncletopia"],"game_id":440,"stv_port":27026,"stv_name":"Uncletopia | New York City | 2 | All Maps | STV","players":[{"user_id":486,"name":"Sagoogoo","steam_id":76561198176061614,"connected_time":6412000000000,"state":"active","ping":82},{"user_id":521,"name":"boykisser","steam_id":76561198805511159,"connected_time":5001000000000,"state":"active","ping":45},{"user_id":565,"name":"Paulo Doutor","steam_id":76561198168674032,"connected_time":1885000000000,"state":"active","ping":139},{"user_id":579,"name":"patronshito","steam_id":76561198266063209,"connected_time":1380000000000,"state":"active","ping":117},{"user_id":533,"name":"Slondermin","steam_id":76561198320301349,"connected_time":4228000000000,"state":"active","ping":64},{"user_id":592,"name":"He rolls his own","steam_id":76561198058162684,"connected_time":270000000000,"state":"active","ping":62},{"user_id":593,"name":"sawrik","steam_id":76561198018808213,"connected_time":141000000000,"state":"active","ping":73},{"user_id":571,"name":"jamyw2010","steam_id":76561199477897380,"connected_time":1547000000000,"state":"active","ping":83},{"user_id":566,"name":"•Theft Scientist•","steam_id":76561197998922428,"connected_time":1661000000000,"state":"active","ping":60},{"user_id":575,"name":"Draco6257","steam_id":76561199147322448,"connected_time":1477000000000,"state":"active","ping":35},{"user_id":570,"name":"xhutrx117","steam_id":76561198037226115,"connected_time":1559000000000,"state":"active","ping":97},{"user_id":574,"name":"MeatGrinderGuy(Vegans Beware)","steam_id":76561198833470398,"connected_time":1485000000000,"state":"active","ping":59},{"user_id":568,"name":"Butteryback","steam_id":76561198049642485,"connected_time":1574000000000,"state":"active","ping":75},{"user_id":577,"name":"Brawling Bouse","steam_id":76561198030271278,"connected_time":1401000000000,"state":"active","ping":54},{"user_id":556,"name":"Shack","steam_id":76561198035503322,"connected_time":3053000000000,"state":"active","ping":69},{"user_id":588,"name":"what","steam_id":76561198082336619,"connected_time":331000000000,"state":"active","ping":56},{"user_id":585,"name":"THE GIGGLER","steam_id":76561199275294643,"connected_time":446000000000,"state":"active","ping":84},{"user_id":580,"name":"plutonium","steam_id":76561198319442494,"connected_time":1247000000000,"state":"active","ping":117},{"user_id":531,"name":"Jmciano24","steam_id":76561198050723212,"connected_time":4602000000000,"state":"active","ping":59},{"user_id":561,"name":"googa","steam_id":76561198133130452,"connected_time":2480000000000,"state":"active","ping":45},{"user_id":591,"name":"GreenApples","steam_id":76561198120559543,"connected_time":297000000000,"state":"active","ping":114},{"user_id":587,"name":"Bacchus","steam_id":76561198113244990,"connected_time":408000000000,"state":"active","ping":63},{"user_id":590,"name":"slasher4713","steam_id":76561199033532858,"connected_time":307000000000,"state":"active","ping":69},{"user_id":530,"name":"Senpa1","steam_id":76561198140297250,"connected_time":4641000000000,"state":"active","ping":53}]},{"server_id":15,"name":"Uncletopia | New York City | 3 | Stopwatch","name_short":"nyc-3","host":"nyc-1.us.uncletopia.com","port":27035,"enabled":true,"region":"us-east","cc":"us","latitude":40.73061,"longitude":-73.93524,"reserved":0,"last_update":"0001-01-01T00:00:00Z","name_a2s":"Uncletopia | New York City | 3 | Stopwatch","protocol":17,"map":"workshop/pl_vigil_rc10.ugc1266210012","folder":"tf","game":"Team Fortress","app_id":440,"player_count":1,"max_players":24,"Bots":0,"server_type":"Dedicated","server_os":"Linux","password":true,"vac":true,"version":"7961495","steam_id":85568392924742820,"keywords":["nocrits","nodmgspread","payload","uncletopia"],"game_id":440,"stv_port":27036,"stv_name":"Uncletopia | New York City | 3 | Stopwatch | STV","players":[{"user_id":290,"name":"Rated_C","steam_id":76561199226478414,"connected_time":167000000000,"state":"active","ping":70}]},{"server_id":16,"name":"Uncletopia | New York City | 4 | Community","name_short":"nyc-4","host":"nyc-1.us.uncletopia.com","port":27045,"enabled":true,"region":"us-east","cc":"us","latitude":40.73061,"longitude":-73.93524,"reserved":0,"last_update":"0001-01-01T00:00:00Z","name_a2s":"Uncletopia | New York City | 4 | Community","protocol":17,"map":"workshop/koth_rotunda_rc10w.ugc2964421291","folder":"tf","game":"Team Fortress","app_id":440,"player_count":0,"max_players":24,"Bots":0,"server_type":"Dedicated","server_os":"Linux","password":true,"vac":true,"version":"7961495","steam_id":85568392924742821,"keywords":["cp","nocrits","nodmgspread","uncletopia"],"game_id":440,"stv_port":27046,"stv_name":"Uncletopia | New York City | 4 | Community | STV","players":null},{"server_id":142,"name":"Uncletopia | São Paulo | 1 | All Maps","name_short":"sao-1","host":"sao-1.br.uncletopia.com","port":27015,"enabled":true,"region":"sa","cc":"br","latitude":-23.533773,"longitude":-46.62529,"reserved":0,"last_update":"0001-01-01T00:00:00Z","name_a2s":"Uncletopia | São Paulo | 1 | All Maps","protocol":17,"map":"cp_mountainlab","folder":"tf","game":"Team Fortress","app_id":440,"player_count":0,"max_players":24,"Bots":0,"server_type":"Dedicated","server_os":"Linux","password":true,"vac":true,"version":"7961495","steam_id":85568392924469996,"keywords":["cp","nocrits","nodmgspread","uncletopia"],"game_id":440,"stv_port":27016,"stv_name":"Uncletopia | São Paulo | 1 | All Maps | STV","players":null},{"server_id":143,"name":"Uncletopia | São Paulo | 2 | Community","name_short":"sao-2","host":"sao-2.br.uncletopia.com","port":27015,"enabled":true,"region":"sa","cc":"br","latitude":-23.533773,"longitude":-46.62529,"reserved":0,"last_update":"0001-01-01T00:00:00Z","name_a2s":"Uncletopia | São Paulo | 2 | Community","protocol":17,"map":"workshop/koth_slaughter_rc1.ugc1712845210","folder":"tf","game":"Team Fortress","app_id":440,"player_count":0,"max_players":24,"Bots":0,"server_type":"Dedicated","server_os":"Linux","password":true,"vac":true,"version":"7961495","steam_id":85568392924485349,"keywords":["cp","nocrits","nodmgspread","uncletopia"],"game_id":440,"stv_port":27016,"stv_name":"Uncletopia | São Paulo | 2 | Community | STV","players":null},{"server_id":7,"name":"Uncletopia | Seattle | 1 | All Maps","name_short":"sea-1","host":"sea-1.us.uncletopia.com","port":27015,"enabled":true,"region":"us-west","cc":"us","latitude":47.608013,"longitude":-122.33517,"reserved":0,"last_update":"0001-01-01T00:00:00Z","name_a2s":"Uncletopia | Seattle | 1 | All Maps","protocol":17,"map":"pl_pier","folder":"tf","game":"Team Fortress","app_id":440,"player_count":25,"max_players":24,"Bots":0,"server_type":"Dedicated","server_os":"Linux","password":true,"vac":true,"version":"7961495","steam_id":85568392924469997,"keywords":["nocrits","nodmgspread","payload","uncletopia"],"game_id":440,"stv_port":27016,"stv_name":"Uncletopia | Seattle | 1 | All Maps | STV","players":[{"user_id":323,"name":"Snakesuna","steam_id":76561198063949642,"connected_time":166000000000,"state":"active","ping":36},{"user_id":300,"name":"coco","steam_id":76561199488457138,"connected_time":1954000000000,"state":"active","ping":55},{"user_id":276,"name":"Lé Mon","steam_id":76561198078626283,"connected_time":5038000000000,"state":"active","ping":41},{"user_id":292,"name":"sniffy","steam_id":76561198184933255,"connected_time":2795000000000,"state":"active","ping":86},{"user_id":314,"name":"The Shaq Attack","steam_id":76561198075285534,"connected_time":594000000000,"state":"active","ping":42},{"user_id":298,"name":"Catgirl Explise","steam_id":76561198044413891,"connected_time":2464000000000,"state":"active","ping":73},{"user_id":258,"name":"sillynessman","steam_id":76561199086142678,"connected_time":6441000000000,"state":"active","ping":93},{"user_id":70,"name":"dust | it/she","steam_id":76561198045218909,"connected_time":25385000000000,"state":"active","ping":44},{"user_id":315,"name":"UV","steam_id":76561198083936918,"connected_time":522000000000,"state":"active","ping":56},{"user_id":325,"name":"MrYadaization","steam_id":76561198050770818,"connected_time":26000000000,"state":"active","ping":62},{"user_id":326,"name":"DusterDan35","steam_id":76561198309129093,"connected_time":3000000000,"state":"spawning","ping":60},{"user_id":317,"name":"jello","steam_id":76561199274158922,"connected_time":475000000000,"state":"active","ping":47},{"user_id":313,"name":"ThePriceIsRice","steam_id":76561198079069543,"connected_time":734000000000,"state":"active","ping":61},{"user_id":301,"name":"Arsonist Goose","steam_id":76561198147441830,"connected_time":1953000000000,"state":"active","ping":75},{"user_id":288,"name":"Kelladrin","steam_id":76561198040727880,"connected_time":3174000000000,"state":"active","ping":60},{"user_id":264,"name":"Dog Hands Phone","steam_id":76561198090419068,"connected_time":5600000000000,"state":"active","ping":66},{"user_id":261,"name":"DaddyGalaxy","steam_id":76561198139697796,"connected_time":6119000000000,"state":"active","ping":60},{"user_id":302,"name":"King Keifer","steam_id":76561198141070466,"connected_time":1952000000000,"state":"active","ping":71},{"user_id":318,"name":"Harvey J. Figglemeister","steam_id":76561198441916331,"connected_time":245000000000,"state":"active","ping":45},{"user_id":189,"name":"Banana Man","steam_id":76561199012105803,"connected_time":11712000000000,"state":"active","ping":59},{"user_id":267,"name":"rat gets the cheese","steam_id":76561198031234032,"connected_time":5449000000000,"state":"active","ping":101},{"user_id":319,"name":"Soldier Player (Derogatory)","steam_id":76561198046526036,"connected_time":229000000000,"state":"active","ping":78},{"user_id":308,"name":"dave strider","steam_id":76561198065112186,"connected_time":946000000000,"state":"active","ping":81},{"user_id":272,"name":"PopcornBucketGames","steam_id":76561199089562026,"connected_time":5313000000000,"state":"active","ping":50},{"user_id":322,"name":"pipi","steam_id":76561198450073779,"connected_time":210000000000,"state":"active","ping":47}]},{"server_id":119,"name":"Uncletopia | Seattle | 2 | All Maps","name_short":"sea-2","host":"sea-1.us.uncletopia.com","port":27025,"enabled":true,"region":"us-west","cc":"us","latitude":47.608013,"longitude":-122.33517,"reserved":0,"last_update":"0001-01-01T00:00:00Z","name_a2s":"Uncletopia | Seattle | 2 | All Maps","protocol":17,"map":"koth_viaduct","folder":"tf","game":"Team Fortress","app_id":440,"player_count":8,"max_players":24,"Bots":0,"server_type":"Dedicated","server_os":"Linux","password":true,"vac":true,"version":"7961495","steam_id":85568392924469998,"keywords":["cp","nocrits","nodmgspread","uncletopia"],"game_id":440,"stv_port":27026,"stv_name":"Uncletopia | Seattle | 2 | All Maps | STV","players":[{"user_id":20,"name":"nightmarebluntrotation1","steam_id":76561198276310307,"connected_time":415000000000,"state":"active","ping":75},{"user_id":19,"name":"dearender the burger fan","steam_id":76561199427644498,"connected_time":549000000000,"state":"active","ping":66},{"user_id":21,"name":"jac0b2k6","steam_id":76561198872433925,"connected_time":209000000000,"state":"active","ping":56},{"user_id":22,"name":"F2P #save TF2","steam_id":76561199404321552,"connected_time":78000000000,"state":"active","ping":65},{"user_id":23,"name":"Micc","steam_id":76561199447744486,"connected_time":47000000000,"state":"active","ping":72},{"user_id":24,"name":"finmin","steam_id":76561198127639913,"connected_time":41000000000,"state":"active","ping":78},{"user_id":25,"name":"liangjohnson61","steam_id":76561199132297474,"connected_time":35000000000,"state":"active","ping":62},{"user_id":26,"name":"bearzy","steam_id":76561199180441047,"connected_time":18000000000,"state":"spawning","ping":43}]},{"server_id":406,"name":"Uncletopia | Seattle | 3 | Stopwatch","name_short":"sea-3","host":"sea-1.us.uncletopia.com","port":27035,"enabled":true,"region":"us-west","cc":"us","latitude":47.608013,"longitude":-122.33517,"reserved":0,"last_update":"0001-01-01T00:00:00Z","name_a2s":"Uncletopia | Seattle | 3 | Stopwatch","protocol":17,"map":"workshop/pl_vigil_rc10.ugc1266210012","folder":"tf","game":"Team Fortress","app_id":440,"player_count":0,"max_players":24,"Bots":0,"server_type":"Dedicated","server_os":"Linux","password":true,"vac":true,"version":"7961495","steam_id":85568392924515217,"keywords":["nocrits","nodmgspread","payload","uncletopia"],"game_id":440,"stv_port":27036,"stv_name":"Uncletopia | Seattle | 3 | Stopwatch | STV","players":null},{"server_id":17,"name":"Uncletopia | San Francisco | 1 | All Maps","name_short":"sfo-1","host":"sfo-1.us.uncletopia.com","port":27015,"enabled":true,"region":"us-west","cc":"us","latitude":37.77397,"longitude":-122.4313,"reserved":0,"last_update":"0001-01-01T00:00:00Z","name_a2s":"Uncletopia | San Francisco | 1 | All Maps","protocol":17,"map":"koth_viaduct","folder":"tf","game":"Team Fortress","app_id":440,"player_count":0,"max_players":24,"Bots":0,"server_type":"Dedicated","server_os":"Linux","password":true,"vac":true,"version":"7961495","steam_id":85568392924469999,"keywords":["cp","nocrits","nodmgspread","uncletopia"],"game_id":440,"stv_port":27016,"stv_name":"Uncletopia | San Francisco | 1 | All Maps | STV","players":null},{"server_id":18,"name":"Uncletopia | San Francisco | 2 | All Maps","name_short":"sfo-2","host":"sfo-1.us.uncletopia.com","port":27025,"enabled":true,"region":"us-west","cc":"us","latitude":37.77397,"longitude":-122.4313,"reserved":0,"last_update":"0001-01-01T00:00:00Z","name_a2s":"Uncletopia | San Francisco | 2 | All Maps","protocol":17,"map":"pl_hoodoo_final","folder":"tf","game":"Team Fortress","app_id":440,"player_count":0,"max_players":24,"Bots":0,"server_type":"Dedicated","server_os":"Linux","password":true,"vac":true,"version":"7961495","steam_id":85568392924470000,"keywords":["nocrits","nodmgspread","payload","uncletopia"],"game_id":440,"stv_port":27026,"stv_name":"Uncletopia | San Francisco | 2 | All Maps | STV","players":null},{"server_id":19,"name":"Uncletopia | San Francisco | 3 | Stopwatch","name_short":"sfo-3","host":"sfo-1.us.uncletopia.com","port":27035,"enabled":true,"region":"us-west","cc":"us","latitude":37.77397,"longitude":-122.4313,"reserved":0,"last_update":"0001-01-01T00:00:00Z","name_a2s":"Uncletopia | San Francisco | 3 | Stopwatch","protocol":17,"map":"workshop/koth_clearcut_b15.ugc2107050255","folder":"tf","game":"Team Fortress","app_id":440,"player_count":0,"max_players":24,"Bots":0,"server_type":"Dedicated","server_os":"Linux","password":true,"vac":true,"version":"7961495","steam_id":85568392924742824,"keywords":["cp","nocrits","nodmgspread","uncletopia"],"game_id":440,"stv_port":27036,"stv_name":"Uncletopia | San Francisco | 3 | Stopwatch | STV","players":null},{"server_id":20,"name":"Uncletopia | San Francisco | 4 | Community","name_short":"sfo-4","host":"sfo-1.us.uncletopia.com","port":27045,"enabled":true,"region":"us-west","cc":"us","latitude":37.77397,"longitude":-122.4313,"reserved":0,"last_update":"0001-01-01T00:00:00Z","name_a2s":"Uncletopia | San Francisco | 4 | Community","protocol":17,"map":"workshop/cp_reckoner_rc6.ugc674719999","folder":"tf","game":"Team Fortress","app_id":440,"player_count":0,"max_players":24,"Bots":0,"server_type":"Dedicated","server_os":"Linux","password":true,"vac":true,"version":"7961495","steam_id":85568392924742826,"keywords":["cp","nocrits","nodmgspread","uncletopia"],"game_id":440,"stv_port":27046,"stv_name":"Uncletopia | San Francisco | 4 | Community | STV","players":null},{"server_id":141,"name":"Uncletopia | Sydney | 1 | All Maps","name_short":"syd-1","host":"syd-1.au.uncletopia.com","port":27015,"enabled":true,"region":"au","cc":"au","latitude":-33.865143,"longitude":151.2099,"reserved":0,"last_update":"0001-01-01T00:00:00Z","name_a2s":"Uncletopia | Sydney | 1 | All Maps","protocol":17,"map":"cp_process_final","folder":"tf","game":"Team Fortress","app_id":440,"player_count":0,"max_players":24,"Bots":0,"server_type":"Dedicated","server_os":"Linux","password":true,"vac":true,"version":"7961495","steam_id":85568392924470001,"keywords":["cp","nocrits","nodmgspread","uncletopia"],"game_id":440,"stv_port":27016,"stv_name":"Uncletopia | Sydney | 1 | All Maps | STV","players":null},{"server_id":123,"name":"Uncletopia | Sydney | 2 | All Maps","name_short":"syd-2","host":"syd-1.au.uncletopia.com","port":27025,"enabled":true,"region":"au","cc":"au","latitude":-33.865143,"longitude":151.2099,"reserved":0,"last_update":"0001-01-01T00:00:00Z","name_a2s":"Uncletopia | Sydney | 2 | All Maps","protocol":17,"map":"cp_mercenarypark","folder":"tf","game":"Team Fortress","app_id":440,"player_count":0,"max_players":24,"Bots":0,"server_type":"Dedicated","server_os":"Linux","password":true,"vac":true,"version":"7961495","steam_id":85568392924470002,"keywords":["cp","nocrits","nodmgspread","uncletopia"],"game_id":440,"stv_port":27026,"stv_name":"Uncletopia | Sydney | 2 | All Maps | STV","players":null},{"server_id":395,"name":"Uncletopia | Sydney | 3 | All Maps","name_short":"syd-3","host":"syd-1.au.uncletopia.com","port":27035,"enabled":true,"region":"au","cc":"au","latitude":-33.865143,"longitude":151.2099,"reserved":0,"last_update":"0001-01-01T00:00:00Z","name_a2s":"Uncletopia | Sydney | 3 | All Maps","protocol":17,"map":"koth_brazil","folder":"tf","game":"Team Fortress","app_id":440,"player_count":0,"max_players":24,"Bots":0,"server_type":"Dedicated","server_os":"Linux","password":true,"vac":true,"version":"7961495","steam_id":85568392925194467,"keywords":["cp","nocrits","nodmgspread","uncletopia"],"game_id":440,"stv_port":27036,"stv_name":"Uncletopia | Sydney | 3 | All Maps | STV","players":null},{"server_id":396,"name":"Uncletopia | Sydney | 4 | All Maps","name_short":"syd-4","host":"syd-1.au.uncletopia.com","port":27045,"enabled":true,"region":"au","cc":"au","latitude":-33.865143,"longitude":151.2099,"reserved":0,"last_update":"0001-01-01T00:00:00Z","name_a2s":"Uncletopia | Sydney | 4 | All Maps","protocol":17,"map":"cp_standin_final","folder":"tf","game":"Team Fortress","app_id":440,"player_count":0,"max_players":24,"Bots":0,"server_type":"Dedicated","server_os":"Linux","password":true,"vac":true,"version":"7961495","steam_id":85568392925397958,"keywords":["cp","nocrits","nodmgspread","uncletopia"],"game_id":440,"stv_port":27046,"stv_name":"Uncletopia | Sydney | 4 | All Maps | STV","players":null},{"server_id":58,"name":"Uncletopia | Sydney | 5 | Stopwatch","name_short":"syd-5","host":"syd-1.au.uncletopia.com","port":27055,"enabled":true,"region":"au","cc":"au","latitude":-33.865143,"longitude":151.2099,"reserved":0,"last_update":"0001-01-01T00:00:00Z","name_a2s":"Uncletopia | Sydney | 5 | Stopwatch","protocol":17,"map":"koth_highpass","folder":"tf","game":"Team Fortress","app_id":440,"player_count":0,"max_players":24,"Bots":0,"server_type":"Dedicated","server_os":"Linux","password":true,"vac":true,"version":"7961495","steam_id":85568392925397959,"keywords":["cp","nocrits","nodmgspread","uncletopia"],"game_id":440,"stv_port":27056,"stv_name":"Uncletopia | Sydney | 5 | Stopwatch | STV","players":null},{"server_id":59,"name":"Uncletopia | Sydney | 6 | Community","name_short":"syd-6","host":"syd-1.au.uncletopia.com","port":27065,"enabled":true,"region":"au","cc":"au","latitude":-33.865143,"longitude":151.2099,"reserved":0,"last_update":"0001-01-01T00:00:00Z","name_a2s":"Uncletopia | Sydney | 6 | Community","protocol":17,"map":"workshop/koth_soot_final1.ugc2969540689","folder":"tf","game":"Team Fortress","app_id":440,"player_count":0,"max_players":24,"Bots":0,"server_type":"Dedicated","server_os":"Linux","password":true,"vac":true,"version":"7961495","steam_id":85568392925397960,"keywords":["cp","nocrits","nodmgspread","uncletopia"],"game_id":440,"stv_port":27066,"stv_name":"Uncletopia | Sydney | 6 | Community | STV","players":null},{"server_id":49,"name":"Uncletopia | Warsaw | 1 | One Thousand Uncles","name_short":"waw-1","host":"waw-1.pl.uncletopia.com","port":27015,"enabled":true,"region":"eu","cc":"pl","latitude":52.2297,"longitude":21.017532,"reserved":0,"last_update":"0001-01-01T00:00:00Z","name_a2s":"Uncletopia | Warsaw | 1 | One Thousand Uncles","protocol":17,"map":"pl_thundermountain","folder":"tf","game":"Team Fortress","app_id":440,"player_count":0,"max_players":32,"Bots":0,"server_type":"Dedicated","server_os":"Linux","password":true,"vac":true,"version":"7961495","steam_id":85568392925397850,"keywords":["alltalk","danepve","increased_maxplayers","norespawntime","payload","uncletopia"],"game_id":440,"stv_port":0,"stv_name":"","players":null},{"server_id":50,"name":"Uncletopia | Warsaw | 2 | One Thousand Uncles","name_short":"waw-2","host":"waw-1.pl.uncletopia.com","port":27025,"enabled":true,"region":"eu","cc":"pl","latitude":52.2297,"longitude":21.017532,"reserved":0,"last_update":"0001-01-01T00:00:00Z","name_a2s":"Uncletopia | Warsaw | 2 | One Thousand Uncles","protocol":17,"map":"cp_dustbowl","folder":"tf","game":"Team Fortress","app_id":440,"player_count":0,"max_players":32,"Bots":0,"server_type":"Dedicated","server_os":"Linux","password":true,"vac":true,"version":"7961495","steam_id":85568392925397851,"keywords":["alltalk","cp","danepve","increased_maxplayers","norespawntime","uncletopia"],"game_id":440,"stv_port":0,"stv_name":"","players":null},{"server_id":51,"name":"Uncletopia | Warsaw | 3 | All Maps","name_short":"waw-3","host":"waw-1.pl.uncletopia.com","port":27035,"enabled":true,"region":"eu","cc":"pl","latitude":52.2297,"longitude":21.017532,"reserved":0,"last_update":"0001-01-01T00:00:00Z","name_a2s":"Uncletopia | Warsaw | 3 | All Maps","protocol":17,"map":"koth_viaduct","folder":"tf","game":"Team Fortress","app_id":440,"player_count":0,"max_players":24,"Bots":0,"server_type":"Dedicated","server_os":"Linux","password":true,"vac":true,"version":"7961495","steam_id":85568392925397852,"keywords":["cp","nocrits","nodmgspread","uncletopia"],"game_id":440,"stv_port":27036,"stv_name":"Uncletopia | Warsaw | 3 | All Maps | STV","players":null},{"server_id":52,"name":"Uncletopia | Warsaw | 4 | All Maps","name_short":"waw-4","host":"waw-1.pl.uncletopia.com","port":27045,"enabled":true,"region":"eu","cc":"pl","latitude":52.2297,"longitude":21.017532,"reserved":0,"last_update":"0001-01-01T00:00:00Z","name_a2s":"Uncletopia | Warsaw | 4 | All Maps","protocol":17,"map":"koth_viaduct","folder":"tf","game":"Team Fortress","app_id":440,"player_count":0,"max_players":24,"Bots":0,"server_type":"Dedicated","server_os":"Linux","password":true,"vac":true,"version":"7961495","steam_id":85568392925397853,"keywords":["cp","nocrits","nodmgspread","uncletopia"],"game_id":440,"stv_port":27046,"stv_name":"Uncletopia | Warsaw | 4 | All Maps | STV","players":null},{"server_id":53,"name":"Uncletopia | Warsaw | 5 | Stopwatch","name_short":"waw-5","host":"waw-1.pl.uncletopia.com","port":27055,"enabled":true,"region":"eu","cc":"pl","latitude":52.2297,"longitude":21.017532,"reserved":0,"last_update":"0001-01-01T00:00:00Z","name_a2s":"Uncletopia | Warsaw | 5 | Stopwatch","protocol":17,"map":"workshop/koth_clearcut_b15.ugc2107050255","folder":"tf","game":"Team Fortress","app_id":440,"player_count":0,"max_players":24,"Bots":0,"server_type":"Dedicated","server_os":"Linux","password":true,"vac":true,"version":"7961495","steam_id":85568392925397854,"keywords":["cp","nocrits","nodmgspread","uncletopia"],"game_id":440,"stv_port":27056,"stv_name":"Uncletopia | Warsaw | 5 | Stopwatch | STV","players":null},{"server_id":54,"name":"Uncletopia | Warsaw | 6 | Community","name_short":"waw-6","host":"waw-1.pl.uncletopia.com","port":27065,"enabled":true,"region":"eu","cc":"pl","latitude":52.2297,"longitude":21.017532,"reserved":0,"last_update":"0001-01-01T00:00:00Z","name_a2s":"Uncletopia | Warsaw | 6 | Community","protocol":17,"map":"workshop/pl_boundary_final1.ugc456799153","folder":"tf","game":"Team Fortress","app_id":440,"player_count":0,"max_players":24,"Bots":0,"server_type":"Dedicated","server_os":"Linux","password":true,"vac":true,"version":"7961495","steam_id":85568392925397856,"keywords":["nocrits","nodmgspread","payload","uncletopia"],"game_id":440,"stv_port":27066,"stv_name":"Uncletopia | Warsaw | 6 | Community | STV","players":null}]}