{"status":true,"message":"","result":[{"server_id":9,"name":"Uncletopia | Atlanta | 1 | All Maps","name_short":"atl-1","host":"atl-1.us.uncletopia.com","port":27015,"enabled":true,"region":"us-east","cc":"us","latitude":33.753746,"longitude":-84.38633,"reserved":0,"last_update":"0001-01-01T00:00:00Z","name_a2s":"Uncletopia | Atlanta | 1 | All Maps","protocol":17,"map":"pl_pier","folder":"tf","game":"Team Fortress","app_id":440,"player_count":24,"max_players":24,"Bots":0,"server_type":"Dedicated","server_os":"Linux","password":true,"vac":true,"version":"7757534","steam_id":85568392924469982,"keywords":["nocrits","nodmgspread","payload","uncletopia"],"game_id":440,"stv_port":27016,"stv_name":"Uncletopia | Atlanta | 1 | All Maps | STV","players":[{"user_id":618,"name":"Bag","steam_id":76561198012395490,"connected_time":250000000000,"state":"active","ping":59},{"user_id":544,"name":"shaderoses","steam_id":76561198070800500,"connected_time":5840000000000,"state":"active","ping":63},{"user_id":561,"name":"ATL1 | chubbbo","steam_id":76561198943598378,"connected_time":4918000000000,"state":"active","ping":42},{"user_id":531,"name":"Crystron","steam_id":76561198880437428,"connected_time":8183000000000,"state":"active","ping":76},{"user_id":619,"name":"NeverAcedIt (Pinnacle -\u003e Pit)","steam_id":76561198406671743,"connected_time":193000000000,"state":"active","ping":73},{"user_id":603,"name":"Person","steam_id":76561198093244204,"connected_time":893000000000,"state":"active","ping":75},{"user_id":601,"name":"bagel_man","steam_id":76561198164640460,"connected_time":1131000000000,"state":"active","ping":85},{"user_id":605,"name":"Psychosis","steam_id":76561198078659070,"connected_time":880000000000,"state":"active","ping":69},{"user_id":606,"name":"WanderEase","steam_id":76561198068654078,"connected_time":871000000000,"state":"active","ping":60},{"user_id":615,"name":"ATL1 | wire-guided","steam_id":76561198055407168,"connected_time":596000000000,"state":"active","ping":53},{"user_id":596,"name":"Broken Cereal√","steam_id":76561198087489795,"connected_time":1595000000000,"state":"active","ping":76},{"user_id":590,"name":"Flint","steam_id":76561198066547582,"connected_time":2700000000000,"state":"active","ping":117},{"user_id":614,"name":"MattJettskie","steam_id":76561199229493583,"connected_time":714000000000,"state":"active","ping":74},{"user_id":608,"name":"JacquesSnacques","steam_id":76561198150647095,"connected_time":859000000000,"state":"active","ping":77},{"user_id":582,"name":"capybara","steam_id":76561198182288455,"connected_time":3398000000000,"state":"active","ping":87},{"user_id":541,"name":"F_L Jad The Taff","steam_id":76561198095923905,"connected_time":6881000000000,"state":"active","ping":73},{"user_id":617,"name":"Lucky7","steam_id":76561199084623109,"connected_time":537000000000,"state":"active","ping":122},{"user_id":613,"name":"Heckolo","steam_id":76561198168010993,"connected_time":733000000000,"state":"active","ping":110},{"user_id":592,"name":"troll","steam_id":76561198040890252,"connected_time":1803000000000,"state":"active","ping":55},{"user_id":600,"name":"PeopleOrderOurPatties","steam_id":76561198323144922,"connected_time":1203000000000,"state":"active","ping":91},{"user_id":586,"name":"Im High","steam_id":76561198049954886,"connected_time":2938000000000,"state":"active","ping":72},{"user_id":616,"name":"iluvtoust","steam_id":76561198869269207,"connected_time":583000000000,"state":"active","ping":60},{"user_id":602,"name":"ƐՌѴƳ","steam_id":76561198099470277,"connected_time":1058000000000,"state":"active","ping":66},{"user_id":598,"name":"Ashes!","steam_id":76561197998475441,"connected_time":1419000000000,"state":"active","ping":82}]},{"server_id":104,"name":"Uncletopia | Atlanta | 2 | All Maps","name_short":"atl-2","host":"atl-1.us.uncletopia.com","port":27025,"enabled":true,"region":"us-east","cc":"us","latitude":33.753746,"longitude":-84.38633,"reserved":0,"last_update":"0001-01-01T00:00:00Z","name_a2s":"Uncletopia | Atlanta | 2 | All Maps","protocol":17,"map":"pl_barnblitz","folder":"tf","game":"Team Fortress","app_id":440,"player_count":24,"max_players":24,"Bots":0,"server_type":"Dedicated","server_os":"Linux","password":true,"vac":true,"version":"7757534","steam_id":85568392924469983,"keywords":["nocrits","nodmgspread","payload","uncletopia"],"game_id":440,"stv_port":27026,"stv_name":"Uncletopia | Atlanta | 2 | All Maps | STV","players":[{"user_id":339,"name":"KlulessKitsune","steam_id":76561198136903610,"connected_time":1594000000000,"state":"active","ping":56},{"user_id":347,"name":"Truly Cryo","steam_id":76561198347497484,"connected_time":1171000000000,"state":"active","ping":79},{"user_id":323,"name":"wG deez","steam_id":76561198277163301,"connected_time":3364000000000,"state":"active","ping":81},{"user_id":320,"name":"TransWomanGaming","steam_id":76561198809645656,"connected_time":3394000000000,"state":"active","ping":92},{"user_id":332,"name":"my singing monsters slut","steam_id":76561198095600494,"connected_time":2855000000000,"state":"active","ping":70},{"user_id":202,"name":"aisu","steam_id":76561198043768507,"connected_time":13090000000000,"state":"active","ping":89},{"user_id":340,"name":"Glover75","steam_id":76561198045960273,"connected_time":1566000000000,"state":"active","ping":75},{"user_id":351,"name":"EchoReplayz","steam_id":76561198229366892,"connected_time":291000000000,"state":"active","ping":64},{"user_id":341,"name":"Kobold Criminal","steam_id":76561198064102314,"connected_time":1545000000000,"state":"active","ping":83},{"user_id":223,"name":"C papi","steam_id":76561198027779564,"connected_time":11086000000000,"state":"active","ping":47},{"user_id":353,"name":"Grand Piano Tuna","steam_id":76561198135137213,"connected_time":195000000000,"state":"active","ping":61},{"user_id":342,"name":"Goldensliv","steam_id":76561198161673891,"connected_time":1535000000000,"state":"active","ping":90},{"user_id":343,"name":"Fuzzle_Buns","steam_id":76561198042336101,"connected_time":1528000000000,"state":"active","ping":84},{"user_id":317,"name":"-W3E- grim10465","steam_id":76561198045698581,"connected_time":3865000000000,"state":"active","ping":59},{"user_id":344,"name":"Sprit ♥","steam_id":76561198268780781,"connected_time":1511000000000,"state":"active","ping":61},{"user_id":345,"name":"hatchetax","steam_id":76561199013337543,"connected_time":1479000000000,"state":"active","ping":48},{"user_id":338,"name":"Blake Belladonna","steam_id":76561198010169911,"connected_time":1604000000000,"state":"active","ping":358},{"user_id":251,"name":"plank","steam_id":76561198133608972,"connected_time":8302000000000,"state":"active","ping":62},{"user_id":325,"name":"ღLotus","steam_id":76561198205338192,"connected_time":3349000000000,"state":"active","ping":99},{"user_id":335,"name":"Sorrow","steam_id":76561198050225563,"connected_time":2479000000000,"state":"active","ping":91},{"user_id":346,"name":"ṽ⧉ cookie","steam_id":76561197998884823,"connected_time":1473000000000,"state":"active","ping":85},{"user_id":349,"name":"Depths","steam_id":76561198343435310,"connected_time":352000000000,"state":"active","ping":133},{"user_id":146,"name":"Pancakes","steam_id":76561198097983190,"connected_time":16440000000000,"state":"active","ping":59},{"user_id":337,"name":"Rear Admiral Crunch","steam_id":76561198020007558,"connected_time":1610000000000,"state":"active","ping":83}]},{"server_id":400,"name":"Uncletopia | Atlanta | 3 | Community","name_short":"atl-3","host":"atl-1.us.uncletopia.com","port":27035,"enabled":true,"region":"us-east","cc":"us","latitude":33.753746,"longitude":-84.38633,"reserved":0,"last_update":"0001-01-01T00:00:00Z","name_a2s":"Uncletopia | Atlanta | 3 | Community","protocol":17,"map":"workshop/pl_vigil_rc9.ugc1266210012","folder":"tf","game":"Team Fortress","app_id":440,"player_count":0,"max_players":24,"Bots":0,"server_type":"Dedicated","server_os":"Linux","password":true,"vac":true,"version":"7757534","steam_id":85568392924515187,"keywords":["nocrits","nodmgspread","payload","uncletopia"],"game_id":440,"stv_port":27036,"stv_name":"Uncletopia | Atlanta | 3 | Community | STV","players":null},{"server_id":401,"name":"Uncletopia | Atlanta | 4 | No Payload","name_short":"atl-4","host":"atl-1.us.uncletopia.com","port":27045,"enabled":true,"region":"us-east","cc":"us","latitude":33.753746,"longitude":-84.38633,"reserved":0,"last_update":"0001-01-01T00:00:00Z","name_a2s":"","protocol":0,"map":"","folder":"","game":"","app_id":0,"player_count":0,"max_players":0,"Bots":0,"server_type":"","server_os":"","password":false,"vac":false,"version":"","steam_id":0,"keywords":null,"game_id":0,"stv_port":0,"stv_name":"","players":null},{"server_id":2,"name":"Uncletopia | Chicago | 1 | All Maps","name_short":"chi-1","host":"chi-1.us.uncletopia.com","port":27015,"enabled":true,"region":"us-central","cc":"us","latitude":41.881832,"longitude":-87.62318,"reserved":0,"last_update":"0001-01-01T00:00:00Z","name_a2s":"Uncletopia | Chicago | 1 | All Maps","protocol":17,"map":"pl_frontier_final","folder":"tf","game":"Team Fortress","app_id":440,"player_count":23,"max_players":24,"Bots":0,"server_type":"Dedicated","server_os":"Linux","password":true,"vac":true,"version":"7757534","steam_id":85568392924469984,"keywords":["nocrits","nodmgspread","payload","uncletopia"],"game_id":440,"stv_port":27016,"stv_name":"Uncletopia | Chicago | 1 | All Maps | STV","players":[{"user_id":647,"name":"ARegularJohnDoe","steam_id":76561198015020139,"connected_time":3000000000,"state":"spawning","ping":57},{"user_id":644,"name":"Eomy","steam_id":76561198297783627,"connected_time":314000000000,"state":"active","ping":64},{"user_id":561,"name":"Thundermonkey (SMOKE)","steam_id":76561198017631728,"connected_time":6599000000000,"state":"active","ping":51},{"user_id":622,"name":"I Cooka Da Pizza","steam_id":76561198084167611,"connected_time":1688000000000,"state":"active","ping":57},{"user_id":588,"name":"Lamb Sauce","steam_id":76561198136059840,"connected_time":4701000000000,"state":"active","ping":66},{"user_id":640,"name":"Wardin","steam_id":76561198096881855,"connected_time":627000000000,"state":"active","ping":62},{"user_id":646,"name":"Ohz Noez!!!!","steam_id":76561197980084686,"connected_time":8000000000,"state":"spawning","ping":74},{"user_id":645,"name":"Musica Universalis","steam_id":76561198184794174,"connected_time":144000000000,"state":"active","ping":81},{"user_id":631,"name":"God","steam_id":76561198131089513,"connected_time":1221000000000,"state":"active","ping":49},{"user_id":607,"name":"Oberon","steam_id":76561199360964272,"connected_time":3367000000000,"state":"active","ping":56},{"user_id":620,"name":"Løst","steam_id":76561198035677801,"connected_time":1699000000000,"state":"active","ping":59},{"user_id":641,"name":"SimSamS6","steam_id":76561198847553887,"connected_time":542000000000,"state":"active","ping":60},{"user_id":586,"name":"i really like this dog :)","steam_id":76561198882404753,"connected_time":4837000000000,"state":"active","ping":77},{"user_id":635,"name":"Colonel Chikara","steam_id":76561198010021087,"connected_time":1148000000000,"state":"active","ping":93},{"user_id":613,"name":"weezer red album","steam_id":76561198379857415,"connected_time":2614000000000,"state":"active","ping":62},{"user_id":636,"name":"Cdesmondd","steam_id":76561198072774462,"connected_time":1139000000000,"state":"active","ping":60},{"user_id":603,"name":"Streetwise","steam_id":76561197971684268,"connected_time":3809000000000,"state":"active","ping":102},{"user_id":567,"name":"Trove","steam_id":76561198110970476,"connected_time":6406000000000,"state":"active","ping":45},{"user_id":639,"name":"slep.py","steam_id":76561197988287144,"connected_time":885000000000,"state":"active","ping":59},{"user_id":643,"name":"Mr. Crispy Lips","steam_id":76561198028157625,"connected_time":533000000000,"state":"active","ping":99},{"user_id":582,"name":"Praise_to_the_Flashlight!","steam_id":76561199001728789,"connected_time":5196000000000,"state":"active","ping":63},{"user_id":628,"name":"briggs","steam_id":76561198045655893,"connected_time":1557000000000,"state":"active","ping":56},{"user_id":637,"name":"Lion of Judah","steam_id":76561198078674411,"connected_time":939000000000,"state":"active","ping":85}]},{"server_id":106,"name":"Uncletopia | Chicago | 2 | All Maps","name_short":"chi-2","host":"chi-1.us.uncletopia.com","port":27025,"enabled":true,"region":"us-central","cc":"us","latitude":41.881832,"longitude":-87.62318,"reserved":0,"last_update":"0001-01-01T00:00:00Z","name_a2s":"Uncletopia | Chicago | 2 | All Maps","protocol":17,"map":"pl_snowycoast","folder":"tf","game":"Team Fortress","app_id":440,"player_count":24,"max_players":24,"Bots":0,"server_type":"Dedicated","server_os":"Linux","password":true,"vac":true,"version":"7757534","steam_id":85568392924469985,"keywords":["nocrits","nodmgspread","payload","uncletopia"],"game_id":440,"stv_port":27026,"stv_name":"Uncletopia | Chicago | 2 | All Maps | STV","players":[{"user_id":576,"name":"bur","steam_id":76561198004231658,"connected_time":492000000000,"state":"active","ping":62},{"user_id":560,"name":"wunkem","steam_id":76561198055948497,"connected_time":2319000000000,"state":"active","ping":60},{"user_id":564,"name":"mashallah","steam_id":76561198075111427,"connected_time":1637000000000,"state":"active","ping":63},{"user_id":585,"name":"Spy Zoroark","steam_id":76561198054890339,"connected_time":204000000000,"state":"active","ping":48},{"user_id":567,"name":"lampin","steam_id":76561197964367078,"connected_time":1332000000000,"state":"active","ping":48},{"user_id":533,"name":"Donnie Blasto","steam_id":76561198043432005,"connected_time":4612000000000,"state":"active","ping":51},{"user_id":577,"name":"ChefBev","steam_id":76561198189448113,"connected_time":469000000000,"state":"active","ping":69},{"user_id":578,"name":"Maxxycat","steam_id":76561198194062681,"connected_time":443000000000,"state":"active","ping":58},{"user_id":579,"name":"Cyclaw","steam_id":76561198076045689,"connected_time":433000000000,"state":"active","ping":51},{"user_id":518,"name":"Jake The Snake","steam_id":76561198047722285,"connected_time":5169000000000,"state":"active","ping":89},{"user_id":570,"name":"gorf?","steam_id":76561198142286417,"connected_time":1306000000000,"state":"active","ping":59},{"user_id":511,"name":"Xaukra","steam_id":76561198180742229,"connected_time":5430000000000,"state":"active","ping":70},{"user_id":566,"name":"Speedy","steam_id":76561198080761661,"connected_time":1524000000000,"state":"active","ping":78},{"user_id":580,"name":"Glar","steam_id":76561198341907150,"connected_time":383000000000,"state":"active","ping":83},{"user_id":519,"name":"Pokon","steam_id":76561198053113088,"connected_time":5167000000000,"state":"active","ping":60},{"user_id":549,"name":"Dr. Ｔｉｍｓｋａ","steam_id":76561198272075712,"connected_time":3040000000000,"state":"active","ping":71},{"user_id":548,"name":"Pepperoni King","steam_id":76561198190288063,"connected_time":3074000000000,"state":"active","ping":96},{"user_id":586,"name":"limes","steam_id":76561198150290787,"connected_time":169000000000,"state":"active","ping":82},{"user_id":582,"name":"Gamba","steam_id":76561198069264650,"connected_time":288000000000,"state":"active","ping":60},{"user_id":547,"name":"Cheese Master","steam_id":76561198189176634,"connected_time":3096000000000,"state":"active","ping":96},{"user_id":521,"name":"FrozenCowJuice","steam_id":76561198130568045,"connected_time":5125000000000,"state":"active","ping":48},{"user_id":575,"name":"Neophyte","steam_id":76561198027183394,"connected_time":614000000000,"state":"active","ping":92},{"user_id":527,"name":"i forgor","steam_id":76561199120622265,"connected_time":4994000000000,"state":"active","ping":74},{"user_id":584,"name":"StonedGiant","steam_id":76561197984386932,"connected_time":258000000000,"state":"active","ping":60}]},{"server_id":402,"name":"Uncletopia | Chicago | 3 | All Maps","name_short":"chi-3","host":"chi-1.us.uncletopia.com","port":27035,"enabled":true,"region":"us-central","cc":"us","latitude":41.881832,"longitude":-87.62318,"reserved":0,"last_update":"0001-01-01T00:00:00Z","name_a2s":"Uncletopia | Chicago | 3 | All Maps","protocol":17,"map":"cp_sunshine","folder":"tf","game":"Team Fortress","app_id":440,"player_count":0,"max_players":24,"Bots":0,"server_type":"Dedicated","server_os":"Linux","password":true,"vac":true,"version":"7757534","steam_id":85568392924515191,"keywords":["cp","nocrits","nodmgspread","uncletopia"],"game_id":440,"stv_port":27036,"stv_name":"Uncletopia | Chicago | 3 | All Maps | STV","players":null},{"server_id":403,"name":"Uncletopia | Chicago | 4 | All Maps","name_short":"chi-4","host":"chi-1.us.uncletopia.com","port":27045,"enabled":true,"region":"us-central","cc":"us","latitude":41.881832,"longitude":-87.62318,"reserved":0,"last_update":"0001-01-01T00:00:00Z","name_a2s":"Uncletopia | Chicago | 4 | All Maps","protocol":17,"map":"pl_swiftwater_final1","folder":"tf","game":"Team Fortress","app_id":440,"player_count":24,"max_players":24,"Bots":0,"server_type":"Dedicated","server_os":"Linux","password":true,"vac":true,"version":"7757534","steam_id":85568392924515193,"keywords":["nocrits","nodmgspread","payload","uncletopia"],"game_id":440,"stv_port":27046,"stv_name":"Uncletopia | Chicago | 4 | All Maps | STV","players":[{"user_id":438,"name":"Brian","steam_id":76561198144650969,"connected_time":1163000000000,"state":"active","ping":79},{"user_id":439,"name":"Nut Bustray","steam_id":76561198092403883,"connected_time":1058000000000,"state":"active","ping":102},{"user_id":424,"name":"36","steam_id":76561199482235026,"connected_time":2252000000000,"state":"active","ping":67},{"user_id":455,"name":"El_Matador","steam_id":76561198213022720,"connected_time":316000000000,"state":"active","ping":74},{"user_id":437,"name":"steven","steam_id":76561198173047169,"connected_time":1447000000000,"state":"active","ping":60},{"user_id":456,"name":"wile","steam_id":76561198125261443,"connected_time":266000000000,"state":"active","ping":111},{"user_id":409,"name":"Sera","steam_id":76561197994547338,"connected_time":3050000000000,"state":"active","ping":66},{"user_id":425,"name":"JellyParrot","steam_id":76561199190990163,"connected_time":2235000000000,"state":"active","ping":66},{"user_id":449,"name":"SelvesterTM","steam_id":76561198084974799,"connected_time":912000000000,"state":"active","ping":105},{"user_id":441,"name":"Cassini","steam_id":76561198318526294,"connected_time":1023000000000,"state":"active","ping":71},{"user_id":457,"name":"zpalmtree","steam_id":76561198134307620,"connected_time":243000000000,"state":"active","ping":65},{"user_id":412,"name":"fnaf 3","steam_id":76561198278943839,"connected_time":2895000000000,"state":"active","ping":118},{"user_id":458,"name":"LuciD","steam_id":76561198242842394,"connected_time":228000000000,"state":"active","ping":100},{"user_id":434,"name":"AJTarcza","steam_id":76561198070800190,"connected_time":1732000000000,"state":"active","ping":87},{"user_id":428,"name":"Dr Oshawott","steam_id":76561198042021629,"connected_time":1996000000000,"state":"active","ping":67},{"user_id":444,"name":"Winter the Witchie","steam_id":76561198151971178,"connected_time":986000000000,"state":"active","ping":60},{"user_id":445,"name":"Kodey","steam_id":76561198143586302,"connected_time":963000000000,"state":"active","ping":86},{"user_id":430,"name":"Flowers","steam_id":76561198031669899,"connected_time":1961000000000,"state":"active","ping":85},{"user_id":380,"name":"unlikelycure","steam_id":76561199174450788,"connected_time":5881000000000,"state":"active","ping":103},{"user_id":451,"name":"Super™ Classic Edition","steam_id":76561198171655735,"connected_time":466000000000,"state":"active","ping":83},{"user_id":453,"name":"bain dmg","steam_id":76561198102681457,"connected_time":374000000000,"state":"active","ping":69},{"user_id":450,"name":"Slashes","steam_id":76561197968573499,"connected_time":877000000000,"state":"active","ping":60},{"user_id":454,"name":"turtle","steam_id":76561198112673874,"connected_time":355000000000,"state":"active","ping":99},{"user_id":418,"name":"MusicDisc","steam_id":76561199065980569,"connected_time":2605000000000,"state":"active","ping":93}]},{"server_id":36,"name":"Uncletopia | Chicago | 5 | All Maps","name_short":"chi-5","host":"chi-2.us.uncletopia.com","port":27015,"enabled":true,"region":"us-central","cc":"us","latitude":41.881832,"longitude":-87.62318,"reserved":0,"last_update":"0001-01-01T00:00:00Z","name_a2s":"Uncletopia | Chicago | 5 | All Maps","protocol":17,"map":"pl_pier","folder":"tf","game":"Team Fortress","app_id":440,"player_count":2,"max_players":24,"Bots":0,"server_type":"Dedicated","server_os":"Linux","password":true,"vac":true,"version":"7757534","steam_id":85568392924866362,"keywords":["nocrits","nodmgspread","payload","uncletopia"],"game_id":440,"stv_port":27016,"stv_name":"Uncletopia | Chicago | 5 | All Maps | STV","players":[{"user_id":257,"name":"trashbro","steam_id":76561199417993197,"connected_time":448000000000,"state":"active","ping":99},{"user_id":259,"name":"Fluffacorn, also Free Melee","steam_id":76561198301839998,"connected_time":18000000000,"state":"active","ping":159}]},{"server_id":37,"name":"Uncletopia | Chicago | 6 | All Maps","name_short":"chi-6","host":"chi-2.us.uncletopia.com","port":27025,"enabled":true,"region":"us-central","cc":"us","latitude":41.881832,"longitude":-87.62318,"reserved":0,"last_update":"0001-01-01T00:00:00Z","name_a2s":"Uncletopia | Chicago | 6 | All Maps","protocol":17,"map":"pl_borneo","folder":"tf","game":"Team Fortress","app_id":440,"player_count":24,"max_players":24,"Bots":0,"server_type":"Dedicated","server_os":"Linux","password":true,"vac":true,"version":"7757534","steam_id":85568392924866363,"keywords":["nocrits","nodmgspread","payload","uncletopia"],"game_id":440,"stv_port":27026,"stv_name":"Uncletopia | Chicago | 6 | All Maps | STV","players":[{"user_id":390,"name":"TheVoidPotatUwU","steam_id":76561198869981759,"connected_time":1887000000000,"state":"active","ping":125},{"user_id":345,"name":"Sychke","steam_id":76561198067144055,"connected_time":7048000000000,"state":"active","ping":44},{"user_id":408,"name":"Amado Sanzu","steam_id":76561198450782299,"connected_time":461000000000,"state":"active","ping":74},{"user_id":388,"name":"Ortadragon","steam_id":76561198023058412,"connected_time":2771000000000,"state":"active","ping":101},{"user_id":400,"name":"Pants","steam_id":76561197966222755,"connected_time":1505000000000,"state":"active","ping":45},{"user_id":417,"name":"PAFFsTastyPudding","steam_id":76561199002203593,"connected_time":28000000000,"state":"spawning","ping":105},{"user_id":346,"name":"garbo","steam_id":76561198149280150,"connected_time":7025000000000,"state":"active","ping":85},{"user_id":415,"name":"Lore","steam_id":76561198098407538,"connected_time":231000000000,"state":"active","ping":51},{"user_id":409,"name":"Joey Lemons","steam_id":76561198068104187,"connected_time":445000000000,"state":"active","ping":30},{"user_id":378,"name":"Novatonix","steam_id":76561198150980760,"connected_time":4755000000000,"state":"active","ping":71},{"user_id":374,"name":"Juevos","steam_id":76561198066142119,"connected_time":4860000000000,"state":"active","ping":141},{"user_id":416,"name":"Flaming O'Gaming","steam_id":76561198044185725,"connected_time":186000000000,"state":"active","ping":74},{"user_id":395,"name":"Titan Exodos","steam_id":76561198063852935,"connected_time":1789000000000,"state":"active","ping":100},{"user_id":396,"name":"demoknight tf2","steam_id":76561198070393998,"connected_time":1786000000000,"state":"active","ping":57},{"user_id":383,"name":"Stan_The_Stick_Man","steam_id":76561198158340112,"connected_time":3541000000000,"state":"active","ping":119},{"user_id":407,"name":"Lunacy","steam_id":76561199386273760,"connected_time":651000000000,"state":"active","ping":117},{"user_id":381,"name":"Countputzala","steam_id":76561198121150316,"connected_time":4406000000000,"state":"active","ping":105},{"user_id":343,"name":"hashmap","steam_id":76561198043794014,"connected_time":7086000000000,"state":"active","ping":49},{"user_id":398,"name":"silvanae324","steam_id":76561199150642573,"connected_time":1733000000000,"state":"active","ping":103},{"user_id":411,"name":"MaxPropaganda","steam_id":76561198860163436,"connected_time":411000000000,"state":"active","ping":60},{"user_id":401,"name":"Aztec2","steam_id":76561198073017764,"connected_time":1501000000000,"state":"active","ping":129},{"user_id":403,"name":"girl smell","steam_id":76561198118962168,"connected_time":1118000000000,"state":"active","ping":93},{"user_id":350,"name":"Wimojimo12","steam_id":76561198370459596,"connected_time":6947000000000,"state":"active","ping":61},{"user_id":413,"name":"LeNoobe","steam_id":76561199092079229,"connected_time":271000000000,"state":"active","ping":108}]},{"server_id":38,"name":"Uncletopia | Chicago | 7 | Stopwatch Beta","name_short":"chi-7","host":"chi-2.us.uncletopia.com","port":27035,"enabled":true,"region":"us-central","cc":"us","latitude":41.881832,"longitude":-87.62318,"reserved":0,"last_update":"0001-01-01T00:00:00Z","name_a2s":"Uncletopia | Chicago | 7 | Stopwatch Beta","protocol":17,"map":"workshop/koth_ashville_final.ugc2130459942","folder":"tf","game":"Team Fortress","app_id":440,"player_count":4,"max_players":24,"Bots":0,"server_type":"Dedicated","server_os":"Linux","password":true,"vac":true,"version":"7757534","steam_id":85568392924866364,"keywords":["cp","nocrits","nodmgspread","uncletopia"],"game_id":440,"stv_port":27036,"stv_name":"Uncletopia | Chicago | 7 | Stopwatch Beta | STV","players":[{"user_id":164,"name":"yuki562","steam_id":76561198355068405,"connected_time":2503000000000,"state":"active","ping":63},{"user_id":169,"name":"Stick","steam_id":76561198001509374,"connected_time":2026000000000,"state":"active","ping":64},{"user_id":141,"name":"lesio","steam_id":76561198064249174,"connected_time":4276000000000,"state":"active","ping":68},{"user_id":151,"name":"sciencenerd42","steam_id":76561198274563320,"connected_time":3985000000000,"state":"active","ping":46}]},{"server_id":39,"name":"Uncletopia | Chicago | 8 | Community","name_short":"chi-8","host":"chi-2.us.uncletopia.com","port":27045,"enabled":true,"region":"us-central","cc":"us","latitude":41.881832,"longitude":-87.62318,"reserved":0,"last_update":"0001-01-01T00:00:00Z","name_a2s":"Uncletopia | Chicago | 8 | Community","protocol":17,"map":"workshop/pl_vigil_rc9.ugc1266210012","folder":"tf","game":"Team Fortress","app_id":440,"player_count":16,"max_players":24,"Bots":0,"server_type":"Dedicated","server_os":"Linux","password":true,"vac":true,"version":"7757534","steam_id":85568392924866365,"keywords":["nocrits","nodmgspread","payload","uncletopia"],"game_id":440,"stv_port":27046,"stv_name":"Uncletopia | Chicago | 8 | Community | STV","players":[{"user_id":346,"name":"Zoot","steam_id":76561198121944243,"connected_time":764000000000,"state":"active","ping":73},{"user_id":347,"name":"Edder","steam_id":76561198011088393,"connected_time":752000000000,"state":"active","ping":81},{"user_id":352,"name":"Potato","steam_id":76561198115677693,"connected_time":207000000000,"state":"active","ping":53},{"user_id":353,"name":"farfalle","steam_id":76561198882758067,"connected_time":141000000000,"state":"active","ping":45},{"user_id":354,"name":"Kaldor Draigo","steam_id":76561198317662346,"connected_time":133000000000,"state":"active","ping":74},{"user_id":355,"name":"Monkey D. Management","steam_id":76561198400603422,"connected_time":109000000000,"state":"active","ping":65},{"user_id":246,"name":"Robin","steam_id":76561198121165149,"connected_time":6724000000000,"state":"active","ping":38},{"user_id":356,"name":"Binkems","steam_id":76561198084220655,"connected_time":76000000000,"state":"active","ping":55},{"user_id":351,"name":"leukemosabe","steam_id":76561198370427861,"connected_time":491000000000,"state":"active","ping":104},{"user_id":357,"name":"Fedoras are awesome","steam_id":76561198040418719,"connected_time":53000000000,"state":"spawning","ping":96},{"user_id":358,"name":"jom","steam_id":76561198044597012,"connected_time":12000000000,"state":"active","ping":146},{"user_id":325,"name":"night.light","steam_id":76561198014557455,"connected_time":2261000000000,"state":"active","ping":60},{"user_id":330,"name":"MR. BEEEEEEEEEEAAAAAAAAAST","steam_id":76561198205346760,"connected_time":2160000000000,"state":"active","ping":48},{"user_id":298,"name":"LEGALIZE NUCLEAR BOMBS","steam_id":76561198031675881,"connected_time":3780000000000,"state":"active","ping":35},{"user_id":239,"name":"๖Ðiestow","steam_id":76561198046662484,"connected_time":7631000000000,"state":"active","ping":75},{"user_id":343,"name":"Spygie","steam_id":76561198218573049,"connected_time":903000000000,"state":"active","ping":54}]},{"server_id":8,"name":"Uncletopia | Dallas | 1 | All Maps","name_short":"dal-1","host":"dal-1.us.uncletopia.com","port":27015,"enabled":true,"region":"us-central","cc":"us","latitude":32.779167,"longitude":-96.80889,"reserved":0,"last_update":"0001-01-01T00:00:00Z","name_a2s":"Uncletopia | Dallas | 1 | All Maps","protocol":17,"map":"plr_hightower","folder":"tf","game":"Team Fortress","app_id":440,"player_count":24,"max_players":24,"Bots":0,"server_type":"Dedicated","server_os":"Linux","password":true,"vac":true,"version":"7757534","steam_id":85568392924469986,"keywords":["nocrits","nodmgspread","payload","uncletopia"],"game_id":440,"stv_port":27016,"stv_name":"Uncletopia | Dallas | 1 | All Maps | STV","players":[{"user_id":255,"name":"Jarate Jihadi","steam_id":76561197999837455,"connected_time":7474000000000,"state":"active","ping":72},{"user_id":347,"name":"vertical orientation correction","steam_id":76561198007464245,"connected_time":1085000000000,"state":"active","ping":76},{"user_id":348,"name":"Luna","steam_id":76561198131342156,"connected_time":1062000000000,"state":"active","ping":66},{"user_id":336,"name":"jeroid123","steam_id":76561198025167421,"connected_time":1622000000000,"state":"active","ping":69},{"user_id":314,"name":"Oro from Simpsons","steam_id":76561199481745795,"connected_time":2603000000000,"state":"active","ping":47},{"user_id":320,"name":"Op banana","steam_id":76561198303231451,"connected_time":2297000000000,"state":"active","ping":42},{"user_id":359,"name":"Jacket","steam_id":76561198125415247,"connected_time":124000000000,"state":"active","ping":89},{"user_id":310,"name":"BoopBerry","steam_id":76561198871571711,"connected_time":3071000000000,"state":"active","ping":88},{"user_id":333,"name":"Kyzer","steam_id":76561198048034600,"connected_time":1783000000000,"state":"active","ping":92},{"user_id":353,"name":"momb","steam_id":76561198142234038,"connected_time":497000000000,"state":"active","ping":85},{"user_id":316,"name":"DAS SCHNITZELSTIEN","steam_id":76561198051137159,"connected_time":2385000000000,"state":"active","ping":116},{"user_id":357,"name":"0V3RS33R.setup","steam_id":76561199088764719,"connected_time":204000000000,"state":"active","ping":164},{"user_id":327,"name":"Puppermint Latte","steam_id":76561198076054697,"connected_time":1915000000000,"state":"active","ping":87},{"user_id":346,"name":"THE JOKE IS TOO COMPLICATED","steam_id":76561198175955138,"connected_time":1202000000000,"state":"active","ping":86},{"user_id":328,"name":"WILDF1RE","steam_id":76561198050098483,"connected_time":1915000000000,"state":"active","ping":90},{"user_id":354,"name":"G_Bob","steam_id":76561198098133233,"connected_time":439000000000,"state":"active","ping":73},{"user_id":329,"name":"Space_Cowboy","steam_id":76561198202240772,"connected_time":1913000000000,"state":"active","ping":71},{"user_id":356,"name":"Salium","steam_id":76561197961546093,"connected_time":397000000000,"state":"active","ping":76},{"user_id":277,"name":"Harold","steam_id":76561198057317770,"connected_time":5621000000000,"state":"active","ping":75},{"user_id":360,"name":"Smittywerbenjager-manjenson","steam_id":76561198067060742,"connected_time":91000000000,"state":"active","ping":57},{"user_id":221,"name":"Ballista","steam_id":76561197983182562,"connected_time":11163000000000,"state":"active","ping":54},{"user_id":335,"name":"DesertFroggo","steam_id":76561198015607829,"connected_time":1660000000000,"state":"active","ping":140},{"user_id":345,"name":"Sploof","steam_id":76561198078577114,"connected_time":1233000000000,"state":"active","ping":91},{"user_id":358,"name":"Olly","steam_id":76561198054273611,"connected_time":203000000000,"state":"active","ping":80}]},{"server_id":108,"name":"Uncletopia | Dallas | 2 | All Maps","name_short":"dal-2","host":"dal-1.us.uncletopia.com","port":27025,"enabled":true,"region":"us-central","cc":"us","latitude":32.779167,"longitude":-96.80889,"reserved":0,"last_update":"0001-01-01T00:00:00Z","name_a2s":"Uncletopia | Dallas | 2 | All Maps","protocol":17,"map":"pl_barnblitz","folder":"tf","game":"Team Fortress","app_id":440,"player_count":24,"max_players":24,"Bots":0,"server_type":"Dedicated","server_os":"Linux","password":true,"vac":true,"version":"7757534","steam_id":85568392924469988,"keywords":["nocrits","nodmgspread","payload","uncletopia"],"game_id":440,"stv_port":27026,"stv_name":"Uncletopia | Dallas | 2 | All Maps | STV","players":[{"user_id":816,"name":"Brother Pudge","steam_id":76561198247815090,"connected_time":2059000000000,"state":"active","ping":78},{"user_id":775,"name":"TheFryingDutchman","steam_id":76561199193784099,"connected_time":5887000000000,"state":"active","ping":73},{"user_id":820,"name":"AudaCD","steam_id":76561198202775853,"connected_time":1750000000000,"state":"active","ping":60},{"user_id":815,"name":"Mythius","steam_id":76561198401392472,"connected_time":2080000000000,"state":"active","ping":92},{"user_id":818,"name":"Sammich Slinger","steam_id":76561198007644532,"connected_time":1832000000000,"state":"active","ping":75},{"user_id":832,"name":"Peter Popoff","steam_id":76561198027171160,"connected_time":325000000000,"state":"active","ping":60},{"user_id":830,"name":"Woozy","steam_id":76561198008220735,"connected_time":497000000000,"state":"active","ping":108},{"user_id":829,"name":"Dugan Ashley","steam_id":76561198035712014,"connected_time":852000000000,"state":"active","ping":93},{"user_id":803,"name":"John16Mark","steam_id":76561198119445407,"connected_time":3211000000000,"state":"active","ping":63},{"user_id":821,"name":"Aino","steam_id":76561198053662930,"connected_time":1709000000000,"state":"active","ping":110},{"user_id":813,"name":"A Straw","steam_id":76561199367935846,"connected_time":2601000000000,"state":"active","ping":75},{"user_id":822,"name":"gancho","steam_id":76561198170706982,"connected_time":1485000000000,"state":"active","ping":33},{"user_id":823,"name":"squidDMV","steam_id":76561199481268436,"connected_time":1482000000000,"state":"active","ping":48},{"user_id":750,"name":"Joe Swanson","steam_id":76561199089907740,"connected_time":9143000000000,"state":"active","ping":68},{"user_id":824,"name":"plink","steam_id":76561198057829889,"connected_time":1476000000000,"state":"active","ping":77},{"user_id":812,"name":"pizza hutsman","steam_id":76561199026721822,"connected_time":2711000000000,"state":"active","ping":86},{"user_id":790,"name":"Chad","steam_id":76561198222313772,"connected_time":4809000000000,"state":"active","ping":103},{"user_id":833,"name":"AustinSV","steam_id":76561198013394808,"connected_time":150000000000,"state":"active","ping":91},{"user_id":826,"name":"mac_cheese","steam_id":76561198071334162,"connected_time":1450000000000,"state":"active","ping":98},{"user_id":827,"name":"Just Chuck","steam_id":76561198121697504,"connected_time":1449000000000,"state":"active","ping":82},{"user_id":828,"name":"Apollo","steam_id":76561198212077205,"connected_time":1434000000000,"state":"active","ping":43},{"user_id":792,"name":"MrNarwhale","steam_id":76561198222364020,"connected_time":4721000000000,"state":"active","ping":99},{"user_id":793,"name":"beleaguered harlot","steam_id":76561198036884600,"connected_time":4682000000000,"state":"active","ping":92},{"user_id":771,"name":"swag messiah","steam_id":76561197983860697,"connected_time":6226000000000,"state":"active","ping":183}]},{"server_id":5,"name":"Uncletopia | Frankfurt | 1 | All Maps","name_short":"frk-1","host":"frk-1.de.uncletopia.com","port":27015,"enabled":true,"region":"eu","cc":"de","latitude":50.110924,"longitude":8.682127,"reserved":0,"last_update":"0001-01-01T00:00:00Z","name_a2s":"Uncletopia | Frankfurt | 1 | All Maps","protocol":17,"map":"pl_swiftwater_final1","folder":"tf","game":"Team Fortress","app_id":440,"player_count":0,"max_players":24,"Bots":0,"server_type":"Dedicated","server_os":"Linux","password":true,"vac":true,"version":"7757534","steam_id":85568392924469989,"keywords":["nocrits","nodmgspread","payload","uncletopia"],"game_id":440,"stv_port":27016,"stv_name":"Uncletopia | Frankfurt | 1 | All Maps | STV","players":null},{"server_id":110,"name":"Uncletopia | Frankfurt | 2 | All Maps","name_short":"frk-2","host":"frk-1.de.uncletopia.com","port":27025,"enabled":true,"region":"eu","cc":"de","latitude":50.110924,"longitude":8.682127,"reserved":0,"last_update":"0001-01-01T00:00:00Z","name_a2s":"Uncletopia | Frankfurt | 2 | All Maps","protocol":17,"map":"koth_cascade","folder":"tf","game":"Team Fortress","app_id":440,"player_count":0,"max_players":24,"Bots":0,"server_type":"Dedicated","server_os":"Linux","password":true,"vac":true,"version":"7757534","steam_id":85568392924469990,"keywords":["cp","nocrits","nodmgspread","uncletopia"],"game_id":440,"stv_port":27026,"stv_name":"Uncletopia | Frankfurt | 2 | All Maps | STV","players":null},{"server_id":308,"name":"Uncletopia | Frankfurt | 3 | All Maps","name_short":"frk-3","host":"frk-1.de.uncletopia.com","port":27035,"enabled":true,"region":"eu","cc":"de","latitude":50.110924,"longitude":8.682127,"reserved":0,"last_update":"0001-01-01T00:00:00Z","name_a2s":"Uncletopia | Frankfurt | 3 | All Maps","protocol":17,"map":"pl_borneo","folder":"tf","game":"Team Fortress","app_id":440,"player_count":0,"max_players":24,"Bots":0,"server_type":"Dedicated","server_os":"Linux","password":true,"vac":true,"version":"7757534","steam_id":85568392924504274,"keywords":["nocrits","nodmgspread","payload","uncletopia"],"game_id":440,"stv_port":27036,"stv_name":"Uncletopia | Frankfurt | 3 | All Maps | STV","players":null},{"server_id":309,"name":"Uncletopia | Frankfurt | 4 | All Maps","name_short":"frk-4","host":"frk-1.de.uncletopia.com","port":27045,"enabled":true,"region":"eu","cc":"de","latitude":50.110924,"longitude":8.682127,"reserved":0,"last_update":"0001-01-01T00:00:00Z","name_a2s":"Uncletopia | Frankfurt | 4 | All Maps","protocol":17,"map":"pl_snowycoast","folder":"tf","game":"Team Fortress","app_id":440,"player_count":0,"max_players":24,"Bots":0,"server_type":"Dedicated","server_os":"Linux","password":true,"vac":true,"version":"7757534","steam_id":85568392924504275,"keywords":["nocrits","nodmgspread","payload","uncletopia"],"game_id":440,"stv_port":27046,"stv_name":"Uncletopia | Frankfurt | 4 | All Maps | STV","players":null},{"server_id":310,"name":"Uncletopia | Frankfurt | 5 | All Maps","name_short":"frk-5","host":"frk-1.de.uncletopia.com","port":27055,"enabled":true,"region":"eu","cc":"de","latitude":50.110924,"longitude":8.682127,"reserved":0,"last_update":"0001-01-01T00:00:00Z","name_a2s":"Uncletopia | Frankfurt | 5 | All Maps","protocol":17,"map":"cp_mountainlab","folder":"tf","game":"Team Fortress","app_id":440,"player_count":0,"max_players":24,"Bots":0,"server_type":"Dedicated","server_os":"Linux","password":true,"vac":true,"version":"7757534","steam_id":85568392924504277,"keywords":["cp","nocrits","nodmgspread","uncletopia"],"game_id":440,"stv_port":27056,"stv_name":"Uncletopia | Frankfurt | 5 | All Maps | STV","players":null},{"server_id":311,"name":"Uncletopia | Frankfurt | 6 | All Maps","name_short":"frk-6","host":"frk-1.de.uncletopia.com","port":27065,"enabled":true,"region":"eu","cc":"de","latitude":50.110924,"longitude":8.682127,"reserved":0,"last_update":"0001-01-01T00:00:00Z","name_a2s":"Uncletopia | Frankfurt | 6 | All Maps","protocol":17,"map":"koth_cascade","folder":"tf","game":"Team Fortress","app_id":440,"player_count":0,"max_players":24,"Bots":0,"server_type":"Dedicated","server_os":"Linux","password":true,"vac":true,"version":"7757534","steam_id":85568392924504278,"keywords":["cp","nocrits","nodmgspread","uncletopia"],"game_id":440,"stv_port":27066,"stv_name":"Uncletopia | Frankfurt | 6 | All Maps | STV","players":null},{"server_id":23,"name":"Uncletopia | Frankfurt | 7 | Stopwatch Beta","name_short":"frk-7","host":"frk-1.de.uncletopia.com","port":27075,"enabled":true,"region":"eu","cc":"de","latitude":50.110924,"longitude":8.682127,"reserved":0,"last_update":"0001-01-01T00:00:00Z","name_a2s":"Uncletopia | Frankfurt | 7 | Stopwatch Beta","protocol":17,"map":"koth_highpass","folder":"tf","game":"Team Fortress","app_id":440,"player_count":0,"max_players":24,"Bots":0,"server_type":"Dedicated","server_os":"Linux","password":true,"vac":true,"version":"7757534","steam_id":85568392924742827,"keywords":["cp","nocrits","nodmgspread","uncletopia"],"game_id":440,"stv_port":27076,"stv_name":"Uncletopia | Frankfurt | 7 | Stopwatch Beta | STV","players":null},{"server_id":24,"name":"Uncletopia | Frankfurt | 8 | Community","name_short":"frk-8","host":"frk-1.de.uncletopia.com","port":27085,"enabled":true,"region":"eu","cc":"de","latitude":50.110924,"longitude":8.682127,"reserved":0,"last_update":"0001-01-01T00:00:00Z","name_a2s":"Uncletopia | Frankfurt | 8 | Community","protocol":17,"map":"workshop/pl_vigil_rc9.ugc1266210012","folder":"tf","game":"Team Fortress","app_id":440,"player_count":0,"max_players":24,"Bots":0,"server_type":"Dedicated","server_os":"Linux","password":true,"vac":true,"version":"7757534","steam_id":85568392924742828,"keywords":["nocrits","nodmgspread","payload","uncletopia"],"game_id":440,"stv_port":27086,"stv_name":"Uncletopia | Frankfurt | 8 | Community | STV","players":null},{"server_id":202,"name":"Uncletopia | Hong Kong | 1 | All Maps","name_short":"hgk-1","host":"hgk-1.hk.uncletopia.com","port":27015,"enabled":true,"region":"asia","cc":"hk","latitude":22.302711,"longitude":114.177216,"reserved":0,"last_update":"0001-01-01T00:00:00Z","name_a2s":"Uncletopia | Hong Kong | 1 | All Maps","protocol":17,"map":"koth_viaduct","folder":"tf","game":"Team Fortress","app_id":440,"player_count":9,"max_players":24,"Bots":0,"server_type":"Dedicated","server_os":"Linux","password":true,"vac":true,"version":"7757534","steam_id":85568392924494504,"keywords":["cp","nocrits","nodmgspread","uncletopia"],"game_id":440,"stv_port":27016,"stv_name":"Uncletopia | Hong Kong | 1 | All Maps | STV","players":[{"user_id":39,"name":"Xx_EpicTrickstabber_xX","steam_id":76561199024960087,"connected_time":2822000000000,"state":"active","ping":64},{"user_id":18,"name":"Gefin","steam_id":76561198944317181,"connected_time":6208000000000,"state":"active","ping":75},{"user_id":52,"name":"The Worst Mobile Gamer","steam_id":76561199198665314,"connected_time":767000000000,"state":"active","ping":68},{"user_id":55,"name":"cellum95","steam_id":76561198172146871,"connected_time":445000000000,"state":"active","ping":59},{"user_id":11,"name":"プロゲーマー","steam_id":76561199017344476,"connected_time":8022000000000,"state":"active","ping":79},{"user_id":56,"name":"Likes","steam_id":76561198012769267,"connected_time":176000000000,"state":"active","ping":76},{"user_id":57,"name":"lime","steam_id":76561198367981056,"connected_time":94000000000,"state":"active","ping":30},{"user_id":58,"name":"LoKomi","steam_id":76561198419919248,"connected_time":30000000000,"state":"active","ping":118},{"user_id":47,"name":"Air Peanut","steam_id":76561198060068000,"connected_time":1722000000000,"state":"active","ping":69}]},{"server_id":1,"name":"Uncletopia | Los Angeles | 1 | All Maps","name_short":"lax-1","host":"lax-1.us.uncletopia.com","port":27015,"enabled":true,"region":"us-west","cc":"us","latitude":33.94279,"longitude":-118.41004,"reserved":0,"last_update":"0001-01-01T00:00:00Z","name_a2s":"Uncletopia | Los Angeles | 1 | All Maps","protocol":17,"map":"pl_thundermountain","folder":"tf","game":"Team Fortress","app_id":440,"player_count":24,"max_players":24,"Bots":0,"server_type":"Dedicated","server_os":"Linux","password":true,"vac":true,"version":"7757534","steam_id":85568392924469991,"keywords":["nocrits","nodmgspread","payload","uncletopia"],"game_id":440,"stv_port":27016,"stv_name":"Uncletopia | Los Angeles | 1 | All Maps | STV","players":[{"user_id":416,"name":"Pyrotek⁴","steam_id":76561198072747672,"connected_time":1204000000000,"state":"active","ping":43},{"user_id":407,"name":"imtoofadedicantevendapuup","steam_id":76561198180372310,"connected_time":2074000000000,"state":"active","ping":90},{"user_id":395,"name":"Geight","steam_id":76561197991645292,"connected_time":2730000000000,"state":"active","ping":99},{"user_id":418,"name":"how do i control my guy?","steam_id":76561198158855211,"connected_time":1167000000000,"state":"active","ping":71},{"user_id":417,"name":"cactus eater","steam_id":76561199107499844,"connected_time":1180000000000,"state":"active","ping":58},{"user_id":353,"name":"[DATS➡] Sugar Meowth","steam_id":76561197995251793,"connected_time":5176000000000,"state":"active","ping":75},{"user_id":419,"name":"gromit","steam_id":76561198037746805,"connected_time":1166000000000,"state":"active","ping":122},{"user_id":420,"name":"megaroboleg","steam_id":76561198844644993,"connected_time":1161000000000,"state":"active","ping":60},{"user_id":399,"name":"Satori Komeiji","steam_id":76561198158211423,"connected_time":2564000000000,"state":"active","ping":47},{"user_id":440,"name":"viciousbeatmaker","steam_id":76561198086876652,"connected_time":212000000000,"state":"active","ping":70},{"user_id":386,"name":"twitch.tv/Don_Bongo","steam_id":76561197976735155,"connected_time":3199000000000,"state":"active","ping":98},{"user_id":425,"name":"Spike","steam_id":76561198141356571,"connected_time":934000000000,"state":"active","ping":117},{"user_id":422,"name":"CBUR","steam_id":76561198437498149,"connected_time":1098000000000,"state":"active","ping":70},{"user_id":423,"name":"VicLoL","steam_id":76561198045580784,"connected_time":1043000000000,"state":"active","ping":53},{"user_id":430,"name":"Nugakku","steam_id":76561198082346219,"connected_time":863000000000,"state":"active","ping":50},{"user_id":442,"name":"cjetson","steam_id":76561198074482272,"connected_time":88000000000,"state":"active","ping":64},{"user_id":436,"name":"stupid pussy syndrome","steam_id":76561198984612489,"connected_time":403000000000,"state":"active","ping":49},{"user_id":433,"name":"yosh.wav","steam_id":76561199127755834,"connected_time":570000000000,"state":"active","ping":80},{"user_id":403,"name":"tim1975","steam_id":76561199328301077,"connected_time":2514000000000,"state":"active","ping":65},{"user_id":391,"name":"BigBadger","steam_id":76561197996567694,"connected_time":3135000000000,"state":"active","ping":94},{"user_id":394,"name":"Shu","steam_id":76561198086205207,"connected_time":2772000000000,"state":"active","ping":84},{"user_id":406,"name":"Vincent Van Bro","steam_id":76561197966919802,"connected_time":2127000000000,"state":"active","ping":91},{"user_id":441,"name":"gamerkhang","steam_id":76561197994201184,"connected_time":159000000000,"state":"active","ping":37},{"user_id":279,"name":"LAN!!K^","steam_id":76561199229169363,"connected_time":9720000000000,"state":"active","ping":126}]},{"server_id":112,"name":"Uncletopia | Los Angeles | 2 | All Maps","name_short":"lax-2","host":"lax-1.us.uncletopia.com","port":27025,"enabled":true,"region":"us-west","cc":"us","latitude":33.94279,"longitude":-118.41004,"reserved":0,"last_update":"0001-01-01T00:00:00Z","name_a2s":"Uncletopia | Los Angeles | 2 | All Maps","protocol":17,"map":"cp_mountainlab","folder":"tf","game":"Team Fortress","app_id":440,"player_count":24,"max_players":24,"Bots":0,"server_type":"Dedicated","server_os":"Linux","password":true,"vac":true,"version":"7757534","steam_id":85568392924469992,"keywords":["cp","nocrits","nodmgspread","uncletopia"],"game_id":440,"stv_port":27026,"stv_name":"Uncletopia | Los Angeles | 2 | All Maps | STV","players":[{"user_id":418,"name":"Jpzarde","steam_id":76561197978240364,"connected_time":911000000000,"state":"active","ping":77},{"user_id":409,"name":"Snapcaster","steam_id":76561199127590316,"connected_time":1512000000000,"state":"active","ping":59},{"user_id":408,"name":"Aequalis747","steam_id":76561199456589841,"connected_time":1627000000000,"state":"active","ping":65},{"user_id":400,"name":"Flunk","steam_id":76561198012070780,"connected_time":2305000000000,"state":"active","ping":96},{"user_id":420,"name":"vioxynteris","steam_id":76561198161428666,"connected_time":450000000000,"state":"active","ping":33},{"user_id":327,"name":"MonkeyNobody","steam_id":76561199451266605,"connected_time":6656000000000,"state":"active","ping":54},{"user_id":394,"name":"A man with no plan","steam_id":76561198031075099,"connected_time":2829000000000,"state":"active","ping":99},{"user_id":378,"name":"Dededoo","steam_id":76561198279033471,"connected_time":3731000000000,"state":"active","ping":100},{"user_id":336,"name":"A UsedNom","steam_id":76561198402832756,"connected_time":6350000000000,"state":"active","ping":53},{"user_id":422,"name":"Peter, what are you doing?","steam_id":76561198066452726,"connected_time":364000000000,"state":"active","ping":52},{"user_id":379,"name":"The Foolish Samurai","steam_id":76561198094494945,"connected_time":3704000000000,"state":"active","ping":71},{"user_id":421,"name":"timmy20715","steam_id":76561198071715426,"connected_time":447000000000,"state":"active","ping":165},{"user_id":369,"name":"RipHunter77","steam_id":76561198272973014,"connected_time":4123000000000,"state":"active","ping":105},{"user_id":410,"name":"runicarc","steam_id":76561199209277380,"connected_time":1487000000000,"state":"active","ping":69},{"user_id":367,"name":"VoodooPapa","steam_id":76561199160439066,"connected_time":4309000000000,"state":"active","ping":61},{"user_id":423,"name":"AgrevEtse","steam_id":76561198847633630,"connected_time":301000000000,"state":"active","ping":83},{"user_id":424,"name":"{ᴛʀ_ᴄᴇʀᴘ} shullers","steam_id":76561198889997809,"connected_time":292000000000,"state":"active","ping":45},{"user_id":404,"name":"Clagger","steam_id":76561198066701092,"connected_time":1863000000000,"state":"active","ping":67},{"user_id":419,"name":"BigGoose","steam_id":76561198833281392,"connected_time":721000000000,"state":"active","ping":72},{"user_id":392,"name":"Lemonade Juice","steam_id":76561198402892608,"connected_time":3000000000000,"state":"active","ping":45},{"user_id":381,"name":"Baggage","steam_id":76561198215128080,"connected_time":3695000000000,"state":"active","ping":66},{"user_id":399,"name":"SPAMTON NFT","steam_id":76561198263004448,"connected_time":2380000000000,"state":"active","ping":49},{"user_id":417,"name":"Cythemanticore","steam_id":76561198346374610,"connected_time":1068000000000,"state":"active","ping":70},{"user_id":425,"name":"Dingle","steam_id":76561198108761337,"connected_time":285000000000,"state":"active","ping":50}]},{"server_id":324,"name":"Uncletopia | Los Angeles | 3 | All Maps","name_short":"lax-3","host":"lax-1.us.uncletopia.com","port":27035,"enabled":true,"region":"us-west","cc":"us","latitude":33.94279,"longitude":-118.41004,"reserved":0,"last_update":"0001-01-01T00:00:00Z","name_a2s":"Uncletopia | Los Angeles | 3 | All Maps","protocol":17,"map":"pl_upward","folder":"tf","game":"Team Fortress","app_id":440,"player_count":24,"max_players":24,"Bots":0,"server_type":"Dedicated","server_os":"Linux","password":true,"vac":true,"version":"7757534","steam_id":85568392924510198,"keywords":["nocrits","nodmgspread","payload","uncletopia"],"game_id":440,"stv_port":27036,"stv_name":"Uncletopia | Los Angeles | 3 | All Maps | STV","players":[{"user_id":225,"name":"cup","steam_id":76561198121245586,"connected_time":651000000000,"state":"active","ping":88},{"user_id":222,"name":"cringy","steam_id":76561198323000455,"connected_time":865000000000,"state":"active","ping":60},{"user_id":218,"name":"Inadequate","steam_id":76561198108263810,"connected_time":1045000000000,"state":"active","ping":66},{"user_id":168,"name":"128 GB RAM SENTRY","steam_id":76561198059500571,"connected_time":4623000000000,"state":"active","ping":94},{"user_id":227,"name":"Slim Charles","steam_id":76561197981687895,"connected_time":580000000000,"state":"active","ping":61},{"user_id":220,"name":"M9 Shyamalan","steam_id":76561198149425560,"connected_time":960000000000,"state":"active","ping":89},{"user_id":214,"name":"sora","steam_id":76561198094256973,"connected_time":1525000000000,"state":"active","ping":56},{"user_id":199,"name":"SN0W","steam_id":76561198153665468,"connected_time":2810000000000,"state":"active","ping":85},{"user_id":203,"name":"the stallion","steam_id":76561198212242403,"connected_time":2428000000000,"state":"active","ping":45},{"user_id":204,"name":"Jolly","steam_id":76561198116357972,"connected_time":2082000000000,"state":"active","ping":50},{"user_id":188,"name":"Power Jake","steam_id":76561198051510260,"connected_time":3473000000000,"state":"active","ping":61},{"user_id":195,"name":"RapidXenophage","steam_id":76561198175149973,"connected_time":2928000000000,"state":"active","ping":90},{"user_id":190,"name":"Squirrel","steam_id":76561198010113101,"connected_time":3398000000000,"state":"active","ping":60},{"user_id":196,"name":"whathashit69","steam_id":76561199013105760,"connected_time":2917000000000,"state":"active","ping":102},{"user_id":205,"name":"Pah-Wraith Gul Dukat","steam_id":76561198033918106,"connected_time":1945000000000,"state":"active","ping":50},{"user_id":216,"name":"DiscoTraveler","steam_id":76561199240168088,"connected_time":1157000000000,"state":"active","ping":98},{"user_id":201,"name":"Honky Bobocop #Cheeba","steam_id":76561198264288798,"connected_time":2656000000000,"state":"active","ping":50},{"user_id":181,"name":"Frank (#ripJimmyCarter)","steam_id":76561198126681511,"connected_time":3925000000000,"state":"active","ping":86},{"user_id":221,"name":"Remmy","steam_id":76561198268857418,"connected_time":955000000000,"state":"active","ping":119},{"user_id":212,"name":"Rose","steam_id":76561198955581861,"connected_time":1573000000000,"state":"active","ping":52},{"user_id":202,"name":"SevereTireDamage","steam_id":76561198866019085,"connected_time":2613000000000,"state":"active","ping":123},{"user_id":226,"name":"Bonchiko","steam_id":76561198065133470,"connected_time":651000000000,"state":"active","ping":94},{"user_id":223,"name":"Nightlygalad","steam_id":76561198170693990,"connected_time":810000000000,"state":"active","ping":53},{"user_id":198,"name":"airbudenjoyer2012","steam_id":76561198150428763,"connected_time":2843000000000,"state":"active","ping":55}]},{"server_id":25,"name":"Uncletopia | Los Angeles | 4 | Stopwatch Beta","name_short":"lax-4","host":"lax-1.us.uncletopia.com","port":27045,"enabled":true,"region":"us-west","cc":"us","latitude":33.94279,"longitude":-118.41004,"reserved":0,"last_update":"0001-01-01T00:00:00Z","name_a2s":"Uncletopia | Los Angeles | 4 | Stopwatch Beta","protocol":17,"map":"pl_swiftwater_final1","folder":"tf","game":"Team Fortress","app_id":440,"player_count":0,"max_players":24,"Bots":0,"server_type":"Dedicated","server_os":"Linux","password":true,"vac":true,"version":"7757534","steam_id":85568392924510199,"keywords":["nocrits","nodmgspread","payload","uncletopia"],"game_id":440,"stv_port":27046,"stv_name":"Uncletopia | Los Angeles | 4 | Stopwatch Beta | STV","players":null},{"server_id":11,"name":"Uncletopia | London | 1 | All Maps","name_short":"lon-1","host":"lon-1.uk.uncletopia.com","port":27015,"enabled":true,"region":"eu","cc":"gb","latitude":51.509865,"longitude":-0.118092,"reserved":0,"last_update":"0001-01-01T00:00:00Z","name_a2s":"Uncletopia | London | 1 | All Maps","protocol":17,"map":"pl_frontier_final","folder":"tf","game":"Team Fortress","app_id":440,"player_count":17,"max_players":24,"Bots":0,"server_type":"Dedicated","server_os":"Linux","password":true,"vac":true,"version":"7757534","steam_id":85568392924367362,"keywords":["nocrits","nodmgspread","payload","uncletopia"],"game_id":440,"stv_port":27016,"stv_name":"Uncletopia | London | 1 | All Maps | STV","players":[{"user_id":1121,"name":"noahjwarner09","steam_id":76561199444479988,"connected_time":9000000000,"state":"spawning","ping":135},{"user_id":1093,"name":"Kavary","steam_id":76561198024792146,"connected_time":2040000000000,"state":"active","ping":89},{"user_id":1074,"name":"Taha ,","steam_id":76561199259524970,"connected_time":3234000000000,"state":"active","ping":111},{"user_id":1089,"name":"i_dunno_how_to_type","steam_id":76561198995020535,"connected_time":2115000000000,"state":"active","ping":111},{"user_id":1094,"name":"MK-Ultra","steam_id":76561198799692444,"connected_time":1994000000000,"state":"active","ping":130},{"user_id":1096,"name":"Juliocrivera","steam_id":76561198003186978,"connected_time":1939000000000,"state":"active","ping":139},{"user_id":1115,"name":"Angsty","steam_id":76561198341761343,"connected_time":382000000000,"state":"active","ping":44},{"user_id":1101,"name":"oldy","steam_id":76561198031899043,"connected_time":1635000000000,"state":"active","ping":99},{"user_id":1056,"name":"Lewylow","steam_id":76561198005425686,"connected_time":4618000000000,"state":"active","ping":66},{"user_id":1097,"name":"bumo","steam_id":76561197963231514,"connected_time":1932000000000,"state":"active","ping":185},{"user_id":1098,"name":"HauntedNobu","steam_id":76561199202411385,"connected_time":1845000000000,"state":"active","ping":191},{"user_id":1109,"name":"tweetlytweet","steam_id":76561198014193239,"connected_time":1271000000000,"state":"active","ping":137},{"user_id":1114,"name":"JeiVron","steam_id":76561199115124869,"connected_time":488000000000,"state":"active","ping":162},{"user_id":1105,"name":"FUFUS","steam_id":76561198035253605,"connected_time":1419000000000,"state":"active","ping":146},{"user_id":1116,"name":"Killing","steam_id":76561198107392931,"connected_time":368000000000,"state":"active","ping":44},{"user_id":1118,"name":"minn","steam_id":76561198099101232,"connected_time":275000000000,"state":"active","ping":46},{"user_id":1120,"name":"Razorblade Butterfly","steam_id":76561198161502139,"connected_time":170000000000,"state":"active","ping":104}]},{"server_id":114,"name":"Uncletopia | London | 2 | All Maps","name_short":"lon-2","host":"lon-1.uk.uncletopia.com","port":27025,"enabled":true,"region":"eu","cc":"gb","latitude":51.509865,"longitude":-0.118092,"reserved":0,"last_update":"0001-01-01T00:00:00Z","name_a2s":"Uncletopia | London | 2 | All Maps","protocol":17,"map":"koth_viaduct","folder":"tf","game":"Team Fortress","app_id":440,"player_count":0,"max_players":24,"Bots":0,"server_type":"Dedicated","server_os":"Linux","password":true,"vac":true,"version":"7757534","steam_id":85568392924470941,"keywords":["cp","nocrits","nodmgspread","uncletopia"],"game_id":440,"stv_port":27026,"stv_name":"Uncletopia | London | 2 | All Maps | STV","players":null},{"server_id":320,"name":"Uncletopia | London | 3 | All Maps","name_short":"lon-3","host":"lon-1.uk.uncletopia.com","port":27035,"enabled":true,"region":"eu","cc":"gb","latitude":51.509865,"longitude":-0.118092,"reserved":0,"last_update":"0001-01-01T00:00:00Z","name_a2s":"Uncletopia | London | 3 | All Maps","protocol":17,"map":"koth_lakeside_final","folder":"tf","game":"Team Fortress","app_id":440,"player_count":0,"max_players":24,"Bots":0,"server_type":"Dedicated","server_os":"Linux","password":true,"vac":true,"version":"7757534","steam_id":85568392924510192,"keywords":["cp","nocrits","nodmgspread","uncletopia"],"game_id":440,"stv_port":27036,"stv_name":"Uncletopia | London | 3 | All Maps | STV","players":null},{"server_id":321,"name":"Uncletopia | London | 4 | All Maps","name_short":"lon-4","host":"lon-1.uk.uncletopia.com","port":27045,"enabled":true,"region":"eu","cc":"gb","latitude":51.509865,"longitude":-0.118092,"reserved":0,"last_update":"0001-01-01T00:00:00Z","name_a2s":"Uncletopia | London | 4 | All Maps","protocol":17,"map":"koth_viaduct","folder":"tf","game":"Team Fortress","app_id":440,"player_count":0,"max_players":24,"Bots":0,"server_type":"Dedicated","server_os":"Linux","password":true,"vac":true,"version":"7757534","steam_id":85568392924510193,"keywords":["cp","nocrits","nodmgspread","uncletopia"],"game_id":440,"stv_port":27046,"stv_name":"Uncletopia | London | 4 | All Maps | STV","players":null},{"server_id":21,"name":"Uncletopia | London | 5 | All Maps","name_short":"lon-5","host":"lon-1.uk.uncletopia.com","port":27055,"enabled":true,"region":"eu","cc":"gb","latitude":51.509865,"longitude":-0.118092,"reserved":0,"last_update":"0001-01-01T00:00:00Z","name_a2s":"Uncletopia | London | 5 | All Maps","protocol":17,"map":"koth_highpass","folder":"tf","game":"Team Fortress","app_id":440,"player_count":0,"max_players":24,"Bots":0,"server_type":"Dedicated","server_os":"Linux","password":true,"vac":true,"version":"7757534","steam_id":85568392924742829,"keywords":["cp","nocrits","nodmgspread","uncletopia"],"game_id":440,"stv_port":27056,"stv_name":"Uncletopia | London | 5 | All Maps | STV","players":null},{"server_id":22,"name":"Uncletopia | London | 6 | All Maps","name_short":"lon-6","host":"lon-1.uk.uncletopia.com","port":27065,"enabled":true,"region":"eu","cc":"gb","latitude":51.509865,"longitude":-0.118092,"reserved":0,"last_update":"0001-01-01T00:00:00Z","name_a2s":"Uncletopia | London | 6 | All Maps","protocol":17,"map":"cp_dustbowl","folder":"tf","game":"Team Fortress","app_id":440,"player_count":0,"max_players":24,"Bots":0,"server_type":"Dedicated","server_os":"Linux","password":true,"vac":true,"version":"7757534","steam_id":85568392924742830,"keywords":["cp","nocrits","nodmgspread","uncletopia"],"game_id":440,"stv_port":27066,"stv_name":"Uncletopia | London | 6 | All Maps | STV","players":null},{"server_id":40,"name":"Uncletopia | London | 7 | No Payload","name_short":"lon-7","host":"lon-1.uk.uncletopia.com","port":27075,"enabled":true,"region":"eu","cc":"gb","latitude":51.509865,"longitude":-0.118092,"reserved":0,"last_update":"0001-01-01T00:00:00Z","name_a2s":"Uncletopia | London | 7 | No Payload","protocol":17,"map":"ctf_doublecross","folder":"tf","game":"Team Fortress","app_id":440,"player_count":0,"max_players":24,"Bots":0,"server_type":"Dedicated","server_os":"Linux","password":true,"vac":true,"version":"7757534","steam_id":85568392924964314,"keywords":["ctf","nocrits","nodmgspread","uncletopia"],"game_id":440,"stv_port":27076,"stv_name":"Uncletopia | London | 7 | No Payload | STV","players":null},{"server_id":41,"name":"Uncletopia | London | 8 | Community","name_short":"lon-8","host":"lon-1.uk.uncletopia.com","port":27085,"enabled":true,"region":"eu","cc":"gb","latitude":51.509865,"longitude":-0.118092,"reserved":0,"last_update":"0001-01-01T00:00:00Z","name_a2s":"Uncletopia | London | 8 | Community","protocol":17,"map":"pl_barnblitz","folder":"tf","game":"Team Fortress","app_id":440,"player_count":0,"max_players":24,"Bots":0,"server_type":"Dedicated","server_os":"Linux","password":true,"vac":true,"version":"7757534","steam_id":85568392924964315,"keywords":["nocrits","nodmgspread","payload","uncletopia"],"game_id":440,"stv_port":27086,"stv_name":"Uncletopia | London | 8 | Community | STV","players":null},{"server_id":300,"name":"Uncletopia | Montréal | 1 | All Maps","name_short":"mtl-1","host":"mtl-1.ca.uncletopia.com","port":27015,"enabled":true,"region":"us-east","cc":"ca","latitude":45.50889,"longitude":-73.56167,"reserved":0,"last_update":"0001-01-01T00:00:00Z","name_a2s":"Uncletopia | Montréal | 1 | All Maps","protocol":17,"map":"ctf_2fort","folder":"tf","game":"Team Fortress","app_id":440,"player_count":3,"max_players":24,"Bots":0,"server_type":"Dedicated","server_os":"Linux","password":true,"vac":true,"version":"7757534","steam_id":85568392924500087,"keywords":["ctf","nocrits","nodmgspread","uncletopia"],"game_id":440,"stv_port":27016,"stv_name":"Uncletopia | Montréal | 1 | All Maps | STV","players":[{"user_id":37,"name":"Bip","steam_id":76561199022962204,"connected_time":1834000000000,"state":"active","ping":76},{"user_id":38,"name":"averagesoldiermain","steam_id":76561198158447466,"connected_time":1780000000000,"state":"active","ping":89},{"user_id":39,"name":"CivilWarMike","steam_id":76561198141188839,"connected_time":1779000000000,"state":"active","ping":72}]},{"server_id":301,"name":"Uncletopia | Montréal | 2 | All Maps","name_short":"mtl-2","host":"mtl-1.ca.uncletopia.com","port":27025,"enabled":true,"region":"us-east","cc":"ca","latitude":45.50889,"longitude":-73.56167,"reserved":0,"last_update":"0001-01-01T00:00:00Z","name_a2s":"Uncletopia | Montréal | 2 | All Maps","protocol":17,"map":"cp_snakewater_final1","folder":"tf","game":"Team Fortress","app_id":440,"player_count":0,"max_players":24,"Bots":0,"server_type":"Dedicated","server_os":"Linux","password":true,"vac":true,"version":"7757534","steam_id":85568392924500088,"keywords":["cp","nocrits","nodmgspread","uncletopia"],"game_id":440,"stv_port":27026,"stv_name":"Uncletopia | Montréal | 2 | All Maps | STV","players":null},{"server_id":302,"name":"Uncletopia | Montréal | 3 | All Maps","name_short":"mtl-3","host":"mtl-1.ca.uncletopia.com","port":27035,"enabled":true,"region":"us-east","cc":"ca","latitude":45.50889,"longitude":-73.56167,"reserved":0,"last_update":"0001-01-01T00:00:00Z","name_a2s":"Uncletopia | Montréal | 3 | All Maps","protocol":17,"map":"pl_borneo","folder":"tf","game":"Team Fortress","app_id":440,"player_count":0,"max_players":24,"Bots":0,"server_type":"Dedicated","server_os":"Linux","password":true,"vac":true,"version":"7757534","steam_id":85568392924500089,"keywords":["nocrits","nodmgspread","payload","uncletopia"],"game_id":440,"stv_port":27036,"stv_name":"Uncletopia | Montréal | 3 | All Maps | STV","players":null},{"server_id":303,"name":"Uncletopia | Montréal | 4 | No Payload","name_short":"mtl-4","host":"mtl-1.ca.uncletopia.com","port":27045,"enabled":true,"region":"us-east","cc":"ca","latitude":45.50889,"longitude":-73.56167,"reserved":0,"last_update":"0001-01-01T00:00:00Z","name_a2s":"Uncletopia | Montréal | 4 | No Payload","protocol":17,"map":"ctf_2fort","folder":"tf","game":"Team Fortress","app_id":440,"player_count":0,"max_players":24,"Bots":0,"server_type":"Dedicated","server_os":"Linux","password":true,"vac":true,"version":"7757534","steam_id":85568392924500090,"keywords":["ctf","nocrits","nodmgspread","uncletopia"],"game_id":440,"stv_port":27046,"stv_name":"Uncletopia | Montréal | 4 | No Payload | STV","players":null},{"server_id":13,"name":"Uncletopia | New York City | 1 | All Maps","name_short":"nyc-1","host":"nyc-1.us.uncletopia.com","port":27015,"enabled":true,"region":"us-east","cc":"us","latitude":40.73061,"longitude":-73.93524,"reserved":0,"last_update":"0001-01-01T00:00:00Z","name_a2s":"Uncletopia | New York City | 1 | All Maps","protocol":17,"map":"pl_swiftwater_final1","folder":"tf","game":"Team Fortress","app_id":440,"player_count":24,"max_players":24,"Bots":0,"server_type":"Dedicated","server_os":"Linux","password":true,"vac":true,"version":"7757534","steam_id":85568392924469993,"keywords":["nocrits","nodmgspread","payload","uncletopia"],"game_id":440,"stv_port":27016,"stv_name":"Uncletopia | New York City | 1 | All Maps | STV","players":[{"user_id":728,"name":"frizzle fried","steam_id":76561198062991744,"connected_time":1603000000000,"state":"active","ping":56},{"user_id":743,"name":"great1photo","steam_id":76561198085481933,"connected_time":437000000000,"state":"active","ping":72},{"user_id":732,"name":"Milk (she/her)","steam_id":76561198348941784,"connected_time":883000000000,"state":"active","ping":495},{"user_id":733,"name":"CatLike Pigeon","steam_id":76561198171716030,"connected_time":824000000000,"state":"active","ping":133},{"user_id":734,"name":"Bugc97","steam_id":76561198007662645,"connected_time":753000000000,"state":"active","ping":96},{"user_id":748,"name":"Bottom-Fragging Dog Witch","steam_id":76561198103496593,"connected_time":330000000000,"state":"active","ping":64},{"user_id":737,"name":"BillTheBober","steam_id":76561198350152969,"connected_time":690000000000,"state":"active","ping":58},{"user_id":744,"name":"The King","steam_id":76561198117344758,"connected_time":415000000000,"state":"active","ping":79},{"user_id":701,"name":"Rei Ayanami","steam_id":76561198853092631,"connected_time":3714000000000,"state":"active","ping":89},{"user_id":740,"name":"boof","steam_id":76561198053901968,"connected_time":530000000000,"state":"active","ping":102},{"user_id":749,"name":"迷路的狐狸akemii✿","steam_id":76561198406252824,"connected_time":321000000000,"state":"active","ping":120},{"user_id":741,"name":"Triggolo Jones","steam_id":76561198034069260,"connected_time":503000000000,"state":"active","ping":102},{"user_id":726,"name":"ThePirateKenway","steam_id":76561198115156181,"connected_time":1805000000000,"state":"active","ping":60},{"user_id":742,"name":"count$$$inmydreams","steam_id":76561198232617936,"connected_time":484000000000,"state":"active","ping":68},{"user_id":745,"name":"Bl4ckDmon","steam_id":76561198099591549,"connected_time":409000000000,"state":"active","ping":60},{"user_id":751,"name":"Sloppy Hoes","steam_id":76561198114922735,"connected_time":177000000000,"state":"active","ping":51},{"user_id":747,"name":"DracoDumpEm.Duncan","steam_id":76561198040741271,"connected_time":378000000000,"state":"active","ping":35},{"user_id":752,"name":"Monty","steam_id":76561197993567253,"connected_time":168000000000,"state":"active","ping":114},{"user_id":753,"name":"Qwonk","steam_id":76561198041975003,"connected_time":140000000000,"state":"active","ping":74},{"user_id":510,"name":"Gentoo Linux Gaming","steam_id":76561197999657118,"connected_time":17642000000000,"state":"active","ping":62},{"user_id":754,"name":"StarWither","steam_id":76561198383264295,"connected_time":112000000000,"state":"active","ping":124},{"user_id":755,"name":"`o2","steam_id":76561197992030936,"connected_time":106000000000,"state":"active","ping":48},{"user_id":727,"name":"Shady Shopkeep","steam_id":76561198025307628,"connected_time":1776000000000,"state":"active","ping":99},{"user_id":568,"name":"CatGurl Exterminator","steam_id":76561198124311404,"connected_time":12677000000000,"state":"active","ping":72}]},{"server_id":14,"name":"Uncletopia | New York City | 2 | All Maps","name_short":"nyc-2","host":"nyc-1.us.uncletopia.com","port":27025,"enabled":true,"region":"us-east","cc":"us","latitude":40.73061,"longitude":-73.93524,"reserved":0,"last_update":"0001-01-01T00:00:00Z","name_a2s":"Uncletopia | New York City | 2 | All Maps","protocol":17,"map":"pl_hoodoo_final","folder":"tf","game":"Team Fortress","app_id":440,"player_count":24,"max_players":24,"Bots":0,"server_type":"Dedicated","server_os":"Linux","password":true,"vac":true,"version":"7757534","steam_id":85568392924469994,"keywords":["nocrits","nodmgspread","payload","uncletopia"],"game_id":440,"stv_port":27026,"stv_name":"Uncletopia | New York City | 2 | All Maps | STV","players":[{"user_id":537,"name":"Donnie","steam_id":76561198880525140,"connected_time":36000000000,"state":"active","ping":49},{"user_id":491,"name":"1001NinjaDucks","steam_id":76561198058169660,"connected_time":5056000000000,"state":"active","ping":51},{"user_id":528,"name":"puss","steam_id":76561198409588134,"connected_time":670000000000,"state":"active","ping":75},{"user_id":484,"name":"Guy In A Peashooter Costume","steam_id":76561198832738000,"connected_time":5301000000000,"state":"active","ping":56},{"user_id":483,"name":"Antwan","steam_id":76561198246200638,"connected_time":5409000000000,"state":"active","ping":85},{"user_id":523,"name":"ʕ•ᴥ•ʔ the bear","steam_id":76561197989591976,"connected_time":831000000000,"state":"active","ping":62},{"user_id":471,"name":"Wigl","steam_id":76561198019324464,"connected_time":6169000000000,"state":"active","ping":60},{"user_id":533,"name":"Bubblegum Bitch","steam_id":76561198043307965,"connected_time":139000000000,"state":"active","ping":117},{"user_id":516,"name":"agleeps","steam_id":76561198810128404,"connected_time":2476000000000,"state":"active","ping":56},{"user_id":477,"name":"Zero","steam_id":76561199383267408,"connected_time":5910000000000,"state":"active","ping":83},{"user_id":460,"name":"Periculosum PhD in Funny","steam_id":76561198123370914,"connected_time":7725000000000,"state":"active","ping":87},{"user_id":500,"name":"clcktwn","steam_id":76561198066405943,"connected_time":4257000000000,"state":"active","ping":63},{"user_id":476,"name":"Terror-Billy #SaveTF2","steam_id":76561198328141870,"connected_time":6081000000000,"state":"active","ping":62},{"user_id":511,"name":"Spring Beans","steam_id":76561197978546259,"connected_time":3440000000000,"state":"active","ping":76},{"user_id":486,"name":"Ratsmacker","steam_id":76561199156102683,"connected_time":5229000000000,"state":"active","ping":109},{"user_id":530,"name":"Bigsumoslammer","steam_id":76561198044505076,"connected_time":472000000000,"state":"active","ping":45},{"user_id":529,"name":"Shmoopy","steam_id":76561198030459152,"connected_time":647000000000,"state":"active","ping":77},{"user_id":478,"name":"Bear bird","steam_id":76561198166769479,"connected_time":5800000000000,"state":"active","ping":65},{"user_id":532,"name":"dying","steam_id":76561198044612407,"connected_time":328000000000,"state":"active","ping":56},{"user_id":503,"name":"MAXIMUS","steam_id":76561198085809453,"connected_time":3958000000000,"state":"active","ping":81},{"user_id":522,"name":"Vera","steam_id":76561198090552029,"connected_time":1050000000000,"state":"active","ping":56},{"user_id":499,"name":"LAB8","steam_id":76561198047743526,"connected_time":4303000000000,"state":"active","ping":106},{"user_id":519,"name":"a table","steam_id":76561198158461279,"connected_time":1210000000000,"state":"active","ping":66},{"user_id":535,"name":"GIGAMODE","steam_id":76561198027140064,"connected_time":138000000000,"state":"active","ping":71}]},{"server_id":15,"name":"Uncletopia | New York City | 3 | Stopwatch Beta","name_short":"nyc-3","host":"nyc-1.us.uncletopia.com","port":27035,"enabled":true,"region":"us-east","cc":"us","latitude":40.73061,"longitude":-73.93524,"reserved":0,"last_update":"0001-01-01T00:00:00Z","name_a2s":"Uncletopia | New York City | 3 | Stopwatch Beta","protocol":17,"map":"cp_sunshine","folder":"tf","game":"Team Fortress","app_id":440,"player_count":21,"max_players":24,"Bots":0,"server_type":"Dedicated","server_os":"Linux","password":true,"vac":true,"version":"7757534","steam_id":85568392924742820,"keywords":["cp","nocrits","nodmgspread","uncletopia"],"game_id":440,"stv_port":27036,"stv_name":"Uncletopia | New York City | 3 | Stopwatch Beta | STV","players":[{"user_id":162,"name":"goro majima real","steam_id":76561198355300617,"connected_time":1874000000000,"state":"active","ping":71},{"user_id":158,"name":"Redleaf","steam_id":76561198092109820,"connected_time":1937000000000,"state":"active","ping":116},{"user_id":163,"name":"Fresh_Knight","steam_id":76561198880477970,"connected_time":1826000000000,"state":"active","ping":80},{"user_id":155,"name":"Utsuho Reiuji","steam_id":76561198367281334,"connected_time":2244000000000,"state":"active","ping":51},{"user_id":164,"name":"vegetable","steam_id":76561198190417719,"connected_time":1806000000000,"state":"active","ping":55},{"user_id":106,"name":"Junko","steam_id":76561198146089003,"connected_time":5808000000000,"state":"active","ping":30},{"user_id":153,"name":"Dreamy Sweat from 2hu","steam_id":76561198094602446,"connected_time":2446000000000,"state":"active","ping":83},{"user_id":178,"name":"tide*･ﾟ✧","steam_id":76561198092224185,"connected_time":987000000000,"state":"active","ping":45},{"user_id":172,"name":"☹","steam_id":76561198804763186,"connected_time":1513000000000,"state":"active","ping":42},{"user_id":167,"name":"King","steam_id":76561198010019214,"connected_time":1638000000000,"state":"active","ping":33},{"user_id":173,"name":"lanoc","steam_id":76561198055415367,"connected_time":1465000000000,"state":"active","ping":69},{"user_id":169,"name":"java","steam_id":76561198030276792,"connected_time":1621000000000,"state":"active","ping":48},{"user_id":127,"name":"Reisen Udongein Inaba","steam_id":76561198051082314,"connected_time":4570000000000,"state":"active","ping":127},{"user_id":170,"name":"AlecTheNefarious","steam_id":76561198035291230,"connected_time":1621000000000,"state":"active","ping":82},{"user_id":175,"name":"St. Michael","steam_id":76561198037611052,"connected_time":1181000000000,"state":"active","ping":77},{"user_id":179,"name":"leumas","steam_id":76561198240408540,"connected_time":957000000000,"state":"active","ping":44},{"user_id":177,"name":"cheetaz","steam_id":76561198224614084,"connected_time":1043000000000,"state":"active","ping":60},{"user_id":183,"name":"Plinko","steam_id":76561197968530638,"connected_time":118000000000,"state":"active","ping":57},{"user_id":124,"name":"Crime Minister","steam_id":76561198106055104,"connected_time":4749000000000,"state":"active","ping":56},{"user_id":182,"name":"Jomo716","steam_id":76561199098476021,"connected_time":696000000000,"state":"active","ping":114},{"user_id":181,"name":"slack","steam_id":76561198000564263,"connected_time":806000000000,"state":"active","ping":74}]},{"server_id":16,"name":"Uncletopia | New York City | 4 | Community","name_short":"nyc-4","host":"nyc-1.us.uncletopia.com","port":27045,"enabled":true,"region":"us-east","cc":"us","latitude":40.73061,"longitude":-73.93524,"reserved":0,"last_update":"0001-01-01T00:00:00Z","name_a2s":"Uncletopia | New York City | 4 | Community","protocol":17,"map":"workshop/pl_divulgence_b4b.ugc2884808746","folder":"tf","game":"Team Fortress","app_id":440,"player_count":0,"max_players":24,"Bots":0,"server_type":"Dedicated","server_os":"Linux","password":true,"vac":true,"version":"7757534","steam_id":85568392924742821,"keywords":["nocrits","nodmgspread","payload","uncletopia"],"game_id":440,"stv_port":27046,"stv_name":"Uncletopia | New York City | 4 | Community | STV","players":null},{"server_id":142,"name":"Uncletopia | São Paulo | 1 | All Maps","name_short":"sao-1","host":"sao-1.br.uncletopia.com","port":27015,"enabled":true,"region":"sa","cc":"br","latitude":-23.533773,"longitude":-46.62529,"reserved":0,"last_update":"0001-01-01T00:00:00Z","name_a2s":"Uncletopia | São Paulo | 1 | All Maps","protocol":17,"map":"koth_highpass","folder":"tf","game":"Team Fortress","app_id":440,"player_count":0,"max_players":24,"Bots":0,"server_type":"Dedicated","server_os":"Linux","password":true,"vac":true,"version":"7757534","steam_id":85568392924469996,"keywords":["cp","nocrits","nodmgspread","uncletopia"],"game_id":440,"stv_port":27016,"stv_name":"Uncletopia | São Paulo | 1 | All Maps | STV","players":null},{"server_id":143,"name":"Uncletopia | São Paulo | 2 | All Maps","name_short":"sao-2","host":"sao-2.br.uncletopia.com","port":27015,"enabled":true,"region":"sa","cc":"br","latitude":-23.533773,"longitude":-46.62529,"reserved":0,"last_update":"0001-01-01T00:00:00Z","name_a2s":"Uncletopia | São Paulo | 2 | All Maps","protocol":17,"map":"cp_dustbowl","folder":"tf","game":"Team Fortress","app_id":440,"player_count":0,"max_players":24,"Bots":0,"server_type":"Dedicated","server_os":"Linux","password":true,"vac":true,"version":"7757534","steam_id":85568392924485349,"keywords":["cp","nocrits","nodmgspread","uncletopia"],"game_id":440,"stv_port":27016,"stv_name":"Uncletopia | São Paulo | 2 | All Maps | STV","players":null},{"server_id":7,"name":"Uncletopia | Seattle | 1 | All Maps","name_short":"sea-1","host":"sea-1.us.uncletopia.com","port":27015,"enabled":true,"region":"us-west","cc":"us","latitude":47.608013,"longitude":-122.33517,"reserved":0,"last_update":"0001-01-01T00:00:00Z","name_a2s":"Uncletopia | Seattle | 1 | All Maps","protocol":17,"map":"pl_upward","folder":"tf","game":"Team Fortress","app_id":440,"player_count":24,"max_players":24,"Bots":0,"server_type":"Dedicated","server_os":"Linux","password":true,"vac":true,"version":"7757534","steam_id":85568392924469997,"keywords":["nocrits","nodmgspread","payload","uncletopia"],"game_id":440,"stv_port":27016,"stv_name":"Uncletopia | Seattle | 1 | All Maps | STV","players":[{"user_id":796,"name":"OptiCxmShot","steam_id":76561198049019578,"connected_time":580000000000,"state":"active","ping":113},{"user_id":768,"name":"Glazed","steam_id":76561198043020404,"connected_time":1379000000000,"state":"active","ping":73},{"user_id":797,"name":"hoOmIN","steam_id":76561198334947079,"connected_time":574000000000,"state":"active","ping":74},{"user_id":795,"name":"SpinetinglingToast","steam_id":76561198099470670,"connected_time":642000000000,"state":"active","ping":119},{"user_id":680,"name":"Mitchell","steam_id":76561197972922328,"connected_time":5303000000000,"state":"active","ping":92},{"user_id":616,"name":"MCman","steam_id":76561198412110305,"connected_time":9744000000000,"state":"active","ping":73},{"user_id":798,"name":"Furious George","steam_id":76561198405111646,"connected_time":558000000000,"state":"active","ping":70},{"user_id":677,"name":"Snoogs","steam_id":76561198444880931,"connected_time":5526000000000,"state":"active","ping":131},{"user_id":667,"name":"FoodzAreGoodz","steam_id":76561198309262052,"connected_time":5906000000000,"state":"active","ping":76},{"user_id":660,"name":"Battery Acid Addict","steam_id":76561198439793697,"connected_time":6415000000000,"state":"active","ping":133},{"user_id":767,"name":"ant","steam_id":76561199011891002,"connected_time":1485000000000,"state":"active","ping":61},{"user_id":804,"name":"S Q U I S H E  T H A T  C A T","steam_id":76561198293865429,"connected_time":135000000000,"state":"active","ping":38},{"user_id":747,"name":"rat gets the cheese","steam_id":76561198031234032,"connected_time":1897000000000,"state":"active","ping":99},{"user_id":802,"name":"SquishyDog","steam_id":76561198059014380,"connected_time":494000000000,"state":"active","ping":85},{"user_id":769,"name":"reverie","steam_id":76561198168158637,"connected_time":1346000000000,"state":"active","ping":79},{"user_id":706,"name":"Tazzz","steam_id":76561198280897107,"connected_time":3095000000000,"state":"active","ping":45},{"user_id":793,"name":"Pinky","steam_id":76561198084685841,"connected_time":699000000000,"state":"active","ping":57},{"user_id":645,"name":"Fh","steam_id":76561198000903511,"connected_time":7315000000000,"state":"active","ping":67},{"user_id":699,"name":"Big Boss","steam_id":76561198850781444,"connected_time":3669000000000,"state":"active","ping":92},{"user_id":800,"name":"John Wick's puppy","steam_id":76561198064662875,"connected_time":537000000000,"state":"active","ping":71},{"user_id":775,"name":"Lazy-assed Prophet","steam_id":76561198214400452,"connected_time":1216000000000,"state":"active","ping":71},{"user_id":803,"name":"SvicidalBug","steam_id":76561198221390504,"connected_time":281000000000,"state":"active","ping":69},{"user_id":788,"name":"Big Buddy","steam_id":76561198107330467,"connected_time":796000000000,"state":"active","ping":110},{"user_id":772,"name":"Amateur Glaswegian","steam_id":76561198030851956,"connected_time":1294000000000,"state":"active","ping":49}]},{"server_id":119,"name":"Uncletopia | Seattle | 2 | All Maps","name_short":"sea-2","host":"sea-1.us.uncletopia.com","port":27025,"enabled":true,"region":"us-west","cc":"us","latitude":47.608013,"longitude":-122.33517,"reserved":0,"last_update":"0001-01-01T00:00:00Z","name_a2s":"Uncletopia | Seattle | 2 | All Maps","protocol":17,"map":"koth_sawmill","folder":"tf","game":"Team Fortress","app_id":440,"player_count":24,"max_players":24,"Bots":0,"server_type":"Dedicated","server_os":"Linux","password":true,"vac":true,"version":"7757534","steam_id":85568392924469998,"keywords":["cp","nocrits","nodmgspread","uncletopia"],"game_id":440,"stv_port":27026,"stv_name":"Uncletopia | Seattle | 2 | All Maps | STV","players":[{"user_id":623,"name":"Puskinti","steam_id":76561198032120688,"connected_time":93000000000,"state":"active","ping":56},{"user_id":606,"name":"Stolas","steam_id":76561199207776727,"connected_time":793000000000,"state":"active","ping":62},{"user_id":477,"name":"General Fisticuffs","steam_id":76561198255721392,"connected_time":3588000000000,"state":"active","ping":113},{"user_id":638,"name":"FIRETROOP277","steam_id":76561198418201110,"connected_time":9000000000,"state":"active","ping":56},{"user_id":636,"name":"MrTinRobot","steam_id":76561198056698474,"connected_time":11000000000,"state":"spawning","ping":42},{"user_id":548,"name":"McSpazatron","steam_id":76561198955942148,"connected_time":2297000000000,"state":"active","ping":133},{"user_id":520,"name":"Mico (Mico)","steam_id":76561198125462953,"connected_time":2707000000000,"state":"active","ping":53},{"user_id":604,"name":"MaDeuce","steam_id":76561198110732835,"connected_time":978000000000,"state":"active","ping":62},{"user_id":617,"name":"Indicative","steam_id":76561199076612537,"connected_time":297000000000,"state":"active","ping":87},{"user_id":595,"name":"121256","steam_id":76561197974860359,"connected_time":1168000000000,"state":"active","ping":92},{"user_id":607,"name":"Fachedin","steam_id":76561198041850415,"connected_time":785000000000,"state":"active","ping":69},{"user_id":608,"name":"wafflehamster2000","steam_id":76561198849161820,"connected_time":752000000000,"state":"active","ping":136},{"user_id":609,"name":"Rock Kickass","steam_id":76561198450510841,"connected_time":641000000000,"state":"active","ping":108},{"user_id":619,"name":"MisterManne","steam_id":76561198106598600,"connected_time":246000000000,"state":"active","ping":55},{"user_id":610,"name":"PachucoWaffle","steam_id":76561198051491032,"connected_time":632000000000,"state":"active","ping":56},{"user_id":625,"name":"Freyja","steam_id":76561198207412177,"connected_time":61000000000,"state":"active","ping":75},{"user_id":611,"name":"♥Npenplz♥","steam_id":76561197999605423,"connected_time":616000000000,"state":"active","ping":77},{"user_id":600,"name":"urrnamycx","steam_id":76561198044041144,"connected_time":1082000000000,"state":"active","ping":70},{"user_id":616,"name":"Patio","steam_id":76561197986082608,"connected_time":307000000000,"state":"active","ping":53},{"user_id":614,"name":"CollDragon","steam_id":76561198067534450,"connected_time":395000000000,"state":"active","ping":124},{"user_id":621,"name":"Ediot","steam_id":76561199349494096,"connected_time":232000000000,"state":"active","ping":132},{"user_id":637,"name":"KellyKapoor","steam_id":76561198040828123,"connected_time":10000000000,"state":"spawning","ping":56},{"user_id":563,"name":"SCOUT MAIN","steam_id":76561198129761524,"connected_time":2029000000000,"state":"active","ping":57},{"user_id":588,"name":"Feind","steam_id":76561199059653595,"connected_time":1342000000000,"state":"active","ping":50}]},{"server_id":406,"name":"Uncletopia | Seattle | 3 | Stopwatch Beta","name_short":"sea-3","host":"sea-1.us.uncletopia.com","port":27035,"enabled":true,"region":"us-west","cc":"us","latitude":47.608013,"longitude":-122.33517,"reserved":0,"last_update":"0001-01-01T00:00:00Z","name_a2s":"Uncletopia | Seattle | 3 | Stopwatch Beta","protocol":17,"map":"workshop/koth_bagel_rc6.ugc2514036946","folder":"tf","game":"Team Fortress","app_id":440,"player_count":24,"max_players":24,"Bots":0,"server_type":"Dedicated","server_os":"Linux","password":true,"vac":true,"version":"7757534","steam_id":85568392924515217,"keywords":["cp","nocrits","nodmgspread","uncletopia"],"game_id":440,"stv_port":27036,"stv_name":"Uncletopia | Seattle | 3 | Stopwatch Beta | STV","players":[{"user_id":125,"name":"Dongus","steam_id":76561197979056451,"connected_time":896000000000,"state":"active","ping":53},{"user_id":120,"name":"Deathkillsme","steam_id":76561198059468746,"connected_time":1505000000000,"state":"active","ping":53},{"user_id":126,"name":"Large Hardon Collider","steam_id":76561198023896605,"connected_time":891000000000,"state":"active","ping":114},{"user_id":107,"name":"moah380","steam_id":76561198090644581,"connected_time":2212000000000,"state":"active","ping":90},{"user_id":15,"name":"(TTV) The_Astrum_Guardian","steam_id":76561198130134103,"connected_time":8304000000000,"state":"active","ping":112},{"user_id":51,"name":"westward (was/were)","steam_id":76561198805512350,"connected_time":5595000000000,"state":"active","ping":63},{"user_id":104,"name":"Resh420","steam_id":76561198066619792,"connected_time":2459000000000,"state":"active","ping":75},{"user_id":124,"name":"Google","steam_id":76561198857237473,"connected_time":1106000000000,"state":"active","ping":46},{"user_id":129,"name":"Bee's","steam_id":76561198041888432,"connected_time":884000000000,"state":"active","ping":94},{"user_id":116,"name":"dogwater","steam_id":76561199416942289,"connected_time":1788000000000,"state":"active","ping":105},{"user_id":121,"name":"OH JIMMY I'M HOME #SaveTf2","steam_id":76561198396658806,"connected_time":1397000000000,"state":"active","ping":88},{"user_id":122,"name":"kr1tsurf3r","steam_id":76561198076402476,"connected_time":1310000000000,"state":"active","ping":93},{"user_id":117,"name":"tommy:3","steam_id":76561198041183975,"connected_time":1700000000000,"state":"active","ping":116},{"user_id":128,"name":"The Brain Fuckler","steam_id":76561198042601093,"connected_time":889000000000,"state":"active","ping":114},{"user_id":130,"name":"Polly Geist","steam_id":76561198271964253,"connected_time":880000000000,"state":"active","ping":65},{"user_id":131,"name":"JPEG Image","steam_id":76561199126026126,"connected_time":824000000000,"state":"active","ping":90},{"user_id":132,"name":"ROBMANFRED09SPIRITBOMBSYNC","steam_id":76561198070136627,"connected_time":696000000000,"state":"active","ping":75},{"user_id":133,"name":"LWebb","steam_id":76561199162936929,"connected_time":600000000000,"state":"active","ping":98},{"user_id":81,"name":"gaming ground_atclicker","steam_id":76561198233978116,"connected_time":3273000000000,"state":"active","ping":61},{"user_id":37,"name":"i eated sand","steam_id":76561198062763756,"connected_time":7151000000000,"state":"active","ping":104},{"user_id":90,"name":"Drainbow","steam_id":76561198421913648,"connected_time":2770000000000,"state":"active","ping":53},{"user_id":138,"name":"Mango Pod","steam_id":76561199093733603,"connected_time":265000000000,"state":"active","ping":75},{"user_id":135,"name":"goldhed","steam_id":76561198051751133,"connected_time":503000000000,"state":"active","ping":63},{"user_id":137,"name":"Rustyorion","steam_id":76561198439186347,"connected_time":435000000000,"state":"active","ping":53}]},{"server_id":17,"name":"Uncletopia | San Francisco | 1 | All Maps","name_short":"sfo-1","host":"sfo-1.us.uncletopia.com","port":27015,"enabled":true,"region":"us-west","cc":"us","latitude":37.77397,"longitude":-122.4313,"reserved":0,"last_update":"0001-01-01T00:00:00Z","name_a2s":"Uncletopia | San Francisco | 1 | All Maps","protocol":17,"map":"pl_pier","folder":"tf","game":"Team Fortress","app_id":440,"player_count":23,"max_players":24,"Bots":0,"server_type":"Dedicated","server_os":"Linux","password":true,"vac":true,"version":"7757534","steam_id":85568392924469999,"keywords":["nocrits","nodmgspread","payload","uncletopia"],"game_id":440,"stv_port":27016,"stv_name":"Uncletopia | San Francisco | 1 | All Maps | STV","players":[{"user_id":196,"name":"Frost","steam_id":76561198092014704,"connected_time":2807000000000,"state":"active","ping":74},{"user_id":189,"name":"Isaac","steam_id":76561198015727013,"connected_time":3053000000000,"state":"active","ping":72},{"user_id":201,"name":"postgres","steam_id":76561198011204750,"connected_time":2287000000000,"state":"active","ping":90},{"user_id":202,"name":"Doug Hugem","steam_id":76561198018449076,"connected_time":2254000000000,"state":"active","ping":87},{"user_id":184,"name":"Shamrock Shake Oct.10.2020 @8pm","steam_id":76561198833313201,"connected_time":3593000000000,"state":"active","ping":87},{"user_id":203,"name":"Turtles Ad Infinitum","steam_id":76561198069323250,"connected_time":2250000000000,"state":"active","ping":55},{"user_id":233,"name":"The Best Waifu","steam_id":76561198144937184,"connected_time":998000000000,"state":"active","ping":58},{"user_id":229,"name":"Celia [ +/- ] ✔","steam_id":76561198067164431,"connected_time":1391000000000,"state":"active","ping":45},{"user_id":192,"name":"i cry .","steam_id":76561199193020423,"connected_time":3035000000000,"state":"active","ping":64},{"user_id":193,"name":"TheShadilay","steam_id":76561198140391778,"connected_time":3022000000000,"state":"active","ping":57},{"user_id":231,"name":"Love Waffle","steam_id":76561197990077189,"connected_time":1064000000000,"state":"active","ping":74},{"user_id":236,"name":"Funkmaster Yee","steam_id":76561198037738918,"connected_time":341000000000,"state":"active","ping":61},{"user_id":208,"name":"The Horny","steam_id":76561198863639459,"connected_time":2166000000000,"state":"active","ping":110},{"user_id":224,"name":"Lucky_Boi","steam_id":76561199208835578,"connected_time":1728000000000,"state":"active","ping":78},{"user_id":210,"name":"GඞMER","steam_id":76561198340389876,"connected_time":2156000000000,"state":"active","ping":61},{"user_id":225,"name":"Gary Sinfeld","steam_id":76561198042274074,"connected_time":1546000000000,"state":"active","ping":66},{"user_id":237,"name":"Taffy","steam_id":76561198276612538,"connected_time":261000000000,"state":"active","ping":45},{"user_id":232,"name":"sweaterfan","steam_id":76561199389567214,"connected_time":1028000000000,"state":"active","ping":102},{"user_id":235,"name":"walterhwhite","steam_id":76561199433675789,"connected_time":517000000000,"state":"active","ping":72},{"user_id":226,"name":"Amogous Supreme","steam_id":76561198025476774,"connected_time":1513000000000,"state":"active","ping":56},{"user_id":217,"name":"Wavelengths (they/it)","steam_id":76561197997621320,"connected_time":2074000000000,"state":"active","ping":92},{"user_id":218,"name":"purple escape","steam_id":76561197997100185,"connected_time":2070000000000,"state":"active","ping":62},{"user_id":239,"name":"RyanTheKat","steam_id":76561198261728547,"connected_time":105000000000,"state":"active","ping":72}]},{"server_id":18,"name":"Uncletopia | San Francisco | 2 | All Maps","name_short":"sfo-2","host":"sfo-1.us.uncletopia.com","port":27025,"enabled":true,"region":"us-west","cc":"us","latitude":37.77397,"longitude":-122.4313,"reserved":0,"last_update":"0001-01-01T00:00:00Z","name_a2s":"Uncletopia | San Francisco | 2 | All Maps","protocol":17,"map":"cp_process_final","folder":"tf","game":"Team Fortress","app_id":440,"player_count":0,"max_players":24,"Bots":0,"server_type":"Dedicated","server_os":"Linux","password":true,"vac":true,"version":"7757534","steam_id":85568392924470000,"keywords":["cp","nocrits","nodmgspread","uncletopia"],"game_id":440,"stv_port":27026,"stv_name":"Uncletopia | San Francisco | 2 | All Maps | STV","players":null},{"server_id":19,"name":"Uncletopia | San Francisco | 3 | Stopwatch Beta","name_short":"sfo-3","host":"sfo-1.us.uncletopia.com","port":27035,"enabled":true,"region":"us-west","cc":"us","latitude":37.77397,"longitude":-122.4313,"reserved":0,"last_update":"0001-01-01T00:00:00Z","name_a2s":"Uncletopia | San Francisco | 3 | Stopwatch Beta","protocol":17,"map":"koth_highpass","folder":"tf","game":"Team Fortress","app_id":440,"player_count":0,"max_players":24,"Bots":0,"server_type":"Dedicated","server_os":"Linux","password":true,"vac":true,"version":"7757534","steam_id":85568392924742824,"keywords":["cp","nocrits","nodmgspread","uncletopia"],"game_id":440,"stv_port":27036,"stv_name":"Uncletopia | San Francisco | 3 | Stopwatch Beta | STV","players":null},{"server_id":20,"name":"Uncletopia | San Francisco | 4 | Community","name_short":"sfo-4","host":"sfo-1.us.uncletopia.com","port":27045,"enabled":true,"region":"us-west","cc":"us","latitude":37.77397,"longitude":-122.4313,"reserved":0,"last_update":"0001-01-01T00:00:00Z","name_a2s":"Uncletopia | San Francisco | 4 | Community","protocol":17,"map":"workshop/koth_product_final.ugc454272353","folder":"tf","game":"Team Fortress","app_id":440,"player_count":1,"max_players":24,"Bots":0,"server_type":"Dedicated","server_os":"Linux","password":true,"vac":true,"version":"7757534","steam_id":85568392924742826,"keywords":["cp","nocrits","nodmgspread","uncletopia"],"game_id":440,"stv_port":27046,"stv_name":"Uncletopia | San Francisco | 4 | Community | STV","players":[{"user_id":9,"name":"Casket The Clown","steam_id":76561198041346308,"connected_time":634000000000,"state":"active","ping":109}]},{"server_id":141,"name":"Uncletopia | Sydney | 1 | All Maps","name_short":"syd-1","host":"syd-1.au.uncletopia.com","port":27015,"enabled":true,"region":"au","cc":"au","latitude":-33.865143,"longitude":151.2099,"reserved":0,"last_update":"0001-01-01T00:00:00Z","name_a2s":"Uncletopia | Sydney | 1 | All Maps","protocol":17,"map":"pl_badwater","folder":"tf","game":"Team Fortress","app_id":440,"player_count":8,"max_players":24,"Bots":0,"server_type":"Dedicated","server_os":"Linux","password":true,"vac":true,"version":"7757534","steam_id":85568392924470001,"keywords":["nocrits","nodmgspread","payload","uncletopia"],"game_id":440,"stv_port":27016,"stv_name":"Uncletopia | Sydney | 1 | All Maps | STV","players":[{"user_id":55,"name":"XTRY50","steam_id":76561198379881126,"connected_time":1646000000000,"state":"active","ping":158},{"user_id":51,"name":"juusha","steam_id":76561198911542330,"connected_time":2723000000000,"state":"active","ping":82},{"user_id":64,"name":"Morgenstern","steam_id":76561198253080474,"connected_time":526000000000,"state":"active","ping":62},{"user_id":57,"name":"MININinja1308","steam_id":76561199040303660,"connected_time":1338000000000,"state":"active","ping":54},{"user_id":58,"name":"Zieria","steam_id":76561199261811388,"connected_time":1260000000000,"state":"active","ping":42},{"user_id":59,"name":"Snowy","steam_id":76561198255720598,"connected_time":1246000000000,"state":"active","ping":43},{"user_id":65,"name":"Gnat","steam_id":76561198109747863,"connected_time":369000000000,"state":"active","ping":99},{"user_id":66,"name":"Hyak","steam_id":76561198175700625,"connected_time":21000000000,"state":"active","ping":90}]},{"server_id":123,"name":"Uncletopia | Sydney | 2 | All Maps","name_short":"syd-2","host":"syd-1.au.uncletopia.com","port":27025,"enabled":true,"region":"au","cc":"au","latitude":-33.865143,"longitude":151.2099,"reserved":0,"last_update":"0001-01-01T00:00:00Z","name_a2s":"Uncletopia | Sydney | 2 | All Maps","protocol":17,"map":"cp_process_final","folder":"tf","game":"Team Fortress","app_id":440,"player_count":0,"max_players":24,"Bots":0,"server_type":"Dedicated","server_os":"Linux","password":true,"vac":true,"version":"7757534","steam_id":85568392924470002,"keywords":["cp","nocrits","nodmgspread","uncletopia"],"game_id":440,"stv_port":27026,"stv_name":"Uncletopia | Sydney | 2 | All Maps | STV","players":null},{"server_id":395,"name":"Uncletopia | Sydney | 3 | All Maps","name_short":"syd-3","host":"syd-1.au.uncletopia.com","port":27035,"enabled":true,"region":"au","cc":"au","latitude":-33.865143,"longitude":151.2099,"reserved":0,"last_update":"0001-01-01T00:00:00Z","name_a2s":"Uncletopia | Sydney | 3 | All Maps","protocol":17,"map":"pl_swiftwater_final1","folder":"tf","game":"Team Fortress","app_id":440,"player_count":0,"max_players":24,"Bots":0,"server_type":"Dedicated","server_os":"Linux","password":true,"vac":true,"version":"7757534","steam_id":85568392925194467,"keywords":["nocrits","nodmgspread","payload","uncletopia"],"game_id":440,"stv_port":27036,"stv_name":"Uncletopia | Sydney | 3 | All Maps | STV","players":null},{"server_id":396,"name":"Uncletopia | Sydney | 4 | All Maps","name_short":"syd-4","host":"syd-1.au.uncletopia.com","port":27045,"enabled":true,"region":"au","cc":"au","latitude":-33.865143,"longitude":151.2099,"reserved":0,"last_update":"0001-01-01T00:00:00Z","name_a2s":"Uncletopia | Sydney | 4 | All Maps","protocol":17,"map":"koth_highpass","folder":"tf","game":"Team Fortress","app_id":440,"player_count":0,"max_players":24,"Bots":0,"server_type":"Dedicated","server_os":"Linux","password":true,"vac":true,"version":"7757534","steam_id":85568392925397958,"keywords":["cp","nocrits","nodmgspread","uncletopia"],"game_id":440,"stv_port":27046,"stv_name":"Uncletopia | Sydney | 4 | All Maps | STV","players":null},{"server_id":58,"name":"Uncletopia | Sydney | 5 | Stopwatch Beta","name_short":"syd-5","host":"syd-1.au.uncletopia.com","port":27055,"enabled":true,"region":"au","cc":"au","latitude":-33.865143,"longitude":151.2099,"reserved":0,"last_update":"0001-01-01T00:00:00Z","name_a2s":"Uncletopia | Sydney | 5 | Stopwatch Beta","protocol":17,"map":"koth_cascade","folder":"tf","game":"Team Fortress","app_id":440,"player_count":0,"max_players":24,"Bots":0,"server_type":"Dedicated","server_os":"Linux","password":true,"vac":true,"version":"7757534","steam_id":85568392925397959,"keywords":["cp","nocrits","nodmgspread","uncletopia"],"game_id":440,"stv_port":27056,"stv_name":"Uncletopia | Sydney | 5 | Stopwatch Beta | STV","players":null},{"server_id":59,"name":"Uncletopia | Sydney | 6 | Community","name_short":"syd-6","host":"syd-1.au.uncletopia.com","port":27065,"enabled":true,"region":"au","cc":"au","latitude":-33.865143,"longitude":151.2099,"reserved":0,"last_update":"0001-01-01T00:00:00Z","name_a2s":"Uncletopia | Sydney | 6 | Community","protocol":17,"map":"workshop/pl_corrode_rc2.ugc546577989","folder":"tf","game":"Team Fortress","app_id":440,"player_count":0,"max_players":24,"Bots":0,"server_type":"Dedicated","server_os":"Linux","password":true,"vac":true,"version":"7757534","steam_id":85568392925397960,"keywords":["nocrits","nodmgspread","payload","uncletopia"],"game_id":440,"stv_port":27066,"stv_name":"Uncletopia | Sydney | 6 | Community | STV","players":null},{"server_id":49,"name":"Uncletopia | Warsaw | 1 | All Maps","name_short":"waw-1","host":"waw-1.pl.uncletopia.com","port":27015,"enabled":true,"region":"eu","cc":"pl","latitude":52.2297,"longitude":21.017532,"reserved":0,"last_update":"0001-01-01T00:00:00Z","name_a2s":"","protocol":0,"map":"","folder":"","game":"","app_id":0,"player_count":0,"max_players":0,"Bots":0,"server_type":"","server_os":"","password":false,"vac":false,"version":"","steam_id":0,"keywords":null,"game_id":0,"stv_port":0,"stv_name":"","players":null},{"server_id":50,"name":"Uncletopia | Warsaw | 2 | All Maps","name_short":"waw-2","host":"waw-1.pl.uncletopia.com","port":27025,"enabled":true,"region":"eu","cc":"pl","latitude":52.2297,"longitude":21.017532,"reserved":0,"last_update":"0001-01-01T00:00:00Z","name_a2s":"Uncletopia | Warsaw | 2 | All Maps","protocol":17,"map":"cp_sunshine","folder":"tf","game":"Team Fortress","app_id":440,"player_count":0,"max_players":24,"Bots":0,"server_type":"Dedicated","server_os":"Linux","password":true,"vac":true,"version":"7757534","steam_id":85568392925397851,"keywords":["cp","nocrits","nodmgspread","uncletopia"],"game_id":440,"stv_port":27026,"stv_name":"Uncletopia | Warsaw | 2 | All Maps | STV","players":null},{"server_id":51,"name":"Uncletopia | Warsaw | 3 | All Maps","name_short":"waw-3","host":"waw-1.pl.uncletopia.com","port":27035,"enabled":true,"region":"eu","cc":"pl","latitude":52.2297,"longitude":21.017532,"reserved":0,"last_update":"0001-01-01T00:00:00Z","name_a2s":"Uncletopia | Warsaw | 3 | All Maps","protocol":17,"map":"koth_cascade","folder":"tf","game":"Team Fortress","app_id":440,"player_count":0,"max_players":24,"Bots":0,"server_type":"Dedicated","server_os":"Linux","password":true,"vac":true,"version":"7757534","steam_id":85568392925397852,"keywords":["cp","nocrits","nodmgspread","uncletopia"],"game_id":440,"stv_port":27036,"stv_name":"Uncletopia | Warsaw | 3 | All Maps | STV","players":null},{"server_id":52,"name":"Uncletopia | Warsaw | 4 | All Maps","name_short":"waw-4","host":"waw-1.pl.uncletopia.com","port":27045,"enabled":true,"region":"eu","cc":"pl","latitude":52.2297,"longitude":21.017532,"reserved":0,"last_update":"0001-01-01T00:00:00Z","name_a2s":"Uncletopia | Warsaw | 4 | All Maps","protocol":17,"map":"koth_lakeside_final","folder":"tf","game":"Team Fortress","app_id":440,"player_count":0,"max_players":24,"Bots":0,"server_type":"Dedicated","server_os":"Linux","password":true,"vac":true,"version":"7757534","steam_id":85568392925397853,"keywords":["cp","nocrits","nodmgspread","uncletopia"],"game_id":440,"stv_port":27046,"stv_name":"Uncletopia | Warsaw | 4 | All Maps | STV","players":null},{"server_id":53,"name":"Uncletopia | Warsaw | 5 | Stopwatch Beta","name_short":"waw-5","host":"waw-1.pl.uncletopia.com","port":27055,"enabled":true,"region":"eu","cc":"pl","latitude":52.2297,"longitude":21.017532,"reserved":0,"last_update":"0001-01-01T00:00:00Z","name_a2s":"Uncletopia | Warsaw | 5 | Stopwatch Beta","protocol":17,"map":"pl_borneo","folder":"tf","game":"Team Fortress","app_id":440,"player_count":0,"max_players":24,"Bots":0,"server_type":"Dedicated","server_os":"Linux","password":true,"vac":true,"version":"7757534","steam_id":85568392925397854,"keywords":["nocrits","nodmgspread","payload","uncletopia"],"game_id":440,"stv_port":27056,"stv_name":"Uncletopia | Warsaw | 5 | Stopwatch Beta | STV","players":null},{"server_id":54,"name":"Uncletopia | Warsaw | 6 | Community","name_short":"waw-6","host":"waw-1.pl.uncletopia.com","port":27065,"enabled":true,"region":"eu","cc":"pl","latitude":52.2297,"longitude":21.017532,"reserved":0,"last_update":"0001-01-01T00:00:00Z","name_a2s":"Uncletopia | Warsaw | 6 | Community","protocol":17,"map":"workshop/cp_mannbase_rc2a.ugc1900737467","folder":"tf","game":"Team Fortress","app_id":440,"player_count":0,"max_players":24,"Bots":0,"server_type":"Dedicated","server_os":"Linux","password":true,"vac":true,"version":"7757534","steam_id":85568392925397856,"keywords":["cp","nocrits","nodmgspread","uncletopia"],"game_id":440,"stv_port":27066,"stv_name":"Uncletopia | Warsaw | 6 | Community | STV","players":null}]}