{"status":true,"message":"","result":[{"server_id":9,"name":"Uncletopia | Atlanta | 1 | All Maps","name_short":"atl-1","host":"atl-1.us.uncletopia.com","port":27015,"enabled":true,"region":"us-east","cc":"us","latitude":33.753746,"longitude":-84.38633,"reserved":0,"last_update":"0001-01-01T00:00:00Z","name_a2s":"Uncletopia | Atlanta | 1 | All Maps","protocol":17,"map":"pl_thundermountain","folder":"tf","game":"Team Fortress","app_id":440,"player_count":24,"max_players":24,"Bots":0,"server_type":"Dedicated","server_os":"Linux","password":true,"vac":true,"version":"7961495","steam_id":85568392924469982,"keywords":["nocrits","nodmgspread","payload","uncletopia"],"game_id":440,"stv_port":27016,"stv_name":"Uncletopia | Atlanta | 1 | All Maps | STV","players":[{"user_id":328,"name":"theannoyingorang213","steam_id":76561198079416036,"connected_time":1005000000000,"state":"active","ping":69},{"user_id":218,"name":"‚ô¶‚ô£Quadric‚ô•‚ô†","steam_id":76561198061003853,"connected_time":5118000000000,"state":"active","ping":71},{"user_id":330,"name":"Albino Jellyfish","steam_id":76561198208561097,"connected_time":975000000000,"state":"active","ping":50},{"user_id":215,"name":"GameboyAdvancedSPMobileHotspot","steam_id":76561198413739460,"connected_time":5135000000000,"state":"active","ping":124},{"user_id":292,"name":"a b o m","steam_id":76561198167974713,"connected_time":1747000000000,"state":"active","ping":58},{"user_id":373,"name":"SANTA IS REAL","steam_id":76561199103766971,"connected_time":56000000000,"state":"active","ping":183},{"user_id":233,"name":"Grim","steam_id":76561198225241776,"connected_time":3083000000000,"state":"active","ping":72},{"user_id":344,"name":"Mithrandir","steam_id":76561197995003142,"connected_time":745000000000,"state":"active","ping":58},{"user_id":360,"name":"Cottoneyes","steam_id":76561197994730627,"connected_time":328000000000,"state":"active","ping":56},{"user_id":371,"name":"TheGingerOne","steam_id":76561198354203847,"connected_time":125000000000,"state":"active","ping":87},{"user_id":332,"name":"El G√ºey","steam_id":76561197970450546,"connected_time":960000000000,"state":"active","ping":108},{"user_id":298,"name":"Rulers Reach fan","steam_id":76561198367340750,"connected_time":1667000000000,"state":"active","ping":55},{"user_id":333,"name":"whycameback","steam_id":76561198222556872,"connected_time":952000000000,"state":"active","ping":98},{"user_id":326,"name":"Tim Fortress (Mr. Fortress)","steam_id":76561199404116447,"connected_time":1015000000000,"state":"active","ping":82},{"user_id":355,"name":"Wumbologist","steam_id":76561198188729514,"connected_time":415000000000,"state":"active","ping":51},{"user_id":334,"name":"BOO BOO KEYS","steam_id":76561198085815757,"connected_time":928000000000,"state":"active","ping":79},{"user_id":230,"name":"blob","steam_id":76561198122375328,"connected_time":3153000000000,"state":"active","ping":45},{"user_id":289,"name":"Waffle Wannabe","steam_id":76561198064510650,"connected_time":1796000000000,"state":"active","ping":70},{"user_id":236,"name":"lil hog","steam_id":76561199230929836,"connected_time":2930000000000,"state":"active","ping":84},{"user_id":341,"name":"goots","steam_id":76561198106483305,"connected_time":773000000000,"state":"active","ping":66},{"user_id":201,"name":"BLOW UP NEW JERSEY","steam_id":76561198364439575,"connected_time":6168000000000,"state":"active","ping":68},{"user_id":335,"name":"Jman","steam_id":76561198376488914,"connected_time":920000000000,"state":"active","ping":46},{"user_id":346,"name":"bingus cheese","steam_id":76561198069010944,"connected_time":696000000000,"state":"active","ping":87},{"user_id":282,"name":"loser","steam_id":76561198259380127,"connected_time":1916000000000,"state":"active","ping":76}]},{"server_id":104,"name":"Uncletopia | Atlanta | 2 | All Maps","name_short":"atl-2","host":"atl-1.us.uncletopia.com","port":27025,"enabled":true,"region":"us-east","cc":"us","latitude":33.753746,"longitude":-84.38633,"reserved":0,"last_update":"0001-01-01T00:00:00Z","name_a2s":"Uncletopia | Atlanta | 2 | All Maps","protocol":17,"map":"pl_pier","folder":"tf","game":"Team Fortress","app_id":440,"player_count":24,"max_players":24,"Bots":0,"server_type":"Dedicated","server_os":"Linux","password":true,"vac":true,"version":"7961495","steam_id":85568392924469983,"keywords":["nocrits","nodmgspread","payload","uncletopia"],"game_id":440,"stv_port":27026,"stv_name":"Uncletopia | Atlanta | 2 | All Maps | STV","players":[{"user_id":10,"name":"The Dead Weight","steam_id":76561198056694098,"connected_time":12437000000000,"state":"active","ping":46},{"user_id":153,"name":"SneakySneak","steam_id":76561198064847921,"connected_time":44000000000,"state":"active","ping":53},{"user_id":128,"name":"Naffty","steam_id":76561198119734981,"connected_time":2237000000000,"state":"active","ping":64},{"user_id":146,"name":"Johnny Lawrence #JohnnyMaxxing","steam_id":76561199367141671,"connected_time":783000000000,"state":"active","ping":67},{"user_id":113,"name":"Eins Shinigami","steam_id":76561199030343810,"connected_time":2984000000000,"state":"active","ping":47},{"user_id":101,"name":"James","steam_id":76561198081313916,"connected_time":4722000000000,"state":"active","ping":50},{"user_id":149,"name":"roman","steam_id":76561198170066797,"connected_time":79000000000,"state":"active","ping":48},{"user_id":131,"name":"RedBaron","steam_id":76561198972426107,"connected_time":1872000000000,"state":"active","ping":64},{"user_id":151,"name":"trobin120","steam_id":76561199122420273,"connected_time":69000000000,"state":"active","ping":58},{"user_id":142,"name":"Dr,Dan64","steam_id":76561199013363718,"connected_time":1236000000000,"state":"active","ping":73},{"user_id":114,"name":"Cosmic Torgue","steam_id":76561198828724945,"connected_time":2983000000000,"state":"active","ping":92},{"user_id":150,"name":"Poodwaddle","steam_id":76561198060384838,"connected_time":75000000000,"state":"active","ping":61},{"user_id":141,"name":"metalfan666","steam_id":76561198386344068,"connected_time":1274000000000,"state":"active","ping":71},{"user_id":147,"name":"A Fat Walrus","steam_id":76561198141701276,"connected_time":725000000000,"state":"active","ping":74},{"user_id":152,"name":"Funke Monke","steam_id":76561198079440976,"connected_time":51000000000,"state":"active","ping":55},{"user_id":133,"name":"Boykisser","steam_id":76561199382783363,"connected_time":1868000000000,"state":"active","ping":92},{"user_id":144,"name":"xen","steam_id":76561198145959964,"connected_time":1086000000000,"state":"active","ping":61},{"user_id":148,"name":"blobb","steam_id":76561198950448488,"connected_time":638000000000,"state":"active","ping":67},{"user_id":154,"name":"Alphowlet98","steam_id":76561199093985532,"connected_time":38000000000,"state":"spawning","ping":104},{"user_id":118,"name":"Decapitation Station","steam_id":76561198201796098,"connected_time":2860000000000,"state":"active","ping":60},{"user_id":127,"name":"radicalPolio","steam_id":76561197961561855,"connected_time":2252000000000,"state":"active","ping":60},{"user_id":155,"name":"Dinosaur","steam_id":76561199079626189,"connected_time":26000000000,"state":"active","ping":42},{"user_id":120,"name":"simon","steam_id":76561198101285144,"connected_time":2814000000000,"state":"active","ping":139},{"user_id":156,"name":"√∞rew","steam_id":76561198064778763,"connected_time":19000000000,"state":"spawning","ping":30}]},{"server_id":400,"name":"Uncletopia | Atlanta | 3 | Stopwatch","name_short":"atl-3","host":"atl-1.us.uncletopia.com","port":27035,"enabled":true,"region":"us-east","cc":"us","latitude":33.753746,"longitude":-84.38633,"reserved":0,"last_update":"0001-01-01T00:00:00Z","name_a2s":"Uncletopia | Atlanta | 3 | Stopwatch","protocol":17,"map":"cp_granary","folder":"tf","game":"Team Fortress","app_id":440,"player_count":0,"max_players":24,"Bots":0,"server_type":"Dedicated","server_os":"Linux","password":true,"vac":true,"version":"7961495","steam_id":85568392924515187,"keywords":["cp","nocrits","nodmgspread","uncletopia"],"game_id":440,"stv_port":27036,"stv_name":"Uncletopia | Atlanta | 3 | Stopwatch | STV","players":null},{"server_id":401,"name":"Uncletopia | Atlanta | 4 | Community","name_short":"atl-4","host":"atl-1.us.uncletopia.com","port":27045,"enabled":true,"region":"us-east","cc":"us","latitude":33.753746,"longitude":-84.38633,"reserved":0,"last_update":"0001-01-01T00:00:00Z","name_a2s":"Uncletopia | Atlanta | 4 | Community","protocol":17,"map":"workshop/pl_badwater_pro_v12.ugc2142942074","folder":"tf","game":"Team Fortress","app_id":440,"player_count":1,"max_players":24,"Bots":0,"server_type":"Dedicated","server_os":"Linux","password":true,"vac":true,"version":"7961495","steam_id":85568392924515188,"keywords":["nocrits","nodmgspread","payload","uncletopia"],"game_id":440,"stv_port":27046,"stv_name":"Uncletopia | Atlanta | 4 | Community | STV","players":[{"user_id":10,"name":"Critical","steam_id":76561198123744966,"connected_time":61000000000,"state":"active","ping":89}]},{"server_id":2,"name":"Uncletopia | Chicago | 1 | All Maps","name_short":"chi-1","host":"chi-1.us.uncletopia.com","port":27015,"enabled":true,"region":"us-central","cc":"us","latitude":41.881832,"longitude":-87.62318,"reserved":0,"last_update":"0001-01-01T00:00:00Z","name_a2s":"Uncletopia | Chicago | 1 | All Maps","protocol":17,"map":"koth_cascade","folder":"tf","game":"Team Fortress","app_id":440,"player_count":24,"max_players":24,"Bots":0,"server_type":"Dedicated","server_os":"Linux","password":true,"vac":true,"version":"7961495","steam_id":85568392924469984,"keywords":["cp","nocrits","nodmgspread","uncletopia"],"game_id":440,"stv_port":27016,"stv_name":"Uncletopia | Chicago | 1 | All Maps | STV","players":[{"user_id":271,"name":"‡ºò ‚ãÜÀöüéßCaffeine‚òï*Àñ¬∞","steam_id":76561199259309294,"connected_time":1888000000000,"state":"active","ping":69},{"user_id":268,"name":"Natsuki the Scunt","steam_id":76561199175922684,"connected_time":1950000000000,"state":"active","ping":120},{"user_id":257,"name":"joyeuxnoelle","steam_id":76561198062423120,"connected_time":3122000000000,"state":"active","ping":67},{"user_id":269,"name":"Surin","steam_id":76561198008953177,"connected_time":1943000000000,"state":"active","ping":73},{"user_id":289,"name":"Pootis","steam_id":76561198042482648,"connected_time":365000000000,"state":"active","ping":113},{"user_id":270,"name":"Belmore","steam_id":76561198009355231,"connected_time":1922000000000,"state":"active","ping":108},{"user_id":250,"name":"LavenderSys","steam_id":76561198289106015,"connected_time":3751000000000,"state":"active","ping":81},{"user_id":272,"name":"Simmons","steam_id":76561198024778135,"connected_time":1822000000000,"state":"active","ping":69},{"user_id":283,"name":"radical larry","steam_id":76561198172246829,"connected_time":1221000000000,"state":"active","ping":41},{"user_id":262,"name":"beta central","steam_id":76561198301876831,"connected_time":2173000000000,"state":"active","ping":60},{"user_id":281,"name":"neet","steam_id":76561197968115168,"connected_time":1503000000000,"state":"active","ping":63},{"user_id":261,"name":"Black Rose Oncore","steam_id":76561198040489960,"connected_time":2401000000000,"state":"active","ping":68},{"user_id":253,"name":"Joyous Jenny","steam_id":76561198127998866,"connected_time":3539000000000,"state":"active","ping":75},{"user_id":290,"name":"qory","steam_id":76561198152064890,"connected_time":365000000000,"state":"active","ping":59},{"user_id":215,"name":"oyasumi","steam_id":76561198128614882,"connected_time":7115000000000,"state":"active","ping":69},{"user_id":275,"name":"Stevelonk","steam_id":76561198088224665,"connected_time":1760000000000,"state":"active","ping":71},{"user_id":265,"name":"Skrt.","steam_id":76561197970654243,"connected_time":2132000000000,"state":"active","ping":65},{"user_id":276,"name":"Cwiishe","steam_id":76561199482943969,"connected_time":1758000000000,"state":"active","ping":68},{"user_id":291,"name":"Kafka Stan","steam_id":76561198127039453,"connected_time":353000000000,"state":"active","ping":98},{"user_id":278,"name":"JustADuck","steam_id":76561198311260943,"connected_time":1728000000000,"state":"active","ping":75},{"user_id":279,"name":"Amari","steam_id":76561198272446730,"connected_time":1727000000000,"state":"active","ping":60},{"user_id":284,"name":"Eblizard","steam_id":76561198111481965,"connected_time":531000000000,"state":"active","ping":81},{"user_id":232,"name":"FragoMatic","steam_id":76561198399008555,"connected_time":5799000000000,"state":"active","ping":73},{"user_id":280,"name":"Sullivate","steam_id":76561198247267324,"connected_time":1726000000000,"state":"active","ping":92}]},{"server_id":106,"name":"Uncletopia | Chicago | 2 | All Maps","name_short":"chi-2","host":"chi-1.us.uncletopia.com","port":27025,"enabled":true,"region":"us-central","cc":"us","latitude":41.881832,"longitude":-87.62318,"reserved":0,"last_update":"0001-01-01T00:00:00Z","name_a2s":"Uncletopia | Chicago | 2 | All Maps","protocol":17,"map":"pl_badwater","folder":"tf","game":"Team Fortress","app_id":440,"player_count":0,"max_players":24,"Bots":0,"server_type":"Dedicated","server_os":"Linux","password":true,"vac":true,"version":"7961495","steam_id":85568392924469985,"keywords":["nocrits","nodmgspread","payload","uncletopia"],"game_id":440,"stv_port":27026,"stv_name":"Uncletopia | Chicago | 2 | All Maps | STV","players":null},{"server_id":402,"name":"Uncletopia | Chicago | 3 | All Maps","name_short":"chi-3","host":"chi-1.us.uncletopia.com","port":27035,"enabled":true,"region":"us-central","cc":"us","latitude":41.881832,"longitude":-87.62318,"reserved":0,"last_update":"0001-01-01T00:00:00Z","name_a2s":"Uncletopia | Chicago | 3 | All Maps","protocol":17,"map":"cp_dustbowl","folder":"tf","game":"Team Fortress","app_id":440,"player_count":24,"max_players":24,"Bots":0,"server_type":"Dedicated","server_os":"Linux","password":true,"vac":true,"version":"7961495","steam_id":85568392924515191,"keywords":["cp","nocrits","nodmgspread","uncletopia"],"game_id":440,"stv_port":27036,"stv_name":"Uncletopia | Chicago | 3 | All Maps | STV","players":[{"user_id":94,"name":"Window Licker #pride","steam_id":76561198386717007,"connected_time":2209000000000,"state":"active","ping":46},{"user_id":111,"name":"Genne","steam_id":76561198153434791,"connected_time":1373000000000,"state":"active","ping":72},{"user_id":127,"name":"playguy carter","steam_id":76561198080679337,"connected_time":605000000000,"state":"active","ping":61},{"user_id":113,"name":"fishy","steam_id":76561198018622305,"connected_time":1360000000000,"state":"active","ping":74},{"user_id":116,"name":"Hashmere","steam_id":76561198002797253,"connected_time":1333000000000,"state":"active","ping":78},{"user_id":109,"name":"the_J_d0c","steam_id":76561198977851944,"connected_time":1406000000000,"state":"active","ping":60},{"user_id":73,"name":"m.a.d.","steam_id":76561198040553982,"connected_time":3946000000000,"state":"active","ping":61},{"user_id":72,"name":"Little Skull Boi","steam_id":76561198093595888,"connected_time":3956000000000,"state":"active","ping":99},{"user_id":133,"name":"Kek","steam_id":76561198067689989,"connected_time":71000000000,"state":"active","ping":58},{"user_id":27,"name":"Menace to Sobriety","steam_id":76561198245103000,"connected_time":6192000000000,"state":"active","ping":71},{"user_id":104,"name":"Lord Cutler Beckett","steam_id":76561198091356047,"connected_time":1994000000000,"state":"active","ping":51},{"user_id":87,"name":"Nash","steam_id":76561198044192734,"connected_time":2571000000000,"state":"active","ping":60},{"user_id":101,"name":"[NAME-REDACTED]","steam_id":76561198035682975,"connected_time":2133000000000,"state":"active","ping":72},{"user_id":114,"name":"Coke Himmy","steam_id":76561198397459211,"connected_time":1355000000000,"state":"active","ping":78},{"user_id":131,"name":"Ismael Ahmad Kanabawi","steam_id":76561198066295629,"connected_time":277000000000,"state":"active","ping":135},{"user_id":103,"name":"Jonah Hill from 21 Jump Street","steam_id":76561198811130843,"connected_time":2074000000000,"state":"active","ping":81},{"user_id":124,"name":"Guitar Queero","steam_id":76561198880568662,"connected_time":871000000000,"state":"active","ping":61},{"user_id":130,"name":"Tideflat","steam_id":76561198179850851,"connected_time":411000000000,"state":"active","ping":101},{"user_id":78,"name":"Poo","steam_id":76561198265144507,"connected_time":3696000000000,"state":"active","ping":97},{"user_id":98,"name":"The Entire Canadian Army","steam_id":76561198014636282,"connected_time":2191000000000,"state":"active","ping":63},{"user_id":126,"name":"Woad","steam_id":76561198067570444,"connected_time":730000000000,"state":"active","ping":77},{"user_id":132,"name":"what the freak","steam_id":76561198080754727,"connected_time":131000000000,"state":"active","ping":84},{"user_id":119,"name":"Silly Fella","steam_id":76561198073434502,"connected_time":1305000000000,"state":"active","ping":72},{"user_id":129,"name":"The Depressed John","steam_id":76561198148193895,"connected_time":544000000000,"state":"active","ping":86}]},{"server_id":403,"name":"Uncletopia | Chicago | 4 | All Maps","name_short":"chi-4","host":"chi-1.us.uncletopia.com","port":27045,"enabled":true,"region":"us-central","cc":"us","latitude":41.881832,"longitude":-87.62318,"reserved":0,"last_update":"0001-01-01T00:00:00Z","name_a2s":"Uncletopia | Chicago | 4 | All Maps","protocol":17,"map":"koth_highpass","folder":"tf","game":"Team Fortress","app_id":440,"player_count":22,"max_players":24,"Bots":0,"server_type":"Dedicated","server_os":"Linux","password":true,"vac":true,"version":"7961495","steam_id":85568392924515193,"keywords":["cp","nocrits","nodmgspread","uncletopia"],"game_id":440,"stv_port":27046,"stv_name":"Uncletopia | Chicago | 4 | All Maps | STV","players":[{"user_id":242,"name":"comet sooicidy","steam_id":76561198025173479,"connected_time":1268000000000,"state":"active","ping":86},{"user_id":243,"name":"Sunshine","steam_id":76561198885528098,"connected_time":1252000000000,"state":"active","ping":75},{"user_id":254,"name":"Nightman","steam_id":76561198089513762,"connected_time":775000000000,"state":"active","ping":86},{"user_id":262,"name":"Jtod3","steam_id":76561198012274782,"connected_time":307000000000,"state":"active","ping":64},{"user_id":246,"name":"Sickduck Mcgee","steam_id":76561198028577159,"connected_time":1114000000000,"state":"active","ping":76},{"user_id":261,"name":"Henry Ota-Clay","steam_id":76561198053232470,"connected_time":359000000000,"state":"active","ping":57},{"user_id":175,"name":"V","steam_id":76561198998082956,"connected_time":6127000000000,"state":"active","ping":45},{"user_id":248,"name":"water","steam_id":76561199160233256,"connected_time":991000000000,"state":"active","ping":86},{"user_id":249,"name":"Bond","steam_id":76561198089262776,"connected_time":988000000000,"state":"active","ping":72},{"user_id":250,"name":"d5","steam_id":76561199339997328,"connected_time":970000000000,"state":"active","ping":70},{"user_id":251,"name":"Bee","steam_id":76561198074681324,"connected_time":938000000000,"state":"active","ping":62},{"user_id":227,"name":"Seika‚Åß‚ÅßParadox","steam_id":76561198139426747,"connected_time":2033000000000,"state":"active","ping":69},{"user_id":237,"name":"Jamal27 -iwnl-","steam_id":76561198068654532,"connected_time":1591000000000,"state":"active","ping":73},{"user_id":263,"name":"Big Black Dawg","steam_id":76561198050136796,"connected_time":301000000000,"state":"active","ping":86},{"user_id":252,"name":"Ganondorf","steam_id":76561198010421059,"connected_time":923000000000,"state":"active","ping":53},{"user_id":244,"name":"Umbra","steam_id":76561198139388662,"connected_time":1248000000000,"state":"active","ping":54},{"user_id":245,"name":"Dr. No Name","steam_id":76561198058656869,"connected_time":1226000000000,"state":"active","ping":83},{"user_id":220,"name":"agless","steam_id":76561198045248344,"connected_time":2422000000000,"state":"active","ping":58},{"user_id":260,"name":"eis","steam_id":76561198830293087,"connected_time":401000000000,"state":"active","ping":40},{"user_id":253,"name":"Boxcars","steam_id":76561198120978767,"connected_time":897000000000,"state":"active","ping":96},{"user_id":264,"name":"OHGODBEES!","steam_id":76561198000653374,"connected_time":292000000000,"state":"active","ping":128},{"user_id":233,"name":"the keebler","steam_id":76561199486326945,"connected_time":1957000000000,"state":"active","ping":91}]},{"server_id":36,"name":"Uncletopia | Chicago | 5 | All Maps","name_short":"chi-5","host":"chi-2.us.uncletopia.com","port":27015,"enabled":true,"region":"us-central","cc":"us","latitude":41.881832,"longitude":-87.62318,"reserved":0,"last_update":"0001-01-01T00:00:00Z","name_a2s":"Uncletopia | Chicago | 5 | All Maps","protocol":17,"map":"koth_viaduct","folder":"tf","game":"Team Fortress","app_id":440,"player_count":0,"max_players":24,"Bots":0,"server_type":"Dedicated","server_os":"Linux","password":true,"vac":true,"version":"7961495","steam_id":85568392924866362,"keywords":["cp","nocrits","nodmgspread","uncletopia"],"game_id":440,"stv_port":27016,"stv_name":"Uncletopia | Chicago | 5 | All Maps | STV","players":null},{"server_id":37,"name":"Uncletopia | Chicago | 6 | All Maps","name_short":"chi-6","host":"chi-2.us.uncletopia.com","port":27025,"enabled":true,"region":"us-central","cc":"us","latitude":41.881832,"longitude":-87.62318,"reserved":0,"last_update":"0001-01-01T00:00:00Z","name_a2s":"Uncletopia | Chicago | 6 | All Maps","protocol":17,"map":"pl_badwater","folder":"tf","game":"Team Fortress","app_id":440,"player_count":24,"max_players":24,"Bots":0,"server_type":"Dedicated","server_os":"Linux","password":true,"vac":true,"version":"7961495","steam_id":85568392924866363,"keywords":["nocrits","nodmgspread","payload","uncletopia"],"game_id":440,"stv_port":27026,"stv_name":"Uncletopia | Chicago | 6 | All Maps | STV","players":[{"user_id":74,"name":"GlitchNoodles","steam_id":76561199009135766,"connected_time":503000000000,"state":"active","ping":46},{"user_id":58,"name":"SkadooshPlayz","steam_id":76561198310986662,"connected_time":1629000000000,"state":"active","ping":107},{"user_id":42,"name":"og biden pack cart","steam_id":76561198253731826,"connected_time":2655000000000,"state":"active","ping":61},{"user_id":57,"name":"Ghost","steam_id":76561198110914180,"connected_time":1718000000000,"state":"active","ping":170},{"user_id":53,"name":"Ono","steam_id":76561198024377986,"connected_time":2022000000000,"state":"active","ping":93},{"user_id":45,"name":"Terminally Online Weeb [Dexgod]","steam_id":76561198017130786,"connected_time":2622000000000,"state":"active","ping":77},{"user_id":27,"name":"lanoc","steam_id":76561198055415367,"connected_time":3443000000000,"state":"active","ping":59},{"user_id":20,"name":"The Horselords and Animal Gods","steam_id":76561197975094050,"connected_time":3494000000000,"state":"active","ping":113},{"user_id":14,"name":"schnedwob","steam_id":76561197999146588,"connected_time":3629000000000,"state":"active","ping":84},{"user_id":60,"name":"Shady Businessman","steam_id":76561198143855968,"connected_time":1603000000000,"state":"active","ping":100},{"user_id":78,"name":"A Puppy","steam_id":76561198828184456,"connected_time":99000000000,"state":"active","ping":61},{"user_id":59,"name":"Jerma VS STAR_","steam_id":76561198016095410,"connected_time":1623000000000,"state":"active","ping":72},{"user_id":61,"name":"mkl","steam_id":76561197986401685,"connected_time":1600000000000,"state":"active","ping":77},{"user_id":72,"name":"rept","steam_id":76561198022100969,"connected_time":547000000000,"state":"active","ping":46},{"user_id":71,"name":"ROBERTO_RABBIT","steam_id":76561198042444734,"connected_time":676000000000,"state":"active","ping":78},{"user_id":35,"name":"pim","steam_id":76561198095163441,"connected_time":3258000000000,"state":"active","ping":71},{"user_id":76,"name":"sithreis","steam_id":76561198000564263,"connected_time":484000000000,"state":"active","ping":75},{"user_id":69,"name":"Chicago Shoplifter","steam_id":76561197986530028,"connected_time":838000000000,"state":"active","ping":104},{"user_id":73,"name":"yes","steam_id":76561199094011002,"connected_time":529000000000,"state":"active","ping":56},{"user_id":77,"name":"atlas","steam_id":76561198398383076,"connected_time":167000000000,"state":"active","ping":86},{"user_id":46,"name":"Cock Enjoyer [ASS]","steam_id":76561198145150950,"connected_time":2605000000000,"state":"active","ping":156},{"user_id":51,"name":"WinterBucket","steam_id":76561198381313801,"connected_time":2139000000000,"state":"active","ping":149},{"user_id":65,"name":"PumpkinThink","steam_id":76561198393830529,"connected_time":1227000000000,"state":"active","ping":62},{"user_id":75,"name":"David Goldbergstien","steam_id":76561199209382359,"connected_time":494000000000,"state":"active","ping":82}]},{"server_id":38,"name":"Uncletopia | Chicago | 7 | Stopwatch","name_short":"chi-7","host":"chi-2.us.uncletopia.com","port":27035,"enabled":true,"region":"us-central","cc":"us","latitude":41.881832,"longitude":-87.62318,"reserved":0,"last_update":"0001-01-01T00:00:00Z","name_a2s":"Uncletopia | Chicago | 7 | Stopwatch","protocol":17,"map":"pl_badwater","folder":"tf","game":"Team Fortress","app_id":440,"player_count":0,"max_players":24,"Bots":0,"server_type":"Dedicated","server_os":"Linux","password":true,"vac":true,"version":"7961495","steam_id":85568392924866364,"keywords":["nocrits","nodmgspread","payload","uncletopia"],"game_id":440,"stv_port":27036,"stv_name":"Uncletopia | Chicago | 7 | Stopwatch | STV","players":null},{"server_id":39,"name":"Uncletopia | Chicago | 8 | Community","name_short":"chi-8","host":"chi-2.us.uncletopia.com","port":27045,"enabled":true,"region":"us-central","cc":"us","latitude":41.881832,"longitude":-87.62318,"reserved":0,"last_update":"0001-01-01T00:00:00Z","name_a2s":"Uncletopia | Chicago | 8 | Community","protocol":17,"map":"workshop/pl_cashworks_final1.ugc2904065412","folder":"tf","game":"Team Fortress","app_id":440,"player_count":0,"max_players":24,"Bots":0,"server_type":"Dedicated","server_os":"Linux","password":true,"vac":true,"version":"7961495","steam_id":85568392924866365,"keywords":["nocrits","nodmgspread","payload","uncletopia"],"game_id":440,"stv_port":27046,"stv_name":"Uncletopia | Chicago | 8 | Community | STV","players":null},{"server_id":8,"name":"Uncletopia | Dallas | 1 | All Maps","name_short":"dal-1","host":"dal-1.us.uncletopia.com","port":27015,"enabled":true,"region":"us-central","cc":"us","latitude":32.779167,"longitude":-96.80889,"reserved":0,"last_update":"0001-01-01T00:00:00Z","name_a2s":"Uncletopia | Dallas | 1 | All Maps","protocol":17,"map":"koth_highpass","folder":"tf","game":"Team Fortress","app_id":440,"player_count":24,"max_players":24,"Bots":0,"server_type":"Dedicated","server_os":"Linux","password":true,"vac":true,"version":"7961495","steam_id":85568392924469986,"keywords":["cp","nocrits","nodmgspread","uncletopia"],"game_id":440,"stv_port":27016,"stv_name":"Uncletopia | Dallas | 1 | All Maps | STV","players":[{"user_id":35,"name":"Zano","steam_id":76561198066887048,"connected_time":428000000000,"state":"active","ping":77},{"user_id":48,"name":"Hobo Shanker","steam_id":76561198001785187,"connected_time":212000000000,"state":"active","ping":96},{"user_id":13,"name":"FanaticSalt","steam_id":76561199380123059,"connected_time":1708000000000,"state":"active","ping":44},{"user_id":53,"name":"dinkolaw","steam_id":76561198154072948,"connected_time":81000000000,"state":"active","ping":78},{"user_id":25,"name":"limecatcher","steam_id":76561198440239483,"connected_time":755000000000,"state":"active","ping":41},{"user_id":32,"name":"ShadowWasUhOh","steam_id":76561198400361935,"connected_time":493000000000,"state":"active","ping":75},{"user_id":30,"name":"jojobinks613","steam_id":76561198841293111,"connected_time":579000000000,"state":"active","ping":108},{"user_id":18,"name":"sloped wall (fake) [not real]","steam_id":76561198203952392,"connected_time":1289000000000,"state":"active","ping":89},{"user_id":20,"name":"CCPodz","steam_id":76561199143506502,"connected_time":1175000000000,"state":"active","ping":72},{"user_id":26,"name":"Jimmy Cumstains","steam_id":76561198044086931,"connected_time":727000000000,"state":"active","ping":93},{"user_id":22,"name":"Shrim","steam_id":76561198068455981,"connected_time":1136000000000,"state":"active","ping":69},{"user_id":27,"name":"Yam Jazzy Jim","steam_id":76561198000788950,"connected_time":723000000000,"state":"active","ping":75},{"user_id":28,"name":"Grassman (Cc)","steam_id":76561198026488532,"connected_time":694000000000,"state":"active","ping":80},{"user_id":29,"name":"MMAD","steam_id":76561198026446420,"connected_time":663000000000,"state":"active","ping":60},{"user_id":55,"name":"LACTAID","steam_id":76561198276585202,"connected_time":11000000000,"state":"spawning","ping":77},{"user_id":33,"name":"Lord_Dabbatron","steam_id":76561199058480985,"connected_time":488000000000,"state":"active","ping":42},{"user_id":34,"name":"Smartchicken","steam_id":76561198037744517,"connected_time":460000000000,"state":"active","ping":103},{"user_id":37,"name":"cake-mix","steam_id":76561199475394535,"connected_time":411000000000,"state":"active","ping":103},{"user_id":38,"name":"TECHWAR64","steam_id":76561198352008602,"connected_time":408000000000,"state":"active","ping":71},{"user_id":47,"name":"Harufloofer","steam_id":76561199084506827,"connected_time":307000000000,"state":"active","ping":45},{"user_id":40,"name":"gerf.","steam_id":76561198811706201,"connected_time":403000000000,"state":"active","ping":56},{"user_id":51,"name":"carrot cake","steam_id":76561198055174915,"connected_time":133000000000,"state":"active","ping":87},{"user_id":49,"name":"DamerDoozle","steam_id":76561199121686201,"connected_time":172000000000,"state":"active","ping":88},{"user_id":45,"name":"Dabbledornk","steam_id":76561198065241300,"connected_time":346000000000,"state":"active","ping":75}]},{"server_id":108,"name":"Uncletopia | Dallas | 2 | All Maps","name_short":"dal-2","host":"dal-1.us.uncletopia.com","port":27025,"enabled":true,"region":"us-central","cc":"us","latitude":32.779167,"longitude":-96.80889,"reserved":0,"last_update":"0001-01-01T00:00:00Z","name_a2s":"Uncletopia | Dallas | 2 | All Maps","protocol":17,"map":"koth_harvest_final","folder":"tf","game":"Team Fortress","app_id":440,"player_count":23,"max_players":24,"Bots":0,"server_type":"Dedicated","server_os":"Linux","password":true,"vac":true,"version":"7961495","steam_id":85568392924469988,"keywords":["cp","nocrits","nodmgspread","uncletopia"],"game_id":440,"stv_port":27026,"stv_name":"Uncletopia | Dallas | 2 | All Maps | STV","players":[{"user_id":79,"name":"big play","steam_id":76561198011675372,"connected_time":3063000000000,"state":"active","ping":101},{"user_id":87,"name":"Meet The Racist","steam_id":76561198253927199,"connected_time":2186000000000,"state":"active","ping":159},{"user_id":64,"name":"Speed Spell IV","steam_id":76561198298364415,"connected_time":3795000000000,"state":"active","ping":123},{"user_id":23,"name":"THRONGLER","steam_id":76561198198563466,"connected_time":6603000000000,"state":"active","ping":41},{"user_id":102,"name":"guy","steam_id":76561198196443262,"connected_time":1000000000000,"state":"active","ping":78},{"user_id":108,"name":"peanut butter","steam_id":76561198117839474,"connected_time":787000000000,"state":"active","ping":81},{"user_id":117,"name":"Nicklouse","steam_id":76561198852629024,"connected_time":378000000000,"state":"active","ping":74},{"user_id":114,"name":"hforce11","steam_id":76561198087647130,"connected_time":625000000000,"state":"active","ping":70},{"user_id":106,"name":"TheKingsof17","steam_id":76561199235048405,"connected_time":898000000000,"state":"active","ping":84},{"user_id":104,"name":"‚õßAlkahestry","steam_id":76561198109641497,"connected_time":922000000000,"state":"active","ping":74},{"user_id":82,"name":"Taco+Taco=Burrito","steam_id":76561198063128663,"connected_time":2864000000000,"state":"active","ping":78},{"user_id":88,"name":"Splash","steam_id":76561198271994269,"connected_time":2156000000000,"state":"active","ping":69},{"user_id":120,"name":"Sgt. Screwball","steam_id":76561198307963570,"connected_time":247000000000,"state":"active","ping":90},{"user_id":118,"name":"Context","steam_id":76561197972634187,"connected_time":355000000000,"state":"active","ping":71},{"user_id":107,"name":"FISH","steam_id":76561198093517274,"connected_time":881000000000,"state":"active","ping":68},{"user_id":119,"name":"potpurrycatcurry","steam_id":76561198349409715,"connected_time":346000000000,"state":"active","ping":50},{"user_id":110,"name":"_Nyar__","steam_id":76561198048511146,"connected_time":715000000000,"state":"active","ping":66},{"user_id":111,"name":"wile","steam_id":76561198125261443,"connected_time":705000000000,"state":"active","ping":115},{"user_id":112,"name":"pup","steam_id":76561198206523304,"connected_time":698000000000,"state":"active","ping":97},{"user_id":95,"name":"Billosky Time Lord","steam_id":76561199159626560,"connected_time":1866000000000,"state":"active","ping":147},{"user_id":121,"name":"trash beast","steam_id":76561198015792736,"connected_time":155000000000,"state":"active","ping":74},{"user_id":122,"name":"simonjohna646","steam_id":76561199403481880,"connected_time":148000000000,"state":"active","ping":163},{"user_id":76,"name":"Kuyumiester","steam_id":76561198126835302,"connected_time":3165000000000,"state":"active","ping":65}]},{"server_id":404,"name":"Uncletopia | Dallas | 3 | All Maps","name_short":"dal-3","host":"dal-1.us.uncletopia.com","port":27035,"enabled":true,"region":"us-central","cc":"us","latitude":32.779167,"longitude":-96.80889,"reserved":0,"last_update":"0001-01-01T00:00:00Z","name_a2s":"Uncletopia | Dallas | 3 | All Maps","protocol":17,"map":"cp_process_final","folder":"tf","game":"Team Fortress","app_id":440,"player_count":15,"max_players":24,"Bots":0,"server_type":"Dedicated","server_os":"Linux","password":true,"vac":true,"version":"7961495","steam_id":85568392924515219,"keywords":["cp","nocrits","nodmgspread","uncletopia"],"game_id":440,"stv_port":27036,"stv_name":"Uncletopia | Dallas | 3 | All Maps | STV","players":[{"user_id":407,"name":"Bucket of Chestnuts","steam_id":76561198115079427,"connected_time":2118000000000,"state":"active","ping":85},{"user_id":414,"name":"HaoMingXiaoHisGamingExcellency","steam_id":76561199014105755,"connected_time":1553000000000,"state":"active","ping":83},{"user_id":369,"name":"Mr. Luggy","steam_id":76561198072723392,"connected_time":4940000000000,"state":"active","ping":64},{"user_id":385,"name":"Peppa Pig","steam_id":76561198147772879,"connected_time":3638000000000,"state":"active","ping":51},{"user_id":409,"name":"SolarusD","steam_id":76561198029279861,"connected_time":2004000000000,"state":"active","ping":77},{"user_id":422,"name":"Coffeemelon","steam_id":76561198285891257,"connected_time":573000000000,"state":"active","ping":98},{"user_id":425,"name":"‚òºBarracuda‚òº","steam_id":76561198013022083,"connected_time":55000000000,"state":"active","ping":59},{"user_id":418,"name":"*Stare*","steam_id":76561199072209884,"connected_time":896000000000,"state":"active","ping":164},{"user_id":378,"name":"Nato #ClashGG","steam_id":76561198161062837,"connected_time":4388000000000,"state":"active","ping":68},{"user_id":423,"name":"Odd Life","steam_id":76561198244979998,"connected_time":399000000000,"state":"active","ping":76},{"user_id":420,"name":"red","steam_id":76561198325486281,"connected_time":691000000000,"state":"active","ping":63},{"user_id":404,"name":"Genetic Komodo (He/Him)","steam_id":76561198174806758,"connected_time":2626000000000,"state":"active","ping":32},{"user_id":405,"name":"Mexican Muselk","steam_id":76561199289676387,"connected_time":2608000000000,"state":"active","ping":54},{"user_id":181,"name":"Yopi","steam_id":76561198004298898,"connected_time":17436000000000,"state":"active","ping":75},{"user_id":424,"name":"clavin","steam_id":76561198069380992,"connected_time":171000000000,"state":"active","ping":47}]},{"server_id":405,"name":"Uncletopia | Dallas | 4 | Community","name_short":"dal-4","host":"dal-1.us.uncletopia.com","port":27045,"enabled":true,"region":"us-central","cc":"us","latitude":32.779167,"longitude":-96.80889,"reserved":0,"last_update":"0001-01-01T00:00:00Z","name_a2s":"Uncletopia | Dallas | 4 | Community","protocol":17,"map":"pl_pier","folder":"tf","game":"Team Fortress","app_id":440,"player_count":0,"max_players":24,"Bots":0,"server_type":"Dedicated","server_os":"Linux","password":true,"vac":true,"version":"7961495","steam_id":85568392924515220,"keywords":["nocrits","nodmgspread","payload","uncletopia"],"game_id":440,"stv_port":27046,"stv_name":"Uncletopia | Dallas | 4 | Community | STV","players":null},{"server_id":5,"name":"Uncletopia | Frankfurt | 1 | All Maps","name_short":"frk-1","host":"frk-1.de.uncletopia.com","port":27015,"enabled":true,"region":"eu","cc":"de","latitude":50.110924,"longitude":8.682127,"reserved":0,"last_update":"0001-01-01T00:00:00Z","name_a2s":"Uncletopia | Frankfurt | 1 | All Maps","protocol":17,"map":"pl_snowycoast","folder":"tf","game":"Team Fortress","app_id":440,"player_count":24,"max_players":24,"Bots":0,"server_type":"Dedicated","server_os":"Linux","password":true,"vac":true,"version":"7961495","steam_id":85568392924469989,"keywords":["nocrits","nodmgspread","payload","uncletopia"],"game_id":440,"stv_port":27016,"stv_name":"Uncletopia | Frankfurt | 1 | All Maps | STV","players":[{"user_id":694,"name":"Haha?","steam_id":76561198056882245,"connected_time":1784000000000,"state":"active","ping":45},{"user_id":720,"name":"Onecoinsachi","steam_id":76561199085984801,"connected_time":179000000000,"state":"active","ping":70},{"user_id":671,"name":"wes","steam_id":76561198067000117,"connected_time":2500000000000,"state":"active","ping":60},{"user_id":683,"name":"Arsonist","steam_id":76561199087953833,"connected_time":2443000000000,"state":"active","ping":93},{"user_id":669,"name":"Pofl","steam_id":76561197995110333,"connected_time":2560000000000,"state":"active","ping":58},{"user_id":698,"name":"r^f nyanezt","steam_id":76561198253734265,"connected_time":973000000000,"state":"active","ping":85},{"user_id":708,"name":"Gnome Warlord","steam_id":76561199075520017,"connected_time":734000000000,"state":"active","ping":163},{"user_id":695,"name":"Plith","steam_id":76561198027499887,"connected_time":1758000000000,"state":"active","ping":61},{"user_id":696,"name":"r^f shrrrrrrekkkkk","steam_id":76561198347241576,"connected_time":1549000000000,"state":"active","ping":101},{"user_id":675,"name":"nezolif","steam_id":76561198102030382,"connected_time":2490000000000,"state":"active","ping":58},{"user_id":701,"name":"Suetolog","steam_id":76561199053090212,"connected_time":816000000000,"state":"active","ping":52},{"user_id":677,"name":"Aspartus","steam_id":76561198101385763,"connected_time":2488000000000,"state":"active","ping":46},{"user_id":709,"name":"Waltism","steam_id":76561199447676489,"connected_time":717000000000,"state":"active","ping":69},{"user_id":717,"name":"jur","steam_id":76561198096189399,"connected_time":423000000000,"state":"active","ping":66},{"user_id":647,"name":"SynthBox3","steam_id":76561199094075745,"connected_time":4702000000000,"state":"active","ping":85},{"user_id":666,"name":"Cakeduck","steam_id":76561198008315265,"connected_time":2764000000000,"state":"active","ping":46},{"user_id":719,"name":"Futaro","steam_id":76561198084534929,"connected_time":213000000000,"state":"active","ping":64},{"user_id":691,"name":"Accwith12chr","steam_id":76561198311593297,"connected_time":2151000000000,"state":"active","ping":79},{"user_id":710,"name":"retard","steam_id":76561198800685443,"connected_time":711000000000,"state":"active","ping":47},{"user_id":640,"name":"takumi fujara","steam_id":76561198078928120,"connected_time":5340000000000,"state":"active","ping":75},{"user_id":684,"name":"dia","steam_id":76561198033281405,"connected_time":2443000000000,"state":"active","ping":79},{"user_id":667,"name":"LiterallyRyanGosling","steam_id":76561199017856691,"connected_time":2579000000000,"state":"active","ping":79},{"user_id":686,"name":"ThatKetos","steam_id":76561198989682540,"connected_time":2421000000000,"state":"active","ping":45},{"user_id":687,"name":"debil boywife","steam_id":76561198160047415,"connected_time":2419000000000,"state":"active","ping":94}]},{"server_id":110,"name":"Uncletopia | Frankfurt | 2 | All Maps","name_short":"frk-2","host":"frk-1.de.uncletopia.com","port":27025,"enabled":true,"region":"eu","cc":"de","latitude":50.110924,"longitude":8.682127,"reserved":0,"last_update":"0001-01-01T00:00:00Z","name_a2s":"Uncletopia | Frankfurt | 2 | All Maps","protocol":17,"map":"cp_altitude","folder":"tf","game":"Team Fortress","app_id":440,"player_count":3,"max_players":24,"Bots":0,"server_type":"Dedicated","server_os":"Linux","password":true,"vac":true,"version":"7961495","steam_id":85568392924469990,"keywords":["cp","nocrits","nodmgspread","uncletopia"],"game_id":440,"stv_port":27026,"stv_name":"Uncletopia | Frankfurt | 2 | All Maps | STV","players":[{"user_id":486,"name":"bossievossie","steam_id":76561198836337543,"connected_time":422000000000,"state":"active","ping":68},{"user_id":487,"name":"Ryan the Asian","steam_id":76561198008749341,"connected_time":411000000000,"state":"active","ping":56},{"user_id":488,"name":"Mr.Pyro","steam_id":76561198032727278,"connected_time":409000000000,"state":"active","ping":56}]},{"server_id":308,"name":"Uncletopia | Frankfurt | 3 | All Maps","name_short":"frk-3","host":"frk-1.de.uncletopia.com","port":27035,"enabled":true,"region":"eu","cc":"de","latitude":50.110924,"longitude":8.682127,"reserved":0,"last_update":"0001-01-01T00:00:00Z","name_a2s":"Uncletopia | Frankfurt | 3 | All Maps","protocol":17,"map":"cp_snakewater_final1","folder":"tf","game":"Team Fortress","app_id":440,"player_count":24,"max_players":24,"Bots":0,"server_type":"Dedicated","server_os":"Linux","password":true,"vac":true,"version":"7961495","steam_id":85568392924504274,"keywords":["cp","nocrits","nodmgspread","uncletopia"],"game_id":440,"stv_port":27036,"stv_name":"Uncletopia | Frankfurt | 3 | All Maps | STV","players":[{"user_id":299,"name":"R@DIO","steam_id":76561197995533046,"connected_time":488000000000,"state":"active","ping":74},{"user_id":295,"name":"big dawg","steam_id":76561198146909166,"connected_time":572000000000,"state":"active","ping":60},{"user_id":306,"name":"Roll and Rocker","steam_id":76561198131764464,"connected_time":302000000000,"state":"active","ping":82},{"user_id":305,"name":"BeefHammer","steam_id":76561198078426223,"connected_time":316000000000,"state":"active","ping":99},{"user_id":282,"name":"Dr Bondus Bolongus Dongus","steam_id":76561198378657692,"connected_time":1614000000000,"state":"active","ping":60},{"user_id":296,"name":"mo","steam_id":76561198109591939,"connected_time":571000000000,"state":"active","ping":45},{"user_id":289,"name":"Swagmaster","steam_id":76561198045828392,"connected_time":861000000000,"state":"active","ping":57},{"user_id":297,"name":"Vito","steam_id":76561198103978102,"connected_time":537000000000,"state":"active","ping":81},{"user_id":307,"name":"Baba Sraka","steam_id":76561198128292318,"connected_time":301000000000,"state":"active","ping":150},{"user_id":254,"name":"Skarp","steam_id":76561198034398376,"connected_time":3775000000000,"state":"active","ping":46},{"user_id":300,"name":"post-nuke selfie","steam_id":76561198082502910,"connected_time":480000000000,"state":"active","ping":49},{"user_id":302,"name":"–ë–µ–ª—è—à-e–±–ª—è—à","steam_id":76561198122946306,"connected_time":400000000000,"state":"active","ping":75},{"user_id":232,"name":"Gary Wilsom","steam_id":76561198160778112,"connected_time":5231000000000,"state":"active","ping":70},{"user_id":308,"name":"Vitun vittu","steam_id":76561198110679463,"connected_time":292000000000,"state":"active","ping":75},{"user_id":303,"name":"McCamuga","steam_id":76561198059806422,"connected_time":360000000000,"state":"active","ping":51},{"user_id":293,"name":"Hyper","steam_id":76561198278194944,"connected_time":622000000000,"state":"active","ping":63},{"user_id":309,"name":"sui","steam_id":76561198185348855,"connected_time":281000000000,"state":"active","ping":67},{"user_id":314,"name":"turbo shart","steam_id":76561198012351808,"connected_time":195000000000,"state":"active","ping":57},{"user_id":278,"name":"Solima","steam_id":76561198045349099,"connected_time":1883000000000,"state":"active","ping":45},{"user_id":311,"name":"The Engineering Puro","steam_id":76561199186496740,"connected_time":241000000000,"state":"active","ping":174},{"user_id":312,"name":"A simple berry picker","steam_id":76561198091969871,"connected_time":236000000000,"state":"active","ping":87},{"user_id":287,"name":"Gorgeous George","steam_id":76561198144256544,"connected_time":1052000000000,"state":"active","ping":62},{"user_id":267,"name":"Lyncurion","steam_id":76561199260022725,"connected_time":2474000000000,"state":"active","ping":84},{"user_id":313,"name":"Cryan Branston","steam_id":76561197996486756,"connected_time":236000000000,"state":"active","ping":53}]},{"server_id":309,"name":"Uncletopia | Frankfurt | 4 | All Maps","name_short":"frk-4","host":"frk-1.de.uncletopia.com","port":27045,"enabled":true,"region":"eu","cc":"de","latitude":50.110924,"longitude":8.682127,"reserved":0,"last_update":"0001-01-01T00:00:00Z","name_a2s":"Uncletopia | Frankfurt | 4 | All Maps","protocol":17,"map":"pl_snowycoast","folder":"tf","game":"Team Fortress","app_id":440,"player_count":6,"max_players":24,"Bots":0,"server_type":"Dedicated","server_os":"Linux","password":true,"vac":true,"version":"7961495","steam_id":85568392924504275,"keywords":["nocrits","nodmgspread","payload","uncletopia"],"game_id":440,"stv_port":27046,"stv_name":"Uncletopia | Frankfurt | 4 | All Maps | STV","players":[{"user_id":522,"name":"SNEAKY TURTLE","steam_id":76561198172177650,"connected_time":16000000000,"state":"spawning","ping":84},{"user_id":518,"name":"The Supplier","steam_id":76561199071707695,"connected_time":446000000000,"state":"active","ping":174},{"user_id":519,"name":"goobie snoobert","steam_id":76561198195833338,"connected_time":386000000000,"state":"active","ping":164},{"user_id":520,"name":"GibbusGod","steam_id":76561199232436690,"connected_time":143000000000,"state":"active","ping":146},{"user_id":523,"name":"F2P Challenge","steam_id":76561199498773639,"connected_time":2000000000,"state":"spawning","ping":79},{"user_id":512,"name":"The Storm That Is Approaching","steam_id":76561198982155864,"connected_time":1027000000000,"state":"active","ping":69}]},{"server_id":310,"name":"Uncletopia | Frankfurt | 5 | All Maps","name_short":"frk-5","host":"frk-1.de.uncletopia.com","port":27055,"enabled":true,"region":"eu","cc":"de","latitude":50.110924,"longitude":8.682127,"reserved":0,"last_update":"0001-01-01T00:00:00Z","name_a2s":"Uncletopia | Frankfurt | 5 | All Maps","protocol":17,"map":"pl_borneo","folder":"tf","game":"Team Fortress","app_id":440,"player_count":23,"max_players":24,"Bots":0,"server_type":"Dedicated","server_os":"Linux","password":true,"vac":true,"version":"7961495","steam_id":85568392924504277,"keywords":["nocrits","nodmgspread","payload","uncletopia"],"game_id":440,"stv_port":27056,"stv_name":"Uncletopia | Frankfurt | 5 | All Maps | STV","players":[{"user_id":317,"name":"[P-roc] BadJacKS","steam_id":76561197972666377,"connected_time":3384000000000,"state":"active","ping":50},{"user_id":325,"name":"Ham Merchant","steam_id":76561198389947352,"connected_time":2893000000000,"state":"active","ping":90},{"user_id":326,"name":"mr","steam_id":76561199037541925,"connected_time":2878000000000,"state":"active","ping":70},{"user_id":362,"name":"Benito Mussolini","steam_id":76561198362801147,"connected_time":865000000000,"state":"active","ping":105},{"user_id":361,"name":"akciq ‚Åß‚Åßrespect","steam_id":76561198390963456,"connected_time":1024000000000,"state":"active","ping":74},{"user_id":365,"name":"Pats (Gifted items Collector)","steam_id":76561198418538887,"connected_time":305000000000,"state":"active","ping":84},{"user_id":352,"name":"Cymric","steam_id":76561198208749713,"connected_time":1622000000000,"state":"active","ping":73},{"user_id":353,"name":"i look at gay people","steam_id":76561198078032019,"connected_time":1501000000000,"state":"active","ping":84},{"user_id":341,"name":"Ender_DragonYT... GGDROP.COM","steam_id":76561198946735113,"connected_time":2602000000000,"state":"active","ping":76},{"user_id":364,"name":"meistjr","steam_id":76561198077240093,"connected_time":637000000000,"state":"active","ping":62},{"user_id":359,"name":"ELON MUSK","steam_id":76561198132788284,"connected_time":1106000000000,"state":"active","ping":72},{"user_id":328,"name":"Joejee","steam_id":76561199122423976,"connected_time":2835000000000,"state":"active","ping":76},{"user_id":363,"name":"PABLO","steam_id":76561198968173239,"connected_time":864000000000,"state":"active","ping":79},{"user_id":330,"name":"üá™üá¨ Pharaoh | bot","steam_id":76561198974553024,"connected_time":2798000000000,"state":"active","ping":102},{"user_id":349,"name":"WEEP","steam_id":76561199499933159,"connected_time":2000000000000,"state":"active","ping":59},{"user_id":332,"name":"Himsagi Yoichi","steam_id":76561197967683724,"connected_time":2763000000000,"state":"active","ping":59},{"user_id":340,"name":"diarrea inoculada 2000","steam_id":76561198412197820,"connected_time":2696000000000,"state":"active","ping":79},{"user_id":344,"name":"HynekN","steam_id":76561198126714831,"connected_time":2451000000000,"state":"active","ping":54},{"user_id":334,"name":"dirhs","steam_id":76561198383867611,"connected_time":2751000000000,"state":"active","ping":61},{"user_id":335,"name":"Shy cute eboy baka","steam_id":76561198353334467,"connected_time":2751000000000,"state":"active","ping":85},{"user_id":336,"name":"ELPOTATO","steam_id":76561198049743627,"connected_time":2747000000000,"state":"active","ping":90},{"user_id":366,"name":"Demo #saveTF2","steam_id":76561198102850854,"connected_time":219000000000,"state":"active","ping":57},{"user_id":350,"name":"Jackom353","steam_id":76561198799931959,"connected_time":1976000000000,"state":"active","ping":81}]},{"server_id":311,"name":"Uncletopia | Frankfurt | 6 | All Maps","name_short":"frk-6","host":"frk-1.de.uncletopia.com","port":27065,"enabled":true,"region":"eu","cc":"de","latitude":50.110924,"longitude":8.682127,"reserved":0,"last_update":"0001-01-01T00:00:00Z","name_a2s":"Uncletopia | Frankfurt | 6 | All Maps","protocol":17,"map":"pl_thundermountain","folder":"tf","game":"Team Fortress","app_id":440,"player_count":23,"max_players":24,"Bots":0,"server_type":"Dedicated","server_os":"Linux","password":true,"vac":true,"version":"7961495","steam_id":85568392924504278,"keywords":["nocrits","nodmgspread","payload","uncletopia"],"game_id":440,"stv_port":27066,"stv_name":"Uncletopia | Frankfurt | 6 | All Maps | STV","players":[{"user_id":251,"name":"Zamorocian","steam_id":76561198076604017,"connected_time":1250000000000,"state":"active","ping":53},{"user_id":243,"name":"PAX","steam_id":76561198046692146,"connected_time":1583000000000,"state":"active","ping":84},{"user_id":252,"name":"The Lady","steam_id":76561198029895809,"connected_time":1249000000000,"state":"active","ping":74},{"user_id":195,"name":"Rodak","steam_id":76561199135986344,"connected_time":4616000000000,"state":"active","ping":65},{"user_id":240,"name":"worgeral","steam_id":76561198050781898,"connected_time":1625000000000,"state":"active","ping":63},{"user_id":232,"name":"MistrzPalc√≥wa","steam_id":76561199044887226,"connected_time":1898000000000,"state":"active","ping":53},{"user_id":255,"name":"LAMA BOOTY","steam_id":76561199076900572,"connected_time":1023000000000,"state":"active","ping":84},{"user_id":236,"name":"Cosmic Gamer","steam_id":76561198027357981,"connected_time":1671000000000,"state":"active","ping":99},{"user_id":241,"name":"meriones","steam_id":76561198034234373,"connected_time":1605000000000,"state":"active","ping":56},{"user_id":253,"name":"Mega Saturn","steam_id":76561198024750500,"connected_time":1064000000000,"state":"active","ping":100},{"user_id":238,"name":"Joo ‚ô¶","steam_id":76561197987609203,"connected_time":1660000000000,"state":"active","ping":71},{"user_id":244,"name":"[MN]apradella","steam_id":76561198133858963,"connected_time":1569000000000,"state":"active","ping":57},{"user_id":262,"name":"gaming (official)","steam_id":76561198106012909,"connected_time":186000000000,"state":"active","ping":67},{"user_id":250,"name":"flange","steam_id":76561198040182692,"connected_time":1274000000000,"state":"active","ping":52},{"user_id":254,"name":"Xephur","steam_id":76561198023709441,"connected_time":1044000000000,"state":"active","ping":75},{"user_id":256,"name":"SantiDestroyer","steam_id":76561198306920489,"connected_time":973000000000,"state":"active","ping":78},{"user_id":257,"name":"antony_gu","steam_id":76561198254415575,"connected_time":947000000000,"state":"active","ping":78},{"user_id":187,"name":"The","steam_id":76561199378865926,"connected_time":5125000000000,"state":"active","ping":92},{"user_id":157,"name":"MakeItRainbow","steam_id":76561198045098064,"connected_time":7034000000000,"state":"active","ping":60},{"user_id":258,"name":"shadow39344","steam_id":76561198090639618,"connected_time":940000000000,"state":"active","ping":66},{"user_id":190,"name":"Ze Kobold","steam_id":76561198090161992,"connected_time":5044000000000,"state":"active","ping":64},{"user_id":261,"name":"YuraGreek","steam_id":76561198050182252,"connected_time":561000000000,"state":"active","ping":99},{"user_id":260,"name":"Holy Cow","steam_id":76561198203422988,"connected_time":694000000000,"state":"active","ping":64}]},{"server_id":23,"name":"Uncletopia | Frankfurt | 7 | Stopwatch","name_short":"frk-7","host":"frk-1.de.uncletopia.com","port":27075,"enabled":true,"region":"eu","cc":"de","latitude":50.110924,"longitude":8.682127,"reserved":0,"last_update":"0001-01-01T00:00:00Z","name_a2s":"Uncletopia | Frankfurt | 7 | Stopwatch","protocol":17,"map":"koth_lakeside_final","folder":"tf","game":"Team Fortress","app_id":440,"player_count":0,"max_players":24,"Bots":0,"server_type":"Dedicated","server_os":"Linux","password":true,"vac":true,"version":"7961495","steam_id":85568392924742827,"keywords":["cp","nocrits","nodmgspread","uncletopia"],"game_id":440,"stv_port":27076,"stv_name":"Uncletopia | Frankfurt | 7 | Stopwatch | STV","players":null},{"server_id":24,"name":"Uncletopia | Frankfurt | 8 | Community","name_short":"frk-8","host":"frk-1.de.uncletopia.com","port":27085,"enabled":true,"region":"eu","cc":"de","latitude":50.110924,"longitude":8.682127,"reserved":0,"last_update":"0001-01-01T00:00:00Z","name_a2s":"Uncletopia | Frankfurt | 8 | Community","protocol":17,"map":"workshop/koth_kemptown_rc1.ugc767410655","folder":"tf","game":"Team Fortress","app_id":440,"player_count":0,"max_players":24,"Bots":0,"server_type":"Dedicated","server_os":"Linux","password":true,"vac":true,"version":"7961495","steam_id":85568392924742828,"keywords":["cp","nocrits","nodmgspread","uncletopia"],"game_id":440,"stv_port":27086,"stv_name":"Uncletopia | Frankfurt | 8 | Community | STV","players":null},{"server_id":202,"name":"Uncletopia | Hong Kong | 1 | All Maps","name_short":"hgk-1","host":"hgk-1.hk.uncletopia.com","port":27015,"enabled":true,"region":"asia","cc":"hk","latitude":22.302711,"longitude":114.177216,"reserved":0,"last_update":"0001-01-01T00:00:00Z","name_a2s":"Uncletopia | Hong Kong | 1 | All Maps","protocol":17,"map":"koth_viaduct","folder":"tf","game":"Team Fortress","app_id":440,"player_count":0,"max_players":24,"Bots":0,"server_type":"Dedicated","server_os":"Linux","password":true,"vac":true,"version":"7961495","steam_id":85568392924494504,"keywords":["cp","nocrits","nodmgspread","uncletopia"],"game_id":440,"stv_port":27016,"stv_name":"Uncletopia | Hong Kong | 1 | All Maps | STV","players":null},{"server_id":1,"name":"Uncletopia | Los Angeles | 1 | All Maps","name_short":"lax-1","host":"lax-1.us.uncletopia.com","port":27015,"enabled":true,"region":"us-west","cc":"us","latitude":33.94279,"longitude":-118.41004,"reserved":0,"last_update":"0001-01-01T00:00:00Z","name_a2s":"Uncletopia | Los Angeles | 1 | All Maps","protocol":17,"map":"pl_upward","folder":"tf","game":"Team Fortress","app_id":440,"player_count":3,"max_players":24,"Bots":0,"server_type":"Dedicated","server_os":"Linux","password":true,"vac":true,"version":"7961495","steam_id":85568392924469991,"keywords":["nocrits","nodmgspread","payload","uncletopia"],"game_id":440,"stv_port":27016,"stv_name":"Uncletopia | Los Angeles | 1 | All Maps | STV","players":[{"user_id":12,"name":"usedhalfcart","steam_id":76561198072621852,"connected_time":105000000000,"state":"active","ping":68},{"user_id":13,"name":"SunNc","steam_id":76561198097711843,"connected_time":26000000000,"state":"active","ping":50},{"user_id":14,"name":"KysonJack","steam_id":76561198024092248,"connected_time":21000000000,"state":"spawning","ping":73}]},{"server_id":112,"name":"Uncletopia | Los Angeles | 2 | All Maps","name_short":"lax-2","host":"lax-1.us.uncletopia.com","port":27025,"enabled":true,"region":"us-west","cc":"us","latitude":33.94279,"longitude":-118.41004,"reserved":0,"last_update":"0001-01-01T00:00:00Z","name_a2s":"Uncletopia | Los Angeles | 2 | All Maps","protocol":17,"map":"pl_snowycoast","folder":"tf","game":"Team Fortress","app_id":440,"player_count":0,"max_players":24,"Bots":0,"server_type":"Dedicated","server_os":"Linux","password":true,"vac":true,"version":"7961495","steam_id":85568392924469992,"keywords":["nocrits","nodmgspread","payload","uncletopia"],"game_id":440,"stv_port":27026,"stv_name":"Uncletopia | Los Angeles | 2 | All Maps | STV","players":null},{"server_id":324,"name":"Uncletopia | Los Angeles | 3 | All Maps","name_short":"lax-3","host":"lax-1.us.uncletopia.com","port":27035,"enabled":true,"region":"us-west","cc":"us","latitude":33.94279,"longitude":-118.41004,"reserved":0,"last_update":"0001-01-01T00:00:00Z","name_a2s":"Uncletopia | Los Angeles | 3 | All Maps","protocol":17,"map":"koth_cascade","folder":"tf","game":"Team Fortress","app_id":440,"player_count":0,"max_players":24,"Bots":0,"server_type":"Dedicated","server_os":"Linux","password":true,"vac":true,"version":"7961495","steam_id":85568392924510198,"keywords":["cp","nocrits","nodmgspread","uncletopia"],"game_id":440,"stv_port":27036,"stv_name":"Uncletopia | Los Angeles | 3 | All Maps | STV","players":null},{"server_id":25,"name":"Uncletopia | Los Angeles | 4 | Stopwatch","name_short":"lax-4","host":"lax-1.us.uncletopia.com","port":27045,"enabled":true,"region":"us-west","cc":"us","latitude":33.94279,"longitude":-118.41004,"reserved":0,"last_update":"0001-01-01T00:00:00Z","name_a2s":"Uncletopia | Los Angeles | 4 | Stopwatch","protocol":17,"map":"pl_barnblitz","folder":"tf","game":"Team Fortress","app_id":440,"player_count":0,"max_players":24,"Bots":0,"server_type":"Dedicated","server_os":"Linux","password":true,"vac":true,"version":"7961495","steam_id":85568392924510199,"keywords":["nocrits","nodmgspread","payload","uncletopia"],"game_id":440,"stv_port":27046,"stv_name":"Uncletopia | Los Angeles | 4 | Stopwatch | STV","players":null},{"server_id":11,"name":"Uncletopia | London | 1 | All Maps","name_short":"lon-1","host":"lon-1.uk.uncletopia.com","port":27015,"enabled":true,"region":"eu","cc":"gb","latitude":51.509865,"longitude":-0.118092,"reserved":0,"last_update":"0001-01-01T00:00:00Z","name_a2s":"Uncletopia | London | 1 | All Maps","protocol":17,"map":"pl_snowycoast","folder":"tf","game":"Team Fortress","app_id":440,"player_count":24,"max_players":24,"Bots":0,"server_type":"Dedicated","server_os":"Linux","password":true,"vac":true,"version":"7961495","steam_id":85568392924367362,"keywords":["nocrits","nodmgspread","payload","uncletopia"],"game_id":440,"stv_port":27016,"stv_name":"Uncletopia | London | 1 | All Maps | STV","players":[{"user_id":671,"name":"Black Tom","steam_id":76561198335730273,"connected_time":6199000000000,"state":"active","ping":57},{"user_id":738,"name":"RomAnjentululiantiarion","steam_id":76561198161417211,"connected_time":252000000000,"state":"active","ping":96},{"user_id":721,"name":"Zootsie","steam_id":76561198051387415,"connected_time":1565000000000,"state":"active","ping":52},{"user_id":739,"name":"hbdie_","steam_id":76561198109996675,"connected_time":219000000000,"state":"spawning","ping":29},{"user_id":722,"name":"RubyTheUnicorn","steam_id":76561198091772218,"connected_time":1504000000000,"state":"active","ping":62},{"user_id":682,"name":"trite","steam_id":76561197983765323,"connected_time":5249000000000,"state":"active","ping":65},{"user_id":743,"name":"Jergu","steam_id":76561198023457541,"connected_time":177000000000,"state":"active","ping":86},{"user_id":703,"name":"Janneke Maan","steam_id":76561198069290924,"connected_time":4311000000000,"state":"active","ping":65},{"user_id":624,"name":"jermany!","steam_id":76561198126599355,"connected_time":11623000000000,"state":"active","ping":55},{"user_id":737,"name":"Prome","steam_id":76561199050383942,"connected_time":314000000000,"state":"active","ping":56},{"user_id":732,"name":"pavyonspor","steam_id":76561198116530769,"connected_time":633000000000,"state":"active","ping":95},{"user_id":704,"name":"Purps","steam_id":76561198053886680,"connected_time":3927000000000,"state":"active","ping":39},{"user_id":726,"name":"Slifer, The Hunter","steam_id":76561198062255803,"connected_time":868000000000,"state":"active","ping":80},{"user_id":733,"name":"BreadBubbles","steam_id":76561198174332826,"connected_time":632000000000,"state":"active","ping":57},{"user_id":745,"name":"Ayham","steam_id":76561198652914622,"connected_time":123000000000,"state":"active","ping":132},{"user_id":724,"name":"hmscole09","steam_id":76561198811362788,"connected_time":1114000000000,"state":"active","ping":52},{"user_id":746,"name":"√áodar","steam_id":76561198235518444,"connected_time":3000000000,"state":"spawning","ping":57},{"user_id":747,"name":"Jonno","steam_id":76561198023443744,"connected_time":1000000000,"state":"spawning","ping":19},{"user_id":734,"name":"Huskai","steam_id":76561198141512362,"connected_time":628000000000,"state":"active","ping":45},{"user_id":744,"name":"ScampSixteen","steam_id":76561198021771000,"connected_time":145000000000,"state":"active","ping":54},{"user_id":742,"name":"GUMBO","steam_id":76561198183949987,"connected_time":192000000000,"state":"active","ping":51},{"user_id":736,"name":"‚àÜRel8ble‚àÜ","steam_id":76561199075747014,"connected_time":554000000000,"state":"active","ping":119},{"user_id":643,"name":"shooer!","steam_id":76561198110531281,"connected_time":9878000000000,"state":"active","ping":75},{"user_id":686,"name":"joachym","steam_id":76561198428579761,"connected_time":5227000000000,"state":"active","ping":70}]},{"server_id":114,"name":"Uncletopia | London | 2 | All Maps","name_short":"lon-2","host":"lon-1.uk.uncletopia.com","port":27025,"enabled":true,"region":"eu","cc":"gb","latitude":51.509865,"longitude":-0.118092,"reserved":0,"last_update":"0001-01-01T00:00:00Z","name_a2s":"Uncletopia | London | 2 | All Maps","protocol":17,"map":"pl_frontier_final","folder":"tf","game":"Team Fortress","app_id":440,"player_count":3,"max_players":24,"Bots":0,"server_type":"Dedicated","server_os":"Linux","password":true,"vac":true,"version":"7961495","steam_id":85568392924470941,"keywords":["nocrits","nodmgspread","payload","uncletopia"],"game_id":440,"stv_port":27026,"stv_name":"Uncletopia | London | 2 | All Maps | STV","players":[{"user_id":698,"name":"halo1v2","steam_id":76561198032106750,"connected_time":136000000000,"state":"active","ping":55},{"user_id":600,"name":"Oisklet","steam_id":76561198105734948,"connected_time":3948000000000,"state":"active","ping":75},{"user_id":591,"name":"scarfweather","steam_id":76561198121331836,"connected_time":4954000000000,"state":"active","ping":58}]},{"server_id":320,"name":"Uncletopia | London | 3 | All Maps","name_short":"lon-3","host":"lon-1.uk.uncletopia.com","port":27035,"enabled":true,"region":"eu","cc":"gb","latitude":51.509865,"longitude":-0.118092,"reserved":0,"last_update":"0001-01-01T00:00:00Z","name_a2s":"Uncletopia | London | 3 | All Maps","protocol":17,"map":"pl_snowycoast","folder":"tf","game":"Team Fortress","app_id":440,"player_count":24,"max_players":24,"Bots":0,"server_type":"Dedicated","server_os":"Linux","password":true,"vac":true,"version":"7961495","steam_id":85568392924510192,"keywords":["nocrits","nodmgspread","payload","uncletopia"],"game_id":440,"stv_port":27036,"stv_name":"Uncletopia | London | 3 | All Maps | STV","players":[{"user_id":539,"name":"hibvmn","steam_id":76561197996468677,"connected_time":187000000000,"state":"active","ping":72},{"user_id":517,"name":":\u003e////:D\u003e_\u003c^^","steam_id":76561198280507478,"connected_time":2565000000000,"state":"active","ping":61},{"user_id":507,"name":"rummy","steam_id":76561197997573379,"connected_time":2621000000000,"state":"active","ping":46},{"user_id":523,"name":"AlexLordFire","steam_id":76561198328609815,"connected_time":1066000000000,"state":"active","ping":65},{"user_id":524,"name":"D_Ink","steam_id":76561198267716662,"connected_time":1017000000000,"state":"active","ping":37},{"user_id":522,"name":"tapeworms!","steam_id":76561198069649097,"connected_time":1703000000000,"state":"active","ping":60},{"user_id":525,"name":"Duke Fishlord","steam_id":76561198079928327,"connected_time":999000000000,"state":"active","ping":72},{"user_id":511,"name":"Doctor Livesey","steam_id":76561198828037534,"connected_time":2593000000000,"state":"active","ping":65},{"user_id":528,"name":"METhOphetamine","steam_id":76561198068216224,"connected_time":822000000000,"state":"active","ping":60},{"user_id":510,"name":"Indomitable Truck-sama","steam_id":76561198826861582,"connected_time":2609000000000,"state":"active","ping":68},{"user_id":158,"name":"HoneyBe_","steam_id":76561198288930154,"connected_time":19742000000000,"state":"active","ping":61},{"user_id":375,"name":"Lemon","steam_id":76561198188535947,"connected_time":8724000000000,"state":"active","ping":70},{"user_id":506,"name":"No Status","steam_id":76561198119526557,"connected_time":2625000000000,"state":"active","ping":43},{"user_id":538,"name":"Gubbly Bubbins","steam_id":76561198101451654,"connected_time":471000000000,"state":"active","ping":46},{"user_id":512,"name":"Cobalt","steam_id":76561198349228196,"connected_time":2591000000000,"state":"active","ping":55},{"user_id":529,"name":"install gentoo","steam_id":76561198185257982,"connected_time":801000000000,"state":"active","ping":94},{"user_id":534,"name":"smiley","steam_id":76561198042245117,"connected_time":752000000000,"state":"active","ping":63},{"user_id":536,"name":"Elphelt","steam_id":76561198311044984,"connected_time":565000000000,"state":"active","ping":77},{"user_id":540,"name":"Desnot","steam_id":76561198862581894,"connected_time":108000000000,"state":"active","ping":77},{"user_id":535,"name":"Subterranean","steam_id":76561198106684566,"connected_time":732000000000,"state":"active","ping":78},{"user_id":505,"name":"MovingIsOverRated","steam_id":76561198385633292,"connected_time":2707000000000,"state":"active","ping":67},{"user_id":515,"name":"Skrankly","steam_id":76561199001837576,"connected_time":2576000000000,"state":"active","ping":47},{"user_id":516,"name":"Cosmetic brain","steam_id":76561198055936410,"connected_time":2569000000000,"state":"active","ping":78},{"user_id":520,"name":"glyph","steam_id":76561197980736364,"connected_time":2491000000000,"state":"active","ping":88}]},{"server_id":321,"name":"Uncletopia | London | 4 | All Maps","name_short":"lon-4","host":"lon-1.uk.uncletopia.com","port":27045,"enabled":true,"region":"eu","cc":"gb","latitude":51.509865,"longitude":-0.118092,"reserved":0,"last_update":"0001-01-01T00:00:00Z","name_a2s":"Uncletopia | London | 4 | All Maps","protocol":17,"map":"cp_snakewater_final1","folder":"tf","game":"Team Fortress","app_id":440,"player_count":22,"max_players":24,"Bots":0,"server_type":"Dedicated","server_os":"Linux","password":true,"vac":true,"version":"7961495","steam_id":85568392924510193,"keywords":["cp","nocrits","nodmgspread","uncletopia"],"game_id":440,"stv_port":27046,"stv_name":"Uncletopia | London | 4 | All Maps | STV","players":[{"user_id":379,"name":"iq drops","steam_id":76561198035795130,"connected_time":1124000000000,"state":"active","ping":57},{"user_id":323,"name":"The Burger","steam_id":76561198124463930,"connected_time":5021000000000,"state":"active","ping":44},{"user_id":405,"name":"un puie","steam_id":76561198084056439,"connected_time":55000000000,"state":"active","ping":32},{"user_id":407,"name":"haydar198112","steam_id":76561198131197590,"connected_time":27000000000,"state":"active","ping":130},{"user_id":376,"name":"Gameing","steam_id":76561198199687607,"connected_time":1336000000000,"state":"active","ping":70},{"user_id":381,"name":"TrashVerN","steam_id":76561197977444051,"connected_time":1043000000000,"state":"active","ping":66},{"user_id":369,"name":"Yes","steam_id":76561198046729687,"connected_time":2311000000000,"state":"active","ping":50},{"user_id":400,"name":"Nurse=Leave","steam_id":76561198103323356,"connected_time":681000000000,"state":"active","ping":65},{"user_id":382,"name":"McAtka","steam_id":76561198019759329,"connected_time":1036000000000,"state":"active","ping":65},{"user_id":231,"name":"fence_","steam_id":76561198150386379,"connected_time":9103000000000,"state":"active","ping":49},{"user_id":403,"name":"slnc","steam_id":76561198041151496,"connected_time":607000000000,"state":"active","ping":74},{"user_id":345,"name":"CreepyYellowDuck","steam_id":76561198000479387,"connected_time":3688000000000,"state":"active","ping":35},{"user_id":384,"name":"ThatSiegeKid","steam_id":76561198368037656,"connected_time":970000000000,"state":"active","ping":41},{"user_id":406,"name":"aGryphoN","steam_id":76561198245175308,"connected_time":54000000000,"state":"active","ping":57},{"user_id":386,"name":"Superiumentarius","steam_id":76561198081642249,"connected_time":868000000000,"state":"active","ping":60},{"user_id":360,"name":"Khrinde","steam_id":76561198036744526,"connected_time":2697000000000,"state":"active","ping":96},{"user_id":359,"name":"TomNoSocks","steam_id":76561198114071046,"connected_time":2710000000000,"state":"active","ping":64},{"user_id":370,"name":"Captain Puddleboat","steam_id":76561198053913970,"connected_time":2270000000000,"state":"active","ping":55},{"user_id":371,"name":"Ullr","steam_id":76561198140547483,"connected_time":2266000000000,"state":"active","ping":43},{"user_id":388,"name":"Jokerz","steam_id":76561199453766677,"connected_time":832000000000,"state":"active","ping":143},{"user_id":372,"name":"doctor sex","steam_id":76561198029044617,"connected_time":2258000000000,"state":"active","ping":49},{"user_id":402,"name":"Yon","steam_id":76561198098631397,"connected_time":678000000000,"state":"active","ping":148}]},{"server_id":21,"name":"Uncletopia | London | 5 | All Maps","name_short":"lon-5","host":"lon-1.uk.uncletopia.com","port":27055,"enabled":true,"region":"eu","cc":"gb","latitude":51.509865,"longitude":-0.118092,"reserved":0,"last_update":"0001-01-01T00:00:00Z","name_a2s":"Uncletopia | London | 5 | All Maps","protocol":17,"map":"cp_dustbowl","folder":"tf","game":"Team Fortress","app_id":440,"player_count":23,"max_players":24,"Bots":0,"server_type":"Dedicated","server_os":"Linux","password":true,"vac":true,"version":"7961495","steam_id":85568392924742829,"keywords":["cp","nocrits","nodmgspread","uncletopia"],"game_id":440,"stv_port":27056,"stv_name":"Uncletopia | London | 5 | All Maps | STV","players":[{"user_id":116,"name":"(MAC) [BN] Crazyking","steam_id":76561198001668616,"connected_time":4850000000000,"state":"active","ping":74},{"user_id":178,"name":"Conan","steam_id":76561198158321202,"connected_time":284000000000,"state":"active","ping":66},{"user_id":144,"name":"kaelan","steam_id":76561198001425310,"connected_time":1920000000000,"state":"active","ping":75},{"user_id":161,"name":"zulfie","steam_id":76561198117390056,"connected_time":1125000000000,"state":"active","ping":33},{"user_id":153,"name":"biohazard.pt","steam_id":76561198088367808,"connected_time":1731000000000,"state":"active","ping":68},{"user_id":179,"name":"Xiqui","steam_id":76561198818386611,"connected_time":240000000000,"state":"active","ping":80},{"user_id":165,"name":"FliturbiousRex","steam_id":76561199217583334,"connected_time":715000000000,"state":"active","ping":144},{"user_id":163,"name":"DEFENDOR62","steam_id":76561199386703896,"connected_time":1104000000000,"state":"active","ping":54},{"user_id":174,"name":"PP Connoisseur","steam_id":76561198044264963,"connected_time":469000000000,"state":"active","ping":50},{"user_id":180,"name":"Bobo","steam_id":76561198052308399,"connected_time":240000000000,"state":"active","ping":65},{"user_id":147,"name":"Tempest FIN","steam_id":76561198311021830,"connected_time":1816000000000,"state":"active","ping":97},{"user_id":148,"name":"frosty","steam_id":76561198094560834,"connected_time":1814000000000,"state":"active","ping":51},{"user_id":140,"name":"XenBad","steam_id":76561197990719842,"connected_time":2328000000000,"state":"active","ping":45},{"user_id":159,"name":"Dromeka","steam_id":76561198963557200,"connected_time":1293000000000,"state":"active","ping":58},{"user_id":88,"name":"Nag","steam_id":76561197970488206,"connected_time":6273000000000,"state":"active","ping":72},{"user_id":175,"name":"Burpman","steam_id":76561198022897937,"connected_time":465000000000,"state":"active","ping":49},{"user_id":141,"name":"big bug buttz","steam_id":76561198115106008,"connected_time":2317000000000,"state":"active","ping":89},{"user_id":102,"name":"General Petrov","steam_id":76561198027204104,"connected_time":5614000000000,"state":"active","ping":83},{"user_id":171,"name":"[503. ]captain swiftfingers","steam_id":76561198043684517,"connected_time":670000000000,"state":"active","ping":57},{"user_id":176,"name":"AftiksPL","steam_id":76561198875182686,"connected_time":429000000000,"state":"active","ping":98},{"user_id":112,"name":"Demicore","steam_id":76561197976922136,"connected_time":5243000000000,"state":"active","ping":66},{"user_id":181,"name":"Lubrsi","steam_id":76561198040208195,"connected_time":218000000000,"state":"active","ping":54},{"user_id":155,"name":"Silverdarlin","steam_id":76561198118540970,"connected_time":1426000000000,"state":"active","ping":56}]},{"server_id":22,"name":"Uncletopia | London | 6 | All Maps","name_short":"lon-6","host":"lon-1.uk.uncletopia.com","port":27065,"enabled":true,"region":"eu","cc":"gb","latitude":51.509865,"longitude":-0.118092,"reserved":0,"last_update":"0001-01-01T00:00:00Z","name_a2s":"Uncletopia | London | 6 | All Maps","protocol":17,"map":"ctf_turbine","folder":"tf","game":"Team Fortress","app_id":440,"player_count":21,"max_players":24,"Bots":0,"server_type":"Dedicated","server_os":"Linux","password":true,"vac":true,"version":"7961495","steam_id":85568392924742830,"keywords":["ctf","nocrits","nodmgspread","uncletopia"],"game_id":440,"stv_port":27066,"stv_name":"Uncletopia | London | 6 | All Maps | STV","players":[{"user_id":464,"name":"Sondre","steam_id":76561198023013092,"connected_time":651000000000,"state":"active","ping":81},{"user_id":450,"name":"mr.resetti","steam_id":76561198974520642,"connected_time":2486000000000,"state":"active","ping":79},{"user_id":377,"name":"xx_soy_xx","steam_id":76561198333779084,"connected_time":7519000000000,"state":"active","ping":46},{"user_id":417,"name":"OutOfDucks","steam_id":76561198166376227,"connected_time":4787000000000,"state":"active","ping":55},{"user_id":467,"name":"armadillo","steam_id":76561198324656652,"connected_time":21000000000,"state":"active","ping":45},{"user_id":435,"name":"tr4ce","steam_id":76561198085296732,"connected_time":3276000000000,"state":"active","ping":40},{"user_id":427,"name":"Loberless","steam_id":76561198277844777,"connected_time":3789000000000,"state":"active","ping":45},{"user_id":437,"name":"void","steam_id":76561199502712590,"connected_time":3120000000000,"state":"active","ping":59},{"user_id":460,"name":"Vivid","steam_id":76561198346546144,"connected_time":1545000000000,"state":"active","ping":47},{"user_id":439,"name":"Somethingü§ô","steam_id":76561198375358222,"connected_time":3028000000000,"state":"active","ping":53},{"user_id":468,"name":"Mason Troy Adams (Real) (Hunter","steam_id":76561198310010748,"connected_time":10000000000,"state":"active","ping":98},{"user_id":466,"name":"swallowed 10 pennies please hel","steam_id":76561198055816412,"connected_time":186000000000,"state":"active","ping":39},{"user_id":421,"name":"LordTrap.exe","steam_id":76561198318089716,"connected_time":4684000000000,"state":"active","ping":55},{"user_id":469,"name":"jonas","steam_id":76561199441196540,"connected_time":4000000000,"state":"spawning","ping":78},{"user_id":462,"name":"Archer","steam_id":76561198132860299,"connected_time":1505000000000,"state":"active","ping":56},{"user_id":457,"name":"dwarf","steam_id":76561198045099492,"connected_time":1722000000000,"state":"active","ping":106},{"user_id":333,"name":":3","steam_id":76561198169471853,"connected_time":10848000000000,"state":"active","ping":41},{"user_id":422,"name":"Iris","steam_id":76561198430295815,"connected_time":4670000000000,"state":"active","ping":59},{"user_id":452,"name":"The Power","steam_id":76561198060566884,"connected_time":2211000000000,"state":"active","ping":43},{"user_id":391,"name":"Cruduxy","steam_id":76561198108508584,"connected_time":7115000000000,"state":"active","ping":126},{"user_id":451,"name":"Fatmagic Mukbang ASMR","steam_id":76561198063492110,"connected_time":2389000000000,"state":"active","ping":78}]},{"server_id":40,"name":"Uncletopia | London | 7 | Stopwatch","name_short":"lon-7","host":"lon-1.uk.uncletopia.com","port":27075,"enabled":true,"region":"eu","cc":"gb","latitude":51.509865,"longitude":-0.118092,"reserved":0,"last_update":"0001-01-01T00:00:00Z","name_a2s":"Uncletopia | London | 7 | Stopwatch","protocol":17,"map":"workshop/koth_product_final.ugc454272353","folder":"tf","game":"Team Fortress","app_id":440,"player_count":1,"max_players":24,"Bots":0,"server_type":"Dedicated","server_os":"Linux","password":true,"vac":true,"version":"7961495","steam_id":85568392924964314,"keywords":["cp","nocrits","nodmgspread","uncletopia"],"game_id":440,"stv_port":27076,"stv_name":"Uncletopia | London | 7 | Stopwatch | STV","players":[{"user_id":19,"name":"Varthus","steam_id":76561198257492226,"connected_time":2204000000000,"state":"active","ping":62}]},{"server_id":41,"name":"Uncletopia | London | 8 | Community","name_short":"lon-8","host":"lon-1.uk.uncletopia.com","port":27085,"enabled":true,"region":"eu","cc":"gb","latitude":51.509865,"longitude":-0.118092,"reserved":0,"last_update":"0001-01-01T00:00:00Z","name_a2s":"Uncletopia | London | 8 | Community","protocol":17,"map":"workshop/koth_kemptown_rc1.ugc767410655","folder":"tf","game":"Team Fortress","app_id":440,"player_count":0,"max_players":24,"Bots":0,"server_type":"Dedicated","server_os":"Linux","password":true,"vac":true,"version":"7961495","steam_id":85568392924964315,"keywords":["cp","nocrits","nodmgspread","uncletopia"],"game_id":440,"stv_port":27086,"stv_name":"Uncletopia | London | 8 | Community | STV","players":null},{"server_id":300,"name":"Uncletopia | Montr√©al | 1 | One Thousand Uncles","name_short":"mtl-1","host":"mtl-1.ca.uncletopia.com","port":27015,"enabled":true,"region":"us-east","cc":"ca","latitude":45.50889,"longitude":-73.56167,"reserved":0,"last_update":"0001-01-01T00:00:00Z","name_a2s":"","protocol":0,"map":"","folder":"","game":"","app_id":0,"player_count":0,"max_players":0,"Bots":0,"server_type":"","server_os":"","password":false,"vac":false,"version":"","steam_id":0,"keywords":null,"game_id":0,"stv_port":0,"stv_name":"","players":null},{"server_id":301,"name":"Uncletopia | Montr√©al | 2 | One Thousand Uncles","name_short":"mtl-2","host":"mtl-1.ca.uncletopia.com","port":27025,"enabled":true,"region":"us-east","cc":"ca","latitude":45.50889,"longitude":-73.56167,"reserved":0,"last_update":"0001-01-01T00:00:00Z","name_a2s":"","protocol":0,"map":"","folder":"","game":"","app_id":0,"player_count":1,"max_players":0,"Bots":0,"server_type":"","server_os":"","password":false,"vac":false,"version":"","steam_id":0,"keywords":null,"game_id":0,"stv_port":0,"stv_name":"","players":[{"user_id":2,"name":"Willi the Gifter of Chaos","steam_id":76561198066508251,"connected_time":129000000000,"state":"active","ping":56}]},{"server_id":302,"name":"Uncletopia | Montr√©al | 3 | One Thousand Uncles","name_short":"mtl-3","host":"mtl-1.ca.uncletopia.com","port":27035,"enabled":true,"region":"us-east","cc":"ca","latitude":45.50889,"longitude":-73.56167,"reserved":0,"last_update":"0001-01-01T00:00:00Z","name_a2s":"","protocol":0,"map":"","folder":"","game":"","app_id":0,"player_count":5,"max_players":0,"Bots":0,"server_type":"","server_os":"","password":false,"vac":false,"version":"","steam_id":0,"keywords":null,"game_id":0,"stv_port":0,"stv_name":"","players":[{"user_id":71,"name":"nonagon infinity","steam_id":76561198397662124,"connected_time":1498000000000,"state":"active","ping":91},{"user_id":72,"name":"Waaagh!","steam_id":76561197995317887,"connected_time":1231000000000,"state":"active","ping":36},{"user_id":73,"name":"Killer-Of-Night","steam_id":76561198054038830,"connected_time":1201000000000,"state":"active","ping":116},{"user_id":41,"name":"con","steam_id":76561198850438326,"connected_time":4447000000000,"state":"active","ping":54},{"user_id":49,"name":"Grey The Skeleton | GTS","steam_id":76561198288347597,"connected_time":2620000000000,"state":"active","ping":129}]},{"server_id":13,"name":"Uncletopia | New York City | 1 | All Maps","name_short":"nyc-1","host":"nyc-1.us.uncletopia.com","port":27015,"enabled":true,"region":"us-east","cc":"us","latitude":40.73061,"longitude":-73.93524,"reserved":0,"last_update":"0001-01-01T00:00:00Z","name_a2s":"Uncletopia | New York City | 1 | All Maps","protocol":17,"map":"cp_dustbowl","folder":"tf","game":"Team Fortress","app_id":440,"player_count":23,"max_players":24,"Bots":0,"server_type":"Dedicated","server_os":"Linux","password":true,"vac":true,"version":"7961495","steam_id":85568392924469993,"keywords":["cp","nocrits","nodmgspread","uncletopia"],"game_id":440,"stv_port":27016,"stv_name":"Uncletopia | New York City | 1 | All Maps | STV","players":[{"user_id":96,"name":"R01lAttack","steam_id":76561199077037502,"connected_time":2453000000000,"state":"active","ping":72},{"user_id":103,"name":"you forgot the sauce","steam_id":76561198387016713,"connected_time":1529000000000,"state":"active","ping":56},{"user_id":46,"name":"FrosbeeChill","steam_id":76561198182510862,"connected_time":5531000000000,"state":"active","ping":55},{"user_id":117,"name":"BeerPowder","steam_id":76561198058129400,"connected_time":243000000000,"state":"active","ping":50},{"user_id":47,"name":"duskdotexe","steam_id":76561199353965946,"connected_time":5527000000000,"state":"active","ping":43},{"user_id":119,"name":"bdkaine1","steam_id":76561198133545467,"connected_time":41000000000,"state":"active","ping":70},{"user_id":49,"name":"a cow","steam_id":76561198342340057,"connected_time":5394000000000,"state":"active","ping":79},{"user_id":57,"name":"Lemon Soda","steam_id":76561198140208761,"connected_time":4988000000000,"state":"active","ping":50},{"user_id":99,"name":"David Blaine","steam_id":76561198980560578,"connected_time":2434000000000,"state":"active","ping":71},{"user_id":107,"name":"ElElliot","steam_id":76561198842278840,"connected_time":1396000000000,"state":"active","ping":67},{"user_id":105,"name":"Mkwhackertracker","steam_id":76561198128343704,"connected_time":1413000000000,"state":"active","ping":78},{"user_id":118,"name":"TheFallenAngel","steam_id":76561198162437125,"connected_time":104000000000,"state":"active","ping":78},{"user_id":120,"name":"feleven","steam_id":76561198853721046,"connected_time":39000000000,"state":"active","ping":53},{"user_id":86,"name":"Ice || Black „ÉÑ","steam_id":76561198308680638,"connected_time":3797000000000,"state":"active","ping":59},{"user_id":113,"name":"Raisincineroar","steam_id":76561198116295334,"connected_time":729000000000,"state":"active","ping":61},{"user_id":102,"name":"StretchySnail59","steam_id":76561198073535005,"connected_time":2246000000000,"state":"active","ping":67},{"user_id":115,"name":"SciFurLycan","steam_id":76561198809333252,"connected_time":308000000000,"state":"active","ping":79},{"user_id":89,"name":"Pugzilla","steam_id":76561198108088960,"connected_time":3583000000000,"state":"active","ping":46},{"user_id":101,"name":"DiscoTraveler","steam_id":76561199240168088,"connected_time":2343000000000,"state":"active","ping":35},{"user_id":88,"name":"Neacrock","steam_id":76561199178338856,"connected_time":3598000000000,"state":"active","ping":60},{"user_id":110,"name":"Acro","steam_id":76561198092451804,"connected_time":1356000000000,"state":"active","ping":77},{"user_id":104,"name":"robe","steam_id":76561198238166694,"connected_time":1528000000000,"state":"active","ping":389},{"user_id":74,"name":"Fly_Johnson","steam_id":76561198882285873,"connected_time":4352000000000,"state":"active","ping":50}]},{"server_id":14,"name":"Uncletopia | New York City | 2 | All Maps","name_short":"nyc-2","host":"nyc-1.us.uncletopia.com","port":27025,"enabled":true,"region":"us-east","cc":"us","latitude":40.73061,"longitude":-73.93524,"reserved":0,"last_update":"0001-01-01T00:00:00Z","name_a2s":"Uncletopia | New York City | 2 | All Maps","protocol":17,"map":"pl_badwater","folder":"tf","game":"Team Fortress","app_id":440,"player_count":24,"max_players":24,"Bots":0,"server_type":"Dedicated","server_os":"Linux","password":true,"vac":true,"version":"7961495","steam_id":85568392924469994,"keywords":["nocrits","nodmgspread","payload","uncletopia"],"game_id":440,"stv_port":27026,"stv_name":"Uncletopia | New York City | 2 | All Maps | STV","players":[{"user_id":217,"name":"the scamper","steam_id":76561199153963849,"connected_time":1561000000000,"state":"active","ping":76},{"user_id":224,"name":"ndvr","steam_id":76561199379200102,"connected_time":1059000000000,"state":"active","ping":54},{"user_id":225,"name":"wowie","steam_id":76561199258176303,"connected_time":712000000000,"state":"active","ping":66},{"user_id":206,"name":"toastman","steam_id":76561198207073088,"connected_time":2684000000000,"state":"active","ping":70},{"user_id":221,"name":"A Low-Hanging Ceiling","steam_id":76561198894586082,"connected_time":1479000000000,"state":"active","ping":65},{"user_id":202,"name":"dave :3","steam_id":76561198135961731,"connected_time":2922000000000,"state":"active","ping":101},{"user_id":187,"name":"Whyamidoingthisaaaa","steam_id":76561199168837342,"connected_time":3857000000000,"state":"active","ping":52},{"user_id":154,"name":"reis","steam_id":76561199232952016,"connected_time":7461000000000,"state":"active","ping":167},{"user_id":204,"name":"Sir Quacksalot","steam_id":76561198048942777,"connected_time":2746000000000,"state":"active","ping":86},{"user_id":199,"name":"Squiliam","steam_id":76561198025278006,"connected_time":3165000000000,"state":"active","ping":72},{"user_id":197,"name":"bigSMALL","steam_id":76561198964101426,"connected_time":3405000000000,"state":"active","ping":37},{"user_id":167,"name":"Rennsellaer","steam_id":76561198096207580,"connected_time":6208000000000,"state":"active","ping":118},{"user_id":226,"name":"Jason Gaming","steam_id":76561198215467601,"connected_time":679000000000,"state":"active","ping":72},{"user_id":227,"name":"kiwiichie ‚Çç·ê¢·ê¢‚Çé","steam_id":76561198315449521,"connected_time":671000000000,"state":"active","ping":85},{"user_id":191,"name":"corntent","steam_id":76561198824847948,"connected_time":3811000000000,"state":"active","ping":45},{"user_id":185,"name":"Smiley","steam_id":76561198056430811,"connected_time":3915000000000,"state":"active","ping":72},{"user_id":219,"name":"lvl.2 goblin","steam_id":76561198323380643,"connected_time":1549000000000,"state":"active","ping":54},{"user_id":222,"name":"Kool-Aid Jammer","steam_id":76561198036032168,"connected_time":1457000000000,"state":"active","ping":64},{"user_id":203,"name":"Braamklauw","steam_id":76561198283287697,"connected_time":2766000000000,"state":"active","ping":142},{"user_id":195,"name":"The Grim Heaper","steam_id":76561197987759101,"connected_time":3739000000000,"state":"active","ping":128},{"user_id":216,"name":"guy","steam_id":76561198079925551,"connected_time":1792000000000,"state":"active","ping":45},{"user_id":220,"name":"Macthewolf","steam_id":76561199175709390,"connected_time":1543000000000,"state":"active","ping":137},{"user_id":177,"name":"The Guy","steam_id":76561198799183693,"connected_time":5101000000000,"state":"active","ping":84},{"user_id":158,"name":"listening to doja cat rn","steam_id":76561198326083509,"connected_time":7232000000000,"state":"active","ping":99}]},{"server_id":15,"name":"Uncletopia | New York City | 3 | Stopwatch","name_short":"nyc-3","host":"nyc-1.us.uncletopia.com","port":27035,"enabled":true,"region":"us-east","cc":"us","latitude":40.73061,"longitude":-73.93524,"reserved":0,"last_update":"0001-01-01T00:00:00Z","name_a2s":"Uncletopia | New York City | 3 | Stopwatch","protocol":17,"map":"workshop/pl_barnblitz_pro7.ugc582280235","folder":"tf","game":"Team Fortress","app_id":440,"player_count":0,"max_players":24,"Bots":0,"server_type":"Dedicated","server_os":"Linux","password":true,"vac":true,"version":"7961495","steam_id":85568392924742820,"keywords":["nocrits","nodmgspread","payload","uncletopia"],"game_id":440,"stv_port":27036,"stv_name":"Uncletopia | New York City | 3 | Stopwatch | STV","players":null},{"server_id":16,"name":"Uncletopia | New York City | 4 | Community","name_short":"nyc-4","host":"nyc-1.us.uncletopia.com","port":27045,"enabled":true,"region":"us-east","cc":"us","latitude":40.73061,"longitude":-73.93524,"reserved":0,"last_update":"0001-01-01T00:00:00Z","name_a2s":"Uncletopia | New York City | 4 | Community","protocol":17,"map":"workshop/koth_ramjam_rc1.ugc459778887","folder":"tf","game":"Team Fortress","app_id":440,"player_count":0,"max_players":24,"Bots":0,"server_type":"Dedicated","server_os":"Linux","password":true,"vac":true,"version":"7961495","steam_id":85568392924742821,"keywords":["cp","nocrits","nodmgspread","uncletopia"],"game_id":440,"stv_port":27046,"stv_name":"Uncletopia | New York City | 4 | Community | STV","players":null},{"server_id":142,"name":"Uncletopia | S√£o Paulo | 1 | All Maps","name_short":"sao-1","host":"sao-1.br.uncletopia.com","port":27015,"enabled":true,"region":"sa","cc":"br","latitude":-23.533773,"longitude":-46.62529,"reserved":0,"last_update":"0001-01-01T00:00:00Z","name_a2s":"Uncletopia | S√£o Paulo | 1 | All Maps","protocol":17,"map":"koth_highpass","folder":"tf","game":"Team Fortress","app_id":440,"player_count":0,"max_players":24,"Bots":0,"server_type":"Dedicated","server_os":"Linux","password":true,"vac":true,"version":"7961495","steam_id":85568392924469996,"keywords":["cp","nocrits","nodmgspread","uncletopia"],"game_id":440,"stv_port":27016,"stv_name":"Uncletopia | S√£o Paulo | 1 | All Maps | STV","players":null},{"server_id":143,"name":"Uncletopia | S√£o Paulo | 2 | Community","name_short":"sao-2","host":"sao-2.br.uncletopia.com","port":27015,"enabled":true,"region":"sa","cc":"br","latitude":-23.533773,"longitude":-46.62529,"reserved":0,"last_update":"0001-01-01T00:00:00Z","name_a2s":"Uncletopia | S√£o Paulo | 2 | Community","protocol":17,"map":"workshop/cp_sulfur_rc2.ugc619869471","folder":"tf","game":"Team Fortress","app_id":440,"player_count":0,"max_players":24,"Bots":0,"server_type":"Dedicated","server_os":"Linux","password":true,"vac":true,"version":"7961495","steam_id":85568392924485349,"keywords":["cp","nocrits","nodmgspread","uncletopia"],"game_id":440,"stv_port":27016,"stv_name":"Uncletopia | S√£o Paulo | 2 | Community | STV","players":null},{"server_id":7,"name":"Uncletopia | Seattle | 1 | All Maps","name_short":"sea-1","host":"sea-1.us.uncletopia.com","port":27015,"enabled":true,"region":"us-west","cc":"us","latitude":47.608013,"longitude":-122.33517,"reserved":0,"last_update":"0001-01-01T00:00:00Z","name_a2s":"Uncletopia | Seattle | 1 | All Maps","protocol":17,"map":"pl_pier","folder":"tf","game":"Team Fortress","app_id":440,"player_count":24,"max_players":24,"Bots":0,"server_type":"Dedicated","server_os":"Linux","password":true,"vac":true,"version":"7961495","steam_id":85568392924469997,"keywords":["nocrits","nodmgspread","payload","uncletopia"],"game_id":440,"stv_port":27016,"stv_name":"Uncletopia | Seattle | 1 | All Maps | STV","players":[{"user_id":541,"name":"help","steam_id":76561199056338917,"connected_time":595000000000,"state":"active","ping":108},{"user_id":546,"name":"Dongus","steam_id":76561197979056451,"connected_time":111000000000,"state":"active","ping":45},{"user_id":519,"name":"Rat Smoking a big cigar","steam_id":76561198090419068,"connected_time":2101000000000,"state":"active","ping":80},{"user_id":544,"name":"zinnk","steam_id":76561198092081825,"connected_time":280000000000,"state":"active","ping":54},{"user_id":540,"name":"goos  e","steam_id":76561198036774894,"connected_time":618000000000,"state":"active","ping":55},{"user_id":530,"name":"moe","steam_id":76561198929586245,"connected_time":1406000000000,"state":"active","ping":65},{"user_id":545,"name":"juan.png","steam_id":76561199276894516,"connected_time":126000000000,"state":"active","ping":46},{"user_id":531,"name":"Hakuyer","steam_id":76561198098618247,"connected_time":1284000000000,"state":"active","ping":32},{"user_id":480,"name":"NavyDinosaur","steam_id":76561198088459962,"connected_time":5342000000000,"state":"active","ping":68},{"user_id":542,"name":"Throat Goat","steam_id":76561198132532519,"connected_time":464000000000,"state":"active","ping":75},{"user_id":543,"name":"greens beans","steam_id":76561198153611491,"connected_time":388000000000,"state":"active","ping":44},{"user_id":547,"name":"Thunder","steam_id":76561198097721532,"connected_time":110000000000,"state":"active","ping":78},{"user_id":536,"name":"Seriously Bruh","steam_id":76561198070408485,"connected_time":1068000000000,"state":"active","ping":49},{"user_id":533,"name":"K2f","steam_id":76561198049600563,"connected_time":1209000000000,"state":"active","ping":81},{"user_id":548,"name":"Mer","steam_id":76561198192171041,"connected_time":107000000000,"state":"active","ping":156},{"user_id":551,"name":"Greskrendtregk","steam_id":76561197969553142,"connected_time":77000000000,"state":"active","ping":51},{"user_id":552,"name":"Set","steam_id":76561198063949642,"connected_time":76000000000,"state":"active","ping":39},{"user_id":471,"name":"Dim","steam_id":76561198061411324,"connected_time":6346000000000,"state":"active","ping":125},{"user_id":553,"name":"i have an rsi","steam_id":76561198020322241,"connected_time":68000000000,"state":"spawning","ping":63},{"user_id":537,"name":"Urby","steam_id":76561199074391666,"connected_time":1030000000000,"state":"active","ping":49},{"user_id":554,"name":"[‚òØ] randomshagz*","steam_id":76561197968666646,"connected_time":32000000000,"state":"active","ping":91},{"user_id":526,"name":"DaddyGalaxy","steam_id":76561198139697796,"connected_time":1682000000000,"state":"active","ping":58},{"user_id":481,"name":"fishtank.live","steam_id":76561198280085840,"connected_time":5341000000000,"state":"active","ping":76},{"user_id":498,"name":"Shark Sandwich","steam_id":76561198025007938,"connected_time":3530000000000,"state":"active","ping":51}]},{"server_id":119,"name":"Uncletopia | Seattle | 2 | All Maps","name_short":"sea-2","host":"sea-1.us.uncletopia.com","port":27025,"enabled":true,"region":"us-west","cc":"us","latitude":47.608013,"longitude":-122.33517,"reserved":0,"last_update":"0001-01-01T00:00:00Z","name_a2s":"Uncletopia | Seattle | 2 | All Maps","protocol":17,"map":"koth_cascade","folder":"tf","game":"Team Fortress","app_id":440,"player_count":0,"max_players":24,"Bots":0,"server_type":"Dedicated","server_os":"Linux","password":true,"vac":true,"version":"7961495","steam_id":85568392924469998,"keywords":["cp","nocrits","nodmgspread","uncletopia"],"game_id":440,"stv_port":27026,"stv_name":"Uncletopia | Seattle | 2 | All Maps | STV","players":null},{"server_id":406,"name":"Uncletopia | Seattle | 3 | Stopwatch","name_short":"sea-3","host":"sea-1.us.uncletopia.com","port":27035,"enabled":true,"region":"us-west","cc":"us","latitude":47.608013,"longitude":-122.33517,"reserved":0,"last_update":"0001-01-01T00:00:00Z","name_a2s":"Uncletopia | Seattle | 3 | Stopwatch","protocol":17,"map":"pl_pier","folder":"tf","game":"Team Fortress","app_id":440,"player_count":0,"max_players":24,"Bots":0,"server_type":"Dedicated","server_os":"Linux","password":true,"vac":true,"version":"7961495","steam_id":85568392924515217,"keywords":["nocrits","nodmgspread","payload","uncletopia"],"game_id":440,"stv_port":27036,"stv_name":"Uncletopia | Seattle | 3 | Stopwatch | STV","players":null},{"server_id":17,"name":"Uncletopia | San Francisco | 1 | All Maps","name_short":"sfo-1","host":"sfo-1.us.uncletopia.com","port":27015,"enabled":true,"region":"us-west","cc":"us","latitude":37.77397,"longitude":-122.4313,"reserved":0,"last_update":"0001-01-01T00:00:00Z","name_a2s":"Uncletopia | San Francisco | 1 | All Maps","protocol":17,"map":"koth_cascade","folder":"tf","game":"Team Fortress","app_id":440,"player_count":0,"max_players":24,"Bots":0,"server_type":"Dedicated","server_os":"Linux","password":true,"vac":true,"version":"7961495","steam_id":85568392924469999,"keywords":["cp","nocrits","nodmgspread","uncletopia"],"game_id":440,"stv_port":27016,"stv_name":"Uncletopia | San Francisco | 1 | All Maps | STV","players":null},{"server_id":18,"name":"Uncletopia | San Francisco | 2 | All Maps","name_short":"sfo-2","host":"sfo-1.us.uncletopia.com","port":27025,"enabled":true,"region":"us-west","cc":"us","latitude":37.77397,"longitude":-122.4313,"reserved":0,"last_update":"0001-01-01T00:00:00Z","name_a2s":"Uncletopia | San Francisco | 2 | All Maps","protocol":17,"map":"koth_highpass","folder":"tf","game":"Team Fortress","app_id":440,"player_count":0,"max_players":24,"Bots":0,"server_type":"Dedicated","server_os":"Linux","password":true,"vac":true,"version":"7961495","steam_id":85568392924470000,"keywords":["cp","nocrits","nodmgspread","uncletopia"],"game_id":440,"stv_port":27026,"stv_name":"Uncletopia | San Francisco | 2 | All Maps | STV","players":null},{"server_id":19,"name":"Uncletopia | San Francisco | 3 | Stopwatch","name_short":"sfo-3","host":"sfo-1.us.uncletopia.com","port":27035,"enabled":true,"region":"us-west","cc":"us","latitude":37.77397,"longitude":-122.4313,"reserved":0,"last_update":"0001-01-01T00:00:00Z","name_a2s":"Uncletopia | San Francisco | 3 | Stopwatch","protocol":17,"map":"pl_pier","folder":"tf","game":"Team Fortress","app_id":440,"player_count":0,"max_players":24,"Bots":0,"server_type":"Dedicated","server_os":"Linux","password":true,"vac":true,"version":"7961495","steam_id":85568392924742824,"keywords":["nocrits","nodmgspread","payload","uncletopia"],"game_id":440,"stv_port":27036,"stv_name":"Uncletopia | San Francisco | 3 | Stopwatch | STV","players":null},{"server_id":20,"name":"Uncletopia | San Francisco | 4 | Community","name_short":"sfo-4","host":"sfo-1.us.uncletopia.com","port":27045,"enabled":true,"region":"us-west","cc":"us","latitude":37.77397,"longitude":-122.4313,"reserved":0,"last_update":"0001-01-01T00:00:00Z","name_a2s":"Uncletopia | San Francisco | 4 | Community","protocol":17,"map":"pl_pier","folder":"tf","game":"Team Fortress","app_id":440,"player_count":0,"max_players":24,"Bots":0,"server_type":"Dedicated","server_os":"Linux","password":true,"vac":true,"version":"7961495","steam_id":85568392924742826,"keywords":["nocrits","nodmgspread","payload","uncletopia"],"game_id":440,"stv_port":27046,"stv_name":"Uncletopia | San Francisco | 4 | Community | STV","players":null},{"server_id":141,"name":"Uncletopia | Sydney | 1 | All Maps","name_short":"syd-1","host":"syd-1.au.uncletopia.com","port":27015,"enabled":true,"region":"au","cc":"au","latitude":-33.865143,"longitude":151.2099,"reserved":0,"last_update":"0001-01-01T00:00:00Z","name_a2s":"Uncletopia | Sydney | 1 | All Maps","protocol":17,"map":"koth_viaduct","folder":"tf","game":"Team Fortress","app_id":440,"player_count":0,"max_players":24,"Bots":0,"server_type":"Dedicated","server_os":"Linux","password":true,"vac":true,"version":"7961495","steam_id":85568392924470001,"keywords":["cp","nocrits","nodmgspread","uncletopia"],"game_id":440,"stv_port":27016,"stv_name":"Uncletopia | Sydney | 1 | All Maps | STV","players":null},{"server_id":123,"name":"Uncletopia | Sydney | 2 | All Maps","name_short":"syd-2","host":"syd-1.au.uncletopia.com","port":27025,"enabled":true,"region":"au","cc":"au","latitude":-33.865143,"longitude":151.2099,"reserved":0,"last_update":"0001-01-01T00:00:00Z","name_a2s":"Uncletopia | Sydney | 2 | All Maps","protocol":17,"map":"koth_lakeside_final","folder":"tf","game":"Team Fortress","app_id":440,"player_count":0,"max_players":24,"Bots":0,"server_type":"Dedicated","server_os":"Linux","password":true,"vac":true,"version":"7961495","steam_id":85568392924470002,"keywords":["cp","nocrits","nodmgspread","uncletopia"],"game_id":440,"stv_port":27026,"stv_name":"Uncletopia | Sydney | 2 | All Maps | STV","players":null},{"server_id":395,"name":"Uncletopia | Sydney | 3 | All Maps","name_short":"syd-3","host":"syd-1.au.uncletopia.com","port":27035,"enabled":true,"region":"au","cc":"au","latitude":-33.865143,"longitude":151.2099,"reserved":0,"last_update":"0001-01-01T00:00:00Z","name_a2s":"Uncletopia | Sydney | 3 | All Maps","protocol":17,"map":"pl_frontier_final","folder":"tf","game":"Team Fortress","app_id":440,"player_count":0,"max_players":24,"Bots":0,"server_type":"Dedicated","server_os":"Linux","password":true,"vac":true,"version":"7961495","steam_id":85568392925194467,"keywords":["nocrits","nodmgspread","payload","uncletopia"],"game_id":440,"stv_port":27036,"stv_name":"Uncletopia | Sydney | 3 | All Maps | STV","players":null},{"server_id":396,"name":"Uncletopia | Sydney | 4 | All Maps","name_short":"syd-4","host":"syd-1.au.uncletopia.com","port":27045,"enabled":true,"region":"au","cc":"au","latitude":-33.865143,"longitude":151.2099,"reserved":0,"last_update":"0001-01-01T00:00:00Z","name_a2s":"Uncletopia | Sydney | 4 | All Maps","protocol":17,"map":"cp_process_final","folder":"tf","game":"Team Fortress","app_id":440,"player_count":0,"max_players":24,"Bots":0,"server_type":"Dedicated","server_os":"Linux","password":true,"vac":true,"version":"7961495","steam_id":85568392925397958,"keywords":["cp","nocrits","nodmgspread","uncletopia"],"game_id":440,"stv_port":27046,"stv_name":"Uncletopia | Sydney | 4 | All Maps | STV","players":null},{"server_id":58,"name":"Uncletopia | Sydney | 5 | Stopwatch","name_short":"syd-5","host":"syd-1.au.uncletopia.com","port":27055,"enabled":true,"region":"au","cc":"au","latitude":-33.865143,"longitude":151.2099,"reserved":0,"last_update":"0001-01-01T00:00:00Z","name_a2s":"Uncletopia | Sydney | 5 | Stopwatch","protocol":17,"map":"pl_frontier_final","folder":"tf","game":"Team Fortress","app_id":440,"player_count":0,"max_players":24,"Bots":0,"server_type":"Dedicated","server_os":"Linux","password":true,"vac":true,"version":"7961495","steam_id":85568392925397959,"keywords":["nocrits","nodmgspread","payload","uncletopia"],"game_id":440,"stv_port":27056,"stv_name":"Uncletopia | Sydney | 5 | Stopwatch | STV","players":null},{"server_id":59,"name":"Uncletopia | Sydney | 6 | Community","name_short":"syd-6","host":"syd-1.au.uncletopia.com","port":27065,"enabled":true,"region":"au","cc":"au","latitude":-33.865143,"longitude":151.2099,"reserved":0,"last_update":"0001-01-01T00:00:00Z","name_a2s":"Uncletopia | Sydney | 6 | Community","protocol":17,"map":"cp_sunshine","folder":"tf","game":"Team Fortress","app_id":440,"player_count":0,"max_players":24,"Bots":0,"server_type":"Dedicated","server_os":"Linux","password":true,"vac":true,"version":"7961495","steam_id":85568392925397960,"keywords":["cp","nocrits","nodmgspread","uncletopia"],"game_id":440,"stv_port":27066,"stv_name":"Uncletopia | Sydney | 6 | Community | STV","players":null},{"server_id":49,"name":"Uncletopia | Warsaw | 1 | One Thousand Uncles","name_short":"waw-1","host":"waw-1.pl.uncletopia.com","port":27015,"enabled":true,"region":"eu","cc":"pl","latitude":52.2297,"longitude":21.017532,"reserved":0,"last_update":"0001-01-01T00:00:00Z","name_a2s":"Uncletopia | Warsaw | 1 | One Thousand Uncles","protocol":17,"map":"pl_goldrush","folder":"tf","game":"Team Fortress","app_id":440,"player_count":25,"max_players":32,"Bots":16,"server_type":"Dedicated","server_os":"Linux","password":true,"vac":true,"version":"7961495","steam_id":85568392925397850,"keywords":["alltalk","bots","danepve","increased_maxplayers","nocrits","norespawntime","payload","uncletopia"],"game_id":440,"stv_port":0,"stv_name":"","players":[{"user_id":613,"name":"Fritz","steam_id":76561198210105445,"connected_time":94000000000,"state":"active","ping":60},{"user_id":609,"name":"Voxiit","steam_id":76561198060319116,"connected_time":1127000000000,"state":"active","ping":70},{"user_id":614,"name":"plaz","steam_id":76561198394017103,"connected_time":2000000000,"state":"spawning","ping":99},{"user_id":536,"name":"yes man","steam_id":76561199403589748,"connected_time":6351000000000,"state":"active","ping":155},{"user_id":611,"name":"( Õ†¬∞ Õü ñ Õ°¬∞)","steam_id":76561199362861027,"connected_time":953000000000,"state":"active","ping":312},{"user_id":552,"name":"dodge","steam_id":76561198085296668,"connected_time":4109000000000,"state":"active","ping":68},{"user_id":554,"name":"I.C. Wiener","steam_id":76561197999912254,"connected_time":4004000000000,"state":"active","ping":52},{"user_id":587,"name":"froglids","steam_id":76561198045466919,"connected_time":2687000000000,"state":"active","ping":45},{"user_id":556,"name":"Dennis Reynolds","steam_id":76561197960371259,"connected_time":3985000000000,"state":"active","ping":162}]},{"server_id":50,"name":"Uncletopia | Warsaw | 2 | One Thousand Uncles","name_short":"waw-2","host":"waw-1.pl.uncletopia.com","port":27025,"enabled":true,"region":"eu","cc":"pl","latitude":52.2297,"longitude":21.017532,"reserved":0,"last_update":"0001-01-01T00:00:00Z","name_a2s":"Uncletopia | Warsaw | 2 | One Thousand Uncles","protocol":17,"map":"cp_egypt_final","folder":"tf","game":"Team Fortress","app_id":440,"player_count":0,"max_players":32,"Bots":0,"server_type":"Dedicated","server_os":"Linux","password":true,"vac":true,"version":"7961495","steam_id":85568392925397851,"keywords":["alltalk","cp","danepve","increased_maxplayers","nocrits","norespawntime","uncletopia"],"game_id":440,"stv_port":0,"stv_name":"","players":null},{"server_id":51,"name":"Uncletopia | Warsaw | 3 | All Maps","name_short":"waw-3","host":"waw-1.pl.uncletopia.com","port":27035,"enabled":true,"region":"eu","cc":"pl","latitude":52.2297,"longitude":21.017532,"reserved":0,"last_update":"0001-01-01T00:00:00Z","name_a2s":"Uncletopia | Warsaw | 3 | All Maps","protocol":17,"map":"cp_dustbowl","folder":"tf","game":"Team Fortress","app_id":440,"player_count":0,"max_players":24,"Bots":0,"server_type":"Dedicated","server_os":"Linux","password":true,"vac":true,"version":"7961495","steam_id":85568392925397852,"keywords":["cp","nocrits","nodmgspread","uncletopia"],"game_id":440,"stv_port":27036,"stv_name":"Uncletopia | Warsaw | 3 | All Maps | STV","players":null},{"server_id":52,"name":"Uncletopia | Warsaw | 4 | All Maps","name_short":"waw-4","host":"waw-1.pl.uncletopia.com","port":27045,"enabled":true,"region":"eu","cc":"pl","latitude":52.2297,"longitude":21.017532,"reserved":0,"last_update":"0001-01-01T00:00:00Z","name_a2s":"Uncletopia | Warsaw | 4 | All Maps","protocol":17,"map":"cp_coldfront","folder":"tf","game":"Team Fortress","app_id":440,"player_count":0,"max_players":24,"Bots":0,"server_type":"Dedicated","server_os":"Linux","password":true,"vac":true,"version":"7961495","steam_id":85568392925397853,"keywords":["cp","nocrits","nodmgspread","uncletopia"],"game_id":440,"stv_port":27046,"stv_name":"Uncletopia | Warsaw | 4 | All Maps | STV","players":null},{"server_id":53,"name":"Uncletopia | Warsaw | 5 | Stopwatch","name_short":"waw-5","host":"waw-1.pl.uncletopia.com","port":27055,"enabled":true,"region":"eu","cc":"pl","latitude":52.2297,"longitude":21.017532,"reserved":0,"last_update":"0001-01-01T00:00:00Z","name_a2s":"Uncletopia | Warsaw | 5 | Stopwatch","protocol":17,"map":"workshop/pl_badwater_pro_v12.ugc2142942074","folder":"tf","game":"Team Fortress","app_id":440,"player_count":0,"max_players":24,"Bots":0,"server_type":"Dedicated","server_os":"Linux","password":true,"vac":true,"version":"7961495","steam_id":85568392925397854,"keywords":["nocrits","nodmgspread","payload","uncletopia"],"game_id":440,"stv_port":27056,"stv_name":"Uncletopia | Warsaw | 5 | Stopwatch | STV","players":null},{"server_id":54,"name":"Uncletopia | Warsaw | 6 | Community","name_short":"waw-6","host":"waw-1.pl.uncletopia.com","port":27065,"enabled":true,"region":"eu","cc":"pl","latitude":52.2297,"longitude":21.017532,"reserved":0,"last_update":"0001-01-01T00:00:00Z","name_a2s":"Uncletopia | Warsaw | 6 | Community","protocol":17,"map":"workshop/rd_asteroid_redux_b1.ugc2154902912","folder":"tf","game":"Team Fortress","app_id":440,"player_count":0,"max_players":24,"Bots":0,"server_type":"Dedicated","server_os":"Linux","password":true,"vac":true,"version":"7961495","steam_id":85568392925397856,"keywords":["beta","nocrits","nodmgspread","rd","uncletopia"],"game_id":440,"stv_port":27066,"stv_name":"Uncletopia | Warsaw | 6 | Community | STV","players":null}]}